timestamp,timestamp_sample,gps_hvel[0],gps_hvel[1],gps_vvel,gps_hpos[0],gps_hpos[1],gps_vpos,ev_hvel[0],ev_hvel[1],ev_vvel,ev_hpos[0],ev_hpos[1],ev_vpos,rng_vpos,baro_vpos,aux_hvel[0],aux_hvel[1],aux_vvel,flow[0],flow[1],heading,mag_field[0],mag_field[1],mag_field[2],drag[0],drag[1],airspeed,beta,hagl,hagl_rate
17179213,17078625,0.016750144,-7.7467485e-05,0.008204941,0.06749059,0.0027827495,0.0,0.0,0.0,0.0,0.0,0.0,0.0,0.0,-0.21941566,0.0,0.0,nan,0.0,0.0,-0.00058221817,0.0,0.0,0.0,0.0,0.0,0.0,0.0,0.0,0.0
17678658,17578172,-0.013404528,-0.00850378,0.008776331,0.060262643,0.0024791062,0.0,0.0,0.0,0.0,0.0,0.0,0.0,0.0,-0.30466652,0.0,0.0,nan,0.0,0.0,-0.0010585785,0.0,0.0,0.0,0.0,0.0,0.0,0.0,0.0,0.0
18178446,18077718,0.009660828,-0.0018000415,-0.045066375,0.07192714,0.0022225007,0.0,0.0,0.0,0.0,0.0,0.0,0.0,0.0,0.032823563,0.0,0.0,nan,0.0,0.0,0.00069975853,0.0,0.0,0.0,0.0,0.0,0.0,0.0,0.0,0.0
18677854,18577266,-0.0072844154,-0.021345368,-0.04090722,0.07472531,0.0018162937,0.0,0.0,0.0,0.0,0.0,0.0,0.0,0.0,0.1969738,0.0,0.0,nan,0.0,0.0,-0.00086688995,0.0,0.0,0.0,0.0,0.0,0.0,0.0,0.0,0.0
19177369,19076813,0.026803229,0.00085075723,0.009084336,0.07827205,0.010288214,0.0,0.0,0.0,0.0,0.0,0.0,0.0,0.0,0.021211624,0.0,0.0,nan,0.0,0.0,0.0015511513,0.0,0.0,0.0,0.0,0.0,0.0,0.0,0.0,0.0
19676918,19576361,-0.0061655887,0.004916767,0.0071620303,0.081842855,0.009432634,0.0,0.0,0.0,0.0,0.0,0.0,0.0,0.0,0.005853653,0.0,0.0,nan,0.0,0.0,0.0009918213,0.0,0.0,0.0,0.0,0.0,0.0,0.0,0.0,0.0
20176608,20075909,0.019248761,0.0015753389,0.013109183,0.07663171,0.017321397,0.0,0.0,0.0,0.0,0.0,0.0,0.0,0.0,-0.021421432,0.0,0.0,nan,0.0,0.0,-0.0004146099,0.0,0.0,0.0,0.0,0.0,0.0,0.0,0.0,0.0
20676388,20575582,-0.011909007,-0.011244559,0.010273388,0.07997251,0.024147768,0.0,0.0,0.0,0.0,0.0,0.0,0.0,0.0,-0.03395462,0.0,0.0,nan,0.0,0.0,0.00040125847,0.0,0.0,0.0,0.0,0.0,0.0,0.0,0.0,0.0
21175684,21075130,-0.0035627757,0.019179923,0.014343929,0.084943525,0.031142274,0.0,0.0,0.0,0.0,0.0,0.0,0.0,0.0,0.04593277,0.0,0.0,nan,0.0,0.0,0.0013999939,0.0,0.0,0.0,0.0,0.0,0.0,0.0,0.0,0.0
21675085,21574679,-0.007282655,0.021527873,-0.018789059,0.09155623,0.03818094,0.0,0.0,0.0,0.0,0.0,0.0,0.0,0.0,-0.06459427,0.0,0.0,nan,0.0,0.0,-0.00026607513,0.0,0.0,0.0,0.0,0.0,0.0,0.0,0.0,0.0
22174840,22074228,-0.0075386483,0.0012232946,-0.0028952425,0.0846543,0.0438921,0.0,0.0,0.0,0.0,0.0,0.0,0.0,0.0,0.103284836,0.0,0.0,nan,0.0,0.0,0.00033450127,0.0,0.0,0.0,0.0,0.0,0.0,0.0,0.0,0.0
22674346,22573777,0.0036836178,-0.0008501431,0.051996943,0.06999773,0.05044013,0.0,0.0,0.0,0.0,0.0,0.0,0.0,0.0,0.030433655,0.0,0.0,nan,0.0,0.0,0.002714157,0.0,0.0,0.0,0.0,0.0,0.0,0.0,0.0,0.0
23173862,23073326,0.040391684,-0.0018222044,0.0852626,0.06620897,0.064715356,0.0,0.0,0.0,0.0,0.0,0.0,0.0,0.0,-0.23218536,0.0,0.0,nan,0.0,0.0,-0.00032615662,0.0,0.0,0.0,0.0,0.0,0.0,0.0,0.0,0.0
23673405,23573001,-0.0014389321,-0.0002850294,0.029706355,0.062307134,0.069576986,0.0,0.0,0.0,0.0,0.0,0.0,0.0,0.0,0.09807587,0.0,0.0,nan,0.0,0.0,-0.09444618,0.0,0.0,0.0,0.0,0.0,0.0,0.0,0.0,0.0
24183178,24082541,-0.0011264537,-0.0003968468,-0.023348773,0.058214605,0.07366051,0.0,0.0,0.0,0.0,0.0,0.0,0.0,0.0,0.09931564,0.0,0.0,nan,0.0,0.0,-0.07790613,0.0,0.0,0.0,0.0,0.0,0.0,0.0,0.0,0.0
24683437,24582091,0.017908115,0.009222448,0.012403066,0.06656331,0.070049345,0.0,0.0,0.0,0.0,0.0,0.0,0.0,0.0,0.097948074,0.0,0.0,nan,0.0,0.0,-0.068897724,0.0,0.0,0.0,0.0,0.0,0.0,0.0,0.0,0.0
25172054,25071651,0.009648464,-0.018504776,-0.0136524765,0.06443207,0.0762041,0.0,0.0,0.0,0.0,0.0,0.0,0.0,0.0,-0.15585136,0.0,0.0,nan,0.0,0.0,-0.041821003,0.0,0.0,0.0,0.0,0.0,0.0,0.0,0.0,0.0
25671605,25571201,0.042244315,-0.035652157,-0.059698753,0.07273409,0.07300773,0.0,0.0,0.0,0.0,0.0,0.0,0.0,0.0,-0.06893921,0.0,0.0,nan,0.0,0.0,0.0031085014,0.0,0.0,0.0,0.0,0.0,0.0,0.0,0.0,0.0
26181307,26080743,-0.03524749,0.030735187,0.07467682,0.0682272,0.06982501,0.0,0.0,0.0,0.0,0.0,0.0,0.0,0.0,-0.40306473,0.0,0.0,nan,0.0,0.0,-0.012813091,0.0,0.0,0.0,0.0,0.0,0.0,0.0,0.0,0.0
26680857,26580293,-0.004162877,0.014804461,0.011798356,0.053591385,0.076858655,0.0,0.0,0.0,0.0,0.0,0.0,0.0,0.0,0.013563156,0.0,0.0,nan,0.0,0.0,-0.0073947906,0.0,0.0,0.0,0.0,0.0,0.0,0.0,0.0,0.0
27180440,27079845,0.0010614423,0.020988373,-0.008571906,0.04104711,0.08161633,0.0,0.0,0.0,0.0,0.0,0.0,0.0,0.0,0.17943764,0.0,0.0,nan,0.0,0.0,-0.005629301,0.0,0.0,0.0,0.0,0.0,0.0,0.0,0.0,0.0
27679926,27579396,-0.023641646,0.00048208016,-0.0027906438,0.039993107,0.08792919,0.0,0.0,0.0,0.0,0.0,0.0,0.0,0.0,0.011129379,0.0,0.0,nan,0.0,0.0,-0.0030572414,0.0,0.0,0.0,0.0,0.0,0.0,0.0,0.0,0.0
28179638,28078947,0.0074841795,-0.0008319334,-0.0018066776,0.027704194,0.09281939,0.0,0.0,0.0,0.0,0.0,0.0,0.0,0.0,-0.32079697,0.0,0.0,nan,0.0,0.0,-0.005364895,0.0,0.0,0.0,0.0,0.0,0.0,0.0,0.0,0.0
28679207,28578499,0.0014390226,0.0041046627,0.015457163,0.004477054,0.09767479,0.0,0.0,0.0,0.0,0.0,0.0,0.0,0.0,-0.11541939,0.0,0.0,nan,0.0,0.0,0.003140211,0.0,0.0,0.0,0.0,0.0,0.0,0.0,0.0,0.0
29179568,29078053,-0.008462855,-0.0069906735,0.004572595,0.00452435,0.10303033,0.0,0.0,0.0,0.0,0.0,0.0,0.0,0.0,0.05545807,0.0,0.0,nan,0.0,0.0,-0.006072521,0.0,0.0,0.0,0.0,0.0,0.0,0.0,0.0,0.0
29678253,29577602,0.0020770528,0.007805068,-0.004155218,-0.006202385,0.09969059,0.0,0.0,0.0,0.0,0.0,0.0,0.0,0.0,0.061489105,0.0,0.0,nan,0.0,0.0,0.0008838177,0.0,0.0,0.0,0.0,0.0,0.0,0.0,0.0,0.0
30177610,30077155,-0.022443406,-0.0231971,0.0055204853,-0.017917708,0.10554927,0.0,0.0,0.0,0.0,0.0,0.0,0.0,0.0,0.025066376,0.0,0.0,nan,0.0,0.0,-0.0046942234,0.0,0.0,0.0,0.0,0.0,0.0,0.0,0.0,0.0
30677166,30576707,-0.013868602,0.019333033,0.0049635842,-0.017096281,0.09416631,0.0,0.0,0.0,0.0,0.0,0.0,0.0,0.0,0.046504974,0.0,0.0,nan,0.0,0.0,-0.014092207,0.0,0.0,0.0,0.0,0.0,0.0,0.0,0.0,0.0
31176731,31076259,-0.014442552,0.017271353,-0.00014532474,-0.027736962,0.091401175,0.0,0.0,0.0,0.0,0.0,0.0,0.0,0.0,0.022773743,0.0,0.0,nan,0.0,0.0,-0.003579855,0.0,0.0,0.0,0.0,0.0,0.0,0.0,0.0,0.0
31676223,31575812,0.012398763,0.021014158,0.006094802,-0.026861072,0.08864683,0.0,0.0,0.0,0.0,0.0,0.0,0.0,0.0,0.021408081,0.0,0.0,nan,0.0,0.0,0.0075235367,0.0,0.0,0.0,0.0,0.0,0.0,0.0,0.0,0.0
32175800,32075365,-0.023884024,0.012848245,0.04986225,-0.037557594,0.08606199,0.0,0.0,0.0,0.0,0.0,0.0,0.0,0.0,0.13051414,0.0,0.0,nan,0.0,0.0,0.00157547,0.0,0.0,0.0,0.0,0.0,0.0,0.0,0.0,0.0
32675352,32574918,-0.008637681,-0.0037273858,-0.00074324873,-0.036610372,0.084087394,0.0,0.0,0.0,0.0,0.0,0.0,0.0,0.0,-0.100969315,0.0,0.0,nan,0.0,0.0,0.0045580864,0.0,0.0,0.0,0.0,0.0,0.0,0.0,0.0,0.0
33174971,33074471,-0.007796898,-0.014523733,-0.018547043,-0.0352171,0.08152678,0.0,0.0,0.0,0.0,0.0,0.0,0.0,0.0,-0.16286087,0.0,0.0,nan,0.0,0.0,0.0024223328,0.0,0.0,0.0,0.0,0.0,0.0,0.0,0.0,0.0
33674429,33574024,0.01157492,0.012084956,-0.027606145,-0.045986474,0.07976522,0.0,0.0,0.0,0.0,0.0,0.0,0.0,0.0,0.1733284,0.0,0.0,nan,0.0,0.0,-0.008466005,0.0,0.0,0.0,0.0,0.0,0.0,0.0,0.0,0.0
34173981,34073578,0.022009265,0.00994055,0.018790858,-0.033788376,0.0856391,0.0,0.0,0.0,0.0,0.0,0.0,0.0,0.0,0.087768555,0.0,0.0,nan,0.0,0.0,0.005647421,0.0,0.0,0.0,0.0,0.0,0.0,0.0,0.0,0.0
34673619,34573131,-0.0017303071,0.025093265,0.006024306,-0.043967605,0.083503105,0.0,0.0,0.0,0.0,0.0,0.0,0.0,0.0,0.0015678406,0.0,0.0,nan,0.0,0.0,-0.05743885,0.0,0.0,0.0,0.0,0.0,0.0,0.0,0.0,0.0
35173146,35072685,0.038178377,0.013491167,0.012284315,-0.043671146,0.072892904,0.0,0.0,0.0,0.0,0.0,0.0,0.0,0.0,-0.16550636,0.0,0.0,nan,0.0,0.0,-0.0757637,0.0,0.0,0.0,0.0,0.0,0.0,0.0,0.0,0.0
35672642,35572239,0.09264078,-0.062904716,0.0027527963,-0.02990421,0.051981576,0.0,0.0,0.0,0.0,0.0,0.0,0.0,0.0,0.16457176,0.0,0.0,nan,0.0,0.0,-0.10935688,0.0,0.0,0.0,0.0,0.0,0.0,0.0,0.0,0.0
36172207,36071793,0.24692258,-0.12776741,0.0031390344,0.06637253,-0.02255106,0.0,0.0,0.0,0.0,0.0,0.0,0.0,0.0,-0.25067902,0.0,0.0,nan,0.0,0.0,-0.2427783,0.0,0.0,0.0,0.0,0.0,0.0,0.0,0.0,0.0
36681909,36581338,0.45331636,-0.006883651,0.07442341,0.25533244,-0.08373451,0.0,0.0,0.0,0.0,0.0,0.0,0.0,0.0,0.1671505,0.0,0.0,nan,0.0,0.0,-0.28247356,0.0,0.0,0.0,0.0,0.0,0.0,0.0,0.0,0.0
37182104,37080893,1.4645047,-0.6690509,-0.10848686,0.9991155,-0.5400517,0.0,0.0,0.0,0.0,0.0,0.0,0.0,0.0,-0.1933937,0.0,0.0,nan,0.0,0.0,-0.35566926,0.0,0.0,0.0,0.0,0.0,0.0,0.0,0.0,0.0
37680905,37580448,1.7689852,-0.57711077,-0.042957444,1.5929627,-0.7562958,0.0,0.0,0.0,0.0,0.0,0.0,0.0,0.0,-0.39221764,0.0,0.0,nan,0.0,0.0,-0.3787701,0.0,0.0,0.0,0.0,0.0,0.0,0.0,0.0,0.0
38180502,38080003,2.2200491,-0.5148647,-0.10451094,2.7623093,-1.0984952,0.0,0.0,0.0,0.0,0.0,0.0,0.0,0.0,-0.34409142,0.0,0.0,nan,0.0,0.0,-0.37286878,0.0,0.0,0.0,0.0,0.0,0.0,0.0,0.0,0.0
38680044,38579559,2.6170506,-0.5300844,-0.13297755,3.968467,-1.3643557,0.0,0.0,0.0,0.0,0.0,0.0,0.0,0.0,-0.7070675,0.0,0.0,nan,0.0,0.0,-0.36199498,0.0,0.0,0.0,0.0,0.0,0.0,0.0,0.0,0.0
39179541,39079116,2.8246841,-0.4627776,-0.1088089,4.9645605,-1.5602973,0.0,0.0,0.0,0.0,0.0,0.0,0.0,0.0,-0.2511692,0.0,0.0,nan,0.0,0.0,-0.338032,0.0,0.0,0.0,0.0,0.0,0.0,0.0,0.0,0.0
39679251,39578672,3.2948399,-0.5561321,-0.22497031,6.884575,-1.9189913,0.0,0.0,0.0,0.0,0.0,0.0,0.0,0.0,-0.4630909,0.0,0.0,nan,0.0,0.0,-0.31490612,0.0,0.0,0.0,0.0,0.0,0.0,0.0,0.0,0.0
40178663,40078228,3.5204027,-0.53825235,-0.16395797,8.130093,-2.136922,0.0,0.0,0.0,0.0,0.0,0.0,0.0,0.0,-0.80418015,0.0,0.0,nan,0.0,0.0,-0.29753518,0.0,0.0,0.0,0.0,0.0,0.0,0.0,0.0,0.0
40678283,40577784,3.997924,-0.6863971,-0.19665045,10.459784,-2.5964065,0.0,0.0,0.0,0.0,0.0,0.0,0.0,0.0,-0.9466171,0.0,0.0,nan,0.0,0.0,-0.27956057,0.0,0.0,0.0,0.0,0.0,0.0,0.0,0.0,0.0
41177873,41077341,4.333329,-0.8174577,-0.1281807,12.489889,-2.9962492,0.0,0.0,0.0,0.0,0.0,0.0,0.0,0.0,-0.9949074,0.0,0.0,nan,0.0,0.0,-0.23258233,0.0,0.0,0.0,0.0,0.0,0.0,0.0,0.0,0.0
41677761,41577022,4.586425,-0.8764024,-0.15435779,14.118185,-3.3123922,0.0,0.0,0.0,0.0,0.0,0.0,0.0,0.0,-0.9035702,0.0,0.0,nan,0.0,0.0,-0.13432622,0.0,0.0,0.0,0.0,0.0,0.0,0.0,0.0,0.0
42177096,42076579,4.847469,-0.9632082,0.014816612,16.421343,-3.7297583,0.0,0.0,0.0,0.0,0.0,0.0,0.0,0.0,-0.8405609,0.0,0.0,nan,0.0,0.0,-0.13955188,0.0,0.0,0.0,0.0,0.0,0.0,0.0,0.0,0.0
42676582,42576136,5.268647,-1.1158559,0.12387407,18.890404,-4.274296,0.0,0.0,0.0,0.0,0.0,0.0,0.0,0.0,-0.63760185,0.0,0.0,nan,0.0,0.0,0.10988641,0.0,0.0,0.0,0.0,0.0,0.0,0.0,0.0,0.0
43176107,43075693,5.364007,-1.4775848,0.06970698,21.56512,-4.889842,0.0,0.0,0.0,0.0,0.0,0.0,0.0,0.0,-0.59485245,0.0,0.0,nan,0.0,0.0,0.14515996,0.0,0.0,0.0,0.0,0.0,0.0,0.0,0.0,0.0
43675760,43575250,7.3764234,-4.8083267,0.6200196,28.94189,-14.734716,0.0,0.0,0.0,0.0,0.0,0.0,0.0,0.0,0.16223526,0.0,0.0,nan,0.0,0.0,0.25788927,0.0,0.0,0.0,0.0,0.0,0.0,0.0,0.0,0.0
44175361,44074812,6.991654,-4.5857215,0.29057598,34.214916,-17.710487,0.0,0.0,0.0,0.0,0.0,0.0,0.0,0.0,0.8772297,0.0,0.0,nan,0.0,0.0,-0.0021092892,0.0,0.0,0.0,0.0,0.0,0.0,0.0,0.0,0.0
44674896,44574364,6.8872485,-4.4355636,0.24424008,39.266132,-21.041334,0.0,0.0,0.0,0.0,0.0,0.0,0.0,0.0,0.5660019,0.0,0.0,nan,0.0,0.0,-0.03613758,0.0,0.0,0.0,0.0,0.0,0.0,0.0,0.0,0.0
45174406,45073921,6.9319367,-4.490114,0.21065044,41.95465,-22.777308,0.0,0.0,0.0,0.0,0.0,0.0,0.0,0.0,0.9123974,0.0,0.0,nan,0.0,0.0,-0.05366373,0.0,0.0,0.0,0.0,0.0,0.0,0.0,0.0,0.0
45673961,45573478,6.7254667,-4.4146414,0.21115716,45.6426,-25.126345,0.0,0.0,0.0,0.0,0.0,0.0,0.0,0.0,1.0769997,0.0,0.0,nan,0.0,0.0,-0.051828146,0.0,0.0,0.0,0.0,0.0,0.0,0.0,0.0,0.0
46173766,46073036,6.6688623,-4.273532,0.1700804,49.070843,-27.313354,0.0,0.0,0.0,0.0,0.0,0.0,0.0,0.0,1.1405315,0.0,0.0,nan,0.0,0.0,-0.16249585,0.0,0.0,0.0,0.0,0.0,0.0,0.0,0.0,0.0
46673113,46572593,6.771118,-3.9724584,0.14854614,52.47719,-29.45131,0.0,0.0,0.0,0.0,0.0,0.0,0.0,0.0,1.2799816,0.0,0.0,nan,0.0,0.0,-0.14437294,0.0,0.0,0.0,0.0,0.0,0.0,0.0,0.0,0.0
47172670,47072151,6.7254815,-3.8035502,0.1414415,55.86944,-31.433186,0.0,0.0,0.0,0.0,0.0,0.0,0.0,0.0,1.2514744,0.0,0.0,nan,0.0,0.0,-0.13481283,0.0,0.0,0.0,0.0,0.0,0.0,0.0,0.0,0.0
47682271,47581700,6.7932954,-3.5749161,0.26302773,60.08987,-33.767426,0.0,0.0,0.0,0.0,0.0,0.0,0.0,0.0,1.2221336,0.0,0.0,nan,0.0,0.0,-0.18595934,0.0,0.0,0.0,0.0,0.0,0.0,0.0,0.0,0.0
48181866,48081258,6.8865085,-3.4485896,0.23833989,63.499813,-35.54588,0.0,0.0,0.0,0.0,0.0,0.0,0.0,0.0,1.1932545,0.0,0.0,nan,0.0,0.0,-0.20478725,0.0,0.0,0.0,0.0,0.0,0.0,0.0,0.0,0.0
48681384,48580816,6.9308662,-3.436816,0.09597415,66.91799,-37.282303,0.0,0.0,0.0,0.0,0.0,0.0,0.0,0.0,1.3951263,0.0,0.0,nan,0.0,0.0,-0.2375021,0.0,0.0,0.0,0.0,0.0,0.0,0.0,0.0,0.0
49181028,49080374,7.0251184,-3.5042014,0.16541165,70.40512,-39.002293,0.0,0.0,0.0,0.0,0.0,0.0,0.0,0.0,1.47262,0.0,0.0,nan,0.0,0.0,-0.14417338,0.0,0.0,0.0,0.0,0.0,0.0,0.0,0.0,0.0
49680631,49579934,7.005174,-3.5070856,0.10498664,73.92062,-40.76087,0.0,0.0,0.0,0.0,0.0,0.0,0.0,0.0,1.5855198,0.0,0.0,nan,0.0,0.0,-0.020275593,0.0,0.0,0.0,0.0,0.0,0.0,0.0,0.0,0.0
50180075,50079491,6.934822,-3.5984843,0.084159985,76.50996,-42.09517,0.0,0.0,0.0,0.0,0.0,0.0,0.0,0.0,1.5086193,0.0,0.0,nan,0.0,0.0,-0.06787419,0.0,0.0,0.0,0.0,0.0,0.0,0.0,0.0,0.0
50680395,50579049,6.877648,-3.6026435,0.15211578,80.828064,-44.34237,0.0,0.0,0.0,0.0,0.0,0.0,0.0,0.0,1.4052258,0.0,0.0,nan,0.0,0.0,0.026481628,0.0,0.0,0.0,0.0,0.0,0.0,0.0,0.0,0.0
51179462,51078607,6.8116627,-3.467095,0.04809282,83.41465,-45.644844,0.0,0.0,0.0,0.0,0.0,0.0,0.0,0.0,1.5700588,0.0,0.0,nan,0.0,0.0,-0.13238835,0.0,0.0,0.0,0.0,0.0,0.0,0.0,0.0,0.0
51679004,51578166,6.866433,-3.2677033,0.021628883,87.68882,-47.743942,0.0,0.0,0.0,0.0,0.0,0.0,0.0,0.0,1.5860577,0.0,0.0,nan,0.0,0.0,-0.04026532,0.0,0.0,0.0,0.0,0.0,0.0,0.0,0.0,0.0
52179095,52077725,6.831713,-3.262442,0.09433025,91.11003,-49.355045,0.0,0.0,0.0,0.0,0.0,0.0,0.0,0.0,1.5962219,0.0,0.0,nan,0.0,0.0,-0.033052683,0.0,0.0,0.0,0.0,0.0,0.0,0.0,0.0,0.0
52677749,52577283,0.052129745,0.033491135,-0.017129347,-0.0087509155,0.0087890625,0.0,0.0,0.0,0.0,0.0,0.0,0.0,0.0,1.5153522,0.0,0.0,nan,0.0,0.0,-0.04328084,0.0,0.0,0.0,0.0,0.0,0.0,0.0,0.0,0.0
53177423,53076842,0.07275772,0.060161352,-0.0605902,0.059158325,0.0038833618,0.0,0.0,0.0,0.0,0.0,0.0,0.0,0.0,1.215128,0.0,0.0,nan,0.0,0.0,0.009436369,0.0,0.0,0.0,0.0,0.0,0.0,0.0,0.0,0.0
53676984,53576401,0.06205988,0.10197306,-0.045735493,0.07720184,0.022457123,0.0,0.0,0.0,0.0,0.0,0.0,0.0,0.0,1.1375504,0.0,0.0,nan,0.0,0.0,0.0031659603,0.0,0.0,0.0,0.0,0.0,0.0,0.0,0.0,0.0
54176366,54075960,0.025202274,0.14176702,-0.05353094,0.0545578,0.06192398,0.0,0.0,0.0,0.0,0.0,0.0,0.0,0.0,1.3155308,0.0,0.0,nan,0.0,0.0,-0.00043821335,0.0,0.0,0.0,0.0,0.0,0.0,0.0,0.0,0.0
54675926,54575519,-0.02084589,0.122847795,-0.07101801,-0.009498596,0.1139946,0.0,0.0,0.0,0.0,0.0,0.0,0.0,0.0,1.1023579,0.0,0.0,nan,0.0,0.0,0.008666754,0.0,0.0,0.0,0.0,0.0,0.0,0.0,0.0,0.0
55175537,55075079,-0.078112125,0.2024715,-0.10136932,0.048210144,0.100479126,0.0,0.0,0.0,0.0,0.0,0.0,0.0,0.0,1.0179691,0.0,0.0,nan,0.0,0.0,-0.060272455,0.0,0.0,0.0,0.0,0.0,0.0,0.0,0.0,0.0
55675101,55574638,6.5818076,-3.2944102,-0.173163,9.727089,-5.016903,0.0,0.0,0.0,0.0,0.0,0.0,0.0,0.0,0.91168404,0.0,0.0,nan,0.0,0.0,0.11451435,0.0,0.0,0.0,0.0,0.0,0.0,0.0,0.0,0.0
56174605,56074197,7.3369517,-3.537267,-0.052793503,13.228729,-6.715294,0.0,0.0,0.0,0.0,0.0,0.0,0.0,0.0,1.1494713,0.0,0.0,nan,0.0,0.0,0.13514733,0.0,0.0,0.0,0.0,0.0,0.0,0.0,0.0,0.0
56674248,56573757,8.246552,-3.7295961,0.120589815,17.142456,-8.527584,0.0,0.0,0.0,0.0,0.0,0.0,0.0,0.0,1.0288982,0.0,0.0,nan,0.0,0.0,0.024013758,0.0,0.0,0.0,0.0,0.0,0.0,0.0,0.0,0.0
57173882,57073316,6.4365897,-3.669569,-0.055067502,20.199532,-10.203079,0.0,0.0,0.0,0.0,0.0,0.0,0.0,0.0,0.49065208,0.0,0.0,nan,0.0,0.0,0.16752815,0.0,0.0,0.0,0.0,0.0,0.0,0.0,0.0,0.0
57673284,57572876,6.3722634,-3.8453116,-0.11966898,23.458641,-12.067791,0.0,0.0,0.0,0.0,0.0,0.0,0.0,0.0,0.65670204,0.0,0.0,nan,0.0,0.0,0.08706045,0.0,0.0,0.0,0.0,0.0,0.0,0.0,0.0,0.0
58172846,58072436,6.3266807,-3.913646,-0.015383225,26.660889,-14.016262,0.0,0.0,0.0,0.0,0.0,0.0,0.0,0.0,0.6962452,0.0,0.0,nan,0.0,0.0,0.25835133,0.0,0.0,0.0,0.0,0.0,0.0,0.0,0.0,0.0
58682528,58581986,6.2993073,-3.9761615,0.008029079,30.619514,-16.515808,0.0,0.0,0.0,0.0,0.0,0.0,0.0,0.0,0.61995125,0.0,0.0,nan,0.0,0.0,0.14132166,0.0,0.0,0.0,0.0,0.0,0.0,0.0,0.0,0.0
59182289,59081546,6.2895117,-3.966586,0.0956021,33.785843,-18.497395,0.0,0.0,0.0,0.0,0.0,0.0,0.0,0.0,0.6180153,0.0,0.0,nan,0.0,0.0,0.2173512,0.0,0.0,0.0,0.0,0.0,0.0,0.0,0.0,0.0
59681553,59581106,6.278372,-3.8664908,0.0074702576,36.9438,-20.43621,0.0,0.0,0.0,0.0,0.0,0.0,0.0,0.0,0.6473446,0.0,0.0,nan,0.0,0.0,0.1329391,0.0,0.0,0.0,0.0,0.0,0.0,0.0,0.0,0.0
60171105,60070675,6.3177934,-3.7193377,0.023040574,39.312683,-21.829681,0.0,0.0,0.0,0.0,0.0,0.0,0.0,0.0,0.5489235,0.0,0.0,nan,0.0,0.0,0.03749609,0.0,0.0,0.0,0.0,0.0,0.0,0.0,0.0,0.0
60680679,60580226,6.356488,-3.6545322,-0.031645954,43.28383,-24.089348,0.0,0.0,0.0,0.0,0.0,0.0,0.0,0.0,0.43553734,0.0,0.0,nan,0.0,0.0,0.038285732,0.0,0.0,0.0,0.0,0.0,0.0,0.0,0.0,0.0
61180343,61079786,6.2929497,-3.8046644,-0.008227428,46.466873,-25.928406,0.0,0.0,0.0,0.0,0.0,0.0,0.0,0.0,0.50248146,0.0,0.0,nan,0.0,0.0,0.05059004,0.0,0.0,0.0,0.0,0.0,0.0,0.0,0.0,0.0
61679796,61579346,6.2405014,-4.021716,0.01661409,49.62017,-27.871208,0.0,0.0,0.0,0.0,0.0,0.0,0.0,0.0,0.49169922,0.0,0.0,nan,0.0,0.0,0.12152529,0.0,0.0,0.0,0.0,0.0,0.0,0.0,0.0,0.0
62179453,62078908,6.1715903,-4.113153,0.027938044,52.71766,-29.898773,0.0,0.0,0.0,0.0,0.0,0.0,0.0,0.0,0.5355873,0.0,0.0,nan,0.0,0.0,0.1548109,0.0,0.0,0.0,0.0,0.0,0.0,0.0,0.0,0.0
62678887,62578467,6.176282,-4.1847253,0.010903403,55.045013,-31.453056,0.0,0.0,0.0,0.0,0.0,0.0,0.0,0.0,0.56845474,0.0,0.0,nan,0.0,0.0,0.119139194,0.0,0.0,0.0,0.0,0.0,0.0,0.0,0.0,0.0
63178847,63078028,6.138717,-4.0415897,-0.03682207,58.95408,-33.928303,0.0,0.0,0.0,0.0,0.0,0.0,0.0,0.0,0.30287552,0.0,0.0,nan,0.0,0.0,0.13802052,0.0,0.0,0.0,0.0,0.0,0.0,0.0,0.0,0.0
63677995,63577588,6.2275147,-3.946357,-0.03536799,61.275185,-35.425777,0.0,0.0,0.0,0.0,0.0,0.0,0.0,0.0,0.3779583,0.0,0.0,nan,0.0,0.0,0.10382843,0.0,0.0,0.0,0.0,0.0,0.0,0.0,0.0,0.0
64177575,64077151,6.2481723,-3.8759608,-0.016304342,64.37381,-37.367195,0.0,0.0,0.0,0.0,0.0,0.0,0.0,0.0,0.036354065,0.0,0.0,nan,0.0,0.0,0.10598612,0.0,0.0,0.0,0.0,0.0,0.0,0.0,0.0,0.0
64677167,64576709,6.218933,-3.821941,-0.0089953635,67.49768,-39.269264,0.0,0.0,0.0,0.0,0.0,0.0,0.0,0.0,0.6150799,0.0,0.0,nan,0.0,0.0,0.102549314,0.0,0.0,0.0,0.0,0.0,0.0,0.0,0.0,0.0
65176675,65076269,6.2087092,-3.8584793,-0.06827586,70.60164,-41.177273,0.0,0.0,0.0,0.0,0.0,0.0,0.0,0.0,0.36077118,0.0,0.0,nan,0.0,0.0,0.12230182,0.0,0.0,0.0,0.0,0.0,0.0,0.0,0.0,0.0
65676372,65575830,6.100854,-3.864001,-0.055284034,73.68373,-43.11103,0.0,0.0,0.0,0.0,0.0,0.0,0.0,0.0,0.440794,0.0,0.0,nan,0.0,0.0,0.11861706,0.0,0.0,0.0,0.0,0.0,0.0,0.0,0.0,0.0
66175825,66075390,6.0411177,-3.9551487,-0.07095443,76.718994,-45.06484,0.0,0.0,0.0,0.0,0.0,0.0,0.0,0.0,0.18261147,0.0,0.0,nan,0.0,0.0,0.14527678,0.0,0.0,0.0,0.0,0.0,0.0,0.0,0.0,0.0
66675388,66574951,6.059385,-3.9140928,-0.07719178,79.753174,-47.02758,0.0,0.0,0.0,0.0,0.0,0.0,0.0,0.0,0.1786766,0.0,0.0,nan,0.0,0.0,0.086993456,0.0,0.0,0.0,0.0,0.0,0.0,0.0,0.0,0.0
67174919,67074512,6.1038656,-3.7990918,-0.041598797,82.82678,-48.933132,0.0,0.0,0.0,0.0,0.0,0.0,0.0,0.0,0.37140656,0.0,0.0,nan,0.0,0.0,0.07886243,0.0,0.0,0.0,0.0,0.0,0.0,0.0,0.0,0.0
67674970,67574073,6.275026,-3.66424,-0.020495279,85.95625,-50.785908,0.0,0.0,0.0,0.0,0.0,0.0,0.0,0.0,0.21764755,0.0,0.0,nan,0.0,0.0,0.045507193,0.0,0.0,0.0,0.0,0.0,0.0,0.0,0.0,0.0
68174149,68073634,6.303077,-3.643291,-0.0047229403,89.12445,-52.60845,0.0,0.0,0.0,0.0,0.0,0.0,0.0,0.0,0.27781296,0.0,0.0,nan,0.0,0.0,0.059122324,0.0,0.0,0.0,0.0,0.0,0.0,0.0,0.0,0.0
68673717,68573196,6.3545337,-3.6553602,-0.054961983,92.30408,-54.433296,0.0,0.0,0.0,0.0,0.0,0.0,0.0,0.0,0.14024925,0.0,0.0,nan,0.0,0.0,0.06986332,0.0,0.0,0.0,0.0,0.0,0.0,0.0,0.0,0.0
69173366,69072758,6.3061666,-3.7830493,-0.034199826,95.49686,-56.297573,0.0,0.0,0.0,0.0,0.0,0.0,0.0,0.0,0.25030518,0.0,0.0,nan,0.0,0.0,0.07182598,0.0,0.0,0.0,0.0,0.0,0.0,0.0,0.0,0.0
69682805,69582311,6.3372188,-3.7792344,-0.05719456,2.830597,-1.6978378,0.0,0.0,0.0,0.0,0.0,0.0,0.0,0.0,0.20613289,0.0,0.0,nan,0.0,0.0,0.088567734,0.0,0.0,0.0,0.0,0.0,0.0,0.0,0.0,0.0
70172287,70071882,6.2883687,-3.7708304,-0.11318588,5.2267456,-3.1085815,0.0,0.0,0.0,0.0,0.0,0.0,0.0,0.0,-0.023038864,0.0,0.0,nan,0.0,0.0,0.07151985,0.0,0.0,0.0,0.0,0.0,0.0,0.0,0.0,0.0
70671880,70571444,6.2387376,-3.8114295,-0.08511608,8.368332,-5.0047684,0.0,0.0,0.0,0.0,0.0,0.0,0.0,0.0,0.11814308,0.0,0.0,nan,0.0,0.0,0.11704254,0.0,0.0,0.0,0.0,0.0,0.0,0.0,0.0,0.0
71171446,71071006,6.606836,-3.5171218,-0.06139009,11.876633,-6.681244,0.0,0.0,0.0,0.0,0.0,0.0,0.0,0.0,0.21861458,0.0,0.0,nan,0.0,0.0,0.05706954,0.0,0.0,0.0,0.0,0.0,0.0,0.0,0.0,0.0
71681063,71580566,6.6251035,-3.4710898,-0.0065989234,16.04869,-8.856468,0.0,0.0,0.0,0.0,0.0,0.0,0.0,0.0,0.10115242,0.0,0.0,nan,0.0,0.0,0.0722785,0.0,0.0,0.0,0.0,0.0,0.0,0.0,0.0,0.0
72181079,72080121,6.640551,-3.5087864,0.004817404,19.38533,-10.608467,0.0,0.0,0.0,0.0,0.0,0.0,0.0,0.0,0.18824387,0.0,0.0,nan,0.0,0.0,0.09918308,0.0,0.0,0.0,0.0,0.0,0.0,0.0,0.0,0.0
72680137,72579683,6.6124673,-3.519081,-0.004758806,22.711685,-12.35994,0.0,0.0,0.0,0.0,0.0,0.0,0.0,0.0,-0.33982277,0.0,0.0,nan,0.0,0.0,0.1385355,0.0,0.0,0.0,0.0,0.0,0.0,0.0,0.0,0.0
73179702,73079245,6.570743,-3.5563567,-0.06406482,26.00415,-14.122223,0.0,0.0,0.0,0.0,0.0,0.0,0.0,0.0,-0.0024490356,0.0,0.0,nan,0.0,0.0,0.10876894,0.0,0.0,0.0,0.0,0.0,0.0,0.0,0.0,0.0
73679399,73578807,6.531673,-3.530633,-0.014651576,29.262451,-15.883026,0.0,0.0,0.0,0.0,0.0,0.0,0.0,0.0,0.07867813,0.0,0.0,nan,0.0,0.0,0.09959698,0.0,0.0,0.0,0.0,0.0,0.0,0.0,0.0,0.0
74178949,74078494,6.469777,-3.4785306,0.033802964,32.50946,-17.619041,0.0,0.0,0.0,0.0,0.0,0.0,0.0,0.0,0.16227722,0.0,0.0,nan,0.0,0.0,0.0913043,0.0,0.0,0.0,0.0,0.0,0.0,0.0,0.0,0.0
74678594,74578056,6.4781804,-3.4755616,0.016004302,35.759735,-19.34121,0.0,0.0,0.0,0.0,0.0,0.0,0.0,0.0,0.07811928,0.0,0.0,nan,0.0,0.0,0.035815954,0.0,0.0,0.0,0.0,0.0,0.0,0.0,0.0,0.0
75178076,75077618,6.39154,-3.5968752,0.038713146,38.183594,-20.676865,0.0,0.0,0.0,0.0,0.0,0.0,0.0,0.0,-0.0035209656,0.0,0.0,nan,0.0,0.0,0.17520785,0.0,0.0,0.0,0.0,0.0,0.0,0.0,0.0,0.0
75677692,75577181,6.3391542,-3.5690181,0.03482851,42.18393,-22.912254,0.0,0.0,0.0,0.0,0.0,0.0,0.0,0.0,-0.17300606,0.0,0.0,nan,0.0,0.0,0.08994126,0.0,0.0,0.0,0.0,0.0,0.0,0.0,0.0,0.0
76177326,76076743,6.422308,-3.4280784,-0.05748334,45.38739,-24.645866,0.0,0.0,0.0,0.0,0.0,0.0,0.0,0.0,-0.3342514,0.0,0.0,nan,0.0,0.0,0.13380432,0.0,0.0,0.0,0.0,0.0,0.0,0.0,0.0,0.0
76676831,76576305,6.37548,-3.3802,-0.049045414,47.79721,-25.909294,0.0,0.0,0.0,0.0,0.0,0.0,0.0,0.0,-0.16418457,0.0,0.0,nan,0.0,0.0,0.062580824,0.0,0.0,0.0,0.0,0.0,0.0,0.0,0.0,0.0
77176457,77075867,6.4664526,-3.239701,-0.07303352,51.01294,-27.536766,0.0,0.0,0.0,0.0,0.0,0.0,0.0,0.0,-0.017974854,0.0,0.0,nan,0.0,0.0,0.1465919,0.0,0.0,0.0,0.0,0.0,0.0,0.0,0.0,0.0
77676045,77575429,6.4347377,-3.201185,-0.061308306,54.23732,-29.150063,0.0,0.0,0.0,0.0,0.0,0.0,0.0,0.0,-0.089954376,0.0,0.0,nan,0.0,0.0,0.103309155,0.0,0.0,0.0,0.0,0.0,0.0,0.0,0.0,0.0
78175401,78074992,6.411771,-3.216014,-0.08902974,57.46237,-30.755653,0.0,0.0,0.0,0.0,0.0,0.0,0.0,0.0,-0.10007095,0.0,0.0,nan,0.0,0.0,0.13601255,0.0,0.0,0.0,0.0,0.0,0.0,0.0,0.0,0.0
78675050,78574554,6.4034767,-3.2421095,-0.1846912,60.676468,-32.369034,0.0,0.0,0.0,0.0,0.0,0.0,0.0,0.0,-0.12774086,0.0,0.0,nan,0.0,0.0,0.017561436,0.0,0.0,0.0,0.0,0.0,0.0,0.0,0.0,0.0
79174545,79074117,6.4299707,-3.2495847,-0.1678799,63.899246,-33.98841,0.0,0.0,0.0,0.0,0.0,0.0,0.0,0.0,-0.27441406,0.0,0.0,nan,0.0,0.0,0.040686607,0.0,0.0,0.0,0.0,0.0,0.0,0.0,0.0,0.0
79674119,79573679,6.5121717,-3.31382,-0.050475977,67.13678,-35.6389,0.0,0.0,0.0,0.0,0.0,0.0,0.0,0.0,-0.30420685,0.0,0.0,nan,0.0,0.0,0.027056932,0.0,0.0,0.0,0.0,0.0,0.0,0.0,0.0,0.0
80173652,80073241,6.554112,-3.2926514,-0.05870277,70.39307,-37.287773,0.0,0.0,0.0,0.0,0.0,0.0,0.0,0.0,-0.37347794,0.0,0.0,nan,0.0,0.0,0.088368416,0.0,0.0,0.0,0.0,0.0,0.0,0.0,0.0,0.0
80683334,80582795,6.6545014,-3.2854676,0.09024794,74.51932,-39.317528,0.0,0.0,0.0,0.0,0.0,0.0,0.0,0.0,-0.3516407,0.0,0.0,nan,0.0,0.0,0.03462434,0.0,0.0,0.0,0.0,0.0,0.0,0.0,0.0,0.0
81172806,81072366,6.618316,-3.3303716,0.0698935,77.02168,-40.557655,0.0,0.0,0.0,0.0,0.0,0.0,0.0,0.0,-0.259346,0.0,0.0,nan,0.0,0.0,0.021746159,0.0,0.0,0.0,0.0,0.0,0.0,0.0,0.0,0.0
81672386,81571929,6.626215,-3.4497094,-0.042988047,80.32649,-42.27169,0.0,0.0,0.0,0.0,0.0,0.0,0.0,0.0,-0.1369915,0.0,0.0,nan,0.0,0.0,0.04400158,0.0,0.0,0.0,0.0,0.0,0.0,0.0,0.0,0.0
82171899,82071491,6.5751104,-3.6658704,-0.010759069,83.61633,-44.079132,0.0,0.0,0.0,0.0,0.0,0.0,0.0,0.0,-0.4661541,0.0,0.0,nan,0.0,0.0,0.038424015,0.0,0.0,0.0,0.0,0.0,0.0,0.0,0.0,0.0
82681497,82581045,6.5333047,-3.8062303,0.09665327,87.74226,-46.4115,0.0,0.0,0.0,0.0,0.0,0.0,0.0,0.0,-0.37821198,0.0,0.0,nan,0.0,0.0,0.086254835,0.0,0.0,0.0,0.0,0.0,0.0,0.0,0.0,0.0
83181066,83080608,6.602911,-3.6866045,0.17947651,91.05446,-48.26133,0.0,0.0,0.0,0.0,0.0,0.0,0.0,0.0,-0.3733654,0.0,0.0,nan,0.0,0.0,0.007642269,0.0,0.0,0.0,0.0,0.0,0.0,0.0,0.0,0.0
83680703,83580170,6.60378,-3.758935,0.14329053,94.3909,-50.093887,0.0,0.0,0.0,0.0,0.0,0.0,0.0,0.0,-0.45436478,0.0,0.0,nan,0.0,0.0,0.056275606,0.0,0.0,0.0,0.0,0.0,0.0,0.0,0.0,0.0
84180270,84079733,6.563963,-3.7386174,0.16628352,2.4483032,-1.3610992,0.0,0.0,0.0,0.0,0.0,0.0,0.0,0.0,-0.3672371,0.0,0.0,nan,0.0,0.0,0.060976982,0.0,0.0,0.0,0.0,0.0,0.0,0.0,0.0,0.0
84679898,84579296,6.491157,-3.8046517,0.10945245,5.3526,-3.0305023,0.0,0.0,0.0,0.0,0.0,0.0,0.0,0.0,0.13586235,0.0,0.0,nan,0.0,0.0,0.12559891,0.0,0.0,0.0,0.0,0.0,0.0,0.0,0.0,0.0
85179504,85078859,6.379302,-3.8477335,0.056186713,7.774872,-4.462265,0.0,0.0,0.0,0.0,0.0,0.0,0.0,0.0,-0.11102867,0.0,0.0,nan,0.0,0.0,0.05850649,0.0,0.0,0.0,0.0,0.0,0.0,0.0,0.0,0.0
85678876,85578422,6.2593474,-3.87841,-0.060284477,11.745117,-6.8733063,0.0,0.0,0.0,0.0,0.0,0.0,0.0,0.0,-0.029901505,0.0,0.0,nan,0.0,0.0,0.11714363,0.0,0.0,0.0,0.0,0.0,0.0,0.0,0.0,0.0
86178425,86077985,6.2181935,-3.8939383,-0.011206266,14.102509,-8.322769,0.0,0.0,0.0,0.0,0.0,0.0,0.0,0.0,-0.031064987,0.0,0.0,nan,0.0,0.0,0.06987548,0.0,0.0,0.0,0.0,0.0,0.0,0.0,0.0,0.0
86678027,86577548,6.1860447,-3.9085352,0.007405987,17.982819,-10.751602,0.0,0.0,0.0,0.0,0.0,0.0,0.0,0.0,0.055700302,0.0,0.0,nan,0.0,0.0,0.122787714,0.0,0.0,0.0,0.0,0.0,0.0,0.0,0.0,0.0
87177627,87077111,6.173634,-3.9205632,0.07799069,21.074493,-12.695251,0.0,0.0,0.0,0.0,0.0,0.0,0.0,0.0,0.080804825,0.0,0.0,nan,0.0,0.0,0.14285064,0.0,0.0,0.0,0.0,0.0,0.0,0.0,0.0,0.0
87677099,87576674,6.054911,-3.9223976,-0.05959525,23.386719,-14.161331,0.0,0.0,0.0,0.0,0.0,0.0,0.0,0.0,0.16006279,0.0,0.0,nan,0.0,0.0,0.09139776,0.0,0.0,0.0,0.0,0.0,0.0,0.0,0.0,0.0
88176686,88076237,5.963319,-3.8979983,-0.036590584,27.178284,-16.59906,0.0,0.0,0.0,0.0,0.0,0.0,0.0,0.0,-0.04569435,0.0,0.0,nan,0.0,0.0,0.08522463,0.0,0.0,0.0,0.0,0.0,0.0,0.0,0.0,0.0
88676203,88575800,6.033493,-3.8536754,-0.074726306,29.447235,-18.047958,0.0,0.0,0.0,0.0,0.0,0.0,0.0,0.0,0.12233162,0.0,0.0,nan,0.0,0.0,0.09504604,0.0,0.0,0.0,0.0,0.0,0.0,0.0,0.0,0.0
89176121,89075363,6.0727463,-3.7477205,-0.054876704,32.491913,-19.948593,0.0,0.0,0.0,0.0,0.0,0.0,0.0,0.0,0.020971298,0.0,0.0,nan,0.0,0.0,0.05829978,0.0,0.0,0.0,0.0,0.0,0.0,0.0,0.0,0.0
89675331,89574926,6.1462097,-3.7419379,-0.078952596,35.569794,-21.830063,0.0,0.0,0.0,0.0,0.0,0.0,0.0,0.0,0.0247612,0.0,0.0,nan,0.0,0.0,0.053284407,0.0,0.0,0.0,0.0,0.0,0.0,0.0,0.0,0.0
90174914,90074490,6.2353616,-3.6757014,-0.05500876,38.68567,-23.695663,0.0,0.0,0.0,0.0,0.0,0.0,0.0,0.0,-0.14946365,0.0,0.0,nan,0.0,0.0,0.05368662,0.0,0.0,0.0,0.0,0.0,0.0,0.0,0.0,0.0
90674512,90574053,6.313164,-3.6126094,-0.079622574,41.852753,-25.518188,0.0,0.0,0.0,0.0,0.0,0.0,0.0,0.0,-0.061372757,0.0,0.0,nan,0.0,0.0,0.04900503,0.0,0.0,0.0,0.0,0.0,0.0,0.0,0.0,0.0
91184244,91083607,6.3527293,-3.6135802,0.014318811,45.834503,-27.781906,0.0,0.0,0.0,0.0,0.0,0.0,0.0,0.0,-0.1481533,0.0,0.0,nan,0.0,0.0,0.07503462,0.0,0.0,0.0,0.0,0.0,0.0,0.0,0.0,0.0
91673801,91573179,6.327382,-3.6346529,-0.12852538,48.225067,-29.144165,0.0,0.0,0.0,0.0,0.0,0.0,0.0,0.0,-0.45362282,0.0,0.0,nan,0.0,0.0,0.087389946,0.0,0.0,0.0,0.0,0.0,0.0,0.0,0.0,0.0
92173171,92072743,6.2957897,-3.6536038,-0.022790406,51.382965,-30.983856,0.0,0.0,0.0,0.0,0.0,0.0,0.0,0.0,-0.03385544,0.0,0.0,nan,0.0,0.0,0.085199594,0.0,0.0,0.0,0.0,0.0,0.0,0.0,0.0,0.0
92672755,92572306,6.2764378,-3.6047878,-0.09743798,54.54074,-32.796707,0.0,0.0,0.0,0.0,0.0,0.0,0.0,0.0,-0.28404808,0.0,0.0,nan,0.0,0.0,0.123839855,0.0,0.0,0.0,0.0,0.0,0.0,0.0,0.0,0.0
93182316,93081736,6.2453837,-3.5137873,-0.16132148,58.466644,-35.018066,0.0,0.0,0.0,0.0,0.0,0.0,0.0,0.0,-0.28323174,0.0,0.0,nan,0.0,0.0,0.056185722,0.0,0.0,0.0,0.0,0.0,0.0,0.0,0.0,0.0
93682446,93581424,6.2499943,-3.542686,-0.17943767,61.601685,-36.761276,0.0,0.0,0.0,0.0,0.0,0.0,0.0,0.0,-0.36398315,0.0,0.0,nan,0.0,0.0,0.12041092,0.0,0.0,0.0,0.0,0.0,0.0,0.0,0.0,0.0
94181430,94080989,6.272484,-3.451337,-0.12615418,64.75662,-38.490906,0.0,0.0,0.0,0.0,0.0,0.0,0.0,0.0,-0.530447,0.0,0.0,nan,0.0,0.0,0.114839315,0.0,0.0,0.0,0.0,0.0,0.0,0.0,0.0,0.0
94681177,94580558,6.3324637,-3.304713,-0.15429,67.93884,-40.154297,0.0,0.0,0.0,0.0,0.0,0.0,0.0,0.0,-0.35666275,0.0,0.0,nan,0.0,0.0,0.1069994,0.0,0.0,0.0,0.0,0.0,0.0,0.0,0.0,0.0
95180643,95080115,6.42412,-3.1335917,-0.1567904,71.15216,-41.73381,0.0,0.0,0.0,0.0,0.0,0.0,0.0,0.0,-0.68841743,0.0,0.0,nan,0.0,0.0,0.10919523,0.0,0.0,0.0,0.0,0.0,0.0,0.0,0.0,0.0
95680135,95579679,6.4422607,-3.0445964,-0.16092825,74.37207,-43.254593,0.0,0.0,0.0,0.0,0.0,0.0,0.0,0.0,-0.5114689,0.0,0.0,nan,0.0,0.0,0.052407503,0.0,0.0,0.0,0.0,0.0,0.0,0.0,0.0,0.0
96179718,96079242,6.490031,-2.9179063,-0.17070667,77.6196,-44.745636,0.0,0.0,0.0,0.0,0.0,0.0,0.0,0.0,-0.4989395,0.0,0.0,nan,0.0,0.0,0.014799833,0.0,0.0,0.0,0.0,0.0,0.0,0.0,0.0,0.0
96679268,96578681,6.4030395,-3.2720342,-0.26314417,80.80078,-46.45993,0.0,0.0,0.0,0.0,0.0,0.0,0.0,0.0,-0.80344963,0.0,0.0,nan,0.0,0.0,0.004685402,0.0,0.0,0.0,0.0,0.0,0.0,0.0,0.0,0.0
97178876,97078370,6.3235664,-3.4190576,-0.12651968,83.99637,-48.125412,0.0,0.0,0.0,0.0,0.0,0.0,0.0,0.0,-0.83268356,0.0,0.0,nan,0.0,0.0,0.115502834,0.0,0.0,0.0,0.0,0.0,0.0,0.0,0.0,0.0
97678349,97577934,6.3785,-3.5106187,-0.10195246,86.38699,-49.426666,0.0,0.0,0.0,0.0,0.0,0.0,0.0,0.0,-1.0366058,0.0,0.0,nan,0.0,0.0,0.14953804,0.0,0.0,0.0,0.0,0.0,0.0,0.0,0.0,0.0
98178119,98077497,6.3534913,-3.4951055,-0.12283277,89.57727,-51.16304,0.0,0.0,0.0,0.0,0.0,0.0,0.0,0.0,-0.8777027,0.0,0.0,nan,0.0,0.0,0.11560202,0.0,0.0,0.0,0.0,0.0,0.0,0.0,0.0,0.0
98677589,98577061,6.438676,-3.3226764,-0.15775879,1.8860474,-0.9899597,0.0,0.0,0.0,0.0,0.0,0.0,0.0,0.0,-0.99446297,0.0,0.0,nan,0.0,0.0,0.10615349,0.0,0.0,0.0,0.0,0.0,0.0,0.0,0.0,0.0
99177157,99076625,6.422082,-3.2521832,-0.16021863,4.39859,-2.2623749,0.0,0.0,0.0,0.0,0.0,0.0,0.0,0.0,-1.1116753,0.0,0.0,nan,0.0,0.0,0.1373117,0.0,0.0,0.0,0.0,0.0,0.0,0.0,0.0,0.0
99676666,99576189,6.3863826,-3.2997558,-0.19882399,7.5944824,-3.9061737,0.0,0.0,0.0,0.0,0.0,0.0,0.0,0.0,-1.1420517,0.0,0.0,nan,0.0,0.0,0.083266735,0.0,0.0,0.0,0.0,0.0,0.0,0.0,0.0,0.0
100176297,100075754,6.2321005,-3.5348425,-0.26454642,10.737396,-5.6445923,0.0,0.0,0.0,0.0,0.0,0.0,0.0,0.0,-1.3659363,0.0,0.0,nan,0.0,0.0,0.13709188,0.0,0.0,0.0,0.0,0.0,0.0,0.0,0.0,0.0
100675836,100575318,6.1448565,-3.5687413,-0.20150612,13.828827,-7.413666,0.0,0.0,0.0,0.0,0.0,0.0,0.0,0.0,-1.3171692,0.0,0.0,nan,0.0,0.0,0.14062214,0.0,0.0,0.0,0.0,0.0,0.0,0.0,0.0,0.0
101175418,101074883,6.1527495,-3.5787904,-0.19689669,16.927155,-9.186401,0.0,0.0,0.0,0.0,0.0,0.0,0.0,0.0,-1.4215622,0.0,0.0,nan,0.0,0.0,0.10352993,0.0,0.0,0.0,0.0,0.0,0.0,0.0,0.0,0.0
101675245,101574447,6.2718806,-3.454996,-0.24690755,20.032715,-10.936447,0.0,0.0,0.0,0.0,0.0,0.0,0.0,0.0,-1.326395,0.0,0.0,nan,0.0,0.0,0.0987041,0.0,0.0,0.0,0.0,0.0,0.0,0.0,0.0,0.0
102174760,102074012,6.2596893,-3.5250955,-0.18414234,23.155884,-12.68103,0.0,0.0,0.0,0.0,0.0,0.0,0.0,0.0,-1.6476536,0.0,0.0,nan,0.0,0.0,0.108748674,0.0,0.0,0.0,0.0,0.0,0.0,0.0,0.0,0.0
102674616,102573576,6.258215,-3.5282745,-0.14417909,26.292297,-14.424667,0.0,0.0,0.0,0.0,0.0,0.0,0.0,0.0,-1.6359043,0.0,0.0,nan,0.0,0.0,0.10748744,0.0,0.0,0.0,0.0,0.0,0.0,0.0,0.0,0.0
103173951,103073141,6.229769,-3.5530598,-0.21168834,29.406128,-16.193695,0.0,0.0,0.0,0.0,0.0,0.0,0.0,0.0,-2.1259212,0.0,0.0,nan,0.0,0.0,0.1105504,0.0,0.0,0.0,0.0,0.0,0.0,0.0,0.0,0.0
103673467,103572705,6.2339954,-3.647666,-0.24076025,32.507263,-17.989487,0.0,0.0,0.0,0.0,0.0,0.0,0.0,0.0,-2.11277,0.0,0.0,nan,0.0,0.0,0.08826566,0.0,0.0,0.0,0.0,0.0,0.0,0.0,0.0,0.0
104183203,104082261,6.2219667,-3.716204,-0.24028315,36.3898,-20.294342,0.0,0.0,0.0,0.0,0.0,0.0,0.0,0.0,-1.8476048,0.0,0.0,nan,0.0,0.0,0.0944767,0.0,0.0,0.0,0.0,0.0,0.0,0.0,0.0,0.0
104682758,104581826,6.248251,-3.7540908,-0.2012279,39.49109,-22.17926,0.0,0.0,0.0,0.0,0.0,0.0,0.0,0.0,-1.7496529,0.0,0.0,nan,0.0,0.0,0.11379361,0.0,0.0,0.0,0.0,0.0,0.0,0.0,0.0,0.0
105181938,105081392,6.2019362,-3.8221335,-0.26876673,42.59198,-24.08757,0.0,0.0,0.0,0.0,0.0,0.0,0.0,0.0,-2.3194752,0.0,0.0,nan,0.0,0.0,0.08080244,0.0,0.0,0.0,0.0,0.0,0.0,0.0,0.0,0.0
105671546,105570963,6.287517,-3.8257654,-0.23511796,44.93918,-25.510864,0.0,0.0,0.0,0.0,0.0,0.0,0.0,0.0,-2.3812332,0.0,0.0,nan,0.0,0.0,0.12638426,0.0,0.0,0.0,0.0,0.0,0.0,0.0,0.0,0.0
106181105,106080520,6.2804093,-3.723751,-0.09973112,48.87503,-27.862473,0.0,0.0,0.0,0.0,0.0,0.0,0.0,0.0,-2.4586296,0.0,0.0,nan,0.0,0.0,0.12176561,0.0,0.0,0.0,0.0,0.0,0.0,0.0,0.0,0.0
106680779,106580084,6.291285,-3.703129,-0.13673927,52.01123,-29.704239,0.0,0.0,0.0,0.0,0.0,0.0,0.0,0.0,-2.418682,0.0,0.0,nan,0.0,0.0,0.081077576,0.0,0.0,0.0,0.0,0.0,0.0,0.0,0.0,0.0
107180249,107079649,6.3115478,-3.6024544,-0.06715753,55.15738,-31.515625,0.0,0.0,0.0,0.0,0.0,0.0,0.0,0.0,-2.3865414,0.0,0.0,nan,0.0,0.0,0.08043957,0.0,0.0,0.0,0.0,0.0,0.0,0.0,0.0,0.0
107679697,107579213,6.2816644,-3.6249173,-0.1610535,57.52765,-32.87509,0.0,0.0,0.0,0.0,0.0,0.0,0.0,0.0,-2.4005375,0.0,0.0,nan,0.0,0.0,0.08744717,0.0,0.0,0.0,0.0,0.0,0.0,0.0,0.0,0.0
108179304,108078778,6.2684627,-3.6811733,-0.23969688,61.44046,-35.167023,0.0,0.0,0.0,0.0,0.0,0.0,0.0,0.0,-2.661707,0.0,0.0,nan,0.0,0.0,0.0897398,0.0,0.0,0.0,0.0,0.0,0.0,0.0,0.0,0.0
108678867,108578342,6.27806,-3.7103877,-0.25667962,64.56433,-37.01573,0.0,0.0,0.0,0.0,0.0,0.0,0.0,0.0,-2.6195717,0.0,0.0,nan,0.0,0.0,0.0980556,0.0,0.0,0.0,0.0,0.0,0.0,0.0,0.0,0.0
109178430,109077907,6.313737,-3.626723,-0.23992702,67.7301,-38.822205,0.0,0.0,0.0,0.0,0.0,0.0,0.0,0.0,-2.766451,0.0,0.0,nan,0.0,0.0,0.07766199,0.0,0.0,0.0,0.0,0.0,0.0,0.0,0.0,0.0
109678003,109577472,6.5276165,-3.3564458,-0.24987459,70.95703,-40.573364,0.0,0.0,0.0,0.0,0.0,0.0,0.0,0.0,-2.9191513,0.0,0.0,nan,0.0,0.0,0.0792439,0.0,0.0,0.0,0.0,0.0,0.0,0.0,0.0,0.0
110177597,110077036,6.5546813,-3.356577,-0.16170701,73.40427,-41.84041,0.0,0.0,0.0,0.0,0.0,0.0,0.0,0.0,-2.7334652,0.0,0.0,nan,0.0,0.0,0.060549498,0.0,0.0,0.0,0.0,0.0,0.0,0.0,0.0,0.0
110677159,110576601,6.5245366,-3.3971028,-0.17590642,76.67218,-43.532394,0.0,0.0,0.0,0.0,0.0,0.0,0.0,0.0,-2.994154,0.0,0.0,nan,0.0,0.0,0.07643008,0.0,0.0,0.0,0.0,0.0,0.0,0.0,0.0,0.0
111176818,111076166,6.4480405,-3.4917848,-0.11470002,80.73047,-45.69246,0.0,0.0,0.0,0.0,0.0,0.0,0.0,0.0,-2.8824215,0.0,0.0,nan,0.0,0.0,0.06926012,0.0,0.0,0.0,0.0,0.0,0.0,0.0,0.0,0.0
111676220,111575731,6.3638067,-3.5639477,-0.14705923,83.1214,-47.019577,0.0,0.0,0.0,0.0,0.0,0.0,0.0,0.0,-3.4477558,0.0,0.0,nan,0.0,0.0,0.07880902,0.0,0.0,0.0,0.0,0.0,0.0,0.0,0.0,0.0
112175862,112075296,6.3837633,-3.551994,-0.19887483,86.30182,-48.789017,0.0,0.0,0.0,0.0,0.0,0.0,0.0,0.0,-3.1779118,0.0,0.0,nan,0.0,0.0,0.07364893,0.0,0.0,0.0,0.0,0.0,0.0,0.0,0.0,0.0
112675343,112574861,6.342084,-3.6002755,-0.11041735,89.49219,-50.576797,0.0,0.0,0.0,0.0,0.0,0.0,0.0,0.0,-3.0785027,0.0,0.0,nan,0.0,0.0,0.06792498,0.0,0.0,0.0,0.0,0.0,0.0,0.0,0.0,0.0
113174931,113074425,6.356164,-3.5636842,-0.21044718,1.3698425,-0.76312256,0.0,0.0,0.0,0.0,0.0,0.0,0.0,0.0,-3.2254086,0.0,0.0,nan,0.0,0.0,0.061033487,0.0,0.0,0.0,0.0,0.0,0.0,0.0,0.0,0.0
113674497,113573990,6.3966055,-3.5488038,-0.19615953,3.5803528,-1.9857483,0.0,0.0,0.0,0.0,0.0,0.0,0.0,0.0,-3.3726597,0.0,0.0,nan,0.0,0.0,0.056061506,0.0,0.0,0.0,0.0,0.0,0.0,0.0,0.0,0.0
114173971,114073555,6.460587,-3.5279684,-0.16924272,6.8068237,-3.7528992,0.0,0.0,0.0,0.0,0.0,0.0,0.0,0.0,-3.6047115,0.0,0.0,nan,0.0,0.0,0.05740571,0.0,0.0,0.0,0.0,0.0,0.0,0.0,0.0,0.0
114673622,114573120,6.411092,-3.5983374,-0.17422163,10.019012,-5.533478,0.0,0.0,0.0,0.0,0.0,0.0,0.0,0.0,-3.8318367,0.0,0.0,nan,0.0,0.0,0.03651762,0.0,0.0,0.0,0.0,0.0,0.0,0.0,0.0,0.0
115183561,115082677,6.4365296,-3.6111479,-0.13191612,14.043976,-7.7979126,0.0,0.0,0.0,0.0,0.0,0.0,0.0,0.0,-3.5640945,0.0,0.0,nan,0.0,0.0,0.099241495,0.0,0.0,0.0,0.0,0.0,0.0,0.0,0.0,0.0
115682773,115582242,6.4055395,-3.5961363,-0.20207079,17.256287,-9.604248,0.0,0.0,0.0,0.0,0.0,0.0,0.0,0.0,-3.293621,0.0,0.0,nan,0.0,0.0,0.08563399,0.0,0.0,0.0,0.0,0.0,0.0,0.0,0.0,0.0
116172378,116071815,6.461992,-3.5172524,-0.16235648,19.680603,-10.93988,0.0,0.0,0.0,0.0,0.0,0.0,0.0,0.0,-3.5965347,0.0,0.0,nan,0.0,0.0,0.052758217,0.0,0.0,0.0,0.0,0.0,0.0,0.0,0.0,0.0
116671868,116571380,6.502606,-3.3697703,-0.096878745,22.946442,-12.653076,0.0,0.0,0.0,0.0,0.0,0.0,0.0,0.0,-3.641964,0.0,0.0,nan,0.0,0.0,0.04648924,0.0,0.0,0.0,0.0,0.0,0.0,0.0,0.0,0.0
117181474,117080937,6.5680118,-3.291131,-0.09814448,27.044312,-14.712067,0.0,0.0,0.0,0.0,0.0,0.0,0.0,0.0,-3.6969204,0.0,0.0,nan,0.0,0.0,0.06294584,0.0,0.0,0.0,0.0,0.0,0.0,0.0,0.0,0.0
117681039,117580502,6.4582443,-3.4392035,-0.14988706,30.32193,-16.397186,0.0,0.0,0.0,0.0,0.0,0.0,0.0,0.0,-3.6955833,0.0,0.0,nan,0.0,0.0,0.06607199,0.0,0.0,0.0,0.0,0.0,0.0,0.0,0.0,0.0
118180595,118080067,6.4342084,-3.4528666,-0.157281,33.53665,-18.130798,0.0,0.0,0.0,0.0,0.0,0.0,0.0,0.0,-3.961832,0.0,0.0,nan,0.0,0.0,0.110411644,0.0,0.0,0.0,0.0,0.0,0.0,0.0,0.0,0.0
118680243,118579632,6.3669786,-3.5047174,-0.13437454,36.73651,-19.875763,0.0,0.0,0.0,0.0,0.0,0.0,0.0,0.0,-3.8315754,0.0,0.0,nan,0.0,0.0,0.042224884,0.0,0.0,0.0,0.0,0.0,0.0,0.0,0.0,0.0
119179698,119079198,6.3756065,-3.4765813,-0.14374764,39.917816,-21.646057,0.0,0.0,0.0,0.0,0.0,0.0,0.0,0.0,-3.9895077,0.0,0.0,nan,0.0,0.0,0.08822131,0.0,0.0,0.0,0.0,0.0,0.0,0.0,0.0,0.0
119680047,119578763,6.3014765,-3.5258079,-0.14789684,43.09793,-23.400177,0.0,0.0,0.0,0.0,0.0,0.0,0.0,0.0,-4.0257244,0.0,0.0,nan,0.0,0.0,0.09386182,0.0,0.0,0.0,0.0,0.0,0.0,0.0,0.0,0.0
120178894,120078328,6.271781,-3.4171586,-0.09723923,46.255768,-25.124176,0.0,0.0,0.0,0.0,0.0,0.0,0.0,0.0,-3.9680424,0.0,0.0,nan,0.0,0.0,0.07836938,0.0,0.0,0.0,0.0,0.0,0.0,0.0,0.0,0.0
120678492,120577893,6.301492,-3.2796052,-0.07831548,49.413788,-26.799957,0.0,0.0,0.0,0.0,0.0,0.0,0.0,0.0,-4.091547,0.0,0.0,nan,0.0,0.0,0.06262803,0.0,0.0,0.0,0.0,0.0,0.0,0.0,0.0,0.0
121177970,121077459,6.2849574,-3.174479,-0.060500816,52.56024,-28.389526,0.0,0.0,0.0,0.0,0.0,0.0,0.0,0.0,-3.8910446,0.0,0.0,nan,0.0,0.0,0.05186081,0.0,0.0,0.0,0.0,0.0,0.0,0.0,0.0,0.0
121677539,121577024,6.289974,-3.0672016,-0.17190927,55.707428,-29.950409,0.0,0.0,0.0,0.0,0.0,0.0,0.0,0.0,-4.036783,0.0,0.0,nan,0.0,0.0,0.052384853,0.0,0.0,0.0,0.0,0.0,0.0,0.0,0.0,0.0
122177103,122076589,6.1968074,-3.1684117,-0.08897804,58.833862,-31.527802,0.0,0.0,0.0,0.0,0.0,0.0,0.0,0.0,-4.0132294,0.0,0.0,nan,0.0,0.0,0.05744934,0.0,0.0,0.0,0.0,0.0,0.0,0.0,0.0,0.0
122676677,122576155,6.062047,-3.3349607,-0.08380595,61.12384,-32.74231,0.0,0.0,0.0,0.0,0.0,0.0,0.0,0.0,-4.2392216,0.0,0.0,nan,0.0,0.0,0.066594124,0.0,0.0,0.0,0.0,0.0,0.0,0.0,0.0,0.0
123176197,123075720,5.939616,-3.3330736,-0.06211228,64.11493,-34.398834,0.0,0.0,0.0,0.0,0.0,0.0,0.0,0.0,-4.1324368,0.0,0.0,nan,0.0,0.0,0.06115532,0.0,0.0,0.0,0.0,0.0,0.0,0.0,0.0,0.0
123675779,123575286,5.838116,-3.2824614,-0.17072976,67.083466,-36.05606,0.0,0.0,0.0,0.0,0.0,0.0,0.0,0.0,-4.024349,0.0,0.0,nan,0.0,0.0,0.079093695,0.0,0.0,0.0,0.0,0.0,0.0,0.0,0.0,0.0
124175329,124074851,5.775303,-3.2524297,-0.118774466,70.019165,-37.695312,0.0,0.0,0.0,0.0,0.0,0.0,0.0,0.0,-4.5030212,0.0,0.0,nan,0.0,0.0,0.09068775,0.0,0.0,0.0,0.0,0.0,0.0,0.0,0.0,0.0
124674914,124574417,5.7298293,-3.183979,-0.12269902,72.91901,-39.301422,0.0,0.0,0.0,0.0,0.0,0.0,0.0,0.0,-4.5616817,0.0,0.0,nan,0.0,0.0,0.089867115,0.0,0.0,0.0,0.0,0.0,0.0,0.0,0.0,0.0
125174480,125073982,5.605546,-3.1426244,-0.17634791,75.774506,-40.897552,0.0,0.0,0.0,0.0,0.0,0.0,0.0,0.0,-4.2516804,0.0,0.0,nan,0.0,0.0,0.08083463,0.0,0.0,0.0,0.0,0.0,0.0,0.0,0.0,0.0
125674018,125573548,5.4898057,-3.1106646,-0.1202324,78.53375,-42.460938,0.0,0.0,0.0,0.0,0.0,0.0,0.0,0.0,-4.60487,0.0,0.0,nan,0.0,0.0,0.07904315,0.0,0.0,0.0,0.0,0.0,0.0,0.0,0.0,0.0
126183708,126083104,5.4386168,-3.2322989,-0.19273598,81.96112,-44.449524,0.0,0.0,0.0,0.0,0.0,0.0,0.0,0.0,-4.2222137,0.0,0.0,nan,0.0,0.0,0.08443546,0.0,0.0,0.0,0.0,0.0,0.0,0.0,0.0,0.0
126673143,126572679,5.3819675,-3.1733778,-0.14732045,84.00864,-45.645813,0.0,0.0,0.0,0.0,0.0,0.0,0.0,0.0,-4.2223377,0.0,0.0,nan,0.0,0.0,0.08505559,0.0,0.0,0.0,0.0,0.0,0.0,0.0,0.0,0.0
127172731,127072246,5.3071456,-3.182722,-0.075589724,86.694214,-47.229004,0.0,0.0,0.0,0.0,0.0,0.0,0.0,0.0,-4.726328,0.0,0.0,nan,0.0,0.0,0.07909155,0.0,0.0,0.0,0.0,0.0,0.0,0.0,0.0,0.0
127682596,127581803,-0.054613113,0.023722649,-0.054800346,-0.00036621094,0.011383057,0.0,0.0,0.0,0.0,0.0,0.0,0.0,0.0,-4.2033215,0.0,0.0,nan,0.0,0.0,0.07731056,0.0,0.0,0.0,0.0,0.0,0.0,0.0,0.0,0.0
128182331,128081492,-0.10997057,0.09027171,0.15087442,-0.023132324,0.019958496,0.0,0.0,0.0,0.0,0.0,0.0,0.0,0.0,-4.157177,0.0,0.0,nan,0.0,0.0,0.080672026,0.0,0.0,0.0,0.0,0.0,0.0,0.0,0.0,0.0
128681683,128581058,-0.15352058,0.03452182,0.12032814,-0.022521973,0.024749756,0.0,0.0,0.0,0.0,0.0,0.0,0.0,0.0,-4.1692715,0.0,0.0,nan,0.0,0.0,0.07961607,0.0,0.0,0.0,0.0,0.0,0.0,0.0,0.0,0.0
129181328,129080627,-0.22659254,0.0122509,0.12244794,-0.037902832,0.023895264,0.0,0.0,0.0,0.0,0.0,0.0,0.0,0.0,-4.095415,0.0,0.0,nan,0.0,0.0,0.0747416,0.0,0.0,0.0,0.0,0.0,0.0,0.0,0.0,0.0
129680996,129580189,-0.2509632,0.00915885,0.14570203,-0.06951904,0.02746582,0.0,0.0,0.0,0.0,0.0,0.0,0.0,0.0,-3.5575733,0.0,0.0,nan,0.0,0.0,0.08850956,0.0,0.0,0.0,0.0,0.0,0.0,0.0,0.0,0.0
130180409,130079755,-0.16189003,0.018410444,0.23476547,-0.10211182,0.044311523,0.0,0.0,0.0,0.0,0.0,0.0,0.0,0.0,-3.248146,0.0,0.0,nan,0.0,0.0,0.07405567,0.0,0.0,0.0,0.0,0.0,0.0,0.0,0.0,0.0
130680185,130579321,-0.13546085,0.0009794235,0.22409445,-0.081970215,0.018951416,0.0,0.0,0.0,0.0,0.0,0.0,0.0,0.0,-3.3568687,0.0,0.0,nan,0.0,0.0,0.047590256,0.0,0.0,0.0,0.0,0.0,0.0,0.0,0.0,0.0
131179445,131078887,-0.15182066,0.043777943,0.26104006,-0.08099365,0.025054932,0.0,0.0,0.0,0.0,0.0,0.0,0.0,0.0,-3.352188,0.0,0.0,nan,0.0,0.0,0.040161133,0.0,0.0,0.0,0.0,0.0,0.0,0.0,0.0,0.0
131679466,131578452,-0.084498405,0.0077939034,0.29386726,-0.080200195,0.01953125,0.0,0.0,0.0,0.0,0.0,0.0,0.0,0.0,-3.199934,0.0,0.0,nan,0.0,0.0,0.037284136,0.0,0.0,0.0,0.0,0.0,0.0,0.0,0.0,0.0
132178636,132078018,-0.13852882,0.015215397,0.3403854,-0.072631836,0.0262146,0.0,0.0,0.0,0.0,0.0,0.0,0.0,0.0,-2.7141685,0.0,0.0,nan,0.0,0.0,0.037415743,0.0,0.0,0.0,0.0,0.0,0.0,0.0,0.0,0.0
132678197,132577709,-0.0954752,-0.01883316,0.28035378,-0.07305908,0.034820557,0.0,0.0,0.0,0.0,0.0,0.0,0.0,0.0,-2.4841576,0.0,0.0,nan,0.0,0.0,0.04515314,0.0,0.0,0.0,0.0,0.0,0.0,0.0,0.0,0.0
133177942,133077275,-0.08126831,0.0020463467,0.356791,-0.043395996,0.02368164,0.0,0.0,0.0,0.0,0.0,0.0,0.0,0.0,-2.0225906,0.0,0.0,nan,0.0,0.0,0.052717686,0.0,0.0,0.0,0.0,0.0,0.0,0.0,0.0,0.0
133677401,133576716,-0.03281021,-0.022509813,0.3338703,-0.03704834,0.022125244,0.0,0.0,0.0,0.0,0.0,0.0,0.0,0.0,-2.0089207,0.0,0.0,nan,0.0,0.0,0.053393602,0.0,0.0,0.0,0.0,0.0,0.0,0.0,0.0,0.0
134176967,134076407,-0.04957676,-0.016919374,0.24800208,-0.022094727,0.019348145,0.0,0.0,0.0,0.0,0.0,0.0,0.0,0.0,-1.4112453,0.0,0.0,nan,0.0,0.0,0.05529642,0.0,0.0,0.0,0.0,0.0,0.0,0.0,0.0,0.0
134676598,134575973,0.008252382,-0.042372704,0.22381347,-0.016296387,0.018798828,0.0,0.0,0.0,0.0,0.0,0.0,0.0,0.0,-1.8386326,0.0,0.0,nan,0.0,0.0,0.04985261,0.0,0.0,0.0,0.0,0.0,0.0,0.0,0.0,0.0
135176213,135075538,0.00813365,-0.023496151,0.28920293,-0.030029297,0.032348633,0.0,0.0,0.0,0.0,0.0,0.0,0.0,0.0,-1.493124,0.0,0.0,nan,0.0,0.0,0.04847908,0.0,0.0,0.0,0.0,0.0,0.0,0.0,0.0,0.0
135675532,135575105,0.0123307705,0.0025949478,0.18634096,-0.02545166,0.030090332,0.0,0.0,0.0,0.0,0.0,0.0,0.0,0.0,-1.3012562,0.0,0.0,nan,0.0,0.0,0.052535534,0.0,0.0,0.0,0.0,0.0,0.0,0.0,0.0,0.0
136175135,136074670,-0.004798889,0.016791344,0.18363394,-0.022277832,0.03652954,0.0,0.0,0.0,0.0,0.0,0.0,0.0,0.0,-1.0317707,0.0,0.0,nan,0.0,0.0,0.047170162,0.0,0.0,0.0,0.0,0.0,0.0,0.0,0.0,0.0
136674647,136574236,0.030558825,-0.003790021,0.21914855,-0.014770508,0.038970947,0.0,0.0,0.0,0.0,0.0,0.0,0.0,0.0,-0.90418243,0.0,0.0,nan,0.0,0.0,0.053728104,0.0,0.0,0.0,0.0,0.0,0.0,0.0,0.0,0.0
137174294,137073678,0.024143457,-0.025460362,0.22960688,-0.043884277,0.05029297,0.0,0.0,0.0,0.0,0.0,0.0,0.0,0.0,-0.8329735,0.0,0.0,nan,0.0,0.0,0.043604612,0.0,0.0,0.0,0.0,0.0,0.0,0.0,0.0,0.0
137673775,137573369,-0.020647764,0.06755543,0.15487054,-0.0087890625,0.035095215,0.0,0.0,0.0,0.0,0.0,0.0,0.0,0.0,-0.81580544,0.0,0.0,nan,0.0,0.0,0.04716897,0.0,0.0,0.0,0.0,0.0,0.0,0.0,0.0,0.0
138173396,138072935,0.0033888817,-0.04595685,0.15319824,-0.003112793,0.024810791,0.0,0.0,0.0,0.0,0.0,0.0,0.0,0.0,-0.7605705,0.0,0.0,nan,0.0,0.0,0.03917408,0.0,0.0,0.0,0.0,0.0,0.0,0.0,0.0,0.0
138673111,138572501,0.04582858,0.10556817,0.032155015,0.0037231445,0.034973145,0.0,0.0,0.0,0.0,0.0,0.0,0.0,0.0,-0.855093,0.0,0.0,nan,0.0,0.0,0.049674273,0.0,0.0,0.0,0.0,0.0,0.0,0.0,0.0,0.0
139172513,139072067,0.027383566,-0.020775557,-0.028540991,0.0079956055,0.029449463,0.0,0.0,0.0,0.0,0.0,0.0,0.0,0.0,-0.5640049,0.0,0.0,nan,0.0,0.0,0.036235332,0.0,0.0,0.0,0.0,0.0,0.0,0.0,0.0,0.0
139682184,139581624,0.008295774,-0.039098024,0.080584794,-0.0008544922,0.04449463,0.0,0.0,0.0,0.0,0.0,0.0,0.0,0.0,-0.5585365,0.0,0.0,nan,0.0,0.0,0.024246454,0.0,0.0,0.0,0.0,0.0,0.0,0.0,0.0,0.0
140171661,140071199,0.03913212,-0.035422087,0.032539815,-0.0119018555,0.044403076,0.0,0.0,0.0,0.0,0.0,0.0,0.0,0.0,-0.4014244,0.0,0.0,nan,0.0,0.0,0.054887056,0.0,0.0,0.0,0.0,0.0,0.0,0.0,0.0,0.0
140671251,140570765,0.056301832,-0.025905967,0.052000433,0.0178833,0.034057617,0.0,0.0,0.0,0.0,0.0,0.0,0.0,0.0,-0.6049671,0.0,0.0,nan,0.0,0.0,0.04070878,0.0,0.0,0.0,0.0,0.0,0.0,0.0,0.0,0.0
141181189,141080323,0.035270214,-0.0669601,0.041425023,0.0146484375,0.01763916,0.0,0.0,0.0,0.0,0.0,0.0,0.0,0.0,-0.49025726,0.0,0.0,nan,0.0,0.0,0.038099527,0.0,0.0,0.0,0.0,0.0,0.0,0.0,0.0,0.0
141680553,141579889,0.11738229,-0.077008486,-0.052073978,0.023132324,0.0066223145,0.0,0.0,0.0,0.0,0.0,0.0,0.0,0.0,-0.20976448,0.0,0.0,nan,0.0,0.0,0.0280478,0.0,0.0,0.0,0.0,0.0,0.0,0.0,0.0,0.0
142179859,142079455,0.0934844,-0.007858276,-0.01272638,0.020324707,0.014678955,0.0,0.0,0.0,0.0,0.0,0.0,0.0,0.0,-0.42533112,0.0,0.0,nan,0.0,0.0,0.024938107,0.0,0.0,0.0,0.0,0.0,0.0,0.0,0.0,0.0
142679576,142579021,0.10796547,-0.048899412,-0.06425201,0.04144287,-0.0016784668,0.0,0.0,0.0,0.0,0.0,0.0,0.0,0.0,-0.06843758,0.0,0.0,nan,0.0,0.0,0.03450203,0.0,0.0,0.0,0.0,0.0,0.0,0.0,0.0,0.0
143179194,143078587,0.13389134,-0.009813547,3.9038714e-05,0.04046631,0.0021972656,0.0,0.0,0.0,0.0,0.0,0.0,0.0,0.0,-0.03566742,0.0,0.0,nan,0.0,0.0,0.017462969,0.0,0.0,0.0,0.0,0.0,0.0,0.0,0.0,0.0
143678914,143578278,0.115443945,-0.023139954,-0.056774177,0.049560547,-0.00045776367,0.0,0.0,0.0,0.0,0.0,0.0,0.0,0.0,0.31231308,0.0,0.0,nan,0.0,0.0,0.015824556,0.0,0.0,0.0,0.0,0.0,0.0,0.0,0.0,0.0
144178452,144077845,0.111299515,-0.045773625,0.04996767,0.047546387,-0.003753662,0.0,0.0,0.0,0.0,0.0,0.0,0.0,0.0,0.24439621,0.0,0.0,nan,0.0,0.0,0.015773773,0.0,0.0,0.0,0.0,0.0,0.0,0.0,0.0,0.0
144678050,144577411,0.055862427,-0.0297786,-0.010985029,0.041381836,0.0034484863,0.0,0.0,0.0,0.0,0.0,0.0,0.0,0.0,-0.17564774,0.0,0.0,nan,0.0,0.0,0.023695707,0.0,0.0,0.0,0.0,0.0,0.0,0.0,0.0,0.0
145177588,145076977,0.053969383,-0.041424513,-0.002766063,0.042663574,0.019561768,0.0,0.0,0.0,0.0,0.0,0.0,0.0,0.0,-0.120687485,0.0,0.0,nan,0.0,0.0,0.025925398,0.0,0.0,0.0,0.0,0.0,0.0,0.0,0.0,0.0
145677562,145576668,0.022666931,0.023236632,0.0002570618,0.041503906,0.027008057,0.0,0.0,0.0,0.0,0.0,0.0,0.0,0.0,-0.06373978,0.0,0.0,nan,0.0,0.0,0.027868032,0.0,0.0,0.0,0.0,0.0,0.0,0.0,0.0,0.0
146176968,146076235,0.02111268,-0.05180639,0.047303572,0.048828125,0.035736084,0.0,0.0,0.0,0.0,0.0,0.0,0.0,0.0,0.02558136,0.0,0.0,nan,0.0,0.0,0.020863056,0.0,0.0,0.0,0.0,0.0,0.0,0.0,0.0,0.0
146676386,146575801,0.012765884,0.007802129,-0.041711085,0.05517578,0.042907715,0.0,0.0,0.0,0.0,0.0,0.0,0.0,0.0,-0.08293533,0.0,0.0,nan,0.0,0.0,0.03075695,0.0,0.0,0.0,0.0,0.0,0.0,0.0,0.0,0.0
147175952,147075368,-0.0075633526,-0.02185905,0.0032479428,0.049194336,0.045928955,0.0,0.0,0.0,0.0,0.0,0.0,0.0,0.0,-0.04286766,0.0,0.0,nan,0.0,0.0,0.040439606,0.0,0.0,0.0,0.0,0.0,0.0,0.0,0.0,0.0
147675344,147574934,0.0014683008,-0.040746927,-0.017228529,0.030822754,0.04269409,0.0,0.0,0.0,0.0,0.0,0.0,0.0,0.0,-0.14598846,0.0,0.0,nan,0.0,0.0,0.03463745,0.0,0.0,0.0,0.0,0.0,0.0,0.0,0.0,0.0
148174972,148074500,0.020930886,-0.05348873,0.04685584,0.02960205,0.04309082,0.0,0.0,0.0,0.0,0.0,0.0,0.0,0.0,-0.16811562,0.0,0.0,nan,0.0,0.0,0.03211546,0.0,0.0,0.0,0.0,0.0,0.0,0.0,0.0,0.0
148674529,148574067,-0.036334395,-0.0036637187,-0.057433322,0.027038574,0.039001465,0.0,0.0,0.0,0.0,0.0,0.0,0.0,0.0,-0.17388725,0.0,0.0,nan,0.0,0.0,0.003349781,0.0,0.0,0.0,0.0,0.0,0.0,0.0,0.0,0.0
149174074,149073633,0.053878546,-0.035300374,-0.029573536,0.039733887,0.031555176,0.0,0.0,0.0,0.0,0.0,0.0,0.0,0.0,0.021249771,0.0,0.0,nan,0.0,0.0,-0.009066582,0.0,0.0,0.0,0.0,0.0,0.0,0.0,0.0,0.0
149673608,149573200,-0.024543881,-0.03205836,-0.02329274,0.024780273,0.031829834,0.0,0.0,0.0,0.0,0.0,0.0,0.0,0.0,-0.5607586,0.0,0.0,nan,0.0,0.0,-0.03151226,0.0,0.0,0.0,0.0,0.0,0.0,0.0,0.0,0.0
150183971,150082758,0.045555234,0.0062456727,-0.07114166,0.023742676,0.03201294,0.0,0.0,0.0,0.0,0.0,0.0,0.0,0.0,-0.10843086,0.0,0.0,nan,0.0,0.0,-0.043643236,0.0,0.0,0.0,0.0,0.0,0.0,0.0,0.0,0.0
150682894,150582324,0.022727847,-0.0333305,0.017185098,0.0099487305,0.024841309,0.0,0.0,0.0,0.0,0.0,0.0,0.0,0.0,-0.30049515,0.0,0.0,nan,0.0,0.0,-0.045867205,0.0,0.0,0.0,0.0,0.0,0.0,0.0,0.0,0.0
151172307,151071899,-0.018362641,-0.01253283,-0.08263639,0.022155762,0.017852783,0.0,0.0,0.0,0.0,0.0,0.0,0.0,0.0,0.041849136,0.0,0.0,nan,0.0,0.0,-0.04137945,0.0,0.0,0.0,0.0,0.0,0.0,0.0,0.0,0.0
151671947,151571467,0.0065772533,-0.01571244,0.0066282917,0.012451172,0.01159668,0.0,0.0,0.0,0.0,0.0,0.0,0.0,0.0,0.21685791,0.0,0.0,nan,0.0,0.0,-0.03285575,0.0,0.0,0.0,0.0,0.0,0.0,0.0,0.0,0.0
152181585,152081026,0.001978159,-0.053590953,0.0028136931,0.003967285,0.005218506,0.0,0.0,0.0,0.0,0.0,0.0,0.0,0.0,-0.110897064,0.0,0.0,nan,0.0,0.0,-0.028740168,0.0,0.0,0.0,0.0,0.0,0.0,0.0,0.0,0.0
152681284,152580591,0.026163936,0.010899365,0.07418263,-0.0004272461,-0.004333496,0.0,0.0,0.0,0.0,0.0,0.0,0.0,0.0,-0.098127365,0.0,0.0,nan,0.0,0.0,-0.021744251,0.0,0.0,0.0,0.0,0.0,0.0,0.0,0.0,0.0
153180781,153080157,-0.03865719,-0.011513412,-0.017437123,-0.008605957,-0.00491333,0.0,0.0,0.0,0.0,0.0,0.0,0.0,0.0,0.06451225,0.0,0.0,nan,0.0,0.0,-0.012511492,0.0,0.0,0.0,0.0,0.0,0.0,0.0,0.0,0.0
153680635,153579724,-0.007822156,-0.030122101,-0.06527273,-0.0064086914,-0.012664795,0.0,0.0,0.0,0.0,0.0,0.0,0.0,0.0,-0.3634224,0.0,0.0,nan,0.0,0.0,-0.010236502,0.0,0.0,0.0,0.0,0.0,0.0,0.0,0.0,0.0
154180255,154079290,0.016814291,-0.014103472,0.016718516,-0.008422852,-0.004638672,0.0,0.0,0.0,0.0,0.0,0.0,0.0,0.0,0.06469345,0.0,0.0,nan,0.0,0.0,-0.0064923763,0.0,0.0,0.0,0.0,0.0,0.0,0.0,0.0,0.0
154680597,154578857,-0.016492248,0.0037030578,0.01307678,-0.008239746,-0.010375977,0.0,0.0,0.0,0.0,0.0,0.0,0.0,0.0,0.059963226,0.0,0.0,nan,0.0,0.0,-0.0024061203,0.0,0.0,0.0,0.0,0.0,0.0,0.0,0.0,0.0
155178981,155078424,-0.0037016273,-0.07994127,0.020450061,-0.008666992,-0.007171631,0.0,0.0,0.0,0.0,0.0,0.0,0.0,0.0,-0.021068573,0.0,0.0,nan,0.0,0.0,0.008306026,0.0,0.0,0.0,0.0,0.0,0.0,0.0,0.0,0.0
155679018,155577990,0.67242706,-0.31187746,0.048928037,0.9472046,-0.4386902,0.0,0.0,0.0,0.0,0.0,0.0,0.0,0.0,0.13926506,0.0,0.0,nan,0.0,0.0,0.009251356,0.0,0.0,0.0,0.0,0.0,0.0,0.0,0.0,0.0
156178869,156077557,0.53301525,-0.24047598,0.014230317,1.1621704,-0.50201416,0.0,0.0,0.0,0.0,0.0,0.0,0.0,0.0,0.048994064,0.0,0.0,nan,0.0,0.0,0.007294178,0.0,0.0,0.0,0.0,0.0,0.0,0.0,0.0,0.0
156678585,156577124,0.5398019,-0.24930073,0.0737591,1.3197021,-0.5585327,0.0,0.0,0.0,0.0,0.0,0.0,0.0,0.0,-0.005596161,0.0,0.0,nan,0.0,0.0,0.007936716,0.0,0.0,0.0,0.0,0.0,0.0,0.0,0.0,0.0
157178087,157076691,0.37245002,-0.14161378,-0.0057011675,1.430481,-0.5959778,0.0,0.0,0.0,0.0,0.0,0.0,0.0,0.0,0.055950165,0.0,0.0,nan,0.0,0.0,0.005810976,0.0,0.0,0.0,0.0,0.0,0.0,0.0,0.0,0.0
157677157,157576258,0.29992935,-0.14346574,-0.04642643,1.4679565,-0.5901184,0.0,0.0,0.0,0.0,0.0,0.0,0.0,0.0,-0.08355713,0.0,0.0,nan,0.0,0.0,0.0018005371,0.0,0.0,0.0,0.0,0.0,0.0,0.0,0.0,0.0
158177336,158075825,0.19300778,-0.07146895,-0.03645633,1.4842529,-0.57577515,0.0,0.0,0.0,0.0,0.0,0.0,0.0,0.0,0.00025749207,0.0,0.0,nan,0.0,0.0,0.004303694,0.0,0.0,0.0,0.0,0.0,0.0,0.0,0.0,0.0
158676879,158575391,0.12246114,-0.015431352,0.08409012,1.4665527,-0.53759766,0.0,0.0,0.0,0.0,0.0,0.0,0.0,0.0,0.06320953,0.0,0.0,nan,0.0,0.0,0.0050415993,0.0,0.0,0.0,0.0,0.0,0.0,0.0,0.0,0.0
159177109,159074958,0.07144045,-0.040866196,0.03231013,1.4075928,-0.4985962,0.0,0.0,0.0,0.0,0.0,0.0,0.0,0.0,0.07589531,0.0,0.0,nan,0.0,0.0,0.006677866,0.0,0.0,0.0,0.0,0.0,0.0,0.0,0.0,0.0
159675018,159574525,-0.08598298,0.05305195,-0.036711503,1.3370361,-0.4647522,0.0,0.0,0.0,0.0,0.0,0.0,0.0,0.0,0.09620857,0.0,0.0,nan,0.0,0.0,0.0052731037,0.0,0.0,0.0,0.0,0.0,0.0,0.0,0.0,0.0
160174521,160074092,-0.00656237,0.015507617,-0.0021913578,1.2536011,-0.4176941,0.0,0.0,0.0,0.0,0.0,0.0,0.0,0.0,-0.15395355,0.0,0.0,nan,0.0,0.0,0.006572962,0.0,0.0,0.0,0.0,0.0,0.0,0.0,0.0,0.0
160674076,160573659,0.02363706,0.009009305,-0.030093102,1.1764526,-0.37295532,0.0,0.0,0.0,0.0,0.0,0.0,0.0,0.0,-0.07497978,0.0,0.0,nan,0.0,0.0,0.011514902,0.0,0.0,0.0,0.0,0.0,0.0,0.0,0.0,0.0
161183825,161083218,-0.0034600534,0.0022828598,-0.059850883,1.1054077,-0.33828735,0.0,0.0,0.0,0.0,0.0,0.0,0.0,0.0,-0.24213219,0.0,0.0,nan,0.0,0.0,0.012085915,0.0,0.0,0.0,0.0,0.0,0.0,0.0,0.0,0.0
161673210,161572793,0.024050206,-0.0012468728,0.01675137,1.0726318,-0.308136,0.0,0.0,0.0,0.0,0.0,0.0,0.0,0.0,0.09201813,0.0,0.0,nan,0.0,0.0,0.0130672455,0.0,0.0,0.0,0.0,0.0,0.0,0.0,0.0,0.0
162172824,162072360,-0.03830096,0.008316921,-0.0015840278,1.0291138,-0.28286743,0.0,0.0,0.0,0.0,0.0,0.0,0.0,0.0,0.17816544,0.0,0.0,nan,0.0,0.0,0.012673855,0.0,0.0,0.0,0.0,0.0,0.0,0.0,0.0,0.0
162682531,162581919,0.04936853,0.018343244,-0.035222214,0.97875977,-0.24880981,0.0,0.0,0.0,0.0,0.0,0.0,0.0,0.0,-0.073610306,0.0,0.0,nan,0.0,0.0,0.013444185,0.0,0.0,0.0,0.0,0.0,0.0,0.0,0.0,0.0
163182061,163081486,-0.00868548,0.018252773,-0.043292888,0.94537354,-0.22772217,0.0,0.0,0.0,0.0,0.0,0.0,0.0,0.0,0.093551636,0.0,0.0,nan,0.0,0.0,0.012763262,0.0,0.0,0.0,0.0,0.0,0.0,0.0,0.0,0.0
163681607,163581053,-0.01193691,0.0042697475,0.025536712,0.9038086,-0.20172119,0.0,0.0,0.0,0.0,0.0,0.0,0.0,0.0,0.25968552,0.0,0.0,nan,0.0,0.0,0.013879538,0.0,0.0,0.0,0.0,0.0,0.0,0.0,0.0,0.0
164181215,164080620,-0.0065830695,-0.016224805,0.009212168,0.8768921,-0.18380737,0.0,0.0,0.0,0.0,0.0,0.0,0.0,0.0,0.008991241,0.0,0.0,nan,0.0,0.0,0.019092321,0.0,0.0,0.0,0.0,0.0,0.0,0.0,0.0,0.0
164680848,164580187,-0.033741813,0.009750195,0.015113559,0.8526001,-0.159729,0.0,0.0,0.0,0.0,0.0,0.0,0.0,0.0,-0.15991974,0.0,0.0,nan,0.0,0.0,0.011746407,0.0,0.0,0.0,0.0,0.0,0.0,0.0,0.0,0.0
165180316,165079754,0.036287356,0.010189074,0.06284799,0.8319092,-0.13568115,0.0,0.0,0.0,0.0,0.0,0.0,0.0,0.0,0.019323349,0.0,0.0,nan,0.0,0.0,0.009865761,0.0,0.0,0.0,0.0,0.0,0.0,0.0,0.0,0.0
165679923,165579322,0.009789643,-0.009722212,-0.0037777836,0.8112793,-0.1222229,0.0,0.0,0.0,0.0,0.0,0.0,0.0,0.0,0.056518555,0.0,0.0,nan,0.0,0.0,0.010832787,0.0,0.0,0.0,0.0,0.0,0.0,0.0,0.0,0.0
166179443,166078889,-0.028983328,-0.01951561,0.012248759,0.7930908,-0.100982666,0.0,0.0,0.0,0.0,0.0,0.0,0.0,0.0,-0.024385452,0.0,0.0,nan,0.0,0.0,0.010306597,0.0,0.0,0.0,0.0,0.0,0.0,0.0,0.0,0.0
166679006,166578456,0.010886946,0.020352527,0.06903202,0.77679443,-0.08862305,0.0,0.0,0.0,0.0,0.0,0.0,0.0,0.0,0.0043792725,0.0,0.0,nan,0.0,0.0,0.010071278,0.0,0.0,0.0,0.0,0.0,0.0,0.0,0.0,0.0
167178927,167078023,-0.024803735,-0.007744844,0.06973357,0.74975586,-0.06851196,0.0,0.0,0.0,0.0,0.0,0.0,0.0,0.0,-0.19299889,0.0,0.0,nan,0.0,0.0,0.009100676,0.0,0.0,0.0,0.0,0.0,0.0,0.0,0.0,0.0
167678271,167577591,0.011948481,0.020735223,-0.017766912,0.72662354,-0.057250977,0.0,0.0,0.0,0.0,0.0,0.0,0.0,0.0,-0.059368134,0.0,0.0,nan,0.0,0.0,0.001909256,0.0,0.0,0.0,0.0,0.0,0.0,0.0,0.0,0.0
168177729,168077158,-0.014862459,0.04349557,0.020026453,0.71417236,-0.047027588,0.0,0.0,0.0,0.0,0.0,0.0,0.0,0.0,-0.10885811,0.0,0.0,nan,0.0,0.0,0.0044546127,0.0,0.0,0.0,0.0,0.0,0.0,0.0,0.0,0.0
168677328,168576725,0.013282549,-0.009170995,-0.0038605453,0.69262695,-0.036743164,0.0,0.0,0.0,0.0,0.0,0.0,0.0,0.0,0.13207626,0.0,0.0,nan,0.0,0.0,0.00035309792,0.0,0.0,0.0,0.0,0.0,0.0,0.0,0.0,0.0
169176879,169076292,-0.005714287,-0.0133886,-0.074494384,0.68273926,-0.027008057,0.0,0.0,0.0,0.0,0.0,0.0,0.0,0.0,0.08440399,0.0,0.0,nan,0.0,0.0,0.001603365,0.0,0.0,0.0,0.0,0.0,0.0,0.0,0.0,0.0
169676488,169575860,-0.009370033,-0.01686468,-0.015341452,0.6637573,-0.025970459,0.0,0.0,0.0,0.0,0.0,0.0,0.0,0.0,0.00019073486,0.0,0.0,nan,0.0,0.0,-0.0010371208,0.0,0.0,0.0,0.0,0.0,0.0,0.0,0.0,0.0
170175931,170075429,0.036429077,0.0016370463,-0.00031881896,0.6497803,-0.032714844,0.0,0.0,0.0,0.0,0.0,0.0,0.0,0.0,-0.33645248,0.0,0.0,nan,0.0,0.0,0.0012745857,0.0,0.0,0.0,0.0,0.0,0.0,0.0,0.0,0.0
170675626,170574995,0.0053767217,0.034830194,0.053399984,0.6277466,-0.031921387,0.0,0.0,0.0,0.0,0.0,0.0,0.0,0.0,-0.08657265,0.0,0.0,nan,0.0,0.0,-0.00027775764,0.0,0.0,0.0,0.0,0.0,0.0,0.0,0.0,0.0
171174967,171074562,0.03549698,0.008310769,0.0045529995,0.6152344,-0.039886475,0.0,0.0,0.0,0.0,0.0,0.0,0.0,0.0,-0.0008583069,0.0,0.0,nan,0.0,0.0,0.0020945072,0.0,0.0,0.0,0.0,0.0,0.0,0.0,0.0,0.0
171674664,171574254,-0.036374737,-0.0030957125,-0.018170543,0.58843994,-0.047180176,0.0,0.0,0.0,0.0,0.0,0.0,0.0,0.0,-0.33675575,0.0,0.0,nan,0.0,0.0,-0.002522707,0.0,0.0,0.0,0.0,0.0,0.0,0.0,0.0,0.0
172174332,172073822,0.02817675,0.001052408,0.02075511,0.5740967,-0.054626465,0.0,0.0,0.0,0.0,0.0,0.0,0.0,0.0,-0.0028209686,0.0,0.0,nan,0.0,0.0,-0.0018959045,0.0,0.0,0.0,0.0,0.0,0.0,0.0,0.0,0.0
172673815,172573389,0.00056539895,-0.017340535,0.021800807,0.5491333,-0.06188965,0.0,0.0,0.0,0.0,0.0,0.0,0.0,0.0,0.07852936,0.0,0.0,nan,0.0,0.0,-0.0015585423,0.0,0.0,0.0,0.0,0.0,0.0,0.0,0.0,0.0
173173441,173072957,-0.01018748,-0.013298767,0.0029632433,0.53533936,-0.060302734,0.0,0.0,0.0,0.0,0.0,0.0,0.0,0.0,-0.0033187866,0.0,0.0,nan,0.0,0.0,-0.0036752224,0.0,0.0,0.0,0.0,0.0,0.0,0.0,0.0,0.0
173672967,173572524,-0.026948413,-0.007394892,-0.028954156,0.52301025,-0.058441162,0.0,0.0,0.0,0.0,0.0,0.0,0.0,0.0,-0.088581085,0.0,0.0,nan,0.0,0.0,-0.003664732,0.0,0.0,0.0,0.0,0.0,0.0,0.0,0.0,0.0
174182772,174082083,-0.002862481,0.03427722,-0.032334015,0.49682617,-0.056671143,0.0,0.0,0.0,0.0,0.0,0.0,0.0,0.0,-0.0040073395,0.0,0.0,nan,0.0,0.0,-0.006709814,0.0,0.0,0.0,0.0,0.0,0.0,0.0,0.0,0.0
174682254,174581651,0.02708953,0.0067426087,0.06071788,0.48547363,-0.046569824,0.0,0.0,0.0,0.0,0.0,0.0,0.0,0.0,0.07629776,0.0,0.0,nan,0.0,0.0,-0.008029938,0.0,0.0,0.0,0.0,0.0,0.0,0.0,0.0,0.0
175171743,175071227,0.002217277,-0.020896798,0.04336214,0.48876953,-0.045898438,0.0,0.0,0.0,0.0,0.0,0.0,0.0,0.0,0.028749466,0.0,0.0,nan,0.0,0.0,-0.006947756,0.0,0.0,0.0,0.0,0.0,0.0,0.0,0.0,0.0
175671204,175570794,0.0045789056,-0.010402125,0.0073668775,0.46673584,-0.053649902,0.0,0.0,0.0,0.0,0.0,0.0,0.0,0.0,-0.076070786,0.0,0.0,nan,0.0,0.0,-0.008149862,0.0,0.0,0.0,0.0,0.0,0.0,0.0,0.0,0.0
176181371,176080353,-0.005984921,0.0128702205,-0.014871679,0.45422363,-0.043823242,0.0,0.0,0.0,0.0,0.0,0.0,0.0,0.0,0.09975433,0.0,0.0,nan,0.0,0.0,-0.008923769,0.0,0.0,0.0,0.0,0.0,0.0,0.0,0.0,0.0
176680494,176579922,-0.028107578,0.009663723,0.022229716,0.444458,-0.042633057,0.0,0.0,0.0,0.0,0.0,0.0,0.0,0.0,0.0062332153,0.0,0.0,nan,0.0,0.0,-0.0077962875,0.0,0.0,0.0,0.0,0.0,0.0,0.0,0.0,0.0
