timestamp,timestamp_sample,device_id,x,y,z,temperature,error_count,clip_counter[0],clip_counter[1],clip_counter[2],samples
17591027,17590660,3932210,-0.08475474,0.029927522,-9.845675,35.624237,0,0,0,0,10
18590120,18589754,3932210,-0.08595184,0.01316811,-9.831071,35.526318,0,0,0,0,10
19589214,19588849,3932210,-0.12856863,0.016998833,-9.8483095,35.624237,0,0,0,0,10
20590931,20590568,3932210,-0.12306197,0.026096798,-9.857168,35.673195,0,0,0,0,10
21587527,21587167,3932210,-0.10630256,0.038307227,-9.81072,35.869034,0,0,0,0,10
22589127,22588763,3932210,-0.09744401,0.033039983,-9.842803,35.820072,0,0,0,0,10
23590845,23590485,3932210,-0.057939682,0.100795895,-9.871533,35.869034,0,0,0,0,10
24587452,24587087,3932210,-0.1400608,0.011971009,-9.805693,35.820072,0,0,0,0,10
25589046,25588685,3932210,-0.18004397,0.094570965,-9.983342,35.966953,0,0,0,0,10
26590646,26590285,3932210,-0.045489833,0.016041152,-9.933543,35.869034,0,0,0,0,10
27592314,27591885,3932210,-0.15251064,0.058418524,-9.84807,35.771114,0,0,0,0,10
28589010,28588490,3932210,-0.11061212,-0.058657944,-9.791327,36.01591,0,0,0,0,10
29590456,29590091,3932210,-0.14197616,-0.08738837,-9.812875,35.966953,0,0,0,0,10
30589557,30589196,3932210,-0.09744401,0.0081402855,-9.927318,36.064873,0,0,0,0,10
31591162,31590799,3932210,-0.13718776,-0.018674774,-9.947908,35.869034,0,0,0,0,10
32587768,32587407,3932210,-0.14508863,0.11683705,-9.904813,36.064873,0,0,0,0,10
33589375,33589011,3932210,-0.1328782,0.16041152,-9.742247,36.162792,0,0,0,0,10
34590977,34590616,3932210,-0.07374141,0.065122284,-9.729796,35.966953,0,0,0,0,10
35587589,35587226,3932210,0.21188685,0.048362873,-9.85238,36.162792,0,0,0,0,10
36589196,36588832,3932210,0.5650316,0.31747115,-10.790428,36.01591,0,0,0,0,10
37590800,37590439,3932210,2.7267563,1.9984401,-15.4117155,36.064873,0,0,0,0,10
38592411,38592050,3932210,-0.95361054,-0.11563994,2.1600487,36.30967,0,0,0,0,10
39589026,39588663,3932210,-0.10223241,-0.8408436,-18.609173,36.30967,0,0,0,0,10
40590634,40590273,3932210,-2.217749,-1.9773712,-20.172346,36.162792,0,0,0,0,10
41589873,41589511,3932210,0.8566454,0.073023155,-9.58351,36.30967,0,0,0,0,10
42588985,42588625,3932210,-0.3172317,-0.2624045,-9.862435,36.35863,0,0,0,0,10
43590623,43590236,3932210,-0.23463178,-0.0031124623,-9.23276,36.40759,0,0,0,0,10
44589736,44589351,3932210,-0.04213795,-0.5243302,-9.734585,36.30967,0,0,0,0,10
45591346,45590963,3932210,-0.16879122,-0.13934255,-9.801622,36.35863,0,0,0,0,10
46590461,46590078,3932210,-0.11372458,0.12641385,-9.578722,36.50551,0,0,0,0,10
47589577,47589193,3932210,0.17070659,-0.04094085,-10.00082,36.554466,0,0,0,0,10
48591197,48590807,3932210,0.33518824,-0.6361394,-9.701784,36.35863,0,0,0,0,10
49587806,49587426,3932210,-0.074220255,-0.41036618,-9.840648,36.50551,0,0,0,0,10
50589407,50589040,3932210,-0.24109611,-0.12976573,-10.060914,36.50551,0,0,0,0,10
51591016,51590655,3932210,-0.05554548,0.25689784,-9.682631,36.50551,0,0,0,0,10
52592632,52592270,3932210,0.04141969,-0.96917284,-9.960836,36.50551,0,0,0,0,10
53589254,53588890,3932210,-0.115879364,0.030645782,-9.781272,36.554466,0,0,0,0,10
54590872,54590506,3932210,0.009337387,0.14221558,-9.7614,36.701347,0,0,0,0,10
55590020,55589625,3932210,-0.05267244,0.39815575,-10.038888,36.50551,0,0,0,0,10
56589106,56588743,3932210,-0.02705448,-0.346441,-9.911516,36.701347,0,0,0,0,10
57590727,57590361,3932210,0.1436521,-0.5434838,-9.985976,36.50551,0,0,0,0,10
58589840,58589480,3932210,-0.0114921685,-0.2705448,-9.902897,36.701347,0,0,0,0,10
59591479,59591097,3932210,-0.05626374,0.19776106,-9.871055,36.50551,0,0,0,0,10
60588079,60587719,3932210,0.0842759,-0.23080105,-9.905052,36.554466,0,0,0,0,10
61589700,61589338,3932210,-0.033518825,-0.52385134,-9.818622,36.50551,0,0,0,0,10
62591317,62590956,3932210,-0.022505496,0.19728222,-9.759006,36.554466,0,0,0,0,10
63587940,63587579,3932210,-0.07326257,0.010055647,-9.834662,36.40759,0,0,0,0,10
64589558,64589197,3932210,-0.018674774,-0.21188685,-9.72022,36.603428,0,0,0,0,10
65591186,65590817,3932210,-0.047884036,-0.11923125,-9.814551,36.603428,0,0,0,0,10
66592796,66592436,3932210,0.13335703,0.33423057,-9.8437605,36.50551,0,0,0,0,10
67589422,67589060,3932210,0.097922854,-0.14508863,-9.714474,36.554466,0,0,0,0,10
68591080,68590681,3932210,0.024660278,-0.24420857,-9.86028,36.554466,0,0,0,0,10
69590165,69589805,3932210,0.10151415,0.00023942017,-9.968738,36.554466,0,0,0,0,10
70589294,70588929,3932210,-0.08619126,-0.08331822,-9.962274,36.848225,0,0,0,0,10
71588413,71588053,3932210,-0.0062249247,-0.2372654,-9.857408,36.554466,0,0,0,0,10
72590045,72589674,3932210,-0.033279404,-0.13694833,-9.860759,36.50551,0,0,0,0,10
73591782,73591296,3932210,-0.08092402,-0.11611878,-9.952218,36.848225,0,0,0,0,10
74588412,74588048,3932210,0.033997666,-0.39695865,-9.838972,36.701347,0,0,0,0,10
75590072,75589671,3932210,-0.010773907,0.2171541,-9.7719345,36.554466,0,0,0,0,10
76589155,76588794,3932210,-0.089303724,-0.13215993,-9.944796,36.701347,0,0,0,0,10
77588279,77587918,3932210,0.015083471,-0.12665327,-9.917023,36.701347,0,0,0,0,10
78589904,78589541,3932210,-0.011731588,-0.12952632,-9.821494,36.750305,0,0,0,0,10
79591523,79591163,3932210,0.12473791,-0.14484921,-9.941204,36.848225,0,0,0,0,10
80590649,80590288,3932210,0.093373865,-0.085233584,-9.877279,36.603428,0,0,0,0,10
81589774,81589413,3932210,0.18243816,-0.19991584,-9.778159,36.750305,0,0,0,0,10
82588901,82588539,3932210,-0.016041152,0.11492168,-9.956528,36.946144,0,0,0,0,10
83590527,83590162,3932210,0.09289502,0.0057460843,-9.677842,36.603428,0,0,0,0,10
84589650,84589287,3932210,-0.19823991,-0.014844051,-9.511924,36.701347,0,0,0,0,10
85588776,85588413,3932210,-0.068474166,-0.12569559,-9.787018,36.554466,0,0,0,0,10
86590396,86590037,3932210,-0.036870707,-0.22098482,-10.05876,36.701347,0,0,0,0,10
87592023,87591661,3932210,0.009097966,0.038546648,-9.715431,36.897186,0,0,0,0,10
88588648,88588289,3932210,0.07182605,0.0114921685,-9.895236,36.701347,0,0,0,0,10
89590276,89589913,3932210,0.17549498,0.051714756,-9.616311,36.848225,0,0,0,0,10
90591898,90591537,3932210,-0.013407529,-0.16759412,-9.752542,36.897186,0,0,0,0,10
91588529,91588166,3932210,-0.08475474,-0.45034933,-9.909362,36.848225,0,0,0,0,10
92590150,92589791,3932210,-0.18195933,-0.07230489,-9.617747,36.603428,0,0,0,0,10
93589352,93588918,3932210,-0.10749966,-0.10390835,-9.899785,37.044064,0,0,0,0,10
94590906,94590543,3932210,-0.20494367,0.065122284,-9.561484,37.044064,0,0,0,0,10
95590035,95589670,3932210,-0.06536171,0.016041152,-9.861478,36.946144,0,0,0,0,10
96589181,96588797,3932210,0.0050278236,-0.3725378,-10.053493,36.946144,0,0,0,0,10
97590783,97590422,3932210,-0.20614077,-0.08595184,-9.731233,36.554466,0,0,0,0,10
98587441,98587052,3932210,-0.17525557,0.27365726,-9.993398,36.848225,0,0,0,0,10
99589062,99588678,3932210,-0.1482011,-0.45250413,-9.817424,36.848225,0,0,0,0,10
100590692,100590305,3932210,-0.08906431,-0.24779987,-9.783426,36.946144,0,0,0,0,10
101592313,101591932,3932210,-0.104387194,0.115161106,-9.851662,36.946144,0,0,0,0,10
102588949,102588563,3932210,-0.14269443,-0.13311762,-9.665392,36.701347,0,0,0,0,10
103590575,103590190,3932210,-0.12808979,-0.022266077,-9.906249,36.701347,0,0,0,0,10
104592206,104591817,3932210,-0.17645267,-0.09935937,-9.608411,36.946144,0,0,0,0,10
105588833,105588448,3932210,-0.16903064,-0.079008654,-9.826522,36.946144,0,0,0,0,10
106590465,106590075,3932210,-0.20997149,0.19871874,-9.873688,36.897186,0,0,0,0,10
107589591,107589204,3932210,-0.22170308,-0.026096798,-9.621818,36.848225,0,0,0,0,10
108591377,108590707,3932210,-0.1316811,-0.10582372,-9.804735,36.848225,0,0,0,0,10
109587885,109587463,3932210,-0.20254947,0.20925324,-9.869139,36.946144,0,0,0,0,10
110589474,110589090,3932210,-0.2384625,-0.67253125,-9.8612385,36.897186,0,0,0,0,10
111588618,111588220,3932210,-0.227928,0.0545878,-9.723811,36.603428,0,0,0,0,10
112587736,112587350,3932210,-0.11779472,-0.16472107,-9.739852,36.946144,0,0,0,0,10
113589386,113588977,3932210,-0.15418659,-0.07158663,-9.928994,37.044064,0,0,0,0,10
114590987,114590605,3932210,-0.07278373,-0.25091234,-9.820058,37.093025,0,0,0,0,10
115592618,115592233,3932210,-0.28491,-0.14724341,-9.862435,36.897186,0,0,0,0,10
116589250,116588865,3932210,-0.25905263,-0.09026141,-9.796834,36.946144,0,0,0,0,10
117590882,117590493,3932210,-0.16950949,-0.19536686,-9.927797,37.044064,0,0,0,0,10
118590013,118589624,3932210,-0.18914193,-0.4012682,-9.840408,36.701347,0,0,0,0,10
119589143,119588754,3932210,-0.1838747,-0.17022774,-9.937853,36.946144,0,0,0,0,10
120590767,120590383,3932210,-0.23199815,0.017238252,-9.825325,36.946144,0,0,0,0,10
121589897,121589513,3932210,0.13455413,-0.23798366,-9.65821,36.848225,0,0,0,0,10
122589031,122588644,3932210,0.10534488,-0.42688617,-9.849028,36.750305,0,0,0,0,10
123588157,123587775,3932210,-0.034237083,0.048602294,-9.743683,37.093025,0,0,0,0,10
124589794,124589404,3932210,-0.056982,0.2573767,-9.818861,37.044064,0,0,0,0,10
125591414,125591032,3932210,-0.83629465,0.36703113,-9.875364,36.946144,0,0,0,0,10
126588080,126587667,3932210,-0.7781156,-0.6698976,11.162487,36.946144,0,0,0,0,10
127589780,127589295,3932210,-1.68887,1.7939754,8.14268,36.946144,0,0,0,0,10
128591414,128591049,3932210,-0.17764977,-0.28275523,-26.420734,36.848225,0,0,0,0,10
129590593,129590181,3932210,-0.29735985,1.5028404,6.6659365,37.044064,0,0,0,0,10
130589673,130589312,3932210,1.8878281,0.22720975,-4.363433,36.897186,0,0,0,0,10
131588806,131588444,3932210,0.7769185,0.88848823,-24.171621,36.897186,0,0,0,0,10
132590559,132590198,3932210,-0.8588002,-0.8245631,-9.589736,36.848225,0,0,0,0,10
133589690,133589330,3932210,1.6551117,2.255817,-13.1283655,37.044064,0,0,0,0,10
134588822,134588462,3932210,-2.858198,-1.1073183,-7.1715918,37.093025,0,0,0,0,10
135590455,135590091,3932210,-4.6835375,2.02334,-12.492705,36.897186,0,0,0,0,10
136592083,136591721,3932210,3.3760638,1.6223111,-11.776839,36.848225,0,0,0,0,10
137588727,137588356,3932210,-0.74004775,1.1896788,-14.29937,36.946144,0,0,0,0,10
138590348,138589986,3932210,-0.7613562,-0.18459295,-6.6728797,36.750305,0,0,0,0,10
139591976,139591615,3932210,2.1571758,-0.3050213,-12.837949,36.946144,0,0,0,0,10
140588611,140588250,3932210,-2.9551632,-1.7006015,-3.503914,37.141983,0,0,0,0,10
141590242,141589880,3932210,1.5902288,-2.8543673,-13.3244505,36.897186,0,0,0,0,10
142589374,142589012,3932210,0.3620033,3.1598675,-5.3124943,37.044064,0,0,0,0,10
143591134,143590768,3932210,4.3177032,-2.9685707,-15.316187,36.897186,0,0,0,0,10
144587766,144587402,3932210,3.3676841,0.7510611,-15.510118,36.848225,0,0,0,0,10
145589517,145589158,3932210,-2.1851878,0.6459556,-6.5672956,37.044064,0,0,0,0,10
146588661,146588292,3932210,0.6088455,-0.28514943,-14.197856,37.044064,0,0,0,0,10
147587785,147587423,3932210,-1.6333244,0.5638345,-8.337329,37.141983,0,0,0,0,10
148589430,148589054,3932210,-0.8190564,-0.43933603,-9.030689,37.044064,0,0,0,0,10
149591047,149590685,3932210,0.27198133,0.7630321,-11.332235,37.044064,0,0,0,0,10
150592683,150592315,3932210,-0.1067814,1.0577583,-9.152076,36.848225,0,0,0,0,10
151589311,151588951,3932210,0.5935226,0.7860164,-11.733264,37.141983,0,0,0,0,10
152590945,152590582,3932210,1.1803415,-0.0533907,-11.1984,36.897186,0,0,0,0,10
153592573,153592213,3932210,1.0117897,-0.024181437,-10.031944,36.946144,0,0,0,0,10
154589212,154588848,3932210,-1.2208035,0.68881184,-10.278069,36.946144,0,0,0,0,10
155590890,155590480,3932210,-0.2882619,-0.18363528,-9.770498,37.044064,0,0,0,0,10
156589974,156589613,3932210,0.2624045,0.27389666,-9.385271,37.38678,0,0,0,0,10
157589108,157588747,3932210,-0.28323406,-0.14221558,-9.992201,37.141983,0,0,0,0,10
158588241,158587881,3932210,-0.49703628,-0.13503298,-9.8787155,36.897186,0,0,0,0,10
159590035,159589512,3932210,-0.22697033,-0.05147534,-9.890926,37.093025,0,0,0,0,10
160591505,160591144,3932210,0.015801731,-0.02633622,-9.8262825,37.044064,0,0,0,0,10
161588165,161587781,3932210,-0.12425907,-0.29592332,-9.832987,37.239902,0,0,0,0,10
162589773,162589412,3932210,-0.036631286,-0.02657564,-9.8198185,36.946144,0,0,0,0,10
163591416,163591044,3932210,-0.088106625,-0.2360683,-9.878955,37.044064,0,0,0,0,10
164590545,164590179,3932210,-0.031364042,-0.15777789,-9.800186,37.093025,0,0,0,0,10
165589676,165589313,3932210,-0.036391865,-0.10271125,-9.820297,37.044064,0,0,0,0,10
166588810,166588447,3932210,-0.056982,-0.2671929,-9.837775,36.946144,0,0,0,0,10
167590459,167590082,3932210,-0.019153614,-0.30645782,-9.863393,36.946144,0,0,0,0,10
168589576,168589214,3932210,0.0011971008,-0.24851814,-9.721895,36.946144,0,0,0,0,10
169588708,169588349,3932210,-0.036870707,-0.36727056,-9.866745,36.946144,0,0,0,0,10
170590345,170589982,3932210,-0.11133038,-0.32800564,-9.861957,37.044064,0,0,0,0,10
171592100,171591739,3932210,0.0016759412,-0.2846706,-9.90601,37.141983,0,0,0,0,10
172588760,172588376,3932210,-0.076614454,-0.19416976,-9.88111,37.044064,0,0,0,0,10
173590370,173590009,3932210,-0.06727707,-0.3217807,-9.813114,37.044064,0,0,0,0,10
174592011,174591642,3932210,-0.02825158,-0.2954445,-9.858844,37.093025,0,0,0,0,10
175588640,175588279,3932210,-0.09935937,-0.37924156,-9.803059,37.044064,0,0,0,0,10
176590275,176589912,3932210,-0.07038953,-0.3050213,-9.87704,37.141983,0,0,0,0,10
177589412,177589048,3932210,-0.08140286,-0.40342298,-9.798989,37.093025,0,0,0,0,10
178591045,178590682,3932210,-0.06727707,-0.27796683,-9.934501,36.946144,0,0,0,0,10
179590181,179589817,3932210,-0.049559977,-0.4249708,-9.867224,37.044064,0,0,0,0,10
180589314,180588953,3932210,-0.0076614455,-0.52983683,-9.747514,37.093025,0,0,0,0,10
181588450,181588089,3932210,-0.062249243,-0.39073372,-9.7977915,37.044064,0,0,0,0,10
182587584,182587225,3932210,-0.06631939,-0.31364042,-9.806411,37.141983,0,0,0,0,10
183589296,183588859,3932210,-0.07445967,-0.36631286,-9.803778,37.239902,0,0,0,0,10
184590856,184590493,3932210,-0.035913024,-0.3488352,-9.82341,37.093025,0,0,0,0,10
185592492,185592129,3932210,-0.10845734,-0.31244332,-9.83969,37.141983,0,0,0,0,10
186589127,186588765,3932210,-0.07757214,-0.29161376,-9.823649,36.946144,0,0,0,0,10
187590794,187590400,3932210,-0.02705448,-0.34237084,-9.822452,37.239902,0,0,0,0,10
188590024,188589536,3932210,-0.014604631,-0.3229778,-9.846634,37.38678,0,0,0,0,10
189589163,189588798,3932210,-0.021068975,-0.3430891,-9.838254,37.239902,0,0,0,0,10
