timestamp,timestamp_sample,baro_device_id,bias,bias_var,innov,innov_var,innov_test_ratio
17182418,17061575,3997730,0.0022368194,0.08368724,-0.31112897,12.896737,0.00083398557
17682303,17566775,3997730,-0.00031428938,0.08155708,-0.3946117,12.89458,0.0013418074
18181813,18071960,3997730,-0.0029511773,0.07953271,-0.0749985,12.8925295,4.8475744e-05
18931487,18829777,3997730,-0.0044693225,0.076677874,-0.21017504,12.88964,0.00038078424
19051206,18930847,3997730,-0.0055923867,0.076221846,-0.18878134,12.889178,0.00030722062
19431032,19284428,3997730,-0.0073297056,0.074885815,-0.26718304,12.887826,0.000615454
19930562,19789621,3997730,-0.006069257,0.073175706,0.2429054,12.886096,0.0005087571
20430224,20294816,3997730,-0.0047678323,0.07154199,0.15315835,12.884443,0.00020228943
20929861,20800011,3997730,-0.0063523706,0.06997966,-0.2861633,12.882864,0.00070627354
21679460,21557797,3997730,-0.0058074864,0.067760095,-0.22477618,12.88062,0.00043583417
22319034,22214549,3997730,-0.004422564,0.06601532,0.14169016,12.878858,0.00017320465
22558785,22416625,3997730,-0.005455205,0.06534224,-0.18689466,12.878178,0.0003013678
23428446,23325979,3997730,-0.004204528,0.06309114,0.4248528,12.875903,0.0015576029
23558384,23427014,3997730,-0.005393998,0.062782116,-0.24274562,12.875591,0.00050850253
24057785,23932208,3997730,-0.0070859613,0.061575852,-0.23398875,12.874373,0.00047252123
24677486,24538446,3997730,-0.007343613,0.060131673,0.026537832,12.872915,6.0787106e-06
25187035,25043632,3997730,-0.0069842185,0.059024252,-0.2219914,12.871798,0.0004253933
25686666,25548847,3997730,-0.009593255,0.057956908,-0.12536754,12.87072,0.00013568281
26186289,26054018,3997730,-0.012245349,0.056927502,-0.45173305,12.869681,0.0017617871
27315577,27165449,3997730,-0.011126136,0.05473995,0.13870236,12.867475,0.0001661238
28184979,28074799,3997730,-0.013026166,0.053151496,-0.34381548,12.865873,0.0010208667
28554799,28428432,3997730,-0.014294718,0.05249858,-0.13514285,12.865214,0.00015773447
28684651,28579989,3997730,-0.013242577,0.052284535,0.2578307,12.864999,0.00057413895
30313599,30196605,3997730,-0.012134611,0.04965251,0.17178164,12.862346,0.00025491233
31313233,31207092,3997730,-0.010967475,0.048160672,0.25245407,12.860843,0.0005506211
31562756,31459589,3997730,-0.012323213,0.04780163,-0.11054864,12.86048,0.00010558618
32562071,32419456,3997730,-0.011085214,0.04641742,0.42964345,12.859086,0.0015950114
33431556,33328799,3997730,-0.012473712,0.045270503,-0.55793524,12.857931,0.0026900105
34061043,33935033,3997730,-0.01073365,0.044485357,0.21345536,12.857141,0.00039375605
34310927,34187633,3997730,-0.009661439,0.044178892,0.17368194,12.856832,0.0002606951
35430146,35299113,3997730,-0.00850401,0.042850498,0.15688637,12.8554945,0.00021273509
35680027,35551652,3997730,-0.0067865187,0.042566095,0.2586261,12.855208,0.00057812675
36559397,36410481,3997730,-0.0055214902,0.04159974,0.1028039,12.854236,9.13546e-05
36809157,36663080,3997730,-0.003975988,0.04133166,0.19567777,12.853966,0.0003309812
37318859,37168269,3997730,-0.0024621657,0.040805753,0.29137307,12.853436,0.0007339003
38058269,37926061,3997730,-0.0034739303,0.040041547,-0.11882468,12.852667,0.00012206118
38937604,38835410,3997730,-0.004570912,0.03918545,-0.13669531,12.851806,0.00016154762
39307311,39189072,3997730,-0.0060087973,0.038829625,-0.39161474,12.851448,0.0013259387
39427283,39290115,3997730,-0.008452895,0.038712427,-0.8089135,12.85133,0.005657357
39936977,39795277,3997730,-0.013076859,0.038250767,-0.53141165,12.850865,0.0024416717
40306745,40199427,3997730,-0.016709732,0.037911724,-0.50669163,12.850524,0.0022198523
40936195,40805671,3997730,-0.0199462,0.03735975,-0.47534204,12.849969,0.0019537448
41435862,41311056,3997730,-0.022340247,0.03692965,-0.45788234,12.849536,0.0018129167
41805606,41664489,3997730,-0.025972279,0.036613498,-0.43439075,12.849218,0.001631706
42315307,42169683,3997730,-0.031010045,0.03620034,-0.43034226,12.848803,0.0016014848
42934896,42826433,3997730,-0.036664948,0.035696868,-0.4389729,12.848296,0.0016664311
43314584,43180082,3997730,-0.038684618,0.035401415,-0.37532392,12.848,0.0012182445
43934168,43786279,3997730,-0.041567087,0.03491975,-0.2500901,12.847515,0.00054091786
44433830,44291468,3997730,-0.044244446,0.034543794,-0.28630424,12.847137,0.00070893543
44933501,44796660,3997730,-0.047562514,0.03417586,-0.16656013,12.846767,0.00023994168
45313213,45200838,3997730,-0.04867893,0.033905055,-0.16673957,12.846495,0.00024046407
45563107,45453411,3997730,-0.05005057,0.03372687,-0.3713715,12.846316,0.0011928781
46432542,46312242,3997730,-0.053218313,0.033117708,-0.26788962,12.845703,0.0006207424
46932406,46817437,3997730,-0.054551244,0.03277943,-0.1972523,12.845364,0.00033655437
47322042,47171189,3997730,-0.055944193,0.0325302,-0.3409863,12.845113,0.001005758
48061338,47928860,3997730,-0.05696805,0.03204301,-0.047077302,12.844624,1.9171639e-05
48940786,48838236,3997730,-0.058117416,0.031492822,-0.095907845,12.84407,7.9572514e-05
50429867,50303298,3997730,-0.057031542,0.030592315,0.35890627,12.843165,0.0011144165
51189199,51061093,3997730,-0.05586563,0.03016117,0.072454646,12.842732,4.5418474e-05
51558966,51414723,3997730,-0.057586987,0.0299501,-0.55666935,12.842521,0.002681031
51938684,51818875,3997730,-0.056357823,0.029742036,0.18524778,12.842311,0.00029690695
52318804,52172488,3997730,-0.05498318,0.029536784,0.20547748,12.842105,0.00036530007
52558631,52425084,3997730,-0.052749477,0.029401539,0.5700067,12.8419695,0.0028111616
52938720,52829239,3997730,-0.05162433,0.029201016,0.3729566,12.841767,0.0012035089
54567314,54445854,3997730,-0.052763574,0.0283627,-0.692282,12.840925,0.0041469354
55057275,54951053,3997730,-0.0515821,0.028114388,0.19146374,12.840676,0.00031720693
56056071,55910920,3997730,-0.050128408,0.027630553,0.21277101,12.84019,0.0003917518
56315879,56214033,3997730,-0.049019095,0.02751227,0.25846502,12.840072,0.0005780875
56685545,56567712,3997730,-0.047840584,0.027336612,0.109072216,12.839895,0.0001029495
57684946,57578056,3997730,-0.0465817,0.026879085,0.25201687,12.839436,0.0005496305
58814160,58689753,3997730,-0.044764042,0.026382353,0.40361208,12.838937,0.0014097976
59433548,59295746,3997730,-0.045858588,0.026114251,-0.12842584,12.838668,0.00014273889
60313037,60205091,3997730,-0.044245314,0.025748039,0.30932847,12.8383,0.0008281133
60812701,60710289,3997730,-0.04308183,0.025543345,0.3161731,12.838095,0.00086518057
62561446,62427948,3997730,-0.041964397,0.024851862,0.12520553,12.8374,0.00013568363
65929223,65812746,3997730,-0.040752303,0.023619149,0.17360255,12.836163,0.0002608762
67068373,66924176,3997730,-0.03973079,0.023235044,0.03108393,12.835777,8.363868e-06
68057728,67934567,3997730,-0.038484655,0.022904024,0.21005423,12.835445,0.00038195256
68557331,68439738,3997730,-0.037366845,0.022742039,0.24899617,12.835282,0.0005367072
69056994,68944921,3997730,-0.036335606,0.022582337,0.12441691,12.835122,0.00013400355
69556962,69450139,3997730,-0.035262875,0.022424873,0.22514248,12.834964,0.00043881123
69936603,69803752,3997730,-0.0341052,0.022308182,0.5460518,12.834847,0.002581276
71315552,71167791,3997730,-0.033101056,0.02189063,0.110457286,12.834428,0.000105625724
74183693,74047387,3997730,-0.032040417,0.021066401,0.19787785,12.833601,0.0003390028
76182513,76068164,3997730,-0.03336542,0.02052887,-0.32668942,12.833062,0.00092405395
77181693,77078551,3997730,-0.03468237,0.02027031,-0.29030848,12.832803,0.00072971854
83687397,83545049,3997730,-0.035839297,0.018736973,-0.33464712,12.8312645,0.0009697554
85056091,84909102,3997730,-0.03697732,0.018442014,-0.15732184,12.830969,0.0002143266
86435339,86323645,3997730,-0.038049236,0.018156312,-0.077361524,12.830682,5.1827206e-05
88313934,88192864,3997730,-0.036892027,0.017780703,0.23673303,12.830305,0.00048533123
88803608,88698063,3997730,-0.035841823,0.017683174,0.12205268,12.830208,0.00012900852
89682978,89556928,3997730,-0.03472526,0.017515037,0.20727271,12.830039,0.0003720607
90182616,90062092,3997730,-0.03364515,0.017420415,0.0942878,12.829944,7.699167e-05
90682273,90567289,3997730,-0.032482468,0.017326813,0.22549447,12.82985,0.00044035984
91181984,91072480,3997730,-0.031459976,0.017234221,0.17521028,12.829758,0.00026586317
91811460,91678746,3997730,-0.030283818,0.017119842,0.23932667,12.829642,0.00049604964
92560954,92436505,3997730,-0.028699465,0.016984623,0.46435645,12.829507,0.0018674565
93060695,92941703,3997730,-0.027453918,0.016895667,0.19618109,12.829418,0.00033332265
93560348,93446899,3997730,-0.026259812,0.016807642,0.27308947,12.8293295,0.0006458973
94309899,94204697,3997730,-0.025195854,0.016677324,0.2214852,12.829199,0.00042486147
94809426,94659369,3997730,-0.023816733,0.016591508,0.4508723,12.829113,0.0017606294
95429068,95316125,3997730,-0.022727951,0.016485589,0.25701785,12.829007,0.0005721251
95808891,95669757,3997730,-0.021548657,0.016422639,0.2178079,12.828943,0.00041087894
96178622,96073916,3997730,-0.0202717,0.016360234,0.45129648,12.828881,0.0017639756
96678218,96528589,3997730,-0.019041337,0.016277663,0.24493656,12.828798,0.00051961147
97067891,96932751,3997730,-0.017955018,0.016216362,0.22305606,12.828737,0.00043092496
97557591,97437947,3997730,-0.016740346,0.016135307,0.3291074,12.828655,0.0009381054
98317431,98195710,3997730,-0.015028873,0.016015245,0.57081133,12.828535,0.0028220557
99316536,99206102,3997730,-0.013783226,0.015857935,0.22909363,12.828378,0.00045458152
99686420,99559757,3997730,-0.012741317,0.015799712,0.3406818,12.82832,0.0010052766
100055882,99913376,3997730,-0.011032011,0.01574192,0.76649034,12.828261,0.0050886553
100435852,100317553,3997730,-0.009876372,0.015684614,0.5140915,12.828204,0.0022891406
100815575,100671171,3997730,-0.008780068,0.015627664,0.2831294,12.828147,0.0006943261
101315197,101176366,3997730,-0.007454766,0.015552424,0.2953346,12.828072,0.00075548317
101805017,101681598,3997730,-0.0063806297,0.015477913,0.30929792,12.827996,0.00082861475
102314473,102186758,3997730,-0.0051936377,0.015404116,0.29089418,12.827923,0.0007329447
102554273,102439358,3997730,-0.0041710753,0.015367486,0.5449228,12.827886,0.0025720086
103313748,103197148,3997730,-0.0015708115,0.01525864,0.3721159,12.827777,0.001199396
103813383,103702364,3997730,-0.00018203721,0.015186935,0.38311678,12.827705,0.0012713667
104183119,104055981,3997730,0.0010387339,0.015133567,0.5372068,12.827651,0.0024997317
104562858,104460137,3997730,0.0022787214,0.015080642,0.2967461,12.827599,0.0007627499
105312369,105167416,3997730,0.0049945368,0.014975779,0.33260775,12.827494,0.00095825345
105562331,105420010,3997730,0.0060953326,0.014941172,0.43847728,12.827458,0.0016653712
106181768,106076769,3997730,0.0084944805,0.014855384,0.31998053,12.827373,0.00088688417
106811386,106683002,3997730,0.011272021,0.0147705255,0.61064583,12.827288,0.003229992
107310973,107188219,3997730,0.014130024,0.014703365,0.6828683,12.82722,0.0040392326
107680775,107541838,3997730,0.015758567,0.014653365,0.58322465,12.82717,0.0029464453
108180391,108047085,3997730,0.018157523,0.014587271,0.4332081,12.827104,0.0016256312
108680087,108552225,3997730,0.021096209,0.014521777,0.60188323,12.827038,0.003138019
109179693,109057426,3997730,0.023494061,0.014456876,0.5836365,12.826973,0.0029506537
109809246,109663660,3997730,0.027608832,0.014376533,0.7083812,12.826893,0.0043468038
110059080,109916257,3997730,0.029068362,0.014344661,0.7084325,12.82686,0.0043474445
110678738,110573013,3997730,0.03340013,0.014265634,0.6473476,12.826781,0.0036300693
111178356,111027689,3997730,0.03730168,0.014202956,0.8127509,12.826718,0.005722118
111678011,111532887,3997730,0.03988982,0.0141408965,0.29663447,12.826656,0.0007622321
112177680,112038108,3997730,0.042749126,0.014079378,0.6401729,12.826595,0.0035501004
112807549,112694835,3997730,0.046865515,0.014003268,0.69083184,12.826519,0.0041342177
113316898,113200059,3997730,0.049733132,0.013942954,0.72193414,12.826458,0.0045148768
113806701,113705264,3997730,0.052680735,0.013883162,0.61369467,12.826398,0.0032625524
114056559,113907379,3997730,0.0541745,0.013853395,0.7418929,12.826368,0.004767999
114676032,114564064,3997730,0.056698855,0.013779731,0.3134388,12.826295,0.0008510632
115185725,115069261,3997730,0.059648465,0.013721344,0.6502249,12.826236,0.0036625664
115685323,115574456,3997730,0.06294477,0.013663455,0.9903078,12.826178,0.0084957285
116185033,116079652,3997730,0.06632827,0.013606055,1.1596556,12.82612,0.011649847
116684642,116534333,3997730,0.0688128,0.013549077,0.76277006,12.826063,0.005040242
117184330,117039529,3997730,0.07181751,0.013492644,0.7511228,12.826007,0.004887513
117683942,117544722,3997730,0.07479332,0.013436684,0.7780372,12.825951,0.0052440716
118173701,118049938,3997730,0.07760446,0.013381191,0.57900035,12.825895,0.0029042063
118813237,118706676,3997730,0.0817837,0.0133125065,0.70973474,12.825827,0.004363794
119313000,119211872,3997730,0.08479123,0.013258044,0.71517366,12.825771,0.0044309516
119802511,119666549,3997730,0.087651424,0.013203968,0.76157933,12.825718,0.0050246534
120312175,120171804,3997730,0.090167135,0.013150399,0.62917334,12.825664,0.0034294012
120811842,120676943,3997730,0.09337694,0.013097266,0.7765193,12.825611,0.0052237688
121311531,121182140,3997730,0.096202664,0.013044569,0.83274573,12.825558,0.00600767
121811162,121687337,3997730,0.09919081,0.012992299,0.76078016,12.825505,0.0050141965
122310815,122192569,3997730,0.102303214,0.012940449,0.72199816,12.825454,0.004516031
122810495,122697729,3997730,0.10508342,0.012889017,0.5448597,12.825402,0.0025719109
123320294,123202925,3997730,0.10752622,0.012838,0.46921688,12.825351,0.0019073724
123809819,123708123,3997730,0.11041729,0.0127873905,0.46018666,12.8253,0.0018346701
124059599,123910216,3997730,0.11148195,0.012762173,0.49315432,12.825274,0.002106961
124559275,124415401,3997730,0.11372475,0.012712161,0.6232313,12.825225,0.0033650459
125188910,125072155,3997730,0.11625016,0.01265024,0.6922584,12.825163,0.004151749
125808450,125678395,3997730,0.11933629,0.012588862,0.7788098,12.825101,0.00525484
126318165,126183588,3997730,0.12186834,0.0125402175,0.7792774,12.825052,0.0052611716
126557943,126436188,3997730,0.12328791,0.012516037,0.66390926,12.825028,0.0038187094
127317893,127193983,3997730,0.12580827,0.012444064,0.5530908,12.824956,0.0026502968
127687607,127547622,3997730,0.1279261,0.012408357,0.75240886,12.824921,0.004904679
128317237,128204377,3997730,0.13072231,0.0123493895,0.80143136,12.824862,0.005564645
128806846,128659059,3997730,0.13326408,0.012302534,0.64462805,12.824815,0.0036001848
129316678,129214773,3997730,0.13559556,0.012256164,1.3890676,12.824768,0.016716862
129806266,129669449,3997730,0.13819799,0.01221002,0.829395,12.824721,0.0059598093
130185914,130073606,3997730,0.13971955,0.012175723,0.90564907,12.824687,0.007106088
130685636,130578804,3997730,0.14219551,0.012130252,0.613308,12.824642,0.0032588884
131315291,131185044,3997730,0.14618167,0.012073865,0.8523556,12.824585,0.006294421
131804780,131690239,3997730,0.14926022,0.012029164,0.81503457,12.82454,0.0057552974
132314532,132195467,3997730,0.15204829,0.011984794,0.90752405,12.824496,0.0071356487
132804219,132700639,3997730,0.15462272,0.011940757,0.8277409,12.824451,0.0059361868
133053961,132902713,3997730,0.15609081,0.011918797,0.7448535,12.8244295,0.004806856
133553602,133407910,3997730,0.1594179,0.011875249,0.88069355,12.824387,0.006720019
134313154,134165710,3997730,0.16367073,0.011810529,1.1306856,12.824322,0.011076608
134802792,134670904,3997730,0.16658358,0.011767778,1.0511405,12.824279,0.009572957
135312531,135176104,3997730,0.16930355,0.011725342,0.6445588,12.824236,0.0035995736
135552294,135428699,3997730,0.17079328,0.01170424,0.77630794,12.824215,0.0052214935
136181890,136034937,3997730,0.17380561,0.011651789,0.8491319,12.8241625,0.006247104
136681496,136540193,3997730,0.17692405,0.011610193,0.86788017,12.8241205,0.0065260353
137181153,137045341,3997730,0.18002193,0.011568899,0.84590554,12.8240795,0.006199762
137680813,137550533,3997730,0.18268703,0.0115279015,0.78312266,12.8240385,0.0053136414
138180544,138055732,3997730,0.18617216,0.0114872,0.7666923,12.8239975,0.00509303
138680196,138560963,3997730,0.18860902,0.011446786,0.59570616,12.823957,0.003074678
139180075,139066126,3997730,0.19183774,0.011406662,0.8142697,12.823916,0.0057447795
139679548,139571319,3997730,0.19508383,0.011366826,0.7646991,12.823877,0.0050666314
140189138,140076517,3997730,0.19818662,0.0113272695,0.96251154,12.823837,0.008026965
140678821,140531195,3997730,0.20080306,0.011287926,0.6160143,12.823798,0.0032879289
141178578,141036397,3997730,0.20366773,0.011248924,0.6887617,12.823759,0.0041103624
141678192,141541591,3997730,0.2068461,0.011210196,0.92681164,12.82372,0.00744263
142187838,142046811,3997730,0.20964184,0.011171736,0.66276413,12.823682,0.0038059468
142687445,142552075,3997730,0.21252434,0.011133542,0.98909503,12.823644,0.0084766075
143317122,143208753,3997730,0.2164784,0.011086207,0.69944435,12.823596,0.004238908
143676780,143562383,3997730,0.21917026,0.011057951,1.3002853,12.823567,0.014649606
144176548,144067580,3997730,0.22247748,0.011020544,1.1833198,12.82353,0.012132607
144676137,144572778,3997730,0.22515221,0.010983394,0.73277044,12.823493,0.0046525067
145186007,145077975,3997730,0.22828469,0.010946499,0.45137456,12.823456,0.0017653327
145675411,145532656,3997730,0.23090284,0.010909792,0.7661656,12.823419,0.005086265
146314973,146189412,3997730,0.23353583,0.01087359,0.6848921,12.823382,0.0040644263
146554837,146442030,3997730,0.23466332,0.010855484,0.56890213,12.823364,0.0028043399
147184400,147048251,3997730,0.23736425,0.010810454,0.67533016,12.823319,0.003951749
147554212,147452407,3997730,0.23876382,0.0107836705,0.50453305,12.823293,0.0022056529
147933937,147806044,3997730,0.24011606,0.01075696,0.5932296,12.823266,0.0030493303
148683636,148563854,3997730,0.24265859,0.010703998,0.4662442,12.823213,0.001883595
149053142,148917481,3997730,0.24390034,0.010677683,0.7220162,12.823187,0.004517055
149802621,149675279,3997730,0.2465267,0.010625515,0.6813512,12.823134,0.004022586
150182434,150079444,3997730,0.24786714,0.010599655,0.4398556,12.823109,0.0016764262
150552201,150433169,3997730,0.24903555,0.010573859,0.56619,12.823083,0.0027777262
151051823,150938276,3997730,0.250368,0.010539705,0.5518476,12.823049,0.0026387877
151811310,151696073,3997730,0.25267053,0.0104888985,0.36392227,12.822997,0.0011475859
152311040,152201269,3997730,0.2539535,0.010455303,0.4382529,12.822964,0.0016642503
152810785,152706469,3997730,0.25528842,0.010421925,0.49966896,12.82293,0.0021633906
153180475,153060107,3997730,0.25661543,0.010397001,0.5005504,12.822906,0.002171034
153560263,153413745,3997730,0.2576744,0.010372199,0.36326712,12.822881,0.0011434681
154179839,154070503,3997730,0.25892442,0.0103312135,0.472215,12.82284,0.0019322033
154679548,154575708,3997730,0.2601714,0.010298635,0.43593782,12.822807,0.0016467341
154929233,154777782,3997730,0.26118392,0.01028236,0.58351123,12.82279,0.0029503491
155558818,155434540,3997730,0.26230985,0.010242093,0.27755055,12.82275,0.00066751416
156058498,155939738,3997730,0.2633425,0.010210087,0.21561006,12.822719,0.00040282408
157057826,156950195,3997730,0.264493,0.010146679,0.20072526,12.822655,0.0003491271
158316995,158213131,3997730,0.26553968,0.010068546,0.15943226,12.8225765,0.00022025948
159056387,158920430,3997730,0.2665767,0.010022187,0.31998685,12.82253,0.00088725414
160185718,160082372,3997730,0.26759386,0.009953586,0.12914342,12.822461,0.00014452089
161684642,161547443,3997730,0.26871148,0.009863491,0.19519916,12.8223715,0.00033017565
163183607,163063110,3997730,0.2697575,0.009775108,0.14711422,12.822283,0.00018754325
165052421,164932308,3997730,0.270821,0.00966685,0.20743915,12.822174,0.00037288704
167430919,167306710,3997730,0.27183864,0.009533197,0.02702868,12.822041,6.3306748e-06
170558728,170438943,3997730,0.2729221,0.009363,0.33755025,12.82187,0.000987377
172427534,172308181,3997730,0.27397722,0.009263821,0.14582312,12.821771,0.00018427325
174176436,174025858,3997730,0.27499467,0.00917314,0.10871202,12.82168,0.000102415965
176434806,176299294,3997730,0.27613285,0.0090592755,0.2563646,12.821566,0.00056955096
177434071,177309656,3997730,0.27718827,0.009009591,0.2913321,12.821516,0.0007355205
178053687,177915896,3997730,0.27835253,0.008978791,0.32218644,12.8214855,0.0008995673
178933157,178825255,3997730,0.27936435,0.008936107,0.27558783,12.821443,0.00065817387
179682567,179532536,3997730,0.28059462,0.008899758,0.5355561,12.821406,0.0024856029
180552096,180441891,3997730,0.2817025,0.008857842,0.20328608,12.821364,0.0003581282
181311595,181199719,3997730,0.28270367,0.008822208,0.35585657,12.821328,0.001097424
182180878,182058532,3997730,0.2837055,0.008780972,0.26123518,12.821287,0.0005914107
183320107,183169974,3997730,0.2847772,0.008728542,0.5073489,12.821235,0.0022306994
184179530,184028818,3997730,0.28602687,0.008688197,0.3949775,12.821194,0.0013519909
184929135,184786609,3997730,0.28748336,0.008653945,0.8118657,12.821159,0.0057121366
185558597,185443379,3997730,0.28865996,0.008625646,0.3111627,12.821132,0.00083908555
186188403,186049613,3997730,0.28970668,0.008597474,0.33255437,12.821103,0.0009584234
187307534,187161052,3997730,0.2910078,0.0085529685,0.46452844,12.821058,0.0018700715
187927210,187817809,3997730,0.29223186,0.008525342,0.38734144,12.821031,0.0013002368
189056268,188929250,3997730,0.29329768,0.008475994,0.2287004,12.820982,0.00045328363
189675862,189535495,3997730,0.29447022,0.008448814,0.49408266,12.820954,0.0021156138
190435411,190293292,3997730,0.29553908,0.008416473,0.32322258,12.820922,0.00090540235
