timestamp,timestamp_sample,output_tracking_error[0],output_tracking_error[1],output_tracking_error[2],control_mode_flags,filter_fault_flags,pos_horiz_accuracy,pos_vert_accuracy,mag_test_ratio,vel_test_ratio,pos_test_ratio,hgt_test_ratio,tas_test_ratio,hagl_test_ratio,beta_test_ratio,time_slip,accel_device_id,gyro_device_id,baro_device_id,mag_device_id,gps_check_fail_flags,innovation_check_flags,solution_status_flags,reset_count_vel_ne,reset_count_vel_d,reset_count_pos_ne,reset_count_pod_d,reset_count_quat,pre_flt_fail_innov_heading,pre_flt_fail_innov_vel_horiz,pre_flt_fail_innov_vel_vert,pre_flt_fail_innov_height,pre_flt_fail_mag_field_disturbed,health_flags,timeout_flags
16902230,16801773,4.200323e-05,0.0021174087,0.0022722462,67240471,0,0.14783598,0.20314837,0.0007598698,0.005887841,0.020529432,0.0066487975,0.0,0.0,0.0,0.004997,3932170,3932170,3997730,458770,0,0,895,2,1,2,0,3,0,0,0,0,0,0,0
16912330,16811767,6.87112e-05,0.002103254,0.0026643907,67240471,0,0.14783642,0.20280719,0.0030726423,0.005887841,0.020529432,0.00708842,0.0,0.0,0.0,0.004997,3932170,3932170,3997730,458770,0,0,895,2,1,2,0,3,0,0,0,0,0,0,0
17102106,17001637,0.00015553135,0.001612012,0.0021052589,67240471,0,0.14177491,0.20179556,0.0015091735,0.016460052,0.02298044,0.016028155,0.0,0.0,0.0,0.004997,3932170,3932170,3997730,458770,0,0,895,2,1,2,0,3,0,0,0,0,0,0,0
17301938,17201500,8.039332e-05,0.0020929396,0.0024221172,67240471,0,0.13901481,0.20046951,0.0045141103,0.011331166,0.026455041,0.0029082296,0.0,0.0,0.0,0.004997,3932170,3932170,3997730,458770,0,0,895,2,1,2,0,3,0,0,0,0,0,0,0
17501801,17401364,7.005912e-05,0.0013273379,0.0017603372,67240471,0,0.13394122,0.19916935,0.0023401533,0.014012619,0.024513528,0.001632221,0.0,0.0,0.0,0.004997,3932170,3932170,3997730,458770,0,0,895,2,1,2,0,3,0,0,0,0,0,0,0
17701672,17601227,0.00014680983,0.002751634,0.0031233393,67240471,0,0.12938626,0.19789428,0.0012430894,0.009369566,0.022847613,0.017379269,0.0,0.0,0.0,0.004997,3932170,3932170,3997730,458770,0,0,895,2,1,2,0,3,0,0,0,0,0,0,0
17901521,17801090,0.00013526785,0.0028018847,0.0023496316,67240471,0,0.12728049,0.19664344,0.0019772097,0.03360842,0.02645569,0.0029029693,0.0,0.0,0.0,0.004997,3932170,3932170,3997730,458770,0,0,895,2,1,2,0,3,0,0,0,0,0,0,0
18101392,18000954,0.00015473805,0.0025020635,0.002393003,67240471,0,0.123354174,0.1954161,0.001014779,0.010311363,0.0291803,0.0018910969,0.0,0.0,0.0,0.004997,3932170,3932170,3997730,458770,0,0,895,2,1,2,0,3,0,0,0,0,0,0,0
18301351,18200817,0.00015455132,0.0021836786,0.0013579371,67240471,0,0.121526875,0.19421151,0.00028656548,0.01999538,0.028335832,0.011353983,0.0,0.0,0.0,0.004997,3932170,3932170,3997730,458770,0,0,895,2,1,2,0,3,0,0,0,0,0,0,0
18501212,18400681,0.00010025626,0.0012905817,0.00082629954,67240471,0,0.11811592,0.19303481,0.0014106688,0.025785284,0.031127121,0.0065401923,0.0,0.0,0.0,0.004997,3932170,3932170,3997730,458770,0,0,895,2,1,2,0,3,0,0,0,0,0,0,0
18701025,18600544,3.059319e-05,0.0010718888,0.0016349768,67240471,0,0.11495758,0.1918725,0.0009773737,0.018026732,0.02947751,0.011249168,0.0,0.0,0.0,0.004997,3932170,3932170,3997730,458770,0,0,895,2,1,2,0,3,0,0,0,0,0,0,0
18900849,18800407,6.771277e-05,0.00097051164,0.0015630765,67240471,0,0.1134739,0.19073108,6.872048e-05,0.017028412,0.028689872,0.0029430736,0.0,0.0,0.0,0.004997,3932170,3932170,3997730,458770,0,0,895,2,1,2,0,3,0,0,0,0,0,0,0
19110712,19010264,7.90937e-05,0.0011299752,0.0010711467,67240471,0,0.11066958,0.18961091,0.0017339516,0.0045521855,0.031665858,0.011348819,0.0,0.0,0.0,0.004997,3932170,3932170,3997730,458770,0,0,895,2,1,2,0,3,0,0,0,0,0,0,0
19310718,19210127,0.0001070292,0.0018704747,0.0008364599,67240471,0,0.10806041,0.18850932,0.0012871476,0.011009536,0.030201849,0.011301125,0.0,0.0,0.0,0.004997,3932170,3932170,3997730,458770,0,0,895,2,1,2,0,3,0,0,0,0,0,0,0
19510422,19409991,7.819524e-05,0.0014818734,0.0022963411,67240471,0,0.106827,0.18742682,0.0025694363,0.021307997,0.033891473,0.012314349,0.0,0.0,0.0,0.004997,3932170,3932170,3997730,458770,0,0,895,2,1,2,0,3,0,0,0,0,0,0,0
19710290,19609854,0.00013841536,0.001140761,0.0012806463,67240471,0,0.10447599,0.1863629,0.004793661,0.0040144813,0.032393556,0.0066980305,0.0,0.0,0.0,0.004997,3932170,3932170,3997730,458770,0,0,895,2,1,2,0,3,0,0,0,0,0,0,0
19900212,19799724,8.001776e-05,0.0009369249,0.0006867576,67240471,0,0.10335907,0.18531643,0.0014842205,0.013408493,0.031678896,0.020758543,0.0,0.0,0.0,0.004997,3932170,3932170,3997730,458770,0,0,895,2,1,2,0,3,0,0,0,0,0,0,0
20100195,19999587,6.393026e-05,0.0007124276,0.0011635518,67240471,0,0.10122672,0.18428819,0.00076520036,0.012942144,0.030391784,0.01586672,0.0,0.0,0.0,0.004997,3932170,3932170,3997730,458770,0,0,895,2,1,2,0,3,0,0,0,0,0,0,0
20300043,20199451,0.0001548603,0.002120999,0.0019409471,67240471,0,0.10021329,0.18327697,0.0011015635,0.011156607,0.029719563,0.020527674,0.0,0.0,0.0,0.004997,3932170,3932170,3997730,458770,0,0,895,2,1,2,0,3,0,0,0,0,0,0,0
20509743,20409307,0.000108577675,0.00085756026,0.0010321748,67240471,0,0.09826894,0.18228269,0.0016895266,0.003466136,0.03299813,0.0034115885,0.0,0.0,0.0,0.004997,3932170,3932170,3997730,458770,0,0,895,2,1,2,0,3,0,0,0,0,0,0,0
20709606,20609170,0.00016032718,0.002186432,0.0010665732,67240471,0,0.09643278,0.1813041,0.0008973088,0.007903306,0.03177325,0.012891822,0.0,0.0,0.0,0.004997,3932170,3932170,3997730,458770,0,0,895,2,1,2,0,3,0,0,0,0,0,0,0
20909502,20809034,3.8467944e-05,0.0010821528,0.0010710486,67240471,0,0.09555732,0.18034123,0.0019924112,0.003958631,0.031186983,0.008287796,0.0,0.0,0.0,0.004997,3932170,3932170,3997730,458770,0,0,895,2,1,2,0,3,0,0,0,0,0,0,0
21109364,21008897,0.0001366358,0.000731752,0.0010131933,67240471,0,0.093867846,0.17939366,0.005689678,0.0147762345,0.034414582,0.0129382275,0.0,0.0,0.0,0.004997,3932170,3932170,3997730,458770,0,0,895,2,1,2,0,3,0,0,0,0,0,0,0
21309374,21208760,0.00021457305,0.0020657098,0.0011432373,67240471,0,0.09226559,0.17846096,0.0065585,0.011812074,0.033155013,0.025018748,0.0,0.0,0.0,0.004997,3932170,3932170,3997730,458770,0,0,895,2,1,2,0,3,0,0,0,0,0,0,0
21509085,21408624,6.514004e-05,0.0008380145,0.0010876906,67240471,0,0.09149995,0.17754276,0.0027635589,0.014696244,0.036955215,0.0009990347,0.0,0.0,0.0,0.004997,3932170,3932170,3997730,458770,0,0,895,2,1,2,0,3,0,0,0,0,0,0,0
21699142,21598494,0.000119839264,0.002089919,0.00057988666,67240471,0,0.090015136,0.176864,0.0007891598,0.013370459,0.035801355,0.0036879089,0.0,0.0,0.0,0.004997,3932170,3932170,3997730,458770,0,0,895,2,1,2,0,3,0,0,0,0,0,0,0
21908913,21808350,8.0600395e-05,0.0018964582,0.001268027,67240471,0,0.08930528,0.17597038,0.0013959253,0.006618362,0.035261147,0.0028297554,0.0,0.0,0.0,0.004997,3932170,3932170,3997730,458770,0,0,895,2,1,2,0,3,0,0,0,0,0,0,0
22108651,22008213,0.00020300277,0.002015365,0.00052814936,67240471,0,0.08792467,0.17509018,0.0042949105,0.00897884,0.03420788,0.00016273804,0.0,0.0,0.0,0.004997,3932170,3932170,3997730,458770,0,0,895,2,1,2,0,3,0,0,0,0,0,0,0
22308509,22208077,8.656337e-05,0.0009325645,0.0012650826,67240471,0,0.087263785,0.17422314,0.0041001723,0.004713248,0.033634998,0.00014684704,0.0,0.0,0.0,0.004997,3932170,3932170,3997730,458770,0,0,895,2,1,2,0,3,0,0,0,0,0,0,0
22508375,22407940,8.375673e-05,0.0015593801,0.0013378157,67240471,0,0.08597553,0.17336893,0.0016170088,0.029825266,0.028264238,0.0031963843,0.0,0.0,0.0,0.004997,3932170,3932170,3997730,458770,0,0,895,2,1,2,0,3,0,0,0,0,0,0,0
22708318,22607803,0.00012220358,0.0015458051,0.001102646,67240471,0,0.08474323,0.1725272,0.0013011249,0.048571948,0.027555902,0.0015403527,0.0,0.0,0.0,0.004997,3932170,3932170,3997730,458770,0,0,895,2,1,2,0,3,0,0,0,0,0,0,0
22908153,22807670,7.296885e-05,0.0006692076,0.0013523739,67240471,0,0.08417956,0.17170428,0.00079316366,0.008603121,0.027119454,0.00073567673,0.0,0.0,0.0,0.004997,3932170,3932170,3997730,458770,0,0,895,2,1,2,0,3,0,0,0,0,0,0,0
23107959,23007529,8.097634e-06,0.00053538283,0.0012376718,67240471,0,0.08301842,0.17088532,0.00040920015,0.037512735,0.026364695,0.005617356,0.0,0.0,0.0,0.004997,3932170,3932170,3997730,458770,0,0,895,2,1,2,0,3,0,0,0,0,0,0,0
23307825,23207393,7.1121976e-05,0.0007920652,0.0019427298,67240471,0,0.08245966,0.17007811,0.00016624042,0.0038390313,0.025982328,0.0031698612,0.0,0.0,0.0,0.004997,3932170,3932170,3997730,458770,0,0,895,2,1,2,0,3,0,0,0,0,0,0,0
23507708,23407256,9.078329e-05,0.0014486305,0.0018920384,67240471,0,0.08136871,0.16928239,0.0030358685,0.014022159,0.028082924,0.0076367953,0.0,0.0,0.0,0.004997,3932170,3932170,3997730,458770,0,0,895,2,1,2,0,3,0,0,0,0,0,0,0
23707552,23607119,0.0015831066,0.0014069693,0.001982613,67240471,0,0.08032055,0.16849788,0.112895146,0.010794526,0.0273254,0.006145646,0.0,0.0,0.0,0.004997,3932170,3932170,3997730,458770,0,0,895,2,1,2,0,3,0,0,0,0,0,0,0
23907416,23806982,0.0038400171,0.0024699487,0.0018652524,67240471,0,0.0798163,0.16772431,0.080999196,0.032346837,0.026991978,0.0026972673,0.0,0.0,0.0,0.004997,3932170,3932170,3997730,458770,0,0,895,2,1,2,0,3,0,0,0,0,0,0,0
24107277,24006846,0.002551218,0.00200814,0.0021408622,67240471,0,0.07882769,0.16696143,0.07978727,0.009199093,0.029766826,0.0018091563,0.0,0.0,0.0,0.004997,3932170,3932170,3997730,458770,0,0,895,2,1,2,0,3,0,0,0,0,0,0,0
24307141,24206709,0.0020629752,0.002747369,0.0024758945,67240471,0,0.07835222,0.16620903,0.075185426,0.009952917,0.029419776,0.008183202,0.0,0.0,0.0,0.004997,3932170,3932170,3997730,458770,0,0,895,2,1,2,0,3,0,0,0,0,0,0,0
24507146,24406572,0.0007263095,0.0034999356,0.0023097359,67240471,0,0.077417836,0.16546683,0.004872535,0.014005882,0.028694531,0.003300596,0.0,0.0,0.0,0.004997,3932170,3932170,3997730,458770,0,0,895,2,1,2,0,3,0,0,0,0,0,0,0
24706872,24606435,0.0015382181,0.0003105485,0.001490702,67240471,0,0.07651675,0.1647346,0.08247894,0.011811599,0.027985351,0.0021544395,0.0,0.0,0.0,0.004997,3932170,3932170,3997730,458770,0,0,895,2,1,2,0,3,0,0,0,0,0,0,0
24906735,24806299,0.0026524826,0.0021186385,0.0009053134,67240471,0,0.07608376,0.16401212,0.07549446,0.010908029,0.03104242,0.00045149057,0.0,0.0,0.0,0.004997,3932170,3932170,3997730,458770,0,0,895,2,1,2,0,3,0,0,0,0,0,0,0
25106753,25006162,0.0023475927,0.003901341,0.001308134,67240471,0,0.07522934,0.16329919,0.049753956,0.012473079,0.030409759,0.0027843092,0.0,0.0,0.0,0.004997,3932170,3932170,3997730,458770,0,0,895,2,1,2,0,3,0,0,0,0,0,0,0
25306482,25206025,0.001208339,0.0062324256,0.002238422,67240471,0,0.074819036,0.16259557,0.04044184,0.013181861,0.030222753,0.0074478304,0.0,0.0,0.0,0.004997,3932170,3932170,3997730,458770,0,0,895,2,1,2,0,3,0,0,0,0,0,0,0
25506377,25405889,0.0016326591,0.0207953,0.0049246275,67240471,0,0.07400736,0.16190109,0.037904408,0.014260721,0.030138014,0.001202412,0.0,0.0,0.0,0.004997,3932170,3932170,3997730,458770,0,0,895,2,1,2,0,3,0,0,0,0,0,0,0
25706242,25605751,0.00033223323,0.0030180186,0.0037536216,67240471,0,0.07322218,0.16121553,0.0069961986,0.03122372,0.028414145,0.0018483822,0.0,0.0,0.0,0.004997,3932170,3932170,3997730,458770,0,0,895,2,1,2,0,3,0,0,0,0,0,0,0
25906104,25805614,0.0019424236,0.030099535,0.0033902044,67240471,0,0.07284557,0.1605387,0.008066372,0.026251135,0.028364848,0.0022649607,0.0,0.0,0.0,0.004997,3932170,3932170,3997730,458770,0,0,895,2,1,2,0,3,0,0,0,0,0,0,0
26106169,26005477,0.000640831,0.016882444,0.0060037924,67240471,0,0.072097585,0.1598704,0.02045973,0.018329566,0.02719332,0.0040944507,0.0,0.0,0.0,0.004997,3932170,3932170,3997730,458770,0,0,895,2,1,2,0,3,0,0,0,0,0,0,0
26305775,26205341,0.00076462666,0.020871975,0.0068032397,67240471,0,0.0717391,0.15937543,0.015312989,0.033392895,0.027838685,0.015069407,0.0,0.0,0.0,0.004997,3932170,3932170,3997730,458770,0,0,895,2,1,2,0,3,0,0,0,0,0,0,0
26505636,26405204,0.0003173983,0.0050110463,0.004842068,67240471,0,0.071025416,0.15872164,0.009085667,0.010303604,0.02729156,0.015039921,0.0,0.0,0.0,0.004997,3932170,3932170,3997730,458770,0,0,895,2,1,2,0,3,0,0,0,0,0,0,0
26705516,26605067,0.0011484297,0.017793488,0.00048107657,67240471,0,0.07033312,0.15807588,0.008018896,0.00985767,0.03074897,0.0005483203,0.0,0.0,0.0,0.004997,3932170,3932170,3997730,458770,0,0,895,2,1,2,0,3,0,0,0,0,0,0,0
26905484,26804930,0.00076700805,0.015505476,0.003476627,67240471,0,0.07000166,0.15743802,0.004141455,0.013797155,0.030018257,0.0004906179,0.0,0.0,0.0,0.004997,3932170,3932170,3997730,458770,0,0,895,2,1,2,0,3,0,0,0,0,0,0,0
27105254,27004793,0.00015942565,0.007301204,0.004115436,67240471,0,0.069371775,0.15681513,0.0025314884,0.010863701,0.02929737,0.00053297693,0.0,0.0,0.0,0.004997,3932170,3932170,3997730,458770,0,0,895,2,1,2,0,3,0,0,0,0,0,0,0
27305170,27204656,0.0003094708,0.00240745,0.001881774,67240471,0,0.069048494,0.15619104,0.0052449256,0.013531716,0.03257654,0.00998074,0.0,0.0,0.0,0.004997,3932170,3932170,3997730,458770,0,0,895,2,1,2,0,3,0,0,0,0,0,0,0
27504977,27404520,0.00027368026,0.00537262,0.00086393405,67240471,0,0.068408184,0.1555745,0.0037635926,0.010118424,0.035377722,0.009092981,0.0,0.0,0.0,0.004997,3932170,3932170,3997730,458770,0,0,895,2,1,2,0,3,0,0,0,0,0,0,0
27705016,27604383,0.00021882975,0.0022624123,0.0007249339,67240471,0,0.06778602,0.15496537,0.0027834696,0.016106056,0.03482409,0.00042399613,0.0,0.0,0.0,0.004997,3932170,3932170,3997730,458770,0,0,895,2,1,2,0,3,0,0,0,0,0,0,0
27904690,27804246,0.00015009203,0.0015563801,0.001055683,67240471,0,0.06748675,0.15436351,0.0047207796,0.012497482,0.03792575,0.009884281,0.0,0.0,0.0,0.004997,3932170,3932170,3997730,458770,0,0,895,2,1,2,0,3,0,0,0,0,0,0,0
28104552,28004109,0.00039331667,0.0057672043,0.0025496553,67240471,0,0.06689077,0.15376875,0.0091560725,0.015803628,0.03728476,0.009108759,0.0,0.0,0.0,0.004997,3932170,3932170,3997730,458770,0,0,895,2,1,2,0,3,0,0,0,0,0,0,0
28304400,28203972,0.00013558974,0.0021823794,0.0021563063,67240471,0,0.06660457,0.15318097,0.0061649093,0.004803667,0.036955938,0.004136723,0.0,0.0,0.0,0.004997,3932170,3932170,3997730,458770,0,0,895,2,1,2,0,3,0,0,0,0,0,0,0
28504377,28403835,0.00024580778,0.0028374374,0.0009535801,67240471,0,0.066033,0.1526,0.0052762963,0.015977828,0.03962624,0.0053959303,0.0,0.0,0.0,0.004997,3932170,3932170,3997730,458770,0,0,895,2,1,2,0,3,0,0,0,0,0,0,0
28704157,28603698,3.7999664e-05,0.0017626823,0.001031322,67240471,0,0.06547658,0.15202576,0.0055488255,0.0067563974,0.038940586,0.014888214,0.0,0.0,0.0,0.004997,3932170,3932170,3997730,458770,0,0,895,2,1,2,0,3,0,0,0,0,0,0,0
28903990,28803562,0.00020582245,0.0026579048,0.0016490687,67240471,0,0.065210305,0.15145805,0.0022169165,0.025253093,0.042074997,0.0005202729,0.0,0.0,0.0,0.004997,3932170,3932170,3997730,458770,0,0,895,2,1,2,0,3,0,0,0,0,0,0,0
29103853,29003425,0.0002494383,0.0029958643,0.0017965917,67240471,0,0.0646757,0.1508968,0.0030977493,0.0127321035,0.041419853,0.000488045,0.0,0.0,0.0,0.004997,3932170,3932170,3997730,458770,0,0,895,2,1,2,0,3,0,0,0,0,0,0,0
29304151,29203288,0.0001523939,0.0011571292,0.0013871017,67240471,0,0.06442039,0.15034185,0.0033632386,0.005483505,0.041070487,0.0042225653,0.0,0.0,0.0,0.004997,3932170,3932170,3997730,458770,0,0,895,2,1,2,0,3,0,0,0,0,0,0,0
29503705,29403151,0.0002392251,0.003823814,0.0010634187,67240471,0,0.06390616,0.14979309,0.0011813834,0.032487396,0.04043562,0.0005317171,0.0,0.0,0.0,0.004997,3932170,3932170,3997730,458770,0,0,895,2,1,2,0,3,0,0,0,0,0,0,0
29703569,29603014,0.00013099787,0.0011632926,0.0008244265,67240471,0,0.06340467,0.14925042,0.0017233823,0.0049928795,0.039770957,0.010022112,0.0,0.0,0.0,0.004997,3932170,3932170,3997730,458770,0,0,895,2,1,2,0,3,0,0,0,0,0,0,0
29903451,29802877,0.0001975763,0.0026358913,0.0008376257,67240471,0,0.06316597,0.1487137,0.00038724602,0.0072553353,0.042954672,0.019510454,0.0,0.0,0.0,0.004997,3932170,3932170,3997730,458770,0,0,895,2,1,2,0,3,0,0,0,0,0,0,0
30103403,30002740,8.815664e-05,0.0010730805,0.0009894827,67240471,0,0.06268276,0.14818281,0.006667709,0.01562054,0.042069543,0.0004231606,0.0,0.0,0.0,0.004997,3932170,3932170,3997730,458770,0,0,895,2,1,2,0,3,0,0,0,0,0,0,0
30303219,30202603,0.0001350644,0.0027152072,0.0013259365,67240471,0,0.062453195,0.14765765,0.0043001533,0.01514111,0.038420863,0.0098897815,0.0,0.0,0.0,0.004997,3932170,3932170,3997730,458770,0,0,895,2,1,2,0,3,0,0,0,0,0,0,0
30503066,30402467,0.00025638117,0.0050036935,0.0014327256,67240471,0,0.06198708,0.1471381,0.0030065426,0.007342798,0.037717476,0.004409376,0.0,0.0,0.0,0.004997,3932170,3932170,3997730,458770,0,0,895,2,1,2,0,3,0,0,0,0,0,0,0
30702921,30602330,0.00010798195,0.0012355858,0.0012224584,67240471,0,0.06153171,0.14662407,0.017006977,0.0032918192,0.03746439,0.00978384,0.0,0.0,0.0,0.004997,3932170,3932170,3997730,458770,0,0,895,2,1,2,0,3,0,0,0,0,0,0,0
30902752,30802193,0.00019270899,0.0023295393,0.0010533975,67240471,0,0.061315905,0.14624296,0.0025905257,0.0077973017,0.03717038,0.0023743717,0.0,0.0,0.0,0.004997,3932170,3932170,3997730,458770,0,0,895,2,1,2,0,3,0,0,0,0,0,0,0
31102701,31002056,0.00017483157,0.0026881758,0.00099714,67240471,0,0.0608759,0.14573833,0.00023531697,0.011628219,0.036508147,0.00846945,0.0,0.0,0.0,0.004997,3932170,3932170,3997730,458770,0,0,895,2,1,2,0,3,0,0,0,0,0,0,0
31302478,31201919,7.6844146e-05,0.0012382324,0.00092222757,67240471,0,0.06070487,0.14524679,0.003230653,0.012031328,0.03626813,0.0044111097,0.0,0.0,0.0,0.004997,3932170,3932170,3997730,458770,0,0,895,2,1,2,0,3,0,0,0,0,0,0,0
31502351,31401782,0.00012535021,0.0019499493,0.00068693055,67240471,0,0.060271457,0.14475094,0.0054028495,0.005172948,0.0356261,0.0037349872,0.0,0.0,0.0,0.004997,3932170,3932170,3997730,458770,0,0,895,2,1,2,0,3,0,0,0,0,0,0,0
31702215,31601645,0.00023886192,0.002201734,0.0008724414,67240471,0,0.059848066,0.1442603,0.010077862,0.008121108,0.035088703,0.001028004,0.0,0.0,0.0,0.004997,3932170,3932170,3997730,458770,0,0,895,2,1,2,0,3,0,0,0,0,0,0,0
31902143,31801508,0.00017444308,0.0005562412,0.0007115492,67240471,0,0.05964547,0.14377481,0.0048264624,0.010732677,0.034798425,0.0044071567,0.0,0.0,0.0,0.004997,3932170,3932170,3997730,458770,0,0,895,2,1,2,0,3,0,0,0,0,0,0,0
32101933,32001372,5.517047e-05,0.0004232684,0.0007291609,67240471,0,0.059236746,0.14329433,0.0020059806,0.021988858,0.03439752,0.0043120035,0.0,0.0,0.0,0.004997,3932170,3932170,3997730,458770,0,0,895,2,1,2,0,3,0,0,0,0,0,0,0
32301792,32201235,0.00011644195,0.0018120083,0.001047083,67240471,0,0.059041917,0.14281882,0.0017937951,0.019108485,0.03417347,0.0072370963,0.0,0.0,0.0,0.004997,3932170,3932170,3997730,458770,0,0,895,2,1,2,0,3,0,0,0,0,0,0,0
32501707,32401098,0.00013404521,0.0012698629,0.00065055996,67240471,0,0.058647078,0.14234816,0.0036889906,0.019025091,0.033738703,0.005081111,0.0,0.0,0.0,0.004997,3932170,3932170,3997730,458770,0,0,895,2,1,2,0,3,0,0,0,0,0,0,0
32701516,32600961,0.000191563,0.0023414523,0.0009773971,67240471,0,0.05826076,0.14188226,0.0061645433,0.016887372,0.03322961,0.005909445,0.0,0.0,0.0,0.004997,3932170,3932170,3997730,458770,0,0,895,2,1,2,0,3,0,0,0,0,0,0,0
32901382,32800824,0.00018777292,0.001455993,0.0008003253,67240471,0,0.058077756,0.14142106,0.0074968054,0.011043974,0.03301547,0.006889925,0.0,0.0,0.0,0.004997,3932170,3932170,3997730,458770,0,0,895,2,1,2,0,3,0,0,0,0,0,0,0
33111236,33010680,0.00022392976,0.0018929762,0.0008361201,67240471,0,0.057706777,0.14096501,0.011832732,0.009536381,0.03255588,0.003252712,0.0,0.0,0.0,0.004997,3932170,3932170,3997730,458770,0,0,895,2,1,2,0,3,0,0,0,0,0,0,0
33311157,33210544,0.00012334564,0.000690729,0.0007312486,67240471,0,0.057529915,0.14051284,0.0028823286,0.020633053,0.0324762,0.004038359,0.0,0.0,0.0,0.004997,3932170,3932170,3997730,458770,0,0,895,2,1,2,0,3,0,0,0,0,0,0,0
33511016,33410409,0.000115767,0.0010124013,0.0011169623,67240471,0,0.057167694,0.14006513,0.000523138,0.0121847745,0.031933356,0.00021780809,0.0,0.0,0.0,0.004997,3932170,3932170,3997730,458770,0,0,895,2,1,2,0,3,0,0,0,0,0,0,0
33700834,33600277,0.00024116371,0.003649741,0.0009838046,67240471,0,0.056811456,0.13962151,0.010034073,0.013159528,0.031547166,0.00638769,0.0,0.0,0.0,0.004997,3932170,3932170,3997730,458770,0,0,895,2,1,2,0,3,0,0,0,0,0,0,0
33900701,33800140,0.0001796263,0.002431197,0.00069052103,67240471,0,0.056645066,0.13918252,0.0056266286,0.013709855,0.031102233,0.0022576035,0.0,0.0,0.0,0.004997,3932170,3932170,3997730,458770,0,0,895,2,1,2,0,3,0,0,0,0,0,0,0
34100564,34000003,0.000261949,0.002335124,0.00032331157,67240471,0,0.056301415,0.13874778,0.00959319,0.01453015,0.034167618,0.0062422557,0.0,0.0,0.0,0.004997,3932170,3932170,3997730,458770,0,0,895,2,1,2,0,3,0,0,0,0,0,0,0
34300423,34199866,0.00020153103,0.0025484373,0.00079750246,67240471,0,0.05614061,0.13831715,0.008961388,0.015537888,0.033972524,0.006799777,0.0,0.0,0.0,0.004997,3932170,3932170,3997730,458770,0,0,895,2,1,2,0,3,0,0,0,0,0,0,0
34510330,34409722,0.00023581722,0.0029572647,0.0010399884,67240471,0,0.05580746,0.1378907,0.033809923,0.007583317,0.033467256,0.0006626975,0.0,0.0,0.0,0.004997,3932170,3932170,3997730,458770,0,0,895,2,1,2,0,3,0,0,0,0,0,0,0
34710147,34609585,0.0010261242,0.0033240232,0.0003982157,67240471,0,0.05548012,0.1374681,0.06924716,0.011747133,0.03308993,0.0027648283,0.0,0.0,0.0,0.004997,3932170,3932170,3997730,458770,0,0,895,2,1,2,0,3,0,0,0,0,0,0,0
34910150,34809448,0.0020377936,0.0074927197,0.0008478002,67240471,0,0.055327553,0.13704947,0.08552498,0.010635116,0.03295562,0.0020065166,0.0,0.0,0.0,0.004997,3932170,3932170,3997730,458770,0,0,895,2,1,2,0,3,0,0,0,0,0,0,0
35109872,35009312,0.0022480895,0.013245159,0.0023929146,67240471,0,0.055009462,0.13663468,0.096161865,0.025582084,0.029109329,0.0027916457,0.0,0.0,0.0,0.004997,3932170,3932170,3997730,458770,0,0,895,2,1,2,0,3,0,0,0,0,0,0,0
35309752,35209175,0.0021424247,0.02911278,0.004867109,67240471,0,0.05486155,0.1362237,0.09532716,0.018468516,0.028875021,0.0020280988,0.0,0.0,0.0,0.004997,3932170,3932170,3997730,458770,0,0,895,2,1,2,0,3,0,0,0,0,0,0,0
35499602,35399045,0.0017620675,0.013188314,0.0055877003,67240471,0,0.05459332,0.1359272,0.0909475,0.018500447,0.025335532,0.004708142,0.0,0.0,0.0,0.004997,3932170,3932170,3997730,458770,0,0,895,2,1,2,0,3,0,0,0,0,0,0,0
35699468,35598908,0.0033440301,0.040242247,0.01590866,67240471,0,0.054280605,0.13552096,0.15603507,0.09687875,0.014170556,0.009286506,0.0,0.0,0.0,0.004997,3932170,3932170,3997730,458770,0,0,895,2,1,2,0,3,0,0,0,0,0,0,0
35899379,35798771,0.0034881334,0.0279863,0.015207655,67240471,0,0.05413228,0.13511857,0.1412673,0.11662037,0.007360007,0.0002638892,0.0,0.0,0.0,0.004997,3932170,3932170,3997730,458770,0,0,895,2,1,2,0,3,0,0,0,0,0,0,0
36109213,36008627,0.003405682,0.033798285,0.016449114,131607,0,0.053836845,0.13462166,0.20611386,0.16267341,0.026286416,0.004564992,0.0,0.0,0.0,0.004997,3932170,3932170,3997730,458770,0,0,895,2,1,2,0,3,0,0,0,0,0,0,0
36309108,36208491,0.0064118933,0.005414273,0.00762947,131607,0,0.054098684,0.13430592,0.3685611,0.17460537,0.035505094,0.002537846,0.0,0.0,0.0,0.004997,3932170,3932170,3997730,458770,0,0,895,2,1,2,0,3,0,0,0,0,0,0,0
36508989,36408353,0.008516909,0.011398661,0.0025751654,131607,0,0.055085104,0.13426036,0.35135517,0.23163259,0.061877094,0.028498253,0.0,0.0,0.0,0.004997,3932170,3932170,3997730,458770,0,0,895,2,1,2,0,3,0,0,0,0,0,0,0
36708810,36608217,0.007635011,0.023082934,0.011898741,131607,0,0.05746817,0.13439852,0.33934754,0.2855625,0.0991819,0.009365812,0.0,0.0,0.0,0.004997,3932170,3932170,3997730,458770,0,0,895,2,1,2,0,3,0,0,0,0,0,0,0
36908676,36808080,0.009160695,0.025933033,0.016251303,131607,0,0.062010422,0.1349531,0.37281823,0.29942748,0.116005875,0.028679423,0.0,0.0,0.0,0.004997,3932170,3932170,3997730,458770,0,0,895,2,1,2,0,3,0,0,0,0,0,0,0
37108607,37007943,0.06387426,1.101266,0.6038677,67240471,0,0.055797253,0.1333799,0.3618194,0.33382094,0.15658444,0.028669098,0.0,0.0,0.0,0.004997,3932170,3932170,3997730,458770,0,0,895,2,1,2,0,3,0,0,0,0,0,0,0
37308486,37208056,0.031599846,0.5100519,0.38735837,131607,0,0.055808637,0.13300902,0.4655823,0.9860415,0.40233862,0.007248571,0.0,0.0,0.0,0.004997,3932170,3932170,3997730,458770,0,0,895,2,1,2,0,3,0,1,0,0,0,0,0
37508354,37407919,0.007059443,0.18128115,0.19687885,131607,0,0.05605944,0.13272184,0.4652936,1.1236156,0.5560369,0.0031572785,0.0,0.0,0.0,0.004997,3932170,3932170,3997730,458770,0,1,1919,2,1,2,0,3,0,1,0,0,0,0,0
37708236,37607783,0.007521103,0.015124532,0.051352315,131607,0,0.057271548,0.13262516,0.4613288,1.1998961,0.7203509,0.023137508,0.0,0.0,0.0,0.004997,3932170,3932170,3997730,458770,0,1,1919,2,1,2,0,3,0,1,0,0,0,0,0
37908108,37807645,0.006611366,0.057193004,0.029247126,131607,0,0.060258478,0.13284737,0.4605995,1.2949891,0.81354725,0.024117248,0.0,0.0,0.0,0.004997,3932170,3932170,3997730,458770,0,1,1919,2,1,2,0,3,0,1,0,0,0,0,0
38108024,38007508,0.0068994714,0.0865115,0.07230396,131607,0,0.06541578,0.1335179,0.45494205,1.3922616,1.0007118,0.015701117,0.0,0.0,0.0,0.004997,3932170,3932170,3997730,458770,0,3,1919,2,1,2,0,3,0,1,0,0,0,0,0
38307823,38207372,0.0050593023,0.09248272,0.08228446,131607,0,0.07342056,0.13480139,0.45329073,1.4442532,1.1071137,0.012184497,0.0,0.0,0.0,0.004997,3932170,3932170,3997730,458770,0,3,1919,2,1,2,0,3,0,1,0,0,0,0,0
38507663,38407235,0.0056293937,0.09138467,0.08434578,131607,0,0.08422404,0.13677265,0.45015013,1.5552965,1.3350462,0.032642476,0.0,0.0,0.0,0.004997,3932170,3932170,3997730,458770,0,3,1919,2,1,2,0,3,0,1,0,0,0,0,0
38707583,38607098,0.0062115947,0.087631494,0.082177944,131607,0,0.09781648,0.13952248,0.43711588,1.6804211,1.5755831,0.029024757,0.0,0.0,0.0,0.004997,3932170,3932170,3997730,458770,0,3,1919,2,1,2,0,3,0,1,0,0,0,0,0
38907397,38806961,0.00509428,0.08157618,0.07662255,131607,0,0.114124164,0.14329389,0.42719287,1.6940932,1.7024759,0.025529021,0.0,0.0,0.0,0.004997,3932170,3932170,3997730,458770,0,3,1919,2,1,2,0,3,0,1,0,0,0,0,0
39107258,39006824,0.0055138953,0.07621583,0.07113321,537002519,0,0.13298832,0.14774723,0.416999,1.7927002,1.959987,0.03652183,0.0,0.0,0.0,0.004997,3932170,3932170,3997730,458770,0,3,1919,2,1,2,0,3,0,1,0,0,0,0,0
39307158,39206687,0.0059087994,0.07152314,0.066786535,537002519,0,0.15424739,0.15292136,0.4060495,1.9180223,2.2299418,0.04748109,0.0,0.0,0.0,0.004997,3932170,3932170,3997730,458770,0,3,1919,2,1,2,0,3,0,1,0,0,0,0,0
39507039,39406550,0.006248119,0.0657649,0.0619256,537002519,0,0.17781097,0.15936896,0.39289397,1.9753205,2.3683894,0.08625995,0.0,0.0,0.0,0.004997,3932170,3932170,3997730,458770,0,3,1919,2,1,2,0,3,0,1,0,0,0,0,0
39706912,39606414,0.0046601403,0.061170485,0.05742744,537002519,0,0.20371407,0.16582601,0.38376787,2.048921,2.6400204,0.020273158,0.0,0.0,0.0,0.004997,3932170,3932170,3997730,458770,0,3,1919,2,1,2,0,3,0,1,0,0,0,0,0
39906712,39806277,0.0052432828,0.05589835,0.052916303,537002519,0,0.23176752,0.17372645,0.37409034,2.0754058,2.7812676,0.059146244,0.0,0.0,0.0,0.004997,3932170,3932170,3997730,458770,0,3,1919,2,1,2,0,3,0,1,0,0,0,0,0
40106611,40006141,0.005507852,0.053365957,0.05388884,537002519,0,0.2620326,0.18094832,0.36697978,2.1522856,3.0564063,0.087695695,0.0,0.0,0.0,0.004997,3932170,3932170,3997730,458770,0,3,1919,2,1,2,0,3,0,1,0,0,0,0,0
40306560,40206003,0.0055981474,0.051816214,0.057579868,537002519,0,0.2944707,0.18822268,0.35901543,2.2353117,3.3288631,0.058765158,0.0,0.0,0.0,0.004997,3932170,3932170,3997730,458770,0,3,1919,2,1,2,0,3,0,1,0,0,0,0,0
40506327,40405866,0.0042320965,0.044470984,0.04621551,537002519,0,0.32922116,0.19727503,0.34956384,2.308817,3.45537,0.059295844,0.0,0.0,0.0,0.004997,3932170,3932170,3997730,458770,0,3,1919,2,1,2,0,3,0,1,0,0,0,0,0
40706198,40605729,0.004529003,0.04412426,0.05322749,537002519,0,0.36601686,0.20454894,0.34104487,2.370147,3.7077942,0.077352345,0.0,0.0,0.0,0.004997,3932170,3932170,3997730,458770,0,3,1919,2,1,2,0,3,0,1,0,0,0,0,0
40906027,40805592,0.0048430706,0.03748953,0.04087522,537002519,0,0.4051027,0.21432787,0.3366436,2.364116,3.831821,0.071057804,0.0,0.0,0.0,0.004997,3932170,3932170,3997730,458770,0,3,1919,2,1,2,0,3,0,1,0,0,0,0,0
41105893,41005456,0.005042369,0.035552185,0.043064404,537002519,0,0.44639987,0.2212826,0.33075696,2.485213,4.0590124,0.05056172,0.0,0.0,0.0,0.004997,3932170,3932170,3997730,458770,0,3,1919,2,1,2,0,3,0,1,0,0,0,0,0
41305849,41205319,0.0033127107,0.03006024,0.03087853,537002519,0,0.4901034,0.23066546,0.2726007,2.505223,4.160695,0.054262515,0.0,0.0,0.0,0.004997,3932170,3932170,3997730,458770,0,3,1919,2,1,2,0,3,0,1,0,0,0,0,0
41505614,41405182,0.0034834822,0.027835153,0.031425077,537002519,0,0.5358865,0.2370177,0.26499286,2.574526,4.357976,0.067084566,0.0,0.0,0.0,0.004997,3932170,3932170,3997730,458770,0,3,1919,2,1,2,0,3,0,1,0,0,0,0,0
41705495,41605045,0.0030547045,0.026370803,0.03208468,537002519,0,0.5839904,0.24297345,0.16896383,2.601818,4.5305676,0.056243528,0.0,0.0,0.0,0.004997,3932170,3932170,3997730,458770,0,3,1919,2,1,2,0,3,0,1,0,0,0,0,0
41905342,41804910,0.0013703436,0.022801846,0.021972356,537002519,0,0.6344735,0.25175953,0.055882387,2.600157,4.617111,0.05855526,0.0,0.0,0.0,0.004997,3932170,3932170,3997730,458770,0,3,1919,2,1,2,0,3,0,1,0,0,0,0,0
42105254,42004772,0.0015108259,0.020075338,0.013112914,537002519,0,0.68725365,0.25696802,0.13716292,2.6581643,4.7340508,0.048421465,0.0,0.0,0.0,0.004997,3932170,3932170,3997730,458770,0,3,1919,2,1,2,0,3,0,1,0,0,0,0,0
42305072,42204635,0.0019796353,0.01847375,0.010640385,537002519,0,0.7426554,0.26522133,0.16838712,2.635257,4.795682,0.052320935,0.0,0.0,0.0,0.004997,3932170,3932170,3997730,458770,0,3,1919,2,1,2,0,3,0,1,0,0,0,0,0
42504928,42404498,0.0005621493,0.018087262,0.014283935,537002519,0,0.8002676,0.26969007,0.084525846,2.6110456,4.886836,0.050155826,0.0,0.0,0.0,0.004997,3932170,3932170,3997730,458770,0,3,1919,2,1,2,0,3,0,1,0,0,0,0,0
42704797,42604362,0.0015667893,0.02093516,0.035032135,537002519,0,0.86046636,0.27382854,0.121127814,2.7082102,4.9679565,0.040778186,0.0,0.0,0.0,0.004997,3932170,3932170,3997730,458770,0,3,1919,2,1,2,0,3,0,1,0,0,0,0,0
42904724,42804224,0.0019718278,0.017585868,0.039159387,537002519,0,0.92279613,0.2810745,0.10580199,2.6912184,5.011003,0.04616747,0.0,0.0,0.0,0.004997,3932170,3932170,3997730,458770,0,3,1919,2,1,2,0,3,0,1,0,0,0,0,0
43104571,43004087,0.002307066,0.018248187,0.048628736,537002519,0,22.030941,0.2845271,0.16324921,2.7547033,5.062274,0.04226618,0.0,0.0,0.0,0.004997,3932170,3932170,3997730,458770,0,3,1919,2,1,2,0,3,0,1,0,0,0,0,0
43304418,43203951,0.000816496,0.015017799,0.032671064,537002519,0,22.729794,0.29116267,0.0060922196,2.740373,5.0748096,0.04524004,0.0,0.0,0.0,0.004997,3932170,3932170,3997730,458770,0,3,1919,2,1,2,0,3,0,1,0,0,0,0,0
43504247,43403814,0.07085467,2.466806,6.878073,67240471,0,0.35937318,0.1931228,0.33419654,4.8910265,9.945744,0.0087907985,0.0,0.0,0.0,0.004997,3932170,3932170,3997730,458770,0,3,1919,2,1,2,0,3,0,1,0,0,0,0,0
43704114,43603677,0.06689151,0.7780502,3.3734107,67240471,0,0.33421898,0.19164015,0.16232741,4.783126,11.070966,0.0169618,0.0,0.0,0.0,0.004997,3932170,3932170,3997730,458770,0,3,1919,2,1,2,0,3,0,1,0,0,0,0,0
43903982,43803540,0.03287718,0.17136222,1.52076,67240471,0,0.32176694,0.19012158,0.11129267,4.9126163,11.409824,0.02903672,0.0,0.0,0.0,0.004997,3932170,3932170,3997730,458770,0,3,1919,2,1,2,0,3,0,1,0,0,0,0,0
44103834,44003403,0.018247148,0.43634474,0.45556986,67240471,0,0.314514,0.18874949,0.010701231,4.655994,12.449218,0.025477745,0.0,0.0,0.0,0.004997,3932170,3932170,3997730,458770,0,3,1919,2,1,2,0,3,0,1,0,0,0,0,0
44303699,44203267,0.019113194,0.5441115,0.25760645,67240471,0,0.30885184,0.18741977,0.021782061,4.757837,12.779648,0.03753054,0.0,0.0,0.0,0.004997,3932170,3932170,3997730,458770,0,3,1919,2,1,2,0,3,0,1,0,0,0,0,0
44503604,44403130,0.018988587,0.56202805,0.48787376,67240471,0,0.30456334,0.18614009,0.047408327,4.6856985,13.566474,0.04050438,0.0,0.0,0.0,0.004997,3932170,3932170,3997730,458770,0,3,1919,2,1,2,0,3,0,1,0,0,0,0,0
44703453,44602993,0.0130820945,0.49201408,0.6593617,67240471,0,0.30220553,0.1849646,0.052245755,4.5926604,14.389466,0.048954282,0.0,0.0,0.0,0.004997,3932170,3932170,3997730,458770,0,3,1919,2,1,2,0,3,0,1,0,0,0,0,0
44903319,44802856,0.010120472,0.41922143,0.72430646,67240471,0,0.30038807,0.18384255,0.066619195,4.595585,14.707559,0.049248,0.0,0.0,0.0,0.004997,3932170,3932170,3997730,458770,0,3,1919,2,1,2,0,3,0,1,0,0,0,0,0
45103188,45002719,0.011280141,0.38298088,0.70308167,67240471,0,0.29857653,0.18272164,0.040663466,4.6170893,15.398199,0.04623976,0.0,0.0,0.0,0.004997,3932170,3932170,3997730,458770,0,3,1919,2,1,2,0,3,0,1,0,0,0,0,0
45303133,45202583,0.011223828,0.35096246,0.66810626,67240471,0,0.29713634,0.18163505,0.1309805,4.534678,15.767806,0.052882705,0.0,0.0,0.0,0.004997,3932170,3932170,3997730,458770,0,3,1919,2,1,2,0,3,0,1,0,0,0,0,0
45502878,45402446,0.0032068442,0.18870899,0.7106312,67240471,0,0.29687348,0.18087249,0.14276007,4.51393,16.44695,0.03384339,0.0,0.0,0.0,0.004997,3932170,3932170,3997730,458770,0,3,1919,2,1,2,0,3,0,1,0,0,0,0,0
45702745,45602309,0.0025672254,0.14251302,0.6656687,67240471,0,0.29600343,0.17986472,0.068649754,4.4696054,17.104607,0.057845823,0.0,0.0,0.0,0.004997,3932170,3932170,3997730,458770,0,3,1919,2,1,2,0,3,0,1,0,0,0,0,0
45902608,45802172,0.0017227369,0.102981664,0.6161054,67240471,0,0.2953259,0.17888677,0.105671994,4.490767,17.433092,0.062411014,0.0,0.0,0.0,0.004997,3932170,3932170,3997730,458770,0,3,1919,2,1,2,0,3,0,1,0,0,0,0,0
46102495,46002035,0.0037501266,0.104917854,0.5598933,67240471,0,0.29459244,0.17792891,0.19583799,4.4440413,18.073994,0.057049267,0.0,0.0,0.0,0.004997,3932170,3932170,3997730,458770,0,3,1919,2,1,2,0,3,0,1,0,0,0,0,0
46302335,46201899,0.005282159,0.11854406,0.5115828,67240471,0,0.29389897,0.17699482,0.07299559,4.490207,18.400902,0.037442766,0.0,0.0,0.0,0.004997,3932170,3932170,3997730,458770,0,3,1919,2,1,2,0,3,0,1,0,0,0,0,0
46502246,46401762,0.0036038423,0.10830875,0.46894422,67240471,0,0.29338163,0.17607819,0.14065002,4.459445,19.033976,0.06561407,0.0,0.0,0.0,0.004997,3932170,3932170,3997730,458770,0,3,1919,2,1,2,0,3,0,1,0,0,0,0,0
46702058,46601625,0.003973166,0.10319541,0.42844853,67240471,0,0.29296112,0.17517832,0.18496309,4.5171347,19.670202,0.06965822,0.0,0.0,0.0,0.004997,3932170,3932170,3997730,458770,0,3,1919,2,1,2,0,3,0,1,0,0,0,0,0
46901928,46801488,0.0036130515,0.09116287,0.39178395,67240471,0,0.29257604,0.17429502,0.116954066,4.5125036,19.990738,0.04994711,0.0,0.0,0.0,0.004997,3932170,3932170,3997730,458770,0,3,1919,2,1,2,0,3,0,1,0,0,0,0,0
47111780,47011345,0.002023391,0.058429345,0.3568943,67240471,0,0.2922768,0.17342521,0.15429045,4.4804726,20.623621,0.063749105,0.0,0.0,0.0,0.004997,3932170,3932170,3997730,458770,0,3,1919,2,1,2,0,3,0,1,0,0,0,0,0
47301717,47201215,0.0028373012,0.040917415,0.3243411,67240471,0,0.29200843,0.17256919,0.24897878,4.5215993,20.937922,0.053499524,0.0,0.0,0.0,0.004997,3932170,3932170,3997730,458770,0,3,1919,2,1,2,0,3,0,1,0,0,0,0,0
47501511,47401078,0.0024860608,0.024531279,0.29632494,67240471,0,0.29183206,0.17172906,0.30437297,4.4669814,21.567425,0.072106846,0.0,0.0,0.0,0.004997,3932170,3932170,3997730,458770,0,3,1919,2,1,2,0,3,0,1,0,0,0,0,0
47701388,47600941,0.0018222049,0.030143574,0.2708178,67240471,0,0.29164094,0.17090462,0.23695874,4.527754,22.196415,0.06659669,0.0,0.0,0.0,0.004997,3932170,3932170,3997730,458770,0,3,1919,2,1,2,0,3,0,1,0,0,0,0,0
47901312,47800805,0.0015683194,0.045664404,0.24468577,67240471,0,0.29145837,0.1700924,0.16671015,4.543092,22.51352,0.05634193,0.0,0.0,0.0,0.004997,3932170,3932170,3997730,458770,0,3,1919,2,1,2,0,3,0,1,0,0,0,0,0
48101100,48000670,0.0024526967,0.040455926,0.21799836,67240471,0,0.29132316,0.16929053,0.21342333,4.5543456,23.148048,0.07012286,0.0,0.0,0.0,0.004997,3932170,3932170,3997730,458770,0,3,1919,2,1,2,0,3,0,1,0,0,0,0,0
48300966,48200531,0.002136465,0.031686645,0.19692671,67240471,0,0.29115957,0.16849993,0.2666275,4.5858893,23.465008,0.078993514,0.0,0.0,0.0,0.004997,3932170,3932170,3997730,458770,0,3,1919,2,1,2,0,3,0,1,0,0,0,0,0
48510822,48410388,0.002843051,0.039607994,0.1786566,67240471,0,0.2909899,0.16771914,0.29595274,4.5803857,24.099613,0.06881222,0.0,0.0,0.0,0.004997,3932170,3932170,3997730,458770,0,3,1919,2,1,2,0,3,0,1,0,0,0,0,0
48710683,48610251,0.0056470763,0.0847808,0.16198713,67240471,0,0.29076377,0.16694999,0.2818505,4.6201267,24.736294,0.054107476,0.0,0.0,0.0,0.004997,3932170,3932170,3997730,458770,0,3,1919,2,1,2,0,3,0,1,0,0,0,0,0
48910578,48810114,0.008315186,0.13893884,0.14283746,67240471,0,0.29045567,0.16619225,0.19171304,4.6308703,25.060997,0.08252955,0.0,0.0,0.0,0.004997,3932170,3932170,3997730,458770,0,3,1919,2,1,2,0,3,0,1,0,0,0,0,0
49100446,48999984,0.0068527204,0.13851474,0.12444182,67240471,0,0.29029068,0.16544586,0.19723442,4.659793,25.707504,0.05823256,0.0,0.0,0.0,0.004997,3932170,3932170,3997730,458770,0,3,1919,2,1,2,0,3,0,1,0,0,0,0,0
49300351,49199847,0.006003992,0.12901132,0.11007881,67240471,0,0.29008573,0.16470987,0.1005808,4.680938,26.033463,0.08161866,0.0,0.0,0.0,0.004997,3932170,3932170,3997730,458770,0,3,1919,2,1,2,0,3,0,1,0,0,0,0,0
49500349,49399711,0.00755123,0.15109155,0.10069714,67240471,0,0.28979105,0.16398087,0.0021560006,4.6746087,26.687641,0.076055676,0.0,0.0,0.0,0.004997,3932170,3932170,3997730,458770,0,3,1919,2,1,2,0,3,0,1,0,0,0,0,0
49700141,49599574,0.0028748505,0.060995046,0.10065081,67240471,0,0.28964996,0.16325909,0.15874946,4.659568,27.341208,0.09001411,0.0,0.0,0.0,0.004997,3932170,3932170,3997730,458770,0,3,1919,2,1,2,0,3,0,1,0,0,0,0,0
49909918,49809430,0.002203275,0.041340098,0.101504505,67240471,0,0.2894679,0.16254921,0.15961087,4.622745,27.664244,0.06556344,0.0,0.0,0.0,0.004997,3932170,3932170,3997730,458770,0,3,1919,2,1,2,0,3,0,1,0,0,0,0,0
50109766,50009294,0.0012446304,0.020775832,0.09847859,67240471,0,0.28937513,0.16185096,0.1067482,4.617573,28.305412,0.0793108,0.0,0.0,0.0,0.004997,3932170,3932170,3997730,458770,0,3,1919,2,1,2,0,3,0,1,0,0,0,0,0
50309625,50209157,0.0020154112,0.020675194,0.09213041,67240471,0,0.28922108,0.16116226,0.13052781,4.596904,28.628252,0.073873825,0.0,0.0,0.0,0.004997,3932170,3932170,3997730,458770,0,3,1919,2,1,2,0,3,0,1,0,0,0,0,0
50509530,50409020,0.0010823534,0.0113861775,0.08591463,67240471,0,0.28909764,0.16048437,0.025411027,4.6082554,29.269644,0.10178111,0.0,0.0,0.0,0.004997,3932170,3932170,3997730,458770,0,3,1919,2,1,2,0,3,0,1,0,0,0,0,0
50709423,50608884,0.0006095568,0.0262979,0.08157305,67240471,0,0.2889646,0.15980916,0.021071972,4.583564,29.912111,0.08182724,0.0,0.0,0.0,0.004997,3932170,3932170,3997730,458770,0,3,1919,2,1,2,0,3,0,1,0,0,0,0,0
50909243,50808747,0.0021377949,0.05404001,0.084654756,67240471,0,0.2888394,0.15914421,0.016293917,4.5786543,30.237623,0.090685986,0.0,0.0,0.0,0.004997,3932170,3932170,3997730,458770,0,3,1919,2,1,2,0,3,0,1,0,0,0,0,0
51099103,50998617,0.0017266086,0.065193504,0.08355703,67240471,0,0.28870463,0.1586526,0.18196672,4.5399623,30.875696,0.09168074,0.0,0.0,0.0,0.004997,3932170,3932170,3997730,458770,0,3,1919,2,1,2,0,3,0,1,0,0,0,0,0
51308935,51208473,0.0027757047,0.08487864,0.07954294,67240471,0,0.2885359,0.15800686,0.10569505,4.575003,31.19072,0.07808193,0.0,0.0,0.0,0.004997,3932170,3932170,3997730,458770,0,3,1919,2,1,2,0,3,0,1,0,0,0,0,0
51508817,51408337,0.0020354635,0.077621564,0.07322157,67240471,0,0.2884112,0.15736927,0.042459223,4.573363,31.827322,0.07942051,0.0,0.0,0.0,0.004997,3932170,3932170,3997730,458770,0,3,1919,2,1,2,0,3,0,1,0,0,0,0,0
51708633,51608200,0.002234337,0.075397566,0.066369444,67240471,0,0.28832006,0.15673912,0.05906278,4.578291,32.46844,0.08773309,0.0,0.0,0.0,0.004997,3932170,3932170,3997730,458770,0,3,1919,2,1,2,0,3,0,1,0,0,0,0,0
51908497,51808064,0.0006074657,0.04015264,0.054045778,131607,0,0.28826234,0.156148,0.06546849,4.5442905,32.78969,0.091789,0.0,0.0,0.0,0.004997,3932170,3932170,3997730,458770,0,3,1919,2,1,2,0,3,0,1,0,0,0,0,0
52108490,52007927,0.0007392595,0.019207802,0.47499833,131607,0,0.28619328,0.16118418,0.06963168,0.008191002,0.015997887,0.08954292,0.0,0.0,0.0,0.004997,3932170,3932170,3997730,458770,0,0,895,3,2,3,0,3,0,1,0,0,0,0,0
52308401,52207790,0.00047621236,0.012780402,0.20923397,131607,0,0.27383038,0.17441843,0.018406041,0.013772453,0.026757626,0.091554984,0.0,0.0,0.0,0.004997,3932170,3932170,3997730,458770,0,0,895,3,2,3,0,3,0,1,0,0,0,0,0
52508230,52407654,0.00045082183,0.0075600506,0.0756526,131607,0,0.24635513,0.18459259,0.07277424,0.042364415,0.0030691153,0.08897126,0.0,0.0,0.0,0.004997,3932170,3932170,3997730,458770,0,0,895,3,2,3,0,3,0,1,0,0,0,0,0
52708110,52607517,0.0005680859,0.023658046,0.012155064,131607,0,0.22699018,0.19408044,0.056439746,0.06642651,0.025201643,0.082874164,0.0,0.0,0.0,0.004997,3932170,3932170,3997730,458770,0,0,895,3,2,3,0,3,0,1,0,0,0,0,0
52908099,52807380,0.0009198004,0.016456973,0.018550344,131607,0,0.22545266,0.20755407,0.09507776,0.036370385,0.017538171,0.08466748,0.0,0.0,0.0,0.004997,3932170,3932170,3997730,458770,0,0,895,3,2,3,0,3,0,1,0,0,0,0,0
53107855,53007243,0.00036183017,0.026180916,0.029499684,131607,0,0.21244921,0.21555634,0.00076048874,0.07848057,0.022327468,0.08041101,0.0,0.0,0.0,0.004997,3932170,3932170,3997730,458770,0,0,895,3,2,3,0,3,0,1,0,0,0,0,0
53307672,53207107,0.00021435806,0.0153713,0.027310869,131607,0,0.21339814,0.22780547,0.01959964,0.057491932,0.032839216,0.07852353,0.0,0.0,0.0,0.004997,3932170,3932170,3997730,458770,0,0,895,3,2,3,0,3,0,1,0,0,0,0,0
53507533,53406970,0.00026687433,0.020538023,0.032617286,131607,0,0.20377949,0.23449896,0.00089744333,0.10352969,0.03898167,0.073811255,0.0,0.0,0.0,0.004997,3932170,3932170,3997730,458770,0,0,895,3,2,3,0,3,0,1,0,0,0,0,0
53707450,53606834,0.00033503794,0.024302172,0.035907056,131607,0,0.19585998,0.24079283,0.00860041,0.09036994,0.035933718,0.079081506,0.0,0.0,0.0,0.004997,3932170,3932170,3997730,458770,0,0,895,3,2,3,0,3,0,1,0,0,0,0,0
53907270,53806697,0.000324588,0.01692795,0.03319161,131607,0,0.19852345,0.25101802,0.01495684,0.12163187,0.024001284,0.07056882,0.0,0.0,0.0,0.004997,3932170,3932170,3997730,458770,0,0,895,3,2,3,0,3,0,1,0,0,0,0,0
54107131,54006560,0.00048489615,0.022121655,0.04134403,131607,0,0.1920248,0.25627935,0.00061343703,0.11639403,0.029961595,0.06878055,0.0,0.0,0.0,0.004997,3932170,3932170,3997730,458770,0,0,895,3,2,3,0,3,0,1,0,0,0,0,0
54307028,54206424,0.00033264,0.013535575,0.03554558,131607,0,0.19537586,0.26537213,0.009413193,0.10104999,0.040534142,0.06495537,0.0,0.0,0.0,0.004997,3932170,3932170,3997730,458770,0,0,895,3,2,3,0,3,0,1,0,0,0,0,0
54506868,54406287,0.00055429514,0.01958412,0.041606504,131607,0,0.18982393,0.26975587,0.001429096,0.12259699,0.045075446,0.062158458,0.0,0.0,0.0,0.004997,3932170,3932170,3997730,458770,0,0,895,3,2,3,0,3,0,1,0,0,0,0,0
54706763,54606150,0.00071791763,0.026152523,0.04915944,131607,0,0.18489404,0.27386692,0.00042979387,0.1294027,0.046801493,0.060953528,0.0,0.0,0.0,0.004997,3932170,3932170,3997730,458770,0,0,895,3,2,3,0,3,0,1,0,0,0,0,0
54906620,54806014,0.00063673075,0.017752605,0.03681262,131607,0,0.18893947,0.28141156,0.0018847884,0.1404626,0.042383302,0.0675324,0.0,0.0,0.0,0.004997,3932170,3932170,3997730,458770,0,0,895,3,2,3,0,3,0,1,0,0,0,0,0
55106519,55005877,0.0010858906,0.025352346,0.04457253,131607,0,0.18459773,0.2847988,0.12358336,0.14594205,0.0473729,0.062359333,0.0,0.0,0.0,0.004997,3932170,3932170,3997730,458770,0,0,895,3,2,3,0,3,0,1,0,0,0,0,0
55306336,55205740,0.12697196,3.5466862,4.1618,67240471,0,0.15007962,0.18854555,0.05947777,4.406597,2.6930346,0.057079256,0.0,0.0,0.0,0.004997,3932170,3932170,3997730,458770,0,3,1919,3,2,3,0,3,0,1,0,0,0,0,0
55506168,55405604,0.03480364,1.0817192,2.0573678,67240471,0,0.14918935,0.18696009,0.040646456,4.441823,3.436281,0.069200434,0.0,0.0,0.0,0.004997,3932170,3932170,3997730,458770,0,3,1919,3,2,3,0,3,0,1,0,0,0,0,0
55706048,55605467,0.024681104,0.09190139,0.67469066,131607,0,0.14854385,0.18522713,0.109274834,4.5271688,4.1660714,0.047616433,0.0,0.0,0.0,0.004997,3932170,3932170,3997730,458770,0,3,1919,3,2,3,0,3,0,1,0,0,0,0,0
55905965,55805330,0.0023109748,0.3748854,0.1706371,131607,0,0.14818077,0.18390751,0.088427,4.654941,4.5053444,0.06143098,0.0,0.0,0.0,0.004997,3932170,3932170,3997730,458770,0,3,1919,3,2,3,0,3,0,1,0,0,0,0,0
56105750,56005194,0.0016746373,0.47605574,0.56984144,131607,0,0.14778982,0.18246497,0.10608538,4.8855186,5.2083855,0.061237566,0.0,0.0,0.0,0.004997,3932170,3932170,3997730,458770,0,3,1919,3,2,3,0,3,0,1,0,0,0,0,0
56305573,56205061,0.0009994938,0.5022711,0.73514324,131607,0,0.14765733,0.18098973,0.09941261,5.0904846,5.5777903,0.042587817,0.0,0.0,0.0,0.004997,3932170,3932170,3997730,458770,0,3,1919,3,2,3,0,3,0,1,0,0,0,0,0
56505421,56404921,3.8257138e-05,0.49245495,0.7791657,131607,0,0.14813663,0.17958115,0.0032237454,5.34412,6.3505397,0.03890641,0.0,0.0,0.0,0.004997,3932170,3932170,3997730,458770,0,3,1919,3,2,3,0,3,0,1,0,0,0,0,0
56705292,56604784,0.00014522679,0.4662598,0.7624429,537002519,0,0.14967272,0.17834364,0.0010331918,5.6046987,7.160369,0.05483435,0.0,0.0,0.0,0.004997,3932170,3932170,3997730,458770,0,3,1919,3,2,3,0,3,0,1,0,0,0,0,0
56905154,56804647,0.10068924,1.7491052,1.3022537,67240471,0,0.14807355,0.1772404,0.10403912,4.2745943,7.293219,0.07133876,0.0,0.0,0.0,0.004997,3932170,3932170,3997730,458770,0,3,1919,3,2,3,0,3,0,1,0,0,0,0,0
57105016,57004511,0.0107017765,1.0429221,1.062597,67240471,0,0.14792223,0.17606178,0.17326958,4.2900095,7.9482303,0.033209193,0.0,0.0,0.0,0.004997,3932170,3932170,3997730,458770,0,3,1919,3,2,3,0,3,0,1,0,0,0,0,0
57304875,57204374,0.0059216176,0.6296773,0.806802,67240471,0,0.1477789,0.17493589,0.15628102,4.237129,8.275152,0.028504908,0.0,0.0,0.0,0.004997,3932170,3932170,3997730,458770,0,3,1919,3,2,3,0,3,0,1,0,0,0,0,0
57504789,57404238,0.0072023803,0.42141902,0.6091224,67240471,0,0.1476621,0.1738677,0.20766445,4.2257767,8.914505,0.037977953,0.0,0.0,0.0,0.004997,3932170,3932170,3997730,458770,0,3,1919,3,2,3,0,3,0,1,0,0,0,0,0
57704606,57604101,0.007405913,0.3070726,0.4702071,67240471,0,0.1475582,0.17284808,0.06844264,4.22234,9.546509,0.042363532,0.0,0.0,0.0,0.004997,3932170,3932170,3997730,458770,0,3,1919,3,2,3,0,3,0,1,0,0,0,0,0
57904531,57803965,0.007460149,0.22777832,0.37496427,67240471,0,0.1474679,0.17188011,0.15502062,4.2682495,9.855467,0.027640494,0.0,0.0,0.0,0.004997,3932170,3932170,3997730,458770,0,3,1919,3,2,3,0,3,0,1,0,0,0,0,0
58104331,58003828,0.004106872,0.16175868,0.30600247,67240471,0,0.14738321,0.1709583,0.23523909,4.2161965,10.484224,0.0036553429,0.0,0.0,0.0,0.004997,3932170,3932170,3997730,458770,0,3,1919,3,2,3,0,3,0,1,0,0,0,0,0
58304249,58203691,0.012748639,0.17175306,0.25238165,67240471,0,0.14731231,0.17004961,0.2653209,4.217815,10.795116,0.026929349,0.0,0.0,0.0,0.004997,3932170,3932170,3997730,458770,0,3,1919,3,2,3,0,3,0,1,0,0,0,0,0
58504060,58403555,0.011821192,0.17420158,0.21877389,67240471,0,0.14725721,0.16916777,0.14206383,4.226492,11.418802,0.040797748,0.0,0.0,0.0,0.004997,3932170,3932170,3997730,458770,0,3,1919,3,2,3,0,3,0,1,0,0,0,0,0
58703851,58603418,0.009860377,0.16678183,0.1937396,67240471,0,0.14721113,0.16831313,0.12510274,4.199078,12.036591,0.035752546,0.0,0.0,0.0,0.004997,3932170,3932170,3997730,458770,0,3,1919,3,2,3,0,3,0,1,0,0,0,0,0
58903766,58803282,0.010929784,0.16517423,0.17209694,67240471,0,0.1471737,0.16748127,0.18387242,4.210198,12.347055,0.0066790683,0.0,0.0,0.0,0.004997,3932170,3932170,3997730,458770,0,3,1919,3,2,3,0,3,0,1,0,0,0,0,0
59103601,59003145,0.011764164,0.17095402,0.15388714,67240471,0,0.147145,0.16666465,0.23240764,4.2383137,12.967648,0.011309178,0.0,0.0,0.0,0.004997,3932170,3932170,3997730,458770,0,3,1919,3,2,3,0,3,0,1,0,0,0,0,0
59303471,59203008,0.012640182,0.18098272,0.13926265,67240471,0,0.147122,0.16586328,0.19447553,4.1918993,13.277608,0.020671045,0.0,0.0,0.0,0.004997,3932170,3932170,3997730,458770,0,3,1919,3,2,3,0,3,0,1,0,0,0,0,0
59503339,59402872,0.016284054,0.20714097,0.12587781,67240471,0,0.14709744,0.16508506,0.1577612,4.178738,13.896813,0.025591645,0.0,0.0,0.0,0.004997,3932170,3932170,3997730,458770,0,3,1919,3,2,3,0,3,0,1,0,0,0,0,0
59703201,59602735,0.013904457,0.19956765,0.11318828,67240471,0,0.14708175,0.16431943,0.111680426,4.183136,14.515143,0.020672457,0.0,0.0,0.0,0.004997,3932170,3932170,3997730,458770,0,3,1919,3,2,3,0,3,0,1,0,0,0,0,0
59903218,59802599,0.007948795,0.1511179,0.10229639,67240471,0,0.14707167,0.16357183,0.0950248,4.2215986,14.8244705,0.03958987,0.0,0.0,0.0,0.004997,3932170,3932170,3997730,458770,0,3,1919,3,2,3,0,3,0,1,0,0,0,0,0
60102928,60002462,0.0018832212,0.06984833,0.0883264,67240471,0,0.14706346,0.16302235,0.0741308,4.2088876,15.443168,0.03161249,0.0,0.0,0.0,0.004997,3932170,3932170,3997730,458770,0,3,1919,3,2,3,0,3,0,1,0,0,0,0,0
60302765,60202326,0.0030200568,0.06692781,0.074861765,67240471,0,0.1470558,0.1623017,0.0028877894,4.191011,15.752191,0.02655559,0.0,0.0,0.0,0.004997,3932170,3932170,3997730,458770,0,3,1919,3,2,3,0,3,0,1,0,0,0,0,0
60502622,60402190,0.0013993933,0.053310882,0.0606408,67240471,0,0.14705265,0.16159533,0.023449142,4.244833,16.375034,0.03567239,0.0,0.0,0.0,0.004997,3932170,3932170,3997730,458770,0,3,1919,3,2,3,0,3,0,1,0,0,0,0,0
60702504,60602053,0.002324492,0.037618905,0.047491863,67240471,0,0.14705084,0.16090035,0.0059812213,4.233966,16.99866,0.021417784,0.0,0.0,0.0,0.004997,3932170,3932170,3997730,458770,0,3,1919,3,2,3,0,3,0,1,0,0,0,0,0
60902372,60801916,0.003079501,0.051820718,0.04076877,67240471,0,0.14704895,0.16021639,0.037267804,4.2302966,17.307934,0.02764923,0.0,0.0,0.0,0.004997,3932170,3932170,3997730,458770,0,3,1919,3,2,3,0,3,0,1,0,0,0,0,0
61102216,61001780,0.0032616316,0.066139154,0.03899861,67240471,0,0.14704983,0.15954143,0.012945656,4.2396507,17.931519,0.030730614,0.0,0.0,0.0,0.004997,3932170,3932170,3997730,458770,0,3,1919,3,2,3,0,3,0,1,0,0,0,0,0
61302081,61201643,0.006225442,0.09129832,0.045992196,67240471,0,0.14705026,0.15887591,0.055288706,4.194682,18.245295,0.029950654,0.0,0.0,0.0,0.004997,3932170,3932170,3997730,458770,0,3,1919,3,2,3,0,3,0,1,0,0,0,0,0
61501966,61401507,0.0056918566,0.10178931,0.051809806,67240471,0,0.1470519,0.15821922,0.109903656,4.199887,18.864876,0.02142191,0.0,0.0,0.0,0.004997,3932170,3932170,3997730,458770,0,3,1919,3,2,3,0,3,0,1,0,0,0,0,0
61701825,61601370,0.0046920152,0.09212885,0.052571997,67240471,0,0.14705443,0.15757036,0.102316625,4.157448,19.480288,0.024638863,0.0,0.0,0.0,0.004997,3932170,3932170,3997730,458770,0,3,1919,3,2,3,0,3,0,1,0,0,0,0,0
61901690,61801234,0.00415034,0.077774495,0.049284693,67240471,0,0.14705731,0.15693069,0.13269413,4.102944,19.785358,0.020560574,0.0,0.0,0.0,0.004997,3932170,3932170,3997730,458770,0,3,1919,3,2,3,0,3,0,1,0,0,0,0,0
62101553,62001097,0.0008218745,0.029468592,0.03472182,131607,0,0.14712526,0.1563112,0.15917791,4.099715,20.38956,0.032383103,0.0,0.0,0.0,0.004997,3932170,3932170,3997730,458770,0,3,1919,3,2,3,0,3,0,1,0,0,0,0,0
62301412,62200961,0.001101397,0.03502556,0.021456491,131607,0,0.14742556,0.15578167,0.13395777,4.1016693,20.692451,0.027607594,0.0,0.0,0.0,0.004997,3932170,3932170,3997730,458770,0,3,1919,3,2,3,0,3,0,1,0,0,0,0,0
62511312,62410817,0.0009825417,0.04299391,0.016427532,131607,0,0.14822352,0.15544814,0.11592223,4.067637,21.298887,0.028301423,0.0,0.0,0.0,0.004997,3932170,3932170,3997730,458770,0,3,1919,3,2,3,0,3,0,1,0,0,0,0,0
62711116,62610681,0.0006554836,0.04484731,0.017195016,131607,0,0.1497134,0.15538228,0.10064019,4.048755,21.890184,0.029191809,0.0,0.0,0.0,0.004997,3932170,3932170,3997730,458770,0,3,1919,3,2,3,0,3,0,1,0,0,0,0,0
62900988,62800551,0.0007310964,0.043840103,0.017891701,537002519,0,0.15206343,0.15564428,0.0766143,4.0344763,22.184772,0.025448168,0.0,0.0,0.0,0.004997,3932170,3932170,3997730,458770,0,3,1919,3,2,3,0,3,0,1,0,0,0,0,0
63100853,63000415,0.013322626,0.32112506,0.19570318,67240471,0,0.14866307,0.15393287,0.10755774,3.9764948,22.749857,0.023314921,0.0,0.0,0.0,0.004997,3932170,3932170,3997730,458770,0,3,1919,3,2,3,0,3,0,1,0,0,0,0,0
63300820,63200278,0.009905504,0.23240773,0.13147022,67240471,0,0.14866324,0.15334208,0.15792014,4.090679,23.12425,0.02967979,0.0,0.0,0.0,0.004997,3932170,3932170,3997730,458770,0,3,1919,3,2,3,0,3,0,1,0,0,0,0,0
63500603,63400142,0.0018579739,0.109953,0.08205283,67240471,0,0.14866689,0.15275799,0.13471952,4.1023498,23.72819,0.020763755,0.0,0.0,0.0,0.004997,3932170,3932170,3997730,458770,0,3,1919,3,2,3,0,3,0,1,0,0,0,0,0
63700463,63600005,0.001959132,0.08457796,0.051854838,67240471,0,0.14866577,0.15217933,0.079530805,4.119861,24.336262,0.026264941,0.0,0.0,0.0,0.004997,3932170,3932170,3997730,458770,0,3,1919,3,2,3,0,3,0,1,0,0,0,0,0
63900370,63799869,0.00236404,0.0724673,0.033347342,67240471,0,0.14866747,0.1516074,0.06986797,4.139856,24.641388,0.023655493,0.0,0.0,0.0,0.004997,3932170,3932170,3997730,458770,0,3,1919,3,2,3,0,3,0,1,0,0,0,0,0
64100296,63999732,0.001956009,0.05515566,0.02026461,67240471,0,0.1486694,0.15104277,0.0790016,4.1627145,25.245813,0.016404577,0.0,0.0,0.0,0.004997,3932170,3932170,3997730,458770,0,3,1919,3,2,3,0,3,0,1,0,0,0,0,0
64310066,64209589,0.0010876611,0.0296718,0.010492161,67240471,0,0.14867494,0.15048511,0.08193586,4.1821895,25.855362,0.021788457,0.0,0.0,0.0,0.004997,3932170,3932170,3997730,458770,0,3,1919,3,2,3,0,3,0,1,0,0,0,0,0
64509884,64409452,0.00036912897,0.016360562,0.014428617,67240471,0,0.14867684,0.14993332,0.04649673,4.181005,26.164314,0.018499434,0.0,0.0,0.0,0.004997,3932170,3932170,3997730,458770,0,3,1919,3,2,3,0,3,0,1,0,0,0,0,0
64709846,64609316,0.0007475227,0.020538913,0.020351548,67240471,0,0.14868075,0.1493875,0.079175614,4.1644444,26.773638,0.012883125,0.0,0.0,0.0,0.004997,3932170,3932170,3997730,458770,0,3,1919,3,2,3,0,3,0,1,0,0,0,0,0
64899617,64799186,0.0013590776,0.04295386,0.02974283,67240471,0,0.14868326,0.148982,0.097551234,4.139127,27.078201,0.017548036,0.0,0.0,0.0,0.004997,3932170,3932170,3997730,458770,0,3,1919,3,2,3,0,3,0,1,0,0,0,0,0
65099534,64999050,0.0021725087,0.063156106,0.038693484,67240471,0,0.14868638,0.1484466,0.10544772,4.1364484,27.683498,0.0031451646,0.0,0.0,0.0,0.004997,3932170,3932170,3997730,458770,0,3,1919,3,2,3,0,3,0,1,0,0,0,0,0
65309411,65208907,0.001595994,0.05960124,0.04159921,67240471,0,0.14869107,0.14778545,0.09947981,4.0899067,28.288816,0.02223956,0.0,0.0,0.0,0.004997,3932170,3932170,3997730,458770,0,3,1919,3,2,3,0,3,0,1,0,0,0,0,0
65509280,65408770,0.0014230815,0.052967265,0.03983124,67240471,0,0.14869486,0.14726335,0.096553534,4.103669,28.588982,0.022880547,0.0,0.0,0.0,0.004997,3932170,3932170,3997730,458770,0,3,1919,3,2,3,0,3,0,1,0,0,0,0,0
65709136,65608634,0.0017778716,0.05385971,0.037243374,67240471,0,0.14869915,0.14687611,0.099972494,4.0547805,29.185501,0.022065463,0.0,0.0,0.0,0.004997,3932170,3932170,3997730,458770,0,3,1919,3,2,3,0,3,0,1,0,0,0,0,0
65908932,65808498,0.0010318586,0.03962633,0.03159448,67240471,0,0.14870343,0.14636397,0.08523608,4.052597,29.485851,0.012399117,0.0,0.0,0.0,0.004997,3932170,3932170,3997730,458770,0,3,1919,3,2,3,0,3,0,1,0,0,0,0,0
66108795,66008361,0.0012685917,0.037244204,0.026366223,67240471,0,0.14870763,0.14585742,0.115561865,4.026243,30.077858,0.02174993,0.0,0.0,0.0,0.004997,3932170,3932170,3997730,458770,0,3,1919,3,2,3,0,3,0,1,0,0,0,0,0
66308751,66208225,0.0016320101,0.033778895,0.018965852,67240471,0,0.14871228,0.14535622,0.11453065,4.040123,30.669827,0.0073136524,0.0,0.0,0.0,0.004997,3932170,3932170,3997730,458770,0,3,1919,3,2,3,0,3,0,1,0,0,0,0,0
66508522,66408088,0.0029338445,0.049151257,0.00826409,67240471,0,0.14871688,0.14486057,0.03760117,3.9917274,30.968494,0.0022395954,0.0,0.0,0.0,0.004997,3932170,3932170,3997730,458770,0,3,1919,3,2,3,0,3,0,1,0,0,0,0,0
66708384,66607952,0.005353701,0.09862403,0.013844854,67240471,0,0.14872053,0.14436924,0.024481295,4.0698404,31.566343,0.0072111557,0.0,0.0,0.0,0.004997,3932170,3932170,3997730,458770,0,3,1919,3,2,3,0,3,0,1,0,0,0,0,0
66908302,66807815,0.0064271973,0.13375996,0.028177835,67240471,0,0.14872333,0.14388373,0.10177709,4.02295,31.864601,0.016714178,0.0,0.0,0.0,0.004997,3932170,3932170,3997730,458770,0,3,1919,3,2,3,0,3,0,1,0,0,0,0,0
67108135,67007679,0.006164171,0.14050536,0.036819447,67240471,0,0.14872752,0.14340328,0.06942243,4.0660787,32.468403,0.011760635,0.0,0.0,0.0,0.004997,3932170,3932170,3997730,458770,0,3,1919,3,2,3,0,3,0,1,0,0,0,0,0
67307995,67207543,0.004784544,0.119266585,0.037174605,67240471,0,0.14873196,0.14292692,0.042742208,4.1482434,32.774914,0.006926067,0.0,0.0,0.0,0.004997,3932170,3932170,3997730,458770,0,3,1919,3,2,3,0,3,0,1,0,0,0,0,0
67507887,67407406,0.00311759,0.0826024,0.029929731,67240471,0,0.14873649,0.14245595,0.009297989,4.136485,33.388027,0.011688129,0.0,0.0,0.0,0.004997,3932170,3932170,3997730,458770,0,3,1919,3,2,3,0,3,0,1,0,0,0,0,0
67707788,67607270,0.00171,0.03775251,0.017031152,67240471,0,0.14874162,0.14198965,0.016038366,4.184547,34.001446,0.012342147,0.0,0.0,0.0,0.004997,3932170,3932170,3997730,458770,0,3,1919,3,2,3,0,3,0,1,0,0,0,0,0
67907575,67807133,0.0006978233,0.016419882,0.0054133595,67240471,0,0.14876303,0.14153549,0.04515709,4.1795125,34.311066,0.021124631,0.0,0.0,0.0,0.004997,3932170,3932170,3997730,458770,0,3,1919,3,2,3,0,3,0,1,0,0,0,0,0
68107428,68006997,0.00062786345,0.02601835,0.010307492,67240471,0,0.14876495,0.14107676,0.030703656,4.198821,34.93335,0.0018690984,0.0,0.0,0.0,0.004997,3932170,3932170,3997730,458770,0,3,1919,3,2,3,0,3,0,1,0,0,0,0,0
68307309,68206861,0.00057457003,0.027999362,0.014998723,67240471,0,0.14876851,0.14062285,0.034936354,4.22341,35.242653,0.011466433,0.0,0.0,0.0,0.004997,3932170,3932170,3997730,458770,0,3,1919,3,2,3,0,3,0,1,0,0,0,0,0
68507161,68406724,0.0010887827,0.04196777,0.021480769,67240471,0,0.14876992,0.14017293,0.050642297,4.252912,35.864758,0.002929733,0.0,0.0,0.0,0.004997,3932170,3932170,3997730,458770,0,3,1919,3,2,3,0,3,0,1,0,0,0,0,0
68707143,68606588,0.001505489,0.054077346,0.027509127,67240471,0,0.1487738,0.13972744,0.046364915,4.234315,36.49181,0.006553761,0.0,0.0,0.0,0.004997,3932170,3932170,3997730,458770,0,3,1919,3,2,3,0,3,0,1,0,0,0,0,0
68906898,68806452,0.002817101,0.07836549,0.036686905,67240471,0,0.14877532,0.13928662,0.046250805,4.247796,36.804897,0.016057717,0.0,0.0,0.0,0.004997,3932170,3932170,3997730,458770,0,3,1919,3,2,3,0,3,0,1,0,0,0,0,0
69106797,69006315,0.0031026446,0.08730538,0.34823892,67240471,0,0.41208184,0.13965224,0.04912834,4.2007093,37.427364,0.016082315,0.0,0.0,0.0,0.004997,3932170,3932170,3997730,458770,0,3,1919,4,3,4,0,3,0,1,0,0,0,0,0
69306771,69206179,0.0011486574,4.2462006,0.8043422,67240471,0,0.35568607,0.1384183,0.04723034,0.0076140054,0.01203153,0.020724066,0.0,0.0,0.0,0.004997,3932170,3932170,3997730,458770,0,0,895,4,3,4,0,3,0,1,0,0,0,0,0
69506647,69406042,0.0003944816,1.6167042,0.47237438,131607,0,0.28987128,0.13803695,0.052899767,4.210249,0.69434637,0.011204415,0.0,0.0,0.0,0.004997,3932170,3932170,3997730,458770,0,1,1919,4,3,4,0,3,0,1,0,0,0,0,0
69706505,69605910,0.00046988024,0.38153654,0.16178498,131607,0,0.26838014,0.13779223,0.070161186,4.203422,1.0578868,0.0128356535,0.0,0.0,0.0,0.004997,3932170,3932170,3997730,458770,0,3,1919,4,3,4,0,3,0,1,0,0,0,0,0
69906367,69805770,0.00062108506,0.18136363,0.07002972,131607,0,0.2688313,0.13778321,0.10360917,4.20618,1.353875,0.03026086,0.0,0.0,0.0,0.004997,3932170,3932170,3997730,458770,0,3,1919,4,3,4,0,3,0,1,0,0,0,0,0
70106200,70005633,0.0005241775,0.42212504,0.04797062,131607,0,0.2697151,0.13821813,0.051182773,4.1530285,1.9525601,0.005684054,0.0,0.0,0.0,0.004997,3932170,3932170,3997730,458770,0,3,1919,4,3,4,0,3,0,1,0,0,0,0,0
70306285,70205497,0.00045311134,0.5099522,0.12947828,131607,0,0.27121553,0.1390046,0.04881519,4.1621323,2.2452123,0.008049331,0.0,0.0,0.0,0.004997,3932170,3932170,3997730,458770,0,3,1919,4,3,4,0,3,0,1,0,0,0,0,0
70506153,70405361,0.0005821216,0.5262494,0.1711347,131607,0,0.2735474,0.14032355,0.08426098,4.1040797,2.828965,0.007543252,0.0,0.0,0.0,0.004997,3932170,3932170,3997730,458770,0,3,1919,4,3,4,0,3,0,1,0,0,0,0,0
70705727,70605224,0.015637722,0.46903163,0.25314867,67240471,0,0.26949105,0.13685144,0.10447002,4.063321,3.4103994,0.004389836,0.0,0.0,0.0,0.004997,3932170,3932170,3997730,458770,0,3,1919,4,3,4,0,3,0,1,0,0,0,0,0
70905677,70805088,0.009545154,0.43990287,0.18169828,67240471,0,0.26949337,0.13643901,0.0721979,4.362337,3.8183985,0.0014464139,0.0,0.0,0.0,0.004997,3932170,3932170,3997730,458770,0,3,1919,4,3,4,0,3,0,1,0,0,0,0,0
71105453,71004952,0.00065996754,0.42014667,0.14971726,67240471,0,0.26949742,0.13603494,0.06789419,4.401207,4.4367666,0.001331957,0.0,0.0,0.0,0.004997,3932170,3932170,3997730,458770,0,3,1919,4,3,4,0,3,0,1,0,0,0,0,0
71305320,71204815,0.00072942954,0.40566447,0.1378118,67240471,0,0.2694997,0.13562852,0.04179173,4.4112153,4.7485085,0.00267253,0.0,0.0,0.0,0.004997,3932170,3932170,3997730,458770,0,3,1919,4,3,4,0,3,0,1,0,0,0,0,0
