timestamp,timestamp_sample,control[0],control[1],control[2],control[3],control[4],control[5],control[6],control[7]
16907540,16907526,0.0,0.0,0.0,0.0,0.0,1.0,0.0,0.0
16912681,16912668,0.0,0.0,0.0,0.0,0.0,1.0,0.0,0.0
16958053,16958038,0.0,0.0,0.0,0.0,0.0,1.0,0.0,0.0
17008577,17008562,0.0,0.0,0.0,0.0,0.0,1.0,0.0,0.0
17059137,17059123,0.0,0.0,0.0,0.0,0.0,1.0,0.0,0.0
17109614,17109601,0.0,0.0,0.0,0.0,0.0,1.0,0.0,0.0
17155081,17155068,0.0,0.0,0.0,0.0,0.0,1.0,0.0,0.0
17210659,17210646,0.0,0.0,0.0,0.0,0.0,1.0,0.0,0.0
17256140,17256127,0.0,0.0,0.0,0.0,0.0,1.0,0.0,0.0
17306636,17306623,0.0,0.0,0.0,0.0,0.0,1.0,0.0,0.0
17357293,17357279,0.0,0.0,0.0,0.0,0.0,1.0,0.0,0.0
17407677,17407664,0.0,0.0,0.0,0.0,0.0,1.0,0.0,0.0
17458196,17458183,0.0,0.0,0.0,0.0,0.0,1.0,0.0,0.0
17508738,17508724,0.0,0.0,0.0,0.0,0.0,1.0,0.0,0.0
17559259,17559246,0.0,0.0,0.0,0.0,0.0,1.0,0.0,0.0
17609757,17609744,0.0,0.0,0.0,0.0,0.0,1.0,0.0,0.0
17655223,17655210,0.0,0.0,0.0,0.0,0.0,1.0,0.0,0.0
17705741,17705727,0.0,0.0,0.0,0.0,0.0,1.0,0.0,0.0
17756277,17756264,0.0,0.0,0.0,0.0,0.0,1.0,0.0,0.0
17806769,17806756,0.0,0.0,0.0,0.0,0.0,1.0,0.0,0.0
17857284,17857270,0.0,0.0,0.0,0.0,0.0,1.0,0.0,0.0
17907814,17907801,0.0,0.0,0.0,0.0,0.0,1.0,0.0,0.0
17958340,17958326,0.0,0.0,0.0,0.0,0.0,1.0,0.0,0.0
18008875,18008861,0.0,0.0,0.0,0.0,0.0,1.0,0.0,0.0
18054315,18054302,0.0,0.0,0.0,0.0,0.0,1.0,0.0,0.0
18109885,18109871,0.0,0.0,0.0,0.0,0.0,1.0,0.0,0.0
18155361,18155347,0.0,0.0,0.0,0.0,0.0,1.0,0.0,0.0
18205896,18205882,0.0,0.0,0.0,0.0,0.0,1.0,0.0,0.0
18261607,18261594,0.0,0.0,0.0,0.0,0.0,1.0,0.0,0.0
18306912,18306899,0.0,0.0,0.0,0.0,0.0,1.0,0.0,0.0
18357431,18357417,0.0,0.0,0.0,0.0,0.0,1.0,0.0,0.0
18407953,18407939,0.0,0.0,0.0,0.0,0.0,1.0,0.0,0.0
18458473,18458458,0.0,0.0,0.0,0.0,0.0,1.0,0.0,0.0
18508993,18508978,0.0,0.0,0.0,0.0,0.0,1.0,0.0,0.0
18554456,18554442,0.0,0.0,0.0,0.0,0.0,1.0,0.0,0.0
18610038,18610023,0.0,0.0,0.0,0.0,0.0,1.0,0.0,0.0
18655495,18655482,0.0,0.0,0.0,0.0,0.0,1.0,0.0,0.0
18706043,18706028,0.0,0.0,0.0,0.0,0.0,1.0,0.0,0.0
18761589,18761576,0.0,0.0,0.0,0.0,0.0,1.0,0.0,0.0
18807051,18807037,0.0,0.0,0.0,0.0,0.0,1.0,0.0,0.0
18857570,18857557,0.0,0.0,0.0,0.0,0.0,1.0,0.0,0.0
18908106,18908092,0.0,0.0,0.0,0.0,0.0,1.0,0.0,0.0
18958618,18958605,0.0,0.0,0.0,0.0,0.0,1.0,0.0,0.0
19009135,19009121,0.0,0.0,0.0,0.0,0.0,1.0,0.0,0.0
19054603,19054590,0.0,0.0,0.0,0.0,0.0,1.0,0.0,0.0
19110174,19110161,0.0,0.0,0.0,0.0,0.0,1.0,0.0,0.0
19161017,19161004,0.0,0.0,0.0,0.0,0.0,1.0,0.0,0.0
19206159,19206145,0.0,0.0,0.0,0.0,0.0,1.0,0.0,0.0
19256696,19256683,0.0,0.0,0.0,0.0,0.0,1.0,0.0,0.0
19307284,19307271,0.0,0.0,0.0,0.0,0.0,1.0,0.0,0.0
19357717,19357704,0.0,0.0,0.0,0.0,0.0,1.0,0.0,0.0
19408254,19408239,0.0,0.0,0.0,0.0,0.0,1.0,0.0,0.0
19458755,19458741,0.0,0.0,0.0,0.0,0.0,1.0,0.0,0.0
19509300,19509264,0.0,0.0,0.0,0.0,0.0,1.0,0.0,0.0
19559803,19559789,0.0,0.0,0.0,0.0,0.0,1.0,0.0,0.0
19605336,19605322,0.0,0.0,0.0,0.0,0.0,1.0,0.0,0.0
19660840,19660827,0.0,0.0,0.0,0.0,0.0,1.0,0.0,0.0
19706322,19706309,0.0,0.0,0.0,0.0,0.0,1.0,0.0,0.0
19756819,19756806,0.0,0.0,0.0,0.0,0.0,1.0,0.0,0.0
19807361,19807348,0.0,0.0,0.0,0.0,0.0,1.0,0.0,0.0
19857880,19857867,0.0,0.0,0.0,0.0,0.0,1.0,0.0,0.0
19908386,19908371,0.0,0.0,0.0,0.0,0.0,1.0,0.0,0.0
19953843,19953830,0.0,0.0,0.0,0.0,0.0,1.0,0.0,0.0
20009427,20009414,0.0,0.0,0.0,0.0,0.0,1.0,0.0,0.0
20060515,20060498,0.0,0.0,0.0,0.0,0.0,1.0,0.0,0.0
20105402,20105389,0.0,0.0,0.0,0.0,0.0,1.0,0.0,0.0
20155922,20155909,0.0,0.0,0.0,0.0,0.0,1.0,0.0,0.0
20206436,20206422,0.0,0.0,0.0,0.0,0.0,1.0,0.0,0.0
20256988,20256975,0.0,0.0,0.0,0.0,0.0,1.0,0.0,0.0
20307486,20307472,0.0,0.0,0.0,0.0,0.0,1.0,0.0,0.0
20358003,20357990,0.0,0.0,0.0,0.0,0.0,1.0,0.0,0.0
20408524,20408511,0.0,0.0,0.0,0.0,0.0,1.0,0.0,0.0
20459041,20459027,0.0,0.0,0.0,0.0,0.0,1.0,0.0,0.0
20509559,20509545,0.0,0.0,0.0,0.0,0.0,1.0,0.0,0.0
20560331,20560317,0.0,0.0,0.0,0.0,0.0,1.0,0.0,0.0
20605585,20605547,0.0,0.0,0.0,0.0,0.0,1.0,0.0,0.0
20656067,20656053,0.0,0.0,0.0,0.0,0.0,1.0,0.0,0.0
20706781,20706767,0.0,0.0,0.0,0.0,0.0,1.0,0.0,0.0
20757103,20757090,0.0,0.0,0.0,0.0,0.0,1.0,0.0,0.0
20807641,20807628,0.0,0.0,0.0,0.0,0.0,1.0,0.0,0.0
20858145,20858131,0.0,0.0,0.0,0.0,0.0,1.0,0.0,0.0
20908684,20908671,0.0,0.0,0.0,0.0,0.0,1.0,0.0,0.0
20959180,20959167,0.0,0.0,0.0,0.0,0.0,1.0,0.0,0.0
21004651,21004637,0.0,0.0,0.0,0.0,0.0,1.0,0.0,0.0
21060245,21060230,0.0,0.0,0.0,0.0,0.0,1.0,0.0,0.0
21105684,21105671,0.0,0.0,0.0,0.0,0.0,1.0,0.0,0.0
21156212,21156199,0.0,0.0,0.0,0.0,0.0,1.0,0.0,0.0
21211929,21211916,0.0,0.0,0.0,0.0,0.0,1.0,0.0,0.0
21257290,21257276,0.0,0.0,0.0,0.0,0.0,1.0,0.0,0.0
21307804,21307790,0.0,0.0,0.0,0.0,0.0,1.0,0.0,0.0
21358281,21358268,0.0,0.0,0.0,0.0,0.0,1.0,0.0,0.0
21408804,21408791,0.0,0.0,0.0,0.0,0.0,1.0,0.0,0.0
21459462,21459447,0.0,0.0,0.0,0.0,0.0,1.0,0.0,0.0
21504809,21504795,0.0,0.0,0.0,0.0,0.0,1.0,0.0,0.0
21560360,21560347,0.0,0.0,0.0,0.0,0.0,1.0,0.0,0.0
21605833,21605818,0.0,0.0,0.0,0.0,0.0,1.0,0.0,0.0
21656377,21656362,0.0,0.0,0.0,0.0,0.0,1.0,0.0,0.0
21706864,21706850,0.0,0.0,0.0,0.0,0.0,1.0,0.0,0.0
21757407,21757394,0.0,0.0,0.0,0.0,0.0,1.0,0.0,0.0
21807902,21807889,0.0,0.0,0.0,0.0,0.0,1.0,0.0,0.0
21858454,21858440,0.0,0.0,0.0,0.0,0.0,1.0,0.0,0.0
21909151,21909137,0.0,0.0,0.0,0.0,0.0,1.0,0.0,0.0
21959501,21959487,0.0,0.0,0.0,0.0,0.0,1.0,0.0,0.0
22004934,22004921,0.0,0.0,0.0,0.0,0.0,1.0,0.0,0.0
22055455,22055442,0.0,0.0,0.0,0.0,0.0,1.0,0.0,0.0
22111045,22111032,0.0,0.0,0.0,0.0,0.0,1.0,0.0,0.0
22156490,22156476,0.0,0.0,0.0,0.0,0.0,1.0,0.0,0.0
22207032,22207018,0.0,0.0,0.0,0.0,0.0,1.0,0.0,0.0
22257534,22257520,0.0,0.0,0.0,0.0,0.0,1.0,0.0,0.0
22308078,22308064,0.0,0.0,0.0,0.0,0.0,1.0,0.0,0.0
22358759,22358746,0.0,0.0,0.0,0.0,0.0,1.0,0.0,0.0
22404055,22404041,0.0,0.0,0.0,0.0,0.0,1.0,0.0,0.0
22459607,22459593,0.0,0.0,0.0,0.0,0.0,1.0,0.0,0.0
22510133,22510120,0.0,0.0,0.0,0.0,0.0,1.0,0.0,0.0
22555596,22555582,0.0,0.0,0.0,0.0,0.0,1.0,0.0,0.0
22606113,22606096,0.0,0.0,0.0,0.0,0.0,1.0,0.0,0.0
22656668,22656655,0.0,0.0,0.0,0.0,0.0,1.0,0.0,0.0
22707150,22707137,0.0,0.0,0.0,0.0,0.0,1.0,0.0,0.0
22757669,22757656,0.0,0.0,0.0,0.0,0.0,1.0,0.0,0.0
22808766,22808753,0.0,0.0,0.0,0.015779093,0.0,1.0,0.0,0.0
22858710,22858697,0.0,0.0,0.0,0.034516767,0.0,1.0,0.0,0.0
22909234,22909219,0.0,0.0,0.0,0.044378698,0.0,1.0,0.0,0.0
22954710,22954696,0.0,0.0,0.0,0.06213018,0.0,1.0,0.0,0.0
23010268,23010254,0.0,0.0,0.0,0.08086785,0.0,1.0,0.0,0.0
23055732,23055719,0.0,0.0,0.0,0.09072978,0.0,1.0,0.0,0.0
23106277,23106263,0.0,0.0,0.0,0.102564104,0.0,1.0,0.0,0.0
23156774,23156760,0.0,0.0,0.0,0.10355029,0.0,1.0,0.0,0.0
23207292,23207279,0.0,0.0,0.0,0.10453649,0.0,1.0,0.0,0.0
23258141,23258127,0.0,0.0,0.0,0.105522685,0.0,1.0,0.0,0.0
23308353,23308340,0.0,0.0,0.0,0.11637081,0.0,1.0,0.0,0.0
23358851,23358836,0.0,0.0,0.0,0.12820514,0.0,1.0,0.0,0.0
23409377,23409364,0.0,0.0,0.0,0.13806707,0.0,1.0,0.0,0.0
23454856,23454842,0.0,0.0,0.0,0.14003944,0.0,1.0,0.0,0.0
23510409,23510396,0.0,0.0,0.0,0.14990138,0.0,1.0,0.0,0.0
23555900,23555863,0.0,0.0,0.0,0.15088758,0.0,1.0,0.0,0.0
23606396,23606383,0.0,0.0,0.0,0.15088758,0.0,1.0,0.0,0.0
23656914,23656898,0.0,0.0,0.0,0.15384616,0.0,1.0,0.0,0.0
23707723,23707710,0.0,0.0,0.0,0.15680474,0.0,1.0,0.0,0.0
23757981,23757967,0.0,0.0,0.0,0.16666667,0.0,1.0,0.0,0.0
23808475,23808461,0.0,0.0,0.0,0.16765286,0.0,1.0,0.0,0.0
23859009,23858996,0.0,0.0,0.0,0.17061144,0.0,1.0,0.0,0.0
23909548,23909534,0.0,0.0,0.0,0.18047337,0.0,1.0,0.0,0.0
23954983,23954970,0.0,0.0,0.0,0.18244576,0.0,1.0,0.0,0.0
24005530,24005517,0.0,0.0,0.0,0.19526628,0.0,1.0,0.0,0.0
24056014,24056001,0.0,0.0,0.0,0.19723865,0.0,1.0,0.0,0.0
24106536,24106522,0.0,0.0,0.0,0.20019723,0.0,1.0,0.0,0.0
24157062,24157049,0.0,0.0,0.0,0.20907298,0.0,1.0,0.0,0.0
24207604,24207591,0.0,0.0,0.0,0.21005917,0.0,1.0,0.0,0.0
24258096,24258082,0.0,0.0,0.0,0.23076923,0.0,1.0,0.0,0.0
24308612,24308599,0.0,0.0,0.0,0.2495069,0.0,1.0,0.0,0.0
24359155,24359142,0.0,0.0,0.0,0.2495069,0.0,1.0,0.0,0.0
24409650,24409637,0.0,0.0,0.0,0.2514793,0.0,1.0,0.0,0.0
24455279,24455266,0.0,0.0,0.0,0.2514793,0.0,1.0,0.0,0.0
24505643,24505629,0.0,0.0,0.0,0.2495069,0.0,1.0,0.0,0.0
24561212,24561199,0.0,0.0,0.0,0.2495069,0.0,1.0,0.0,0.0
24606682,24606663,0.0,0.0,0.0,0.2514793,0.0,1.0,0.0,0.0
24657295,24657280,0.0,0.0,0.0,0.2495069,0.0,1.0,0.0,0.0
24707714,24707701,0.0,0.0,0.0,0.2495069,0.0,1.0,0.0,0.0
24758236,24758222,0.0,0.0,0.0,0.2495069,0.0,1.0,0.0,0.0
24808755,24808742,0.0,0.0,0.0,0.2495069,0.0,1.0,0.0,0.0
24854246,24854231,0.0,0.0,0.0,0.2495069,0.0,1.0,0.0,0.0
24910009,24909793,0.0,0.0,0.0,0.2514793,0.0,1.0,0.0,0.0
24960313,24960300,0.0,0.0,0.0,0.2514793,0.0,1.0,0.0,0.0
25005783,25005770,0.0,0.0,0.0,0.2514793,0.0,1.0,0.0,0.0
25061353,25061339,0.0,0.0,0.0,0.2514793,0.0,1.0,0.0,0.0
25107066,25107052,0.0,0.0,0.0,0.2495069,0.0,1.0,0.0,0.0
25157371,25157358,0.0,0.0,0.0,0.2514793,0.0,1.0,0.0,0.0
25207854,25207840,0.0,0.0,0.0,0.2495069,0.0,1.0,0.0,0.0
25258378,25258365,0.0,0.0,0.0,0.2514793,0.0,1.0,0.0,0.0
25308915,25308902,0.0,0.0,0.0,0.2495069,0.0,1.0,0.0,0.0
25354401,25354387,0.0,0.0,0.0,0.2495069,0.0,1.0,0.0,0.0
25409938,25409925,0.0,0.0,0.0,0.2495069,0.0,1.0,0.0,0.0
25460451,25460438,0.0,0.0,0.0,0.23570019,0.0,1.0,0.0,0.0
25505951,25505937,0.0,0.0,0.0,0.22781065,0.0,1.0,0.0,0.0
25557096,25557082,0.0,0.0,0.0,0.22781065,0.0,1.0,0.0,0.0
25606959,25606946,0.0,0.0,0.0,0.22781065,0.0,1.0,0.0,0.0
25657497,25657484,0.0,0.0,0.0,0.22781065,0.0,1.0,0.0,0.0
25707998,25707984,0.0,0.0,0.0,0.22781065,0.0,1.0,0.0,0.0
25758585,25758572,0.0,0.0,0.0,0.22781065,0.0,1.0,0.0,0.0
25809040,25809025,0.0,0.0,0.0,0.22781065,0.0,1.0,0.0,0.0
25859598,25859558,0.0,0.0,0.0,0.22781065,0.0,1.0,0.0,0.0
25905034,25905020,0.0,0.0,0.0,0.22781065,0.0,1.0,0.0,0.0
25960638,25960624,0.0,0.0,0.0,0.22781065,0.0,1.0,0.0,0.0
26006412,26006399,0.0,0.0,0.0,0.22781065,0.0,1.0,0.0,0.0
26056604,26056591,0.0,0.0,0.0,0.22682446,0.0,1.0,0.0,0.0
26107111,26107096,0.0,0.0,0.0,0.22682446,0.0,1.0,0.0,0.0
26157629,26157614,0.0,0.0,0.0,0.22583826,0.0,1.0,0.0,0.0
26208175,26208161,0.0,0.0,0.0,0.22287968,0.0,1.0,0.0,0.0
26258661,26258647,0.0,0.0,0.0,0.22189349,0.0,1.0,0.0,0.0
26309183,26309170,0.0,0.0,0.0,0.22189349,0.0,1.0,0.0,0.0
26359701,26359688,0.0,0.0,0.0,0.2199211,0.0,1.0,0.0,0.0
26405302,26405288,0.0,0.0,0.0,0.2199211,0.0,1.0,0.0,0.0
26456024,26456011,0.0,0.0,0.0,0.2199211,0.0,1.0,0.0,0.0
26506207,26506194,0.0,0.0,0.0,0.2199211,0.0,1.0,0.0,0.0
26556723,26556710,0.0,0.0,0.0,0.2199211,0.0,1.0,0.0,0.0
26607248,26607234,0.0,0.0,0.0,0.2199211,0.0,1.0,0.0,0.0
26657791,26657777,0.0,0.0,0.0,0.2199211,0.0,1.0,0.0,0.0
26708285,26708271,0.0,0.0,0.0,0.2199211,0.0,1.0,0.0,0.0
26758802,26758787,0.0,0.0,0.0,0.2199211,0.0,1.0,0.0,0.0
26809325,26809311,0.0,0.0,0.0,0.2199211,0.0,1.0,0.0,0.0
26860081,26860067,0.0,0.0,0.0,0.2199211,0.0,1.0,0.0,0.0
26905769,26905756,0.0,0.0,0.0,0.2199211,0.0,1.0,0.0,0.0
26955829,26955815,0.0,0.0,0.0,0.2199211,0.0,1.0,0.0,0.0
27006347,27006334,0.0,0.0,0.0,0.2199211,0.0,1.0,0.0,0.0
27056870,27056856,0.0,0.0,0.0,0.2199211,0.0,1.0,0.0,0.0
27107413,27107400,0.0,0.0,0.0,0.2199211,0.0,1.0,0.0,0.0
27157905,27157891,0.0,0.0,0.0,0.2199211,0.0,1.0,0.0,0.0
27208450,27208438,0.0,0.0,0.0,0.2199211,0.0,1.0,0.0,0.0
27258947,27258933,0.0,0.0,0.0,0.2199211,0.0,1.0,0.0,0.0
27304408,27304394,0.0,0.0,0.0,0.2199211,0.0,1.0,0.0,0.0
27360092,27360079,0.0,0.0,0.0,0.2199211,0.0,1.0,0.0,0.0
27405452,27405438,0.0,0.0,0.0,0.2199211,0.0,1.0,0.0,0.0
27455971,27455958,0.0,0.0,0.0,0.2199211,0.0,1.0,0.0,0.0
27511543,27511530,0.0,0.0,0.0,0.2199211,0.0,1.0,0.0,0.0
27557047,27557032,0.0,0.0,0.0,0.2199211,0.0,1.0,0.0,0.0
27607537,27607524,0.0,0.0,0.0,0.2199211,0.0,1.0,0.0,0.0
27658096,27658083,0.0,0.0,0.0,0.2199211,0.0,1.0,0.0,0.0
27708566,27708552,0.0,0.0,0.0,0.2199211,0.0,1.0,0.0,0.0
27759086,27759073,0.0,0.0,0.0,0.2199211,0.0,1.0,0.0,0.0
27804586,27804572,0.0,0.0,0.0,0.2199211,0.0,1.0,0.0,0.0
27860126,27860112,0.0,0.0,0.0,0.2199211,0.0,1.0,0.0,0.0
27910649,27910635,0.0,0.0,0.0,0.2199211,0.0,1.0,0.0,0.0
27956109,27956096,0.0,0.0,0.0,0.2199211,0.0,1.0,0.0,0.0
28006672,28006659,0.0,0.0,0.0,0.2199211,0.0,1.0,0.0,0.0
28057150,28057137,0.0,0.0,0.0,0.2199211,0.0,1.0,0.0,0.0
28107689,28107676,0.0,0.0,0.0,0.2199211,0.0,1.0,0.0,0.0
28158193,28158180,0.0,0.0,0.0,0.2199211,0.0,1.0,0.0,0.0
28208704,28208690,0.0,0.0,0.0,0.2199211,0.0,1.0,0.0,0.0
28259270,28259257,0.0,0.0,0.0,0.2199211,0.0,1.0,0.0,0.0
28309751,28309737,0.0,0.0,0.0,0.2199211,0.0,1.0,0.0,0.0
28355285,28355272,0.0,0.0,0.0,0.2199211,0.0,1.0,0.0,0.0
28410788,28410775,0.0,0.0,0.0,0.2199211,0.0,1.0,0.0,0.0
28456272,28456259,0.0,0.0,0.0,0.2199211,0.0,1.0,0.0,0.0
28506771,28506757,0.0,0.0,0.0,0.2199211,0.0,1.0,0.0,0.0
28557287,28557274,0.0,0.0,0.0,0.2199211,0.0,1.0,0.0,0.0
28607807,28607793,0.0,0.0,0.0,0.2199211,0.0,1.0,0.0,0.0
28658330,28658317,0.0,0.0,0.0,0.2199211,0.0,1.0,0.0,0.0
28703821,28703807,0.0,0.0,0.0,0.2199211,0.0,1.0,0.0,0.0
28759371,28759358,0.0,0.0,0.0,0.2199211,0.0,1.0,0.0,0.0
28810085,28810071,0.0,0.0,0.0,0.2199211,0.0,1.0,0.0,0.0
28855356,28855343,0.0,0.0,0.0,0.2199211,0.0,1.0,0.0,0.0
28910930,28910917,0.0,0.0,0.0,0.2199211,0.0,1.0,0.0,0.0
28956412,28956398,0.0,0.0,0.0,0.2199211,0.0,1.0,0.0,0.0
29006914,29006898,0.0,0.0,0.0,0.2199211,0.0,1.0,0.0,0.0
29057429,29057416,0.0,0.0,0.0,0.2199211,0.0,1.0,0.0,0.0
29107952,29107939,0.0,0.0,0.0,0.2199211,0.0,1.0,0.0,0.0
29158516,29158502,0.0,0.0,0.0,0.2199211,0.0,1.0,0.0,0.0
29208986,29208972,0.0,0.0,0.0,0.2199211,0.0,1.0,0.0,0.0
29254455,29254441,0.0,0.0,0.0,0.2199211,0.0,1.0,0.0,0.0
29310031,29310016,0.0,0.0,0.0,0.2199211,0.0,1.0,0.0,0.0
29355497,29355483,0.0,0.0,0.0,0.2199211,0.0,1.0,0.0,0.0
29406017,29406003,0.0,0.0,0.0,0.2199211,0.0,1.0,0.0,0.0
29456530,29456516,0.0,0.0,0.0,0.2199211,0.0,1.0,0.0,0.0
29507052,29507038,0.0,0.0,0.0,0.2199211,0.0,1.0,0.0,0.0
29557570,29557557,0.0,0.0,0.0,0.2199211,0.0,1.0,0.0,0.0
29608097,29608083,0.0,0.0,0.0,0.2199211,0.0,1.0,0.0,0.0
29658676,29658663,0.0,0.0,0.0,0.2199211,0.0,1.0,0.0,0.0
29709129,29709115,0.0,0.0,0.0,0.2199211,0.0,1.0,0.0,0.0
29754600,29754586,0.0,0.0,0.0,0.2199211,0.0,1.0,0.0,0.0
29805119,29805106,0.0,0.0,0.0,0.2199211,0.0,1.0,0.0,0.0
29855633,29855620,0.0,0.0,0.0,0.2199211,0.0,1.0,0.0,0.0
29906156,29906143,0.0,0.0,0.0,0.2199211,0.0,1.0,0.0,0.0
29961764,29961750,0.0,0.0,0.0,0.2199211,0.0,1.0,0.0,0.0
30007203,30007190,0.0,0.0,0.0,0.2199211,0.0,1.0,0.0,0.0
30057724,30057697,0.0,0.0,0.0,0.2199211,0.0,1.0,0.0,0.0
30108307,30108294,0.0,0.0,0.0,0.2199211,0.0,1.0,0.0,0.0
30158751,30158738,0.0,0.0,0.0,0.2199211,0.0,1.0,0.0,0.0
30209273,30209259,0.0,0.0,0.0,0.2199211,0.0,1.0,0.0,0.0
30254736,30254722,0.0,0.0,0.0,0.2199211,0.0,1.0,0.0,0.0
30310319,30310306,0.0,0.0,0.0,0.2199211,0.0,1.0,0.0,0.0
30355775,30355762,0.0,0.0,0.0,0.2199211,0.0,1.0,0.0,0.0
30406319,30406306,0.0,0.0,0.0,0.2199211,0.0,1.0,0.0,0.0
30456842,30456804,0.0,0.0,0.0,0.2199211,0.0,1.0,0.0,0.0
30507352,30507338,0.0,0.0,0.0,0.2199211,0.0,1.0,0.0,0.0
30557876,30557863,0.0,0.0,0.0,0.2199211,0.0,1.0,0.0,0.0
30608412,30608397,0.0,0.0,0.0,0.2199211,0.0,1.0,0.0,0.0
30658902,30658888,0.0,0.0,0.0,0.2199211,0.0,1.0,0.0,0.0
30709431,30709416,0.0,0.0,0.0,0.2199211,0.0,1.0,0.0,0.0
30754901,30754888,0.0,0.0,0.0,0.2199211,0.0,1.0,0.0,0.0
30805401,30805389,0.0,0.0,0.0,0.2199211,0.0,1.0,0.0,0.0
30860976,30860963,0.0,0.0,0.0,0.2199211,0.0,1.0,0.0,0.0
30906466,30906453,0.0,0.0,0.0,0.2199211,0.0,1.0,0.0,0.0
30956959,30956946,0.0,0.0,0.0,0.2199211,0.0,1.0,0.0,0.0
31007513,31007499,0.0,0.0,0.0,0.2199211,0.0,1.0,0.0,0.0
31057995,31057982,0.0,0.0,0.0,0.2199211,0.0,1.0,0.0,0.0
31108515,31108502,0.0,0.0,0.0,0.2199211,0.0,1.0,0.0,0.0
31153996,31153983,0.0,0.0,0.0,0.2199211,0.0,1.0,0.0,0.0
31209580,31209567,0.0,0.0,0.0,0.2199211,0.0,1.0,0.0,0.0
31260074,31260061,0.0,0.0,0.0,0.2199211,0.0,1.0,0.0,0.0
31305537,31305524,0.0,0.0,0.0,0.2199211,0.0,1.0,0.0,0.0
31361133,31361119,0.0,0.0,0.0,0.2199211,0.0,1.0,0.0,0.0
31406580,31406566,0.0,0.0,0.0,0.2199211,0.0,1.0,0.0,0.0
31457102,31457088,0.0,0.0,0.0,0.2199211,0.0,1.0,0.0,0.0
31507616,31507603,0.0,0.0,0.0,0.2199211,0.0,1.0,0.0,0.0
31558141,31558128,0.0,0.0,0.0,0.2199211,0.0,1.0,0.0,0.0
31608677,31608663,0.0,0.0,0.0,0.2199211,0.0,1.0,0.0,0.0
31659181,31659162,0.0,0.0,0.0,0.2199211,0.0,1.0,0.0,0.0
31709705,31709689,0.0,0.0,0.0,0.2199211,0.0,1.0,0.0,0.0
31760216,31760203,0.0,0.0,0.0,0.2199211,0.0,1.0,0.0,0.0
31805714,31805701,0.0,0.0,0.0,0.2199211,0.0,1.0,0.0,0.0
31856203,31856190,0.0,0.0,0.0,0.2199211,0.0,1.0,0.0,0.0
31906734,31906721,0.0,0.0,0.0,0.2199211,0.0,1.0,0.0,0.0
31957239,31957226,0.0,0.0,0.0,0.2199211,0.0,1.0,0.0,0.0
32007756,32007743,0.0,0.0,0.0,0.2199211,0.0,1.0,0.0,0.0
32058299,32058286,0.0,0.0,0.0,0.2199211,0.0,1.0,0.0,0.0
32108797,32108783,0.0,0.0,0.0,0.2199211,0.0,1.0,0.0,0.0
32159340,32159326,0.0,0.0,0.0,0.2199211,0.0,1.0,0.0,0.0
32204780,32204767,0.0,0.0,0.0,0.2199211,0.0,1.0,0.0,0.0
32260367,32260354,0.0,0.0,0.0,0.2199211,0.0,1.0,0.0,0.0
32305829,32305816,0.0,0.0,0.0,0.2199211,0.0,1.0,0.0,0.0
32356368,32356354,0.0,0.0,0.0,0.2199211,0.0,1.0,0.0,0.0
32412034,32412019,0.0,0.0,0.0,0.2199211,0.0,1.0,0.0,0.0
32457377,32457364,0.0,0.0,0.0,0.2199211,0.0,1.0,0.0,0.0
32507919,32507902,0.0,0.0,0.0,0.2199211,0.0,1.0,0.0,0.0
32558417,32558404,0.0,0.0,0.0,0.2199211,0.0,1.0,0.0,0.0
32608958,32608923,0.0,0.0,0.0,0.2199211,0.0,1.0,0.0,0.0
32659458,32659445,0.0,0.0,0.0,0.2199211,0.0,1.0,0.0,0.0
32704949,32704936,0.0,0.0,0.0,0.2199211,0.0,1.0,0.0,0.0
32760498,32760484,0.0,0.0,0.0,0.2199211,0.0,1.0,0.0,0.0
32805988,32805975,0.0,0.0,0.0,0.2199211,0.0,1.0,0.0,0.0
32856481,32856468,0.0,0.0,0.0,0.2199211,0.0,1.0,0.0,0.0
32907011,32906996,0.0,0.0,0.0,0.2199211,0.0,1.0,0.0,0.0
32957541,32957528,0.0,0.0,0.0,0.2199211,0.0,1.0,0.0,0.0
33008043,33008028,0.0,0.0,0.0,0.2199211,0.0,1.0,0.0,0.0
33058579,33058566,0.0,0.0,0.0,0.2199211,0.0,1.0,0.0,0.0
33109117,33109104,0.0,0.0,0.0,0.2199211,0.0,1.0,0.0,0.0
33159603,33159591,0.0,0.0,0.0,0.2199211,0.0,1.0,0.0,0.0
33205069,33205056,0.0,0.0,0.0,0.2199211,0.0,1.0,0.0,0.0
33255593,33255579,0.0,0.0,0.0,0.2199211,0.0,1.0,0.0,0.0
33311388,33311374,0.0,0.0,0.0,0.2199211,0.0,1.0,0.0,0.0
33356620,33356607,0.0,0.0,0.0,0.2199211,0.0,1.0,0.0,0.0
33407164,33407148,0.0,0.0,0.0,0.2199211,0.0,1.0,0.0,0.0
33457665,33457652,0.0,0.0,0.0,0.2199211,0.0,1.0,0.0,0.0
33508180,33508166,0.0,0.0,0.0,0.2199211,0.0,1.0,0.0,0.0
33558717,33558701,0.0,0.0,0.0,0.2199211,0.0,1.0,0.0,0.0
33604172,33604159,0.0,0.0,0.0,0.2199211,0.0,1.0,0.0,0.0
33659741,33659724,0.0,0.0,0.0,0.2199211,0.0,1.0,0.0,0.0
33710264,33710250,0.0,0.0,0.0,0.2199211,0.0,1.0,0.0,0.0
33755804,33755791,0.0,0.0,0.0,0.2199211,0.0,1.0,0.0,0.0
33811457,33811443,0.0,0.0,0.0,0.2199211,0.0,1.0,0.0,0.0
33856785,33856770,0.0,0.0,0.0,0.2199211,0.0,1.0,0.0,0.0
33907289,33907275,0.0,0.0,0.0,0.2199211,0.0,1.0,0.0,0.0
33958043,33958029,0.0,0.0,0.0,0.2199211,0.0,1.0,0.0,0.0
34008321,34008308,0.0,0.0,0.0,0.2199211,0.0,1.0,0.0,0.0
34058846,34058832,0.0,0.0,0.0,0.2199211,0.0,1.0,0.0,0.0
34104317,34104303,0.0,0.0,0.0,0.2199211,0.0,1.0,0.0,0.0
34159881,34159866,0.0,0.0,0.0,0.2199211,0.0,1.0,0.0,0.0
34210756,34210743,0.0,0.0,0.0,0.2199211,0.0,1.0,0.0,0.0
34255870,34255856,0.0,0.0,0.0,0.2199211,0.0,1.0,0.0,0.0
34306408,34306372,0.0,0.0,0.0,0.2199211,0.0,1.0,0.0,0.0
34356904,34356891,0.0,0.0,0.0,0.22978304,0.0,1.0,0.0,0.0
34407449,34407435,0.0,0.0,0.0,0.2495069,0.0,1.0,0.0,0.0
34457971,34457958,0.0,0.0,0.0,0.2524655,0.0,1.0,0.0,0.0
34508471,34508458,0.0,0.0,0.0,0.27317554,0.0,1.0,0.0,0.0
34558980,34558966,0.0,0.0,0.0,0.2751479,0.0,1.0,0.0,0.0
34609498,34609484,0.0,0.0,0.0,0.2919132,0.0,1.0,0.0,0.0
34654997,34654984,0.0,0.0,0.0,0.30078897,0.0,1.0,0.0,0.0
34710572,34710558,0.0,0.0,0.0,0.31163707,0.0,1.0,0.0,0.0
34756006,34755993,0.0,0.0,0.0,0.31262326,0.0,1.0,0.0,0.0
34806532,34806519,0.0,0.0,0.0,0.31360948,0.0,1.0,0.0,0.0
34857079,34857066,0.0,0.0,0.0,0.31558186,0.0,1.0,0.0,0.0
34907571,34907557,0.0,0.0,0.0,0.33431953,0.0,1.0,0.0,0.0
34958086,34958072,0.0,0.0,0.0,0.33530572,0.0,1.0,0.0,0.0
35008603,35008590,0.0,0.0,0.0,0.3372781,0.0,1.0,0.0,0.0
35059123,35059109,0.0,0.0,0.0,0.3402367,0.0,1.0,0.0,0.0
35109645,35109631,0.0,0.0,0.0,0.35207102,0.0,1.0,0.0,0.0
35155160,35155146,0.0,0.0,0.0,0.3530572,0.0,1.0,0.0,0.0
35205631,35205617,0.0,0.0,0.0,0.3540434,0.0,1.0,0.0,0.0
35256170,35256157,0.0,0.0,0.0,0.35601577,0.0,1.0,0.0,0.0
35306669,35306656,0.0,0.0,0.0,0.35700196,0.0,1.0,0.0,0.0
35357225,35357211,0.0,0.0,0.0,0.3708087,0.0,1.0,0.0,0.0
35407717,35407703,0.0,0.0,0.0,0.3806706,0.0,1.0,0.0,0.0
35458246,35458233,0.0,0.0,0.0,0.39250493,0.0,1.0,0.0,0.0
35508743,35508728,0.0,0.0,0.0,0.40433925,0.0,1.0,0.0,0.0
35559284,35559271,0.0,0.0,0.0,0.4122288,0.0,1.0,0.0,0.0
35610019,35609978,0.0,0.0,0.0,0.42307693,0.0,1.0,0.0,0.0
35655254,35655237,0.0,0.0,0.0,0.42406312,0.0,1.0,0.0,0.0
35705774,35705761,0.0,0.0,0.0,0.42702168,0.0,1.0,0.0,0.0
35756293,35756280,0.0,0.0,0.0,0.42702168,0.0,1.0,0.0,0.0
35806840,35806827,0.0,0.0,0.0,0.4398422,0.0,1.0,0.0,0.0
35857357,35857320,0.0,0.0,0.0,0.44871795,0.0,1.0,0.0,0.0
35908051,35908037,0.0,0.0,0.0,0.4684418,0.0,1.0,0.0,0.0
35958367,35958352,0.0,0.0,0.0,0.49605522,0.0,1.0,0.0,0.0
36008916,36008899,0.0,0.0,0.0,0.51775146,0.0,1.0,0.0,0.0
36054400,36054387,0.0,0.0,0.0,0.55226827,0.0,1.0,0.0,0.0
36109946,36109933,0.0,0.0,0.0,0.5838264,0.0,1.0,0.0,0.0
36155398,36155383,0.0,0.0,0.0,0.6025641,0.0,1.0,0.0,0.0
36205920,36205905,0.0,0.0,0.0,0.62426037,0.0,1.0,0.0,0.0
36261512,36261498,0.0,0.0,0.0,0.6439842,0.0,1.0,0.0,0.0
36306974,36306961,0.0,0.0,0.0,0.64595664,0.0,1.0,0.0,0.0
36357480,36357467,0.0,0.0,0.0,0.65680474,0.0,1.0,0.0,0.0
36407999,36407985,0.0,0.0,0.0,0.66863906,0.0,1.0,0.0,0.0
36458532,36458519,0.0,0.0,0.0,0.67061144,0.0,1.0,0.0,0.0
36509220,36509207,0.0,0.0,0.0,0.6804734,0.0,1.0,0.0,0.0
36559568,36559555,0.0,0.0,0.0,0.7140039,0.0,1.0,0.0,0.0
36610141,36610128,0.0,0.0,0.0,0.71597636,0.0,1.0,0.0,0.0
36660597,36660582,0.0,0.0,0.0,0.7189349,0.0,1.0,0.0,0.0
36706054,36706040,0.0,0.0,0.0,0.7495069,0.0,1.0,0.0,0.0
36756599,36756586,0.0,0.0,0.0,0.7495069,0.0,1.0,0.0,0.0
36807287,36807274,0.0,0.0,0.0,0.75936884,0.0,1.0,0.0,0.0
36857610,36857597,0.0,0.0,0.0,0.7613412,0.0,1.0,0.0,0.0
36908129,36908115,0.0,0.0,0.0,0.77120316,0.0,1.0,0.0,0.0
36958938,36958925,0.0,0.0,0.0,0.78205127,0.0,1.0,0.0,0.0
37009177,37009163,0.0,0.0,0.0,0.7928994,0.0,1.0,0.0,0.0
37059704,37059691,0.0,0.0,0.0,0.80473375,0.0,1.0,0.0,0.0
37105156,37105142,0.0,0.0,0.0,0.83136094,0.0,1.0,0.0,0.0
37160757,37160744,0.0,0.0,0.0,0.84911245,0.0,1.0,0.0,0.0
37206242,37206229,0.0,0.0,0.0,0.88757396,0.0,1.0,0.0,0.0
37256734,37256720,0.0,0.0,0.0,0.8974359,0.0,1.0,0.0,0.0
37307234,37307221,0.0,0.0,0.0,0.9161736,0.0,1.0,0.0,0.0
37357753,37357740,0.0,0.0,0.0,0.9368836,0.0,1.0,0.0,0.0
37408297,37408261,0.0,0.0,-0.03187251,0.9664694,0.0,1.0,0.0,0.0
37458803,37458790,0.0,0.0,-0.043824703,0.9773176,0.0,1.0,0.0,0.0
37509314,37509301,0.0,0.0,-0.043824703,0.9861933,0.0,1.0,0.0,0.0
37559830,37559816,0.0,0.0,-0.04183267,0.9980276,0.0,1.0,0.0,0.0
37605319,37605283,0.0,0.0,-0.017928287,1.0,0.0,1.0,0.0,0.0
37655838,37655825,0.0,0.0,-0.003984064,1.0,0.0,1.0,0.0,0.0
37706337,37706322,0.0,0.0,-0.007968128,1.0,0.0,1.0,0.0,0.0
37756855,37756842,0.0,0.0,-0.0498008,1.0,0.0,1.0,0.0,0.0
37807393,37807380,0.0,0.0,-0.0996016,1.0,0.0,1.0,0.0,0.0
37858432,37858419,0.0,0.0,-0.10159363,1.0,0.0,1.0,0.0,0.0
37908423,37908407,0.0,0.0,-0.0996016,1.0,0.0,1.0,0.0,0.0
37958939,37958925,0.0,0.0,-0.097609565,1.0,0.0,1.0,0.0,0.0
38009457,38009443,0.0,0.0,-0.097609565,1.0,0.0,1.0,0.0,0.0
38059995,38059959,0.0,0.0,-0.0996016,1.0,0.0,1.0,0.0,0.0
38105475,38105462,0.0,0.0,-0.1494024,1.0,0.0,1.0,0.0,0.0
38155959,38155945,0.0,0.0,-0.17131475,1.0,0.0,1.0,0.0,0.0
38206473,38206459,0.0,0.0,-0.21513945,1.0,0.0,1.0,0.0,0.0
38256993,38256980,0.0,0.0,-0.20119523,1.0,0.0,1.0,0.0,0.0
38307515,38307501,0.0,0.0,-0.16733068,1.0,0.0,1.0,0.0,0.0
38358091,38358078,0.0,0.0,-0.119521916,1.0,0.0,1.0,0.0,0.0
38408570,38408557,0.0,0.0,-0.109561756,1.0,0.0,1.0,0.0,0.0
38459074,38459060,0.0,0.0,-0.12749004,1.0,0.0,1.0,0.0,0.0
38504546,38504532,0.0,0.0,-0.1374502,1.0,0.0,1.0,0.0,0.0
38560347,38560334,0.0,0.0,-0.12350598,1.0,0.0,1.0,0.0,0.0
38605576,38605563,0.0,0.0,-0.09163347,1.0,0.0,1.0,0.0,0.0
38656099,38656085,0.0,0.0,-0.023904383,1.0,0.0,1.0,0.0,0.0
38711704,38711689,0.0,0.0,-0.035856575,1.0,0.0,1.0,0.0,0.0
38757324,38757309,0.0,0.0,-0.035856575,1.0,0.0,1.0,0.0,0.0
38808020,38808007,0.0,0.0,0.0,1.0,0.0,1.0,0.0,0.0
38858315,38858300,0.0,0.0,-0.011952192,1.0,0.0,1.0,0.0,0.0
38908834,38908820,0.0,0.0,-0.01992032,1.0,0.0,1.0,0.0,0.0
38959404,38959391,0.0,0.0,-0.03187251,1.0,0.0,1.0,0.0,0.0
39004741,39004727,0.0,0.0,-0.01992032,1.0,0.0,1.0,0.0,0.0
39060503,39060490,0.0,0.0,-0.017928287,1.0,0.0,1.0,0.0,0.0
39110917,39110900,0.0,0.0,0.0,1.0,0.0,1.0,0.0,0.0
39156274,39156260,0.0,0.0,0.0,1.0,0.0,1.0,0.0,0.0
39206809,39206795,0.0,0.0,0.0,1.0,0.0,1.0,0.0,0.0
39257465,39257451,0.0,0.0,0.0,1.0,0.0,1.0,0.0,0.0
39307840,39307827,0.0,0.0,0.0,1.0,0.0,1.0,0.0,0.0
39358348,39358334,0.0,0.0,0.0,1.0,0.0,1.0,0.0,0.0
39408896,39408881,0.0,0.0,0.0,1.0,0.0,1.0,0.0,0.0
39459408,39459393,0.0,0.0,0.0,1.0,0.0,1.0,0.0,0.0
39505011,39504998,0.0,0.0,0.001992032,1.0,0.0,1.0,0.0,0.0
39555478,39555465,0.0,0.0,0.005976096,1.0,0.0,1.0,0.0,0.0
39610944,39610930,0.0,0.0,0.007968128,1.0,0.0,1.0,0.0,0.0
39656618,39656604,0.0,0.0,0.005976096,1.0,0.0,1.0,0.0,0.0
39707271,39707256,0.0,0.0,0.003984064,1.0,0.0,1.0,0.0,0.0
39757603,39757590,0.0,0.0,0.001992032,1.0,0.0,1.0,0.0,0.0
39808363,39808350,0.0,0.0,0.0,1.0,0.0,1.0,0.0,0.0
39858619,39858605,0.0,0.0,0.0,1.0,0.0,1.0,0.0,0.0
39909155,39909141,0.0,0.0,0.0,1.0,0.0,1.0,0.0,0.0
39959638,39959624,0.0,0.0,0.0,1.0,0.0,1.0,0.0,0.0
40010216,40010203,0.0,0.0,0.0,1.0,0.0,1.0,0.0,0.0
40055519,40055505,0.0,0.0,0.0,1.0,0.0,1.0,0.0,0.0
40111243,40111230,0.0,0.0,0.0,1.0,0.0,1.0,0.0,0.0
40156963,40156948,0.0,0.0,0.0,1.0,0.0,1.0,0.0,0.0
40207098,40207084,0.0,0.0,0.017928287,1.0,0.0,1.0,0.0,0.0
40257592,40257579,0.0,0.0,0.05179283,1.0,0.0,1.0,0.0,0.0
40308171,40308157,0.0,0.0,0.06374502,1.0,0.0,1.0,0.0,0.0
40358631,40358618,0.0,0.0,0.06374502,1.0,0.0,1.0,0.0,0.0
40409175,40409158,0.0,0.0,0.06374502,1.0,0.0,1.0,0.0,0.0
40454758,40454744,0.0,0.0,0.06374502,1.0,0.0,1.0,0.0,0.0
40510338,40510325,0.0,0.003984064,0.0,1.0,0.0,1.0,0.0,0.0
40555875,40555862,0.0,0.07569721,0.0,1.0,0.0,1.0,0.0,0.0
40606666,40606652,0.045725647,0.12948208,0.0,0.9980276,0.0,1.0,0.0,0.0
40656836,40656822,0.0,0.107569724,0.0,0.99605525,0.0,1.0,0.0,0.0
40707356,40707343,0.0,0.055776894,0.0,0.995069,0.0,1.0,0.0,0.0
40757889,40757876,0.0,0.077689245,0.0,0.995069,0.0,1.0,0.0,0.0
40808527,40808514,0.0,0.023904383,0.0,0.995069,0.0,1.0,0.0,0.0
40858909,40858895,0.0,0.0,0.0,0.99408287,0.0,1.0,0.0,0.0
40909439,40909426,0.0,0.0,0.0,0.9723866,0.0,1.0,0.0,0.0
40954754,40954741,0.0,0.0,0.0,0.96153843,0.0,1.0,0.0,0.0
41005297,41005283,0.0,0.0,0.0,0.9220907,0.0,1.0,0.0,0.0
41056390,41056375,0.0,0.0,0.0,0.89053255,0.0,1.0,0.0,0.0
41106335,41106306,0.015904572,0.0,0.0,0.89053255,0.0,1.0,0.0,0.0
41156836,41156823,0.10337972,0.0,0.0,0.89053255,0.0,1.0,0.0,0.0
41207376,41207338,0.085487075,0.0,0.0,0.89053255,0.0,1.0,0.0,0.0
41257896,41257882,0.08151093,0.0,0.0,0.89053255,0.0,1.0,0.0,0.0
41308411,41308397,0.04771372,0.0,0.0,0.8747535,0.0,1.0,0.0,0.0
41358915,41358901,0.04771372,0.007968128,0.0,0.8658777,0.0,1.0,0.0,0.0
41409435,41409420,0.013916501,0.011952192,0.0,0.8530572,0.0,1.0,0.0,0.0
41455027,41455013,0.009940358,0.045816734,0.0,0.8274162,0.0,1.0,0.0,0.0
41510495,41510481,0.0,0.055776894,0.0,0.8165681,0.0,1.0,0.0,0.0
41556154,41556141,0.0,0.047808766,0.0,0.77613413,0.0,1.0,0.0,0.0
41606616,41606603,0.0,0.0498008,0.0,0.74556214,0.0,1.0,0.0,0.0
41657114,41657099,0.0,0.025896415,0.0,0.71499014,0.0,1.0,0.0,0.0
41707635,41707622,0.0,0.0,0.0,0.7051282,0.0,1.0,0.0,0.0
41758291,41758278,0.0,0.0,0.0,0.67357004,0.0,1.0,0.0,0.0
41808682,41808668,0.0,0.0,0.0,0.6725838,0.0,1.0,0.0,0.0
41859169,41859156,0.021868788,0.03187251,0.0,0.67061144,0.0,1.0,0.0,0.0
41909705,41909691,0.041749503,0.06374502,0.001992032,0.6725838,0.0,1.0,0.0,0.0
41955038,41955024,0.055666003,0.0936255,0.035856575,0.6804734,0.0,1.0,0.0,0.0
42005605,42005591,0.07355865,0.117529884,0.06175299,0.7001972,0.0,1.0,0.0,0.0
42061287,42061274,0.05367793,0.13147411,0.06972112,0.71203154,0.0,1.0,0.0,0.0
42106620,42106606,0.05367793,0.12151395,0.067729086,0.71301776,0.0,1.0,0.0,0.0
42157124,42157110,0.035785288,0.10159363,0.065737054,0.71499014,0.0,1.0,0.0,0.0
42207661,42207647,0.0,0.0,0.001992032,0.71597636,0.0,1.0,0.0,0.0
42258188,42258175,0.0,-0.027888447,0.0,0.6804734,0.0,1.0,0.0,0.0
42308680,42308666,0.0,-0.047808766,0.0,0.64299804,0.0,1.0,0.0,0.0
42354282,42354268,0.10139165,-0.12151395,0.06374502,0.57988167,0.0,1.0,0.0,0.0
42409716,42409703,0.15904573,-0.18326694,0.13346614,0.5493097,0.0,1.0,0.0,0.0
42460330,42460317,0.14512922,-0.11155379,0.12549801,0.54832345,0.0,1.0,0.0,0.0
42505808,42505794,0.077534795,-0.057768926,0.109561756,0.5473373,0.0,1.0,0.0,0.0
42561294,42561281,0.077534795,-0.11553785,0.11155379,0.5453649,0.0,1.0,0.0,0.0
42606854,42606840,0.06560636,-0.047808766,0.047808766,0.50788957,0.0,1.0,0.0,0.0
42657407,42657394,0.019880716,-0.011952192,0.047808766,0.50788957,0.0,1.0,0.0,0.0
42707883,42707870,0.11332008,-0.06972112,0.07171315,0.50788957,0.0,1.0,0.0,0.0
42758404,42758391,0.12922466,-0.11354582,0.08366534,0.50788957,0.0,1.0,0.0,0.0
42809038,42809022,0.077534795,-0.10159363,0.08167331,0.50788957,0.0,1.0,0.0,0.0
42859472,42859459,0.06361829,-0.19123507,0.027888447,0.50788957,0.0,1.0,0.0,0.0
42909965,42909951,0.057654075,-0.21314742,-0.003984064,0.47140038,0.0,1.0,0.0,0.0
42960529,42960515,0.019880716,-0.17729084,0.0,0.4704142,0.0,1.0,0.0,0.0
43006140,43006099,0.0,-0.09163347,0.0,0.4733728,0.0,1.0,0.0,0.0
43056373,43056360,0.021868788,-0.059760958,0.007968128,0.47534516,0.0,1.0,0.0,0.0
43106910,43106891,0.041749503,-0.087649405,0.09561753,0.5167653,0.0,1.0,0.0,0.0
43157403,43157389,0.041749503,-0.09163347,0.107569724,0.5187377,0.0,1.0,0.0,0.0
43207917,43207903,0.03777336,-0.12350598,0.08167331,0.5187377,0.0,1.0,0.0,0.0
43258465,43258451,0.021868788,-0.12350598,0.067729086,0.50690335,0.0,1.0,0.0,0.0
43308980,43308966,0.019880716,-0.1374502,0.027888447,0.4566075,0.0,1.0,0.0,0.0
43359477,43359463,0.005964215,-0.117529884,0.005976096,0.44871795,0.0,1.0,0.0,0.0
43405122,43405108,0.017892644,-0.087649405,0.035856575,0.44871795,0.0,1.0,0.0,0.0
43461085,43461072,0.0,-0.055776894,0.06175299,0.44871795,0.0,1.0,0.0,0.0
43506279,43506239,0.0,-0.035856575,0.07569721,0.44871795,0.0,1.0,0.0,0.0
43555940,43555927,0.013916501,-0.08366534,0.06175299,0.44773176,0.0,1.0,0.0,0.0
43610740,43610726,0.0,-0.0936255,0.027888447,0.44773176,0.0,1.0,0.0,0.0
43660694,43660680,0.0019880715,-0.057768926,0.007968128,0.44773176,0.0,1.0,0.0,0.0
43705787,43705773,0.005964215,-0.035856575,0.0,0.44773176,0.0,1.0,0.0,0.0
43755721,43755707,0.0,-0.01992032,0.01992032,0.44773176,0.0,1.0,0.0,0.0
43810558,43810544,0.0,0.0,0.03984064,0.44773176,0.0,1.0,0.0,0.0
43855625,43855612,0.0,-0.003984064,0.12151395,0.46153846,0.0,1.0,0.0,0.0
43905580,43905567,0.0,0.0,0.13147411,0.46351084,0.0,1.0,0.0,0.0
43960433,43960419,0.0,0.0,0.119521916,0.46548325,0.0,1.0,0.0,0.0
44010376,44010362,0.013916501,-0.033864543,0.119521916,0.46646944,0.0,1.0,0.0,0.0
44055551,44055537,0.031809144,-0.043824703,0.11553785,0.46646944,0.0,1.0,0.0,0.0
44105406,44105392,0.033797216,-0.06374502,0.119521916,0.46745563,0.0,1.0,0.0,0.0
44160243,44160228,0.013916501,-0.043824703,0.13147411,0.4684418,0.0,1.0,0.0,0.0
44210202,44210189,0.029821074,-0.0936255,0.13147411,0.469428,0.0,1.0,0.0,0.0
44255274,44255260,0.07952286,-0.119521916,0.13346614,0.469428,0.0,1.0,0.0,0.0
44310116,44310098,0.077534795,-0.107569724,0.13545817,0.469428,0.0,1.0,0.0,0.0
44360064,44360050,0.04771372,-0.067729086,0.12549801,0.469428,0.0,1.0,0.0,0.0
44405444,44405430,0.0,-0.043824703,0.12350598,0.469428,0.0,1.0,0.0,0.0
44455179,44455162,0.013916501,-0.005976096,0.0996016,0.469428,0.0,1.0,0.0,0.0
44509929,44509914,0.013916501,0.0,0.10159363,0.469428,0.0,1.0,0.0,0.0
44559898,44559884,0.0,0.0,0.13346614,0.469428,0.0,1.0,0.0,0.0
44605161,44605148,0.0,0.0,0.15936255,0.469428,0.0,1.0,0.0,0.0
44659816,44659801,0.0,0.0,0.16334662,0.47140038,0.0,1.0,0.0,0.0
44709756,44709742,0.0,0.0,0.16334662,0.4733728,0.0,1.0,0.0,0.0
44759717,44759702,0.0,-0.03984064,0.15139443,0.4733728,0.0,1.0,0.0,0.0
44804914,44804896,0.0,-0.04183267,0.11155379,0.438856,0.0,1.0,0.0,0.0
44859631,44859617,0.0,-0.043824703,0.13545817,0.44970414,0.0,1.0,0.0,0.0
44909576,44909562,0.0,-0.05179283,0.1494024,0.44970414,0.0,1.0,0.0,0.0
44954690,44954676,0.0,-0.07569721,0.13944224,0.44970414,0.0,1.0,0.0,0.0
45009488,45009474,0.005964215,-0.05179283,0.15139443,0.44970414,0.0,1.0,0.0,0.0
45059472,45059459,0.005964215,-0.059760958,0.17131475,0.45167652,0.0,1.0,0.0,0.0
45109400,45109386,0.0019880715,-0.08366534,0.22709164,0.46153846,0.0,1.0,0.0,0.0
45154530,45154517,0.0019880715,-0.08366534,0.2689243,0.4733728,0.0,1.0,0.0,0.0
45209315,45209302,0.017892644,-0.037848607,0.28286853,0.4832347,0.0,1.0,0.0,0.0
45259264,45259250,0.013916501,-0.027888447,0.2808765,0.4861933,0.0,1.0,0.0,0.0
45309252,45309238,0.009940358,0.0,0.26494023,0.4871795,0.0,1.0,0.0,0.0
45354482,45354468,0.0,0.0,0.17529881,0.4871795,0.0,1.0,0.0,0.0
45409138,45409125,0.0,0.0,0.07370518,0.4871795,0.0,1.0,0.0,0.0
45459109,45459096,0.0,0.0,0.06175299,0.4852071,0.0,1.0,0.0,0.0
45504330,45504316,0.0,0.0,0.0,0.47534516,0.0,1.0,0.0,0.0
45559007,45558994,0.0,0.0,-0.027888447,0.46351084,0.0,1.0,0.0,0.0
45608964,45608951,0.0,0.0,-0.07370518,0.46252465,0.0,1.0,0.0,0.0
45658919,45658906,0.0,0.0,-0.10358566,0.46153846,0.0,1.0,0.0,0.0
45708979,45708966,0.0,0.0,-0.043824703,0.46153846,0.0,1.0,0.0,0.0
45758821,45758808,0.0,0.0,-0.05179283,0.4733728,0.0,1.0,0.0,0.0
45808802,45808788,0.0,0.0,-0.07569721,0.4733728,0.0,1.0,0.0,0.0
45858880,45858866,-0.007984032,0.0,-0.007968128,0.4733728,0.0,1.0,0.0,0.0
45908695,45908681,0.0,0.0,0.0,0.4861933,0.0,1.0,0.0,0.0
45958676,45958663,0.0,0.0,0.0,0.50591713,0.0,1.0,0.0,0.0
46008602,46008587,0.0,0.0,0.0,0.50591713,0.0,1.0,0.0,0.0
46058557,46058543,0.0,0.0,0.0,0.47140038,0.0,1.0,0.0,0.0
46108513,46108499,0.0,0.0,0.0,0.46252465,0.0,1.0,0.0,0.0
46158478,46158465,0.0,0.0,-0.119521916,0.46153846,0.0,1.0,0.0,0.0
46208423,46208409,-0.007984032,0.0,-0.09561753,0.44970414,0.0,1.0,0.0,0.0
46258390,46258377,-0.00998004,0.0,-0.053784862,0.4595661,0.0,1.0,0.0,0.0
46308505,46308492,-0.013972056,0.0,-0.07968128,0.4595661,0.0,1.0,0.0,0.0
46358300,46358286,-0.013972056,0.0,-0.01992032,0.45857987,0.0,1.0,0.0,0.0
46408328,46408315,-0.013972056,0.0,0.0,0.47140038,0.0,1.0,0.0,0.0
46458210,46458197,0.0,0.0,0.0,0.47140038,0.0,1.0,0.0,0.0
46508163,46508148,0.0,0.0,0.0,0.48027614,0.0,1.0,0.0,0.0
46558136,46558123,0.0,0.0,0.0,0.4822485,0.0,1.0,0.0,0.0
46608181,46608167,0.0,0.0,0.0,0.48126233,0.0,1.0,0.0,0.0
46658029,46658014,0.0,0.0,0.021912351,0.48126233,0.0,1.0,0.0,0.0
46707985,46707971,0.0,0.0,0.01992032,0.45759368,0.0,1.0,0.0,0.0
46757954,46757940,0.0,0.0,0.00996016,0.4556213,0.0,1.0,0.0,0.0
46807949,46807910,-0.005988024,0.0,0.0,0.43096647,0.0,1.0,0.0,0.0
46857876,46857863,-0.1017964,0.0,0.0,0.42209074,0.0,1.0,0.0,0.0
46907808,46907793,-0.1736527,0.0,0.0,0.44871795,0.0,1.0,0.0,0.0
46957778,46957764,-0.22954091,0.0,-0.057768926,0.44871795,0.0,1.0,0.0,0.0
47007717,47007703,-0.2275449,0.0,-0.057768926,0.46252465,0.0,1.0,0.0,0.0
47057687,47057674,-0.21357286,0.0,-0.119521916,0.46351084,0.0,1.0,0.0,0.0
47107627,47107613,-0.17964073,0.0,-0.17529881,0.46351084,0.0,1.0,0.0,0.0
47157590,47157577,-0.18163672,0.0,-0.107569724,0.48915187,0.0,1.0,0.0,0.0
47207542,47207526,-0.12774451,0.0,-0.07171315,0.51282054,0.0,1.0,0.0,0.0
47257551,47257537,-0.1257485,0.0,-0.10557769,0.5138067,0.0,1.0,0.0,0.0
47307508,47307494,-0.077844314,0.0,-0.06374502,0.5502958,0.0,1.0,0.0,0.0
47357408,47357394,-0.033932135,0.0,-0.06374502,0.55226827,0.0,1.0,0.0,0.0
47407362,47407348,-0.0499002,0.0,-0.07171315,0.5897436,0.0,1.0,0.0,0.0
47457328,47457315,-0.065868266,0.0,-0.08167331,0.591716,0.0,1.0,0.0,0.0
47507416,47507403,-0.051896207,0.0,-0.067729086,0.591716,0.0,1.0,0.0,0.0
47557242,47557228,-0.08982036,-0.007968128,-0.097609565,0.52071005,0.0,1.0,0.0,0.0
47607190,47607173,-0.14570858,0.0,-0.0936255,0.50788957,0.0,1.0,0.0,0.0
47657144,47657130,-0.17964073,0.0,-0.11354582,0.50788957,0.0,1.0,0.0,0.0
47707102,47707088,-0.17764471,0.0,-0.13147411,0.50788957,0.0,1.0,0.0,0.0
47757084,47757071,-0.17764471,0.0,-0.13346614,0.50788957,0.0,1.0,0.0,0.0
47807019,47807006,-0.18163672,0.0,-0.23306774,0.48816568,0.0,1.0,0.0,0.0
47856968,47856952,-0.19760479,0.0,-0.20318726,0.50788957,0.0,1.0,0.0,0.0
47907135,47907121,-0.18562874,0.0,-0.27689242,0.50788957,0.0,1.0,0.0,0.0
47956877,47956863,-0.18363273,0.0,-0.2808765,0.50690335,0.0,1.0,0.0,0.0
48006846,48006832,-0.12175649,-0.027888447,-0.13346614,0.54043394,0.0,1.0,0.0,0.0
48056809,48056796,-0.063872255,-0.029880479,-0.13147411,0.5414201,0.0,1.0,0.0,0.0
48106746,48106732,-0.031936128,-0.055776894,-0.12749004,0.5424063,0.0,1.0,0.0,0.0
48161835,48161820,-0.027944112,-0.053784862,-0.09163347,0.55226827,0.0,1.0,0.0,0.0
48206739,48206726,-0.033932135,-0.053784862,-0.16932271,0.5424063,0.0,1.0,0.0,0.0
48256621,48256605,-0.063872255,-0.03187251,-0.11155379,0.5424063,0.0,1.0,0.0,0.0
48306572,48306558,-0.103792414,-0.025896415,-0.043824703,0.58481264,0.0,1.0,0.0,0.0
48356530,48356517,-0.06187625,-0.043824703,-0.053784862,0.5857988,0.0,1.0,0.0,0.0
48406710,48406697,-0.045908183,-0.03187251,-0.045816734,0.5877712,0.0,1.0,0.0,0.0
48456443,48456430,-0.06187625,-0.003984064,-0.035856575,0.59861934,0.0,1.0,0.0,0.0
48506391,48506377,-0.077844314,0.0,-0.055776894,0.5996055,0.0,1.0,0.0,0.0
48556357,48556343,-0.09580839,0.0,-0.1374502,0.5996055,0.0,1.0,0.0,0.0
48606311,48606297,-0.11377245,0.0,-0.16733068,0.5996055,0.0,1.0,0.0,0.0
48656306,48656263,-0.0998004,0.0,-0.15338646,0.586785,0.0,1.0,0.0,0.0
48709566,48709552,-0.119760476,0.0,-0.18326694,0.5670611,0.0,1.0,0.0,0.0
48760139,48760125,-0.119760476,0.0,-0.17330678,0.56607497,0.0,1.0,0.0,0.0
48805501,48805486,-0.119760476,0.0,-0.17330678,0.5532544,0.0,1.0,0.0,0.0
48861157,48861144,-0.08782435,0.0,-0.11553785,0.55226827,0.0,1.0,0.0,0.0
48906485,48906472,-0.059880238,0.0,-0.067729086,0.55226827,0.0,1.0,0.0,0.0
48957005,48956992,-0.025948104,0.0,0.0,0.55226827,0.0,1.0,0.0,0.0
49007551,49007537,0.0,0.0,0.0,0.55226827,0.0,1.0,0.0,0.0
49058080,49058066,0.0,0.0,0.04183267,0.55226827,0.0,1.0,0.0,0.0
49108561,49108548,0.0,0.0,0.03984064,0.5424063,0.0,1.0,0.0,0.0
49159086,49159072,0.0,0.0,0.05179283,0.49506903,0.0,1.0,0.0,0.0
49209600,49209586,0.0,0.0,0.03984064,0.49309665,0.0,1.0,0.0,0.0
49260141,49260126,0.0,0.0,0.0,0.43589744,0.0,1.0,0.0,0.0
49305716,49305703,-0.037924152,-0.003984064,-0.06972112,0.43392506,0.0,1.0,0.0,0.0
49356214,49356201,-0.04191617,0.0,-0.15139443,0.43293884,0.0,1.0,0.0,0.0
49406742,49406729,-0.027944112,0.0,-0.17529881,0.43195266,0.0,1.0,0.0,0.0
49457291,49457277,-0.025948104,0.0,-0.1434263,0.4418146,0.0,1.0,0.0,0.0
49507802,49507789,0.0,0.0,-0.187251,0.44378698,0.0,1.0,0.0,0.0
49558463,49558449,0.0,0.0,-0.12749004,0.47140038,0.0,1.0,0.0,0.0
49608817,49608804,0.0,0.0,-0.067729086,0.50788957,0.0,1.0,0.0,0.0
49659340,49659327,0.0,0.0,-0.0936255,0.50986195,0.0,1.0,0.0,0.0
49704715,49704702,0.0,0.0,-0.04183267,0.5108481,0.0,1.0,0.0,0.0
49760420,49760407,0.0,0.0,-0.01992032,0.51282054,0.0,1.0,0.0,0.0
49810931,49810917,0.0,0.0,0.0,0.51282054,0.0,1.0,0.0,0.0
49856249,49856236,0.0,0.0,0.015936255,0.51282054,0.0,1.0,0.0,0.0
49912044,49912029,0.0,0.0,0.0,0.49506903,0.0,1.0,0.0,0.0
49957308,49957295,0.0,0.0,0.0,0.49211046,0.0,1.0,0.0,0.0
50007831,50007818,-0.013972056,0.0,-0.14741036,0.49112427,0.0,1.0,0.0,0.0
50058334,50058321,-0.093812376,0.0,-0.24900399,0.49112427,0.0,1.0,0.0,0.0
50108877,50108864,-0.12974052,0.0,-0.16733068,0.50591713,0.0,1.0,0.0,0.0
50159374,50159361,-0.14570858,0.0,-0.20318726,0.50591713,0.0,1.0,0.0,0.0
50205017,50205003,-0.1497006,0.0,-0.16334662,0.50591713,0.0,1.0,0.0,0.0
50260414,50260400,-0.13173653,0.0,-0.16733068,0.46745563,0.0,1.0,0.0,0.0
50306007,50305993,-0.12774451,-0.001992032,-0.17928287,0.45759368,0.0,1.0,0.0,0.0
50356530,50356517,-0.0998004,-0.001992032,-0.16733068,0.44378698,0.0,1.0,0.0,0.0
50407102,50407089,-0.06986028,-0.047808766,-0.19521913,0.37278107,0.0,1.0,0.0,0.0
50457564,50457550,-0.013972056,-0.087649405,-0.07370518,0.4151874,0.0,1.0,0.0,0.0
50508107,50508094,0.0,-0.053784862,-0.03984064,0.42209074,0.0,1.0,0.0,0.0
50558697,50558683,0.0,-0.045816734,-0.0936255,0.42209074,0.0,1.0,0.0,0.0
50609176,50609162,-0.025948104,-0.029880479,-0.22709164,0.41025642,0.0,1.0,0.0,0.0
50659937,50659924,-0.1237525,-0.0498008,-0.32071713,0.41025642,0.0,1.0,0.0,0.0
50710223,50710209,-0.15369262,-0.025896415,-0.35059762,0.40927023,0.0,1.0,0.0,0.0
50755495,50755482,-0.15968063,-0.007968128,-0.3306773,0.40828404,0.0,1.0,0.0,0.0
50811289,50811275,-0.14570858,0.0,-0.29083666,0.40729782,0.0,1.0,0.0,0.0
50856543,50856529,-0.1497006,0.0,-0.3426295,0.44378698,0.0,1.0,0.0,0.0
50907058,50907044,-0.16367266,0.0,-0.3007968,0.4852071,0.0,1.0,0.0,0.0
50957578,50957565,-0.14570858,0.0,-0.26693228,0.49506903,0.0,1.0,0.0,0.0
51008099,51008086,-0.13373253,0.0,-0.29681274,0.49605522,0.0,1.0,0.0,0.0
51058662,51058625,-0.16566867,-0.001992032,-0.25298804,0.49704143,0.0,1.0,0.0,0.0
51104261,51104248,-0.18363273,-0.00996016,-0.26693228,0.49704143,0.0,1.0,0.0,0.0
51159664,51159648,-0.20159681,-0.00996016,-0.29083666,0.4852071,0.0,1.0,0.0,0.0
51210186,51210173,-0.23353294,0.0,-0.34063745,0.47435898,0.0,1.0,0.0,0.0
51255772,51255732,-0.29341316,0.0,-0.3884462,0.47140038,0.0,1.0,0.0,0.0
51311303,51311247,-0.29740518,0.0,-0.45418328,0.46153846,0.0,1.0,0.0,0.0
51356787,51356774,-0.31337327,0.0,-0.5139442,0.4595661,0.0,1.0,0.0,0.0
51407327,51407293,-0.29740518,0.0,-0.53386456,0.44970414,0.0,1.0,0.0,0.0
51457825,51457811,-0.29740518,0.0,-0.5318725,0.44970414,0.0,1.0,0.0,0.0
51508500,51508487,-0.28143713,0.0,-0.51195216,0.44970414,0.0,1.0,0.0,0.0
51559245,51559229,-0.26147705,0.0,-0.4063745,0.44970414,0.0,1.0,0.0,0.0
51609390,51609376,-0.24550898,0.0,-0.35458168,0.44970414,0.0,1.0,0.0,0.0
51654741,51654727,-0.20958084,0.0,-0.21115538,0.46153846,0.0,1.0,0.0,0.0
51710421,51710407,-0.105788425,0.0,-0.18326694,0.46153846,0.0,1.0,0.0,0.0
51755785,51755772,-0.003992016,0.0,-0.08964144,0.46153846,0.0,1.0,0.0,0.0
51806306,51806293,0.099403575,0.0,0.0,0.46153846,0.0,1.0,0.0,0.0
51856815,51856802,0.09343936,0.0,0.0,0.46153846,0.0,1.0,0.0,0.0
51907339,51907326,0.16699801,0.0,0.0,0.46153846,0.0,1.0,0.0,0.0
51957876,51957863,0.31610337,0.0,0.057768926,0.46153846,0.0,1.0,0.0,0.0
52008716,52008701,0.16699801,0.0,0.06175299,0.45857987,0.0,1.0,0.0,0.0
52058950,52058936,0.033797216,-0.007968128,0.07569721,0.4566075,0.0,1.0,0.0,0.0
52108351,52108338,0.049701788,-0.003984064,0.10358566,0.4556213,0.0,1.0,0.0,0.0
52158334,52158320,0.0,0.0,0.035856575,0.4418146,0.0,1.0,0.0,0.0
52208307,52208294,0.0,0.0,0.0,0.4408284,0.0,1.0,0.0,0.0
52258267,52258253,0.0,0.0,0.07370518,0.4418146,0.0,1.0,0.0,0.0
52308213,52308200,0.15705766,0.0,0.11155379,0.45266274,0.0,1.0,0.0,0.0
52358196,52358182,0.2942346,0.0,0.07569721,0.44378698,0.0,1.0,0.0,0.0
52408152,52408139,0.17296223,0.0,0.07569721,0.44378698,0.0,1.0,0.0,0.0
52458114,52458097,0.12326044,0.0,0.087649405,0.44378698,0.0,1.0,0.0,0.0
52508079,52508066,0.14910537,0.0,0.087649405,0.44378698,0.0,1.0,0.0,0.0
52558042,52558028,0.09343936,0.0,0.087649405,0.44378698,0.0,1.0,0.0,0.0
52608012,52607999,0.4055666,0.0,0.097609565,0.44378698,0.0,1.0,0.0,0.0
52657978,52657965,0.40954274,-0.00996016,0.12749004,0.46548325,0.0,1.0,0.0,0.0
52707974,52707961,0.31809145,-0.001992032,0.05179283,0.4684418,0.0,1.0,0.0,0.0
52757915,52757897,0.2723658,0.0,0.047808766,0.469428,0.0,1.0,0.0,0.0
52808074,52808061,0.27037773,0.0,0.055776894,0.4418146,0.0,1.0,0.0,0.0
52857838,52857825,0.30417496,0.0,0.01992032,0.43293884,0.0,1.0,0.0,0.0
52907961,52907946,0.18489066,0.0,0.015936255,0.43293884,0.0,1.0,0.0,0.0
52957773,52957760,0.16898608,0.0,0.0,0.43293884,0.0,1.0,0.0,0.0
53007738,53007724,0.055666003,0.0,0.0,0.41025642,0.0,1.0,0.0,0.0
53057701,53057688,0.0,0.0,-0.027888447,0.40039447,0.0,1.0,0.0,0.0
53107668,53107655,0.0,0.0,-0.003984064,0.40039447,0.0,1.0,0.0,0.0
53157710,53157697,-0.01996008,0.0,0.0,0.40039447,0.0,1.0,0.0,0.0
53207619,53207605,-0.037924152,0.0,0.0,0.40039447,0.0,1.0,0.0,0.0
53257569,53257555,-0.051896207,0.0,0.0,0.40039447,0.0,1.0,0.0,0.0
53307536,53307523,-0.18363273,0.0,0.0,0.40039447,0.0,1.0,0.0,0.0
53357498,53357484,-0.24550898,0.0,0.0,0.39940828,0.0,1.0,0.0,0.0
53407480,53407453,-0.28742516,0.0,0.0,0.40039447,0.0,1.0,0.0,0.0
53457431,53457418,-0.2994012,0.0,0.0,0.40039447,0.0,1.0,0.0,0.0
53507398,53507385,-0.103792414,0.007968128,0.0,0.40039447,0.0,1.0,0.0,0.0
53557362,53557349,-0.037924152,0.0,0.0,0.40039447,0.0,1.0,0.0,0.0
53607336,53607321,-0.14570858,0.0,-0.021912351,0.39940828,0.0,1.0,0.0,0.0
53657297,53657284,-0.249501,0.0,-0.021912351,0.39940828,0.0,1.0,0.0,0.0
53707262,53707249,-0.33932135,0.0,-0.023904383,0.39940828,0.0,1.0,0.0,0.0
53757227,53757214,-0.33732533,0.0,-0.023904383,0.39940828,0.0,1.0,0.0,0.0
53807200,53807186,-0.33732533,0.0,-0.011952192,0.40039447,0.0,1.0,0.0,0.0
53857176,53857163,-0.28143713,0.0,-0.001992032,0.40039447,0.0,1.0,0.0,0.0
53907133,53907120,-0.21357286,0.0,-0.011952192,0.40039447,0.0,1.0,0.0,0.0
53957095,53957081,-0.23353294,0.0,-0.011952192,0.40039447,0.0,1.0,0.0,0.0
54007057,54007044,-0.28942117,0.0,-0.011952192,0.40039447,0.0,1.0,0.0,0.0
54057046,54057019,-0.31936127,0.0,-0.001992032,0.40039447,0.0,1.0,0.0,0.0
54106996,54106982,-0.33333334,0.0,-0.003984064,0.40039447,0.0,1.0,0.0,0.0
54156955,54156942,-0.35329342,0.0,-0.001992032,0.40039447,0.0,1.0,0.0,0.0
54206921,54206904,-0.4011976,0.0,-0.011952192,0.40039447,0.0,1.0,0.0,0.0
54256884,54256871,-0.41716567,0.0,-0.027888447,0.40039447,0.0,1.0,0.0,0.0
54306862,54306848,-0.48902196,0.0,-0.12749004,0.40039447,0.0,1.0,0.0,0.0
54356819,54356806,-0.48702595,0.0,-0.17729084,0.40039447,0.0,1.0,0.0,0.0
54406783,54406770,-0.48902196,0.0,-0.15737052,0.40039447,0.0,1.0,0.0,0.0
54461743,54461730,-0.4730539,0.0,-0.18326694,0.40039447,0.0,1.0,0.0,0.0
54506714,54506700,-0.45708582,0.0,-0.187251,0.39940828,0.0,1.0,0.0,0.0
54556694,54556666,-0.48902196,0.0,-0.25896415,0.39940828,0.0,1.0,0.0,0.0
54606642,54606629,-0.49301398,0.0,-0.26095617,0.39940828,0.0,1.0,0.0,0.0
54656615,54656602,-0.50898206,0.0,-0.31474105,0.39940828,0.0,1.0,0.0,0.0
54706577,54706564,-0.50898206,0.0,-0.33266932,0.3984221,0.0,1.0,0.0,0.0
54756594,54756580,-0.46506986,0.0,-0.23306774,0.39940828,0.0,1.0,0.0,0.0
54811498,54811485,-0.43712574,0.0,-0.29282868,0.39940828,0.0,1.0,0.0,0.0
54856474,54856461,-0.38722554,0.0,-0.2370518,0.39940828,0.0,1.0,0.0,0.0
54906454,54906440,-0.25948104,0.0,-0.17330678,0.4289941,0.0,1.0,0.0,0.0
54956403,54956390,-0.19760479,0.0,-0.23505977,0.4398422,0.0,1.0,0.0,0.0
55006370,55006357,-0.19560878,0.0,-0.17330678,0.469428,0.0,1.0,0.0,0.0
55056345,55056331,-0.13772455,0.0,-0.16135459,0.47140038,0.0,1.0,0.0,0.0
55106304,55106290,-0.15768462,0.0,-0.15936255,0.4733728,0.0,1.0,0.0,0.0
55161266,55161253,-0.2275449,0.001992032,-0.187251,0.47435898,0.0,1.0,0.0,0.0
55206266,55206253,-0.24550898,0.003984064,-0.187251,0.47534516,0.0,1.0,0.0,0.0
55256205,55256192,-0.18762475,0.011952192,-0.187251,0.47435898,0.0,1.0,0.0,0.0
55306171,55306157,-0.1257485,0.015936255,-0.17330678,0.4733728,0.0,1.0,0.0,0.0
55361127,55361113,-0.14570858,0.045816734,-0.15737052,0.47140038,0.0,1.0,0.0,0.0
55406106,55406092,-0.13173653,0.06175299,-0.15737052,0.46252465,0.0,1.0,0.0,0.0
55456082,55456065,-0.16566867,0.0,-0.13545817,0.45167652,0.0,1.0,0.0,0.0
55511026,55511012,-0.037924152,0.0,-0.11354582,0.4398422,0.0,1.0,0.0,0.0
55555993,55555980,-0.013972056,0.0,-0.047808766,0.438856,0.0,1.0,0.0,0.0
55605964,55605951,-0.043912176,0.0,0.0,0.43786982,0.0,1.0,0.0,0.0
55655934,55655920,-0.045908183,0.0,0.0,0.43688363,0.0,1.0,0.0,0.0
55710888,55710875,0.0,0.0,0.0,0.43589744,0.0,1.0,0.0,0.0
55755858,55755844,0.0,0.0,0.0,0.42702168,0.0,1.0,0.0,0.0
55805824,55805810,0.0,0.0,-0.007968128,0.42406312,0.0,1.0,0.0,0.0
55855789,55855775,0.0,0.0,0.0,0.42307693,0.0,1.0,0.0,0.0
55910770,55910756,0.0,0.0,-0.011952192,0.42209074,0.0,1.0,0.0,0.0
55955727,55955712,0.0,0.0,-0.053784862,0.40828404,0.0,1.0,0.0,0.0
56005695,56005681,-0.01996008,0.0,-0.08366534,0.40729782,0.0,1.0,0.0,0.0
56060656,56060641,0.0,0.0,-0.0936255,0.40631163,0.0,1.0,0.0,0.0
56105616,56105603,-0.017964073,0.045816734,-0.057768926,0.40631163,0.0,1.0,0.0,0.0
56155581,56155568,-0.059880238,0.06374502,-0.011952192,0.40631163,0.0,1.0,0.0,0.0
56210563,56210549,-0.1257485,0.003984064,0.007968128,0.43589744,0.0,1.0,0.0,0.0
56260536,56260522,0.049701788,0.03187251,0.07171315,0.44378698,0.0,1.0,0.0,0.0
56305618,56305604,0.43141153,0.023904383,0.13147411,0.44674557,0.0,1.0,0.0,0.0
56355685,56355672,0.6699801,0.023904383,0.16733068,0.44871795,0.0,1.0,0.0,0.0
56410425,56410410,0.5387674,0.0,0.17928287,0.44970414,0.0,1.0,0.0,0.0
56455503,56455490,0.5328032,0.0,0.17729084,0.44970414,0.0,1.0,0.0,0.0
56505466,56505453,0.50695825,0.0,0.17729084,0.45167652,0.0,1.0,0.0,0.0
56560325,56560310,0.28827038,0.0,0.15139443,0.45167652,0.0,1.0,0.0,0.0
56610291,56610277,0.22465208,0.0,0.13545817,0.45167652,0.0,1.0,0.0,0.0
56655366,56655353,0.12326044,0.0,0.0996016,0.45167652,0.0,1.0,0.0,0.0
56705338,56705325,0.031809144,0.0,0.07171315,0.45167652,0.0,1.0,0.0,0.0
56760183,56760169,0.0,0.0,0.003984064,0.45167652,0.0,1.0,0.0,0.0
56810185,56810170,0.0,0.0,0.0,0.42702168,0.0,1.0,0.0,0.0
56855234,56855219,0.0,0.0,0.0,0.42702168,0.0,1.0,0.0,0.0
56910086,56910070,0.0,0.0,0.0,0.4289941,0.0,1.0,0.0,0.0
56960050,56960034,0.0,0.0,-0.001992032,0.42998028,0.0,1.0,0.0,0.0
57005183,57005170,0.0,0.0,0.021912351,0.43195266,0.0,1.0,0.0,0.0
57055154,57055141,0.033797216,0.0,0.119521916,0.43392506,0.0,1.0,0.0,0.0
57109945,57109931,0.049701788,0.0,0.13147411,0.43392506,0.0,1.0,0.0,0.0
57159919,57159905,0.0,0.0,0.13147411,0.43589744,0.0,1.0,0.0,0.0
57205013,57205000,0.013916501,0.0,0.12948208,0.43589744,0.0,1.0,0.0,0.0
57259917,57259903,0.029821074,0.0,0.10159363,0.42406312,0.0,1.0,0.0,0.0
57309812,57309797,0.029821074,0.0,0.12350598,0.42406312,0.0,1.0,0.0,0.0
57359778,57359764,0.029821074,0.0,0.1494024,0.4260355,0.0,1.0,0.0,0.0
57404855,57404842,0.0,0.0,0.16334662,0.43589744,0.0,1.0,0.0,0.0
57459711,57459697,0.057654075,0.0,0.16733068,0.47830376,0.0,1.0,0.0,0.0
57509695,57509681,0.07355865,0.0,0.16733068,0.47928995,0.0,1.0,0.0,0.0
57554799,57554786,0.07355865,0.0,0.15537849,0.47928995,0.0,1.0,0.0,0.0
57609601,57609586,0.055666003,0.0,0.13147411,0.48027614,0.0,1.0,0.0,0.0
57659573,57659558,0.017892644,0.003984064,0.107569724,0.469428,0.0,1.0,0.0,0.0
57709552,57709537,0.03777336,0.025896415,0.047808766,0.4704142,0.0,1.0,0.0,0.0
57754688,57754675,0.035785288,0.045816734,0.0,0.469428,0.0,1.0,0.0,0.0
57809470,57809456,0.033797216,0.065737054,0.0,0.4704142,0.0,1.0,0.0,0.0
57859429,57859415,0.0,0.0,0.0,0.469428,0.0,1.0,0.0,0.0
57904578,57904564,0.0,0.0,0.0,0.469428,0.0,1.0,0.0,0.0
57959378,57959364,0.0,0.0,0.0,0.43786982,0.0,1.0,0.0,0.0
58009332,58009318,0.0,0.0,0.00996016,0.43688363,0.0,1.0,0.0,0.0
58059299,58059283,0.0,0.0,0.025896415,0.4112426,0.0,1.0,0.0,0.0
58104374,58104361,0.0,0.0,0.027888447,0.40927023,0.0,1.0,0.0,0.0
58159235,58159220,0.0,0.0,0.06374502,0.41025642,0.0,1.0,0.0,0.0
58209194,58209179,0.017892644,0.0,0.065737054,0.4122288,0.0,1.0,0.0,0.0
58259160,58259147,0.0,0.0,0.067729086,0.43688363,0.0,1.0,0.0,0.0
58304294,58304280,0.0,0.023904383,0.027888447,0.43786982,0.0,1.0,0.0,0.0
58359160,58359147,0.029821074,0.04183267,0.027888447,0.45857987,0.0,1.0,0.0,0.0
58409088,58409075,0.0,0.0,0.001992032,0.45759368,0.0,1.0,0.0,0.0
58454204,58454190,0.0,0.0,0.0,0.45759368,0.0,1.0,0.0,0.0
58508990,58508976,0.0,0.0,0.0,0.4556213,0.0,1.0,0.0,0.0
58558959,58558945,0.0,0.023904383,0.0,0.4546351,0.0,1.0,0.0,0.0
58608925,58608911,0.0,0.027888447,0.0,0.44378698,0.0,1.0,0.0,0.0
58658886,58658872,0.0,-0.015936255,0.0,0.4418146,0.0,1.0,0.0,0.0
58707270,58707256,0.0,0.0,0.0,0.4408284,0.0,1.0,0.0,0.0
58757760,58757747,0.0,0.0,0.0,0.4398422,0.0,1.0,0.0,0.0
58808316,58808302,0.0,0.0,0.007968128,0.42209074,0.0,1.0,0.0,0.0
58858832,58858819,0.0,0.0,0.03187251,0.42011833,0.0,1.0,0.0,0.0
58909355,58909342,0.0,0.0,0.001992032,0.40729782,0.0,1.0,0.0,0.0
58954901,58954888,-0.05788423,-0.023904383,-0.021912351,0.40631163,0.0,1.0,0.0,0.0
59010360,59010346,-0.16367266,-0.043824703,-0.2310757,0.40433925,0.0,1.0,0.0,0.0
59056005,59055992,-0.1497006,-0.005976096,-0.21513945,0.40433925,0.0,1.0,0.0,0.0
59106456,59106442,-0.13173653,0.0,-0.2310757,0.40433925,0.0,1.0,0.0,0.0
59157004,59156991,-0.0998004,0.0,-0.1932271,0.40236688,0.0,1.0,0.0,0.0
59207492,59207479,-0.021956088,0.0,-0.07569721,0.40039447,0.0,1.0,0.0,0.0
59258090,59258076,0.0,0.0,-0.06374502,0.40039447,0.0,1.0,0.0,0.0
59308606,59308592,0.0,0.0,-0.047808766,0.40039447,0.0,1.0,0.0,0.0
59359068,59359054,0.0,0.0,-0.007968128,0.40039447,0.0,1.0,0.0,0.0
59409573,59409558,0.0,0.0,0.0,0.41025642,0.0,1.0,0.0,0.0
59454931,59454918,0.0,0.0,0.0,0.41025642,0.0,1.0,0.0,0.0
59505505,59505491,0.0,0.0,0.0,0.41025642,0.0,1.0,0.0,0.0
59561236,59561223,-0.021956088,-0.001992032,-0.003984064,0.41025642,0.0,1.0,0.0,0.0
59606548,59606535,-0.03992016,0.0,-0.11155379,0.41025642,0.0,1.0,0.0,0.0
59657008,59656995,-0.059880238,0.0,-0.12350598,0.41025642,0.0,1.0,0.0,0.0
59707552,59707538,-0.063872255,0.0,-0.21513945,0.41025642,0.0,1.0,0.0,0.0
59758127,59758113,-0.091816366,0.0,-0.29482073,0.41025642,0.0,1.0,0.0,0.0
59808607,59808593,-0.10978044,0.0,-0.20717132,0.41025642,0.0,1.0,0.0,0.0
59854299,59854286,-0.14171657,0.0,-0.22111554,0.41025642,0.0,1.0,0.0,0.0
59909625,59909612,-0.14371258,0.0,-0.17330678,0.41025642,0.0,1.0,0.0,0.0
59960288,59960273,-0.12774451,0.0,-0.053784862,0.4112426,0.0,1.0,0.0,0.0
60005731,60005718,-0.105788425,0.0,-0.0139442235,0.44674557,0.0,1.0,0.0,0.0
60061190,60061176,-0.059880238,0.0,0.0,0.44871795,0.0,1.0,0.0,0.0
60106768,60106752,0.0,0.0,0.0,0.44970414,0.0,1.0,0.0,0.0
60157307,60157293,0.0,0.0,0.0,0.44970414,0.0,1.0,0.0,0.0
60207891,60207878,0.0,0.00996016,0.0,0.45167652,0.0,1.0,0.0,0.0
60258332,60258318,0.0,0.0,0.0,0.46548325,0.0,1.0,0.0,0.0
60309044,60309031,0.0,0.007968128,0.0,0.46745563,0.0,1.0,0.0,0.0
60359370,60359357,0.0,0.017928287,0.0,0.469428,0.0,1.0,0.0,0.0
60409911,60409896,-0.017964073,0.0,-0.001992032,0.469428,0.0,1.0,0.0,0.0
60460422,60460409,-0.033932135,0.0,-0.001992032,0.4704142,0.0,1.0,0.0,0.0
60505766,60505752,-0.017964073,0.0,-0.011952192,0.4704142,0.0,1.0,0.0,0.0
60556312,60556299,0.0,0.011952192,0.0,0.4704142,0.0,1.0,0.0,0.0
60606772,60606759,0.0,0.03187251,0.0,0.5029586,0.0,1.0,0.0,0.0
60657292,60657278,0.045725647,0.027888447,0.01992032,0.5029586,0.0,1.0,0.0,0.0
60707809,60707795,0.029821074,0.0,0.07370518,0.5029586,0.0,1.0,0.0,0.0
60758344,60758330,0.17892644,0.0,0.15338646,0.50394475,0.0,1.0,0.0,0.0
60808860,60808847,0.16500995,0.0,0.19521913,0.50394475,0.0,1.0,0.0,0.0
60859368,60859353,0.10934394,0.0,0.22310758,0.50394475,0.0,1.0,0.0,0.0
60904999,60904986,0.119284295,0.0,0.22509961,0.50394475,0.0,1.0,0.0,0.0
60960485,60960472,0.119284295,0.0,0.22709164,0.50394475,0.0,1.0,0.0,0.0
61005983,61005969,0.13121273,0.0,0.2310757,0.50394475,0.0,1.0,0.0,0.0
61056549,61056536,0.14512922,0.0,0.2310757,0.49309665,0.0,1.0,0.0,0.0
61107026,61107012,0.18687873,0.0,0.21513945,0.49211046,0.0,1.0,0.0,0.0
61157542,61157529,0.11332008,0.0,0.17529881,0.45759368,0.0,1.0,0.0,0.0
61208062,61208047,0.20477137,0.0,0.17131475,0.4556213,0.0,1.0,0.0,0.0
61258582,61258568,0.2166998,0.0,0.1992032,0.4556213,0.0,1.0,0.0,0.0
61309125,61309112,0.21868788,0.0,0.20119523,0.4566075,0.0,1.0,0.0,0.0
61359663,61359649,0.17892644,0.0,0.2370518,0.45759368,0.0,1.0,0.0,0.0
61405006,61404990,0.13916501,0.0,0.25099602,0.45759368,0.0,1.0,0.0,0.0
61460719,61460705,0.17693837,0.0,0.26294822,0.45857987,0.0,1.0,0.0,0.0
61506031,61506016,0.1252485,0.0,0.26294822,0.45857987,0.0,1.0,0.0,0.0
61556581,61556567,0.11332008,0.0,0.24900399,0.45857987,0.0,1.0,0.0,0.0
61607059,61607044,0.11332008,0.0,0.24900399,0.45857987,0.0,1.0,0.0,0.0
61657582,61657568,0.05367793,0.0,0.25099602,0.45759368,0.0,1.0,0.0,0.0
61708098,61708085,0.049701788,0.0,0.25099602,0.45759368,0.0,1.0,0.0,0.0
61758616,61758603,0.019880716,0.0,0.19521913,0.44378698,0.0,1.0,0.0,0.0
61809178,61809142,0.003976143,0.0,0.12151395,0.4418146,0.0,1.0,0.0,0.0
61859649,61859636,0.0,0.0,0.09163347,0.4398422,0.0,1.0,0.0,0.0
61905239,61905223,0.0,0.0,0.045816734,0.438856,0.0,1.0,0.0,0.0
61955803,61955790,0.0,0.007968128,0.0,0.4289941,0.0,1.0,0.0,0.0
62011240,62011226,0.0,0.0,0.011952192,0.42998028,0.0,1.0,0.0,0.0
62056813,62056798,0.0,0.0,0.021912351,0.42998028,0.0,1.0,0.0,0.0
62107328,62107314,-0.015968064,0.0,0.0,0.42998028,0.0,1.0,0.0,0.0
62157880,62157866,-0.017964073,0.0,0.0,0.42011833,0.0,1.0,0.0,0.0
62208345,62208332,-0.01996008,0.0,0.0,0.42011833,0.0,1.0,0.0,0.0
62259146,62259100,-0.021956088,0.0,0.0,0.42011833,0.0,1.0,0.0,0.0
62304237,62304223,-0.001996008,0.0,0.0,0.43096647,0.0,1.0,0.0,0.0
62359902,62359888,0.0,0.0,0.0,0.42998028,0.0,1.0,0.0,0.0
62410433,62410419,0.0,0.0,0.0,0.43096647,0.0,1.0,0.0,0.0
62455817,62455781,0.0,0.0,0.00996016,0.43096647,0.0,1.0,0.0,0.0
62511754,62511738,0.0,0.0,0.023904383,0.4398422,0.0,1.0,0.0,0.0
62556823,62556809,0.0,0.0,0.08167331,0.4408284,0.0,1.0,0.0,0.0
62607337,62607324,0.0,0.0,0.11553785,0.4418146,0.0,1.0,0.0,0.0
62657862,62657848,0.0,0.0,0.065737054,0.4418146,0.0,1.0,0.0,0.0
62708419,62708406,0.0,0.0,0.077689245,0.44378698,0.0,1.0,0.0,0.0
62758899,62758886,0.0,0.0,0.0996016,0.45167652,0.0,1.0,0.0,0.0
62804570,62804557,0.0,0.0,0.0996016,0.45364892,0.0,1.0,0.0,0.0
62859937,62859924,0.0,0.0,0.043824703,0.4566075,0.0,1.0,0.0,0.0
62910460,62910447,0.0,0.0,0.00996016,0.4566075,0.0,1.0,0.0,0.0
62956126,62956112,0.0,0.0,0.0,0.44575936,0.0,1.0,0.0,0.0
63006547,63006533,0.0,0.0,0.0,0.44378698,0.0,1.0,0.0,0.0
63057112,63057099,0.0,0.0,0.0,0.42406312,0.0,1.0,0.0,0.0
63107591,63107577,0.0,0.0,0.0,0.4122288,0.0,1.0,0.0,0.0
63158144,63158129,0.0,0.0,0.0,0.4122288,0.0,1.0,0.0,0.0
63208621,63208607,0.0,0.0,0.0,0.4112426,0.0,1.0,0.0,0.0
63259155,63259141,0.0,0.0,-0.047808766,0.40236688,0.0,1.0,0.0,0.0
63309726,63309713,0.0,0.0,-0.1434263,0.40138066,0.0,1.0,0.0,0.0
63355044,63355028,0.0,0.0,-0.07370518,0.40039447,0.0,1.0,0.0,0.0
63411103,63411090,0.0,0.0,0.0,0.42209074,0.0,1.0,0.0,0.0
63456078,63456064,0.0,0.0,0.0,0.42011833,0.0,1.0,0.0,0.0
63506585,63506572,0.0,0.0,0.0,0.42011833,0.0,1.0,0.0,0.0
63557117,63557103,0.0,0.0,0.0,0.42209074,0.0,1.0,0.0,0.0
63607673,63607659,0.0,0.0,0.0,0.42307693,0.0,1.0,0.0,0.0
63658152,63658138,0.0,0.0,0.0,0.42406312,0.0,1.0,0.0,0.0
63708663,63708649,0.0,0.0,0.0,0.4260355,0.0,1.0,0.0,0.0
63759184,63759170,0.0,0.0,0.0,0.4260355,0.0,1.0,0.0,0.0
63809705,63809691,0.0019880715,0.0,0.03984064,0.4260355,0.0,1.0,0.0,0.0
63855381,63855368,0.005964215,0.0,0.047808766,0.4260355,0.0,1.0,0.0,0.0
63905874,63905861,0.0,0.0,0.035856575,0.4260355,0.0,1.0,0.0,0.0
63956313,63956300,0.0,0.0,0.0,0.4260355,0.0,1.0,0.0,0.0
64006834,64006821,0.0,0.0,0.0,0.4260355,0.0,1.0,0.0,0.0
64057508,64057494,-0.013972056,0.0,0.0,0.41715977,0.0,1.0,0.0,0.0
64107963,64107950,-0.007984032,0.0,-0.027888447,0.41715977,0.0,1.0,0.0,0.0
64158391,64158378,0.0,0.0,0.0,0.4289941,0.0,1.0,0.0,0.0
64209127,64209113,0.0,0.0,0.0,0.4398422,0.0,1.0,0.0,0.0
64259440,64259426,0.0,0.0,0.0,0.4398422,0.0,1.0,0.0,0.0
64310540,64310526,0.0,0.0,0.04183267,0.4398422,0.0,1.0,0.0,0.0
64355331,64355317,0.0,0.0,0.08167331,0.4408284,0.0,1.0,0.0,0.0
64405834,64405819,0.0,0.0,0.10557769,0.4398422,0.0,1.0,0.0,0.0
64456375,64456362,0.0,0.0,0.14541833,0.4398422,0.0,1.0,0.0,0.0
64506913,64506876,0.0,0.0,0.17131475,0.4289941,0.0,1.0,0.0,0.0
64557422,64557409,0.0,0.0,0.17131475,0.4280079,0.0,1.0,0.0,0.0
64607913,64607896,0.0,0.0,0.15537849,0.42702168,0.0,1.0,0.0,0.0
64658466,64658447,0.0,0.0,0.119521916,0.4260355,0.0,1.0,0.0,0.0
64708950,64708936,0.0,0.0,0.08167331,0.42406312,0.0,1.0,0.0,0.0
64754609,64754595,0.0,0.0,0.01992032,0.40532544,0.0,1.0,0.0,0.0
64810130,64810115,0.0,0.0,0.017928287,0.40433925,0.0,1.0,0.0,0.0
64855595,64855581,0.0,0.0,0.027888447,0.40433925,0.0,1.0,0.0,0.0
64906120,64906102,0.0,0.0,0.08167331,0.40433925,0.0,1.0,0.0,0.0
