timestamp,timestamp_sample,control[0],control[1],control[2],control[3],control[4],control[5],control[6],control[7]
16883015,0,-0.0,-0.0,0.0,0.0,0.0,1.0,0.0,0.0
16908564,0,-0.0,-0.0,0.0,0.0,0.0,1.0,0.0,0.0
17002318,0,-0.0,-0.0,0.0,0.0,0.0,1.0,0.0,0.0
17082327,0,-0.0,-0.0,0.0,0.0,0.0,1.0,0.0,0.0
17194146,0,-0.0,-0.0,0.0,0.0,0.0,1.0,0.0,0.0
17282146,0,-0.0,-0.0,0.0,0.0,0.0,1.0,0.0,0.0
17402147,0,-0.0,-0.0,0.0,0.0,0.0,1.0,0.0,0.0
17510147,0,-0.0,-0.0,0.0,0.0,0.0,1.0,0.0,0.0
17566144,0,-0.0,-0.0,0.0,0.0,0.0,1.0,0.0,0.0
17698325,0,-0.0,-0.0,0.0,0.0,0.0,1.0,0.0,0.0
17782352,0,-0.0,-0.0,0.0,0.0,0.0,1.0,0.0,0.0
17886142,0,-0.0,-0.0,0.0,0.0,0.0,1.0,0.0,0.0
17970142,0,-0.0,-0.0,0.0,0.0,0.0,1.0,0.0,0.0
18110143,0,-0.0,-0.0,0.0,0.0,0.0,1.0,0.0,0.0
18194143,0,-0.0,-0.0,0.0,0.0,0.0,1.0,0.0,0.0
18258258,0,-0.0,-0.0,0.0,0.0,0.0,1.0,0.0,0.0
18390502,0,-0.0,-0.0,0.0,0.0,0.0,1.0,0.0,0.0
18502143,0,-0.0,-0.0,0.0,0.0,0.0,1.0,0.0,0.0
18574232,0,-0.0,-0.0,0.0,0.0,0.0,1.0,0.0,0.0
18686142,0,-0.0,-0.0,0.0,0.0,0.0,1.0,0.0,0.0
18790142,0,-0.0,-0.0,0.0,0.0,0.0,1.0,0.0,0.0
18890160,0,-0.0,-0.0,0.0,0.0,0.0,1.0,0.0,0.0
18974181,0,-0.0,-0.0,0.0,0.0,0.0,1.0,0.0,0.0
19098142,0,-0.0,-0.0,0.0,0.0,0.0,1.0,0.0,0.0
19182181,0,-0.0,-0.0,0.0,0.0,0.0,1.0,0.0,0.0
19310142,0,-0.0,-0.0,0.0,0.0,0.0,1.0,0.0,0.0
19402143,0,-0.0,-0.0,0.0,0.0,0.0,1.0,0.0,0.0
19506142,0,-0.0,-0.0,0.0,0.0,0.0,1.0,0.0,0.0
19598143,0,-0.0,-0.0,0.0,0.0,0.0,1.0,0.0,0.0
19690558,0,-0.0,-0.0,0.0,0.0,0.0,1.0,0.0,0.0
19810963,0,-0.0,-0.0,0.0,0.0,0.0,1.0,0.0,0.0
19898389,0,-0.0,-0.0,0.0,0.0,0.0,1.0,0.0,0.0
19990329,0,-0.0,-0.0,0.0,0.0,0.0,1.0,0.0,0.0
20102143,0,-0.0,-0.0,0.0,0.0,0.0,1.0,0.0,0.0
20174232,0,-0.0,-0.0,0.0,0.0,0.0,1.0,0.0,0.0
20298146,0,-0.0,-0.0,0.0,0.0,0.0,1.0,0.0,0.0
20374143,0,-0.0,-0.0,0.0,0.0,0.0,1.0,0.0,0.0
20466736,0,-0.0,-0.0,0.0,0.0,0.0,1.0,0.0,0.0
20594141,0,-0.0,-0.0,0.0,0.0,0.0,1.0,0.0,0.0
20706252,0,-0.0,-0.0,0.0,0.0,0.0,1.0,0.0,0.0
20790142,0,-0.0,-0.0,0.0,0.0,0.0,1.0,0.0,0.0
20910142,0,-0.0,-0.0,0.0,0.0,0.0,1.0,0.0,0.0
20994233,0,-0.0,-0.0,0.0,0.0,0.0,1.0,0.0,0.0
21090166,0,-0.0,-0.0,0.0,0.0,0.0,1.0,0.0,0.0
21198141,0,-0.0,-0.0,0.0,0.0,0.0,1.0,0.0,0.0
21302140,0,-0.0,-0.0,0.0,0.0,0.0,1.0,0.0,0.0
21394142,0,-0.0,-0.0,0.0,0.0,0.0,1.0,0.0,0.0
21506142,0,-0.0,-0.0,0.0,0.0,0.0,1.0,0.0,0.0
21594143,0,-0.0,-0.0,0.0,0.0,0.0,1.0,0.0,0.0
21702268,0,-0.0,-0.0,0.0,0.0,0.0,1.0,0.0,0.0
21798143,0,-0.0,-0.0,0.0,0.0,0.0,1.0,0.0,0.0
21906176,0,-0.0,-0.0,0.0,0.0,0.0,1.0,0.0,0.0
21974143,0,-0.0,-0.0,0.0,0.0,0.0,1.0,0.0,0.0
22094142,0,-0.0,-0.0,0.0,0.0,0.0,1.0,0.0,0.0
22170143,0,-0.0,-0.0,0.0,0.0,0.0,1.0,0.0,0.0
22310144,0,-0.0,-0.0,0.0,0.0,0.0,1.0,0.0,0.0
22390163,0,-0.0,-0.0,0.0,0.0,0.0,1.0,0.0,0.0
22478144,0,-0.0,-0.0,0.0,0.0,0.0,1.0,0.0,0.0
22598145,0,-0.0,-0.0,0.0,0.0,0.0,1.0,0.0,0.0
22674793,0,-0.0,-0.0,0.0,0.0,0.0,1.0,0.0,0.0
22810141,0,-0.0,-0.0,0.0,0.015779093,0.0,1.0,0.0,0.0
22894768,0,-0.0,-0.0,0.0,0.044378698,0.0,1.0,0.0,0.0
22998536,0,-0.0,-0.0,0.0,0.08086785,0.0,1.0,0.0,0.0
23102234,0,-0.0,-0.0,0.0,0.102564104,0.0,1.0,0.0,0.0
23194229,0,-0.0,-0.0,0.0,0.10453649,0.0,1.0,0.0,0.0
23306143,0,-0.0,-0.0,0.0,0.11637081,0.0,1.0,0.0,0.0
23398143,0,-0.0,-0.0,0.0,0.13806707,0.0,1.0,0.0,0.0
23510155,0,-0.0,-0.0,0.0,0.14990138,0.0,1.0,0.0,0.0
23594143,0,-0.0,-0.0,0.0,0.15088758,0.0,1.0,0.0,0.0
23706143,0,-0.0,-0.0,0.0,0.15680474,0.0,1.0,0.0,0.0
23806142,0,-0.0,-0.0,0.0,0.16765286,0.0,1.0,0.0,0.0
23910170,0,-0.0,-0.0,0.0,0.18047337,0.0,1.0,0.0,0.0
24002144,0,-0.0,-0.0,0.0,0.19526628,0.0,1.0,0.0,0.0
24106165,0,-0.0,-0.0,0.0,0.20019723,0.0,1.0,0.0,0.0
24182554,0,-0.0,-0.0,0.0,0.21005917,0.0,1.0,0.0,0.0
24282142,0,-0.0,-0.0,0.0,0.2495069,0.0,1.0,0.0,0.0
24406144,0,-0.0,-0.0,0.0,0.2514793,0.0,1.0,0.0,0.0
24486141,0,-0.0,-0.0,0.0,0.2495069,0.0,1.0,0.0,0.0
24602143,0,-0.0,-0.0,0.0,0.2514793,0.0,1.0,0.0,0.0
24618142,0,-0.0,-0.0,0.0,0.2495069,0.0,1.0,0.0,0.0
24806617,0,-0.0,-0.0,0.0,0.2495069,0.0,1.0,0.0,0.0
24890143,0,-0.0,-0.0,0.0,0.2514793,0.0,1.0,0.0,0.0
24998335,0,-0.0,-0.0,0.0,0.2514793,0.0,1.0,0.0,0.0
25110141,0,-0.0,-0.0,0.0,0.2514793,0.0,1.0,0.0,0.0
25186142,0,-0.0,-0.0,0.0,0.2495069,0.0,1.0,0.0,0.0
25286278,0,-0.0,-0.0,0.0,0.2495069,0.0,1.0,0.0,0.0
25374143,0,-0.0,-0.0,0.0,0.2495069,0.0,1.0,0.0,0.0
25494162,0,-0.0,-0.0,0.0,0.22781065,0.0,1.0,0.0,0.0
25598144,0,-0.0,-0.0,0.0,0.22781065,0.0,1.0,0.0,0.0
25682152,0,-0.0,-0.0,0.0,0.22781065,0.0,1.0,0.0,0.0
25790143,0,-0.0,-0.0,0.0,0.22781065,0.0,1.0,0.0,0.0
25906393,0,-0.0,-0.0,0.0,0.22781065,0.0,1.0,0.0,0.0
26007030,0,-0.0,-0.0,0.0,0.22781065,0.0,1.0,0.0,0.0
26098142,0,-0.0,-0.0,0.0,0.22682446,0.0,1.0,0.0,0.0
26202144,0,-0.0,-0.0,0.0,0.22287968,0.0,1.0,0.0,0.0
26306143,0,-0.0,-0.0,0.0,0.22189349,0.0,1.0,0.0,0.0
26406253,0,-0.0,-0.0,0.0,0.2199211,0.0,1.0,0.0,0.0
26490144,0,-0.0,-0.0,0.0,0.2199211,0.0,1.0,0.0,0.0
26594142,0,-0.0,-0.0,0.0,0.2199211,0.0,1.0,0.0,0.0
26702141,0,-0.0,-0.0,0.0,0.2199211,0.0,1.0,0.0,0.0
26770256,0,-0.0,-0.0,0.0,0.2199211,0.0,1.0,0.0,0.0
26834141,0,-0.0,-0.0,0.0,0.2199211,0.0,1.0,0.0,0.0
27002141,0,-0.0,-0.0,0.0,0.2199211,0.0,1.0,0.0,0.0
27066142,0,-0.0,-0.0,0.0,0.2199211,0.0,1.0,0.0,0.0
27270496,0,-0.0,-0.0,0.0,0.2199211,0.0,1.0,0.0,0.0
27298144,0,-0.0,-0.0,0.0,0.2199211,0.0,1.0,0.0,0.0
27382142,0,-0.0,-0.0,0.0,0.2199211,0.0,1.0,0.0,0.0
27470290,0,-0.0,-0.0,0.0,0.2199211,0.0,1.0,0.0,0.0
27598142,0,-0.0,-0.0,0.0,0.2199211,0.0,1.0,0.0,0.0
27710143,0,-0.0,-0.0,0.0,0.2199211,0.0,1.0,0.0,0.0
27782160,0,-0.0,-0.0,0.0,0.2199211,0.0,1.0,0.0,0.0
27894164,0,-0.0,-0.0,0.0,0.2199211,0.0,1.0,0.0,0.0
27934186,0,-0.0,-0.0,0.0,0.2199211,0.0,1.0,0.0,0.0
28102141,0,-0.0,-0.0,0.0,0.2199211,0.0,1.0,0.0,0.0
28206290,0,-0.0,-0.0,0.0,0.2199211,0.0,1.0,0.0,0.0
28306321,0,-0.0,-0.0,0.0,0.2199211,0.0,1.0,0.0,0.0
28382141,0,-0.0,-0.0,0.0,0.2199211,0.0,1.0,0.0,0.0
28474602,0,-0.0,-0.0,0.0,0.2199211,0.0,1.0,0.0,0.0
28606255,0,-0.0,-0.0,0.0,0.2199211,0.0,1.0,0.0,0.0
28706169,0,-0.0,-0.0,0.0,0.2199211,0.0,1.0,0.0,0.0
28802480,0,-0.0,-0.0,0.0,0.2199211,0.0,1.0,0.0,0.0
28846160,0,-0.0,-0.0,0.0,0.2199211,0.0,1.0,0.0,0.0
28994254,0,-0.0,-0.0,0.0,0.2199211,0.0,1.0,0.0,0.0
29090526,0,-0.0,-0.0,0.0,0.2199211,0.0,1.0,0.0,0.0
29202142,0,-0.0,-0.0,0.0,0.2199211,0.0,1.0,0.0,0.0
29294177,0,-0.0,-0.0,0.0,0.2199211,0.0,1.0,0.0,0.0
29406165,0,-0.0,-0.0,0.0,0.2199211,0.0,1.0,0.0,0.0
29506141,0,-0.0,-0.0,0.0,0.2199211,0.0,1.0,0.0,0.0
29602144,0,-0.0,-0.0,0.0,0.2199211,0.0,1.0,0.0,0.0
29702145,0,-0.0,-0.0,0.0,0.2199211,0.0,1.0,0.0,0.0
29758142,0,-0.0,-0.0,0.0,0.2199211,0.0,1.0,0.0,0.0
29898407,0,-0.0,-0.0,0.0,0.2199211,0.0,1.0,0.0,0.0
29974144,0,-0.0,-0.0,0.0,0.2199211,0.0,1.0,0.0,0.0
30050283,0,-0.0,-0.0,0.0,0.2199211,0.0,1.0,0.0,0.0
30170143,0,-0.0,-0.0,0.0,0.2199211,0.0,1.0,0.0,0.0
30290493,0,-0.0,-0.0,0.0,0.2199211,0.0,1.0,0.0,0.0
30390158,0,-0.0,-0.0,0.0,0.2199211,0.0,1.0,0.0,0.0
30502765,0,-0.0,-0.0,0.0,0.2199211,0.0,1.0,0.0,0.0
30598370,0,-0.0,-0.0,0.0,0.2199211,0.0,1.0,0.0,0.0
30710143,0,-0.0,-0.0,0.0,0.2199211,0.0,1.0,0.0,0.0
30802143,0,-0.0,-0.0,0.0,0.2199211,0.0,1.0,0.0,0.0
30894141,0,-0.0,-0.0,0.0,0.2199211,0.0,1.0,0.0,0.0
31006141,0,-0.0,-0.0,0.0,0.2199211,0.0,1.0,0.0,0.0
31090143,0,-0.0,-0.0,0.0,0.2199211,0.0,1.0,0.0,0.0
31194153,0,-0.0,-0.0,0.0,0.2199211,0.0,1.0,0.0,0.0
31306142,0,-0.0,-0.0,0.0,0.2199211,0.0,1.0,0.0,0.0
31406142,0,-0.0,-0.0,0.0,0.2199211,0.0,1.0,0.0,0.0
31482141,0,-0.0,-0.0,0.0,0.2199211,0.0,1.0,0.0,0.0
31602432,0,-0.0,-0.0,0.0,0.2199211,0.0,1.0,0.0,0.0
31734142,0,-0.0,-0.0,0.0,0.2199211,0.0,1.0,0.0,0.0
31782320,0,-0.0,-0.0,0.0,0.2199211,0.0,1.0,0.0,0.0
31902355,0,-0.0,-0.0,0.0,0.2199211,0.0,1.0,0.0,0.0
31994141,0,-0.0,-0.0,0.0,0.2199211,0.0,1.0,0.0,0.0
32070144,0,-0.0,-0.0,0.0,0.2199211,0.0,1.0,0.0,0.0
32190317,0,-0.0,-0.0,0.0,0.2199211,0.0,1.0,0.0,0.0
32290165,0,-0.0,-0.0,0.0,0.2199211,0.0,1.0,0.0,0.0
32394488,0,-0.0,-0.0,0.0,0.2199211,0.0,1.0,0.0,0.0
32498142,0,-0.0,-0.0,0.0,0.2199211,0.0,1.0,0.0,0.0
32582143,0,-0.0,-0.0,0.0,0.2199211,0.0,1.0,0.0,0.0
32674142,0,-0.0,-0.0,0.0,0.2199211,0.0,1.0,0.0,0.0
32750227,0,-0.0,-0.0,0.0,0.2199211,0.0,1.0,0.0,0.0
32906145,0,-0.0,-0.0,0.0,0.2199211,0.0,1.0,0.0,0.0
33010143,0,-0.0,-0.0,0.0,0.2199211,0.0,1.0,0.0,0.0
33110142,0,-0.0,-0.0,0.0,0.2199211,0.0,1.0,0.0,0.0
33202141,0,-0.0,-0.0,0.0,0.2199211,0.0,1.0,0.0,0.0
33258249,0,-0.0,-0.0,0.0,0.2199211,0.0,1.0,0.0,0.0
33398142,0,-0.0,-0.0,0.0,0.2199211,0.0,1.0,0.0,0.0
33486143,0,-0.0,-0.0,0.0,0.2199211,0.0,1.0,0.0,0.0
33606143,0,-0.0,-0.0,0.0,0.2199211,0.0,1.0,0.0,0.0
33706142,0,-0.0,-0.0,0.0,0.2199211,0.0,1.0,0.0,0.0
33802142,0,-0.0,-0.0,0.0,0.2199211,0.0,1.0,0.0,0.0
33902327,0,-0.0,-0.0,0.0,0.2199211,0.0,1.0,0.0,0.0
33994444,0,-0.0,-0.0,0.0,0.2199211,0.0,1.0,0.0,0.0
34070142,0,-0.0,-0.0,0.0,0.2199211,0.0,1.0,0.0,0.0
34210154,0,-0.0,-0.0,0.0,0.2199211,0.0,1.0,0.0,0.0
34274173,0,-0.0,-0.0,0.0,0.2199211,0.0,1.0,0.0,0.0
34398143,0,-0.0,-0.0,0.0,0.2495069,0.0,1.0,0.0,0.0
34506141,0,-0.0,-0.0,0.0,0.27317554,0.0,1.0,0.0,0.0
34594144,0,-0.0,-0.0,0.0,0.2919132,0.0,1.0,0.0,0.0
34706145,0,-0.0,-0.0,0.0,0.31163707,0.0,1.0,0.0,0.0
34798164,0,-0.0,-0.0,0.0,0.31360948,0.0,1.0,0.0,0.0
34910699,0,-0.0,-0.0,0.0,0.33431953,0.0,1.0,0.0,0.0
34966142,0,-0.0,-0.0,0.0,0.3372781,0.0,1.0,0.0,0.0
35102305,0,-0.0,-0.0,0.0,0.35207102,0.0,1.0,0.0,0.0
35206141,0,-0.0,-0.0,0.0,0.35502958,0.0,1.0,0.0,0.0
35290143,0,-0.0,-0.0,0.0,0.35700196,0.0,1.0,0.0,0.0
35410368,0,-0.0,-0.0,0.0,0.3816568,0.0,1.0,0.0,0.0
35502140,0,-0.0,-0.0,0.0,0.40433925,0.0,1.0,0.0,0.0
35606141,0,-0.0,-0.0,0.0,0.42307693,0.0,1.0,0.0,0.0
35702166,0,-0.0,-0.0,0.0,0.42702168,0.0,1.0,0.0,0.0
35802174,0,-0.0,-0.0,0.0,0.4398422,0.0,1.0,0.0,0.0
35906145,0,-0.0,-0.0,0.0,0.4684418,0.0,1.0,0.0,0.0
35998143,0,-0.0,-0.0,0.0,0.51775146,0.0,1.0,0.0,0.0
36110439,0,-0.0,-0.0,0.0,0.59270215,0.0,1.0,0.0,0.0
36202473,0,-0.0,-0.0,0.0,0.62426037,0.0,1.0,0.0,0.0
36306142,0,-0.0,-0.0,0.0,0.64595664,0.0,1.0,0.0,0.0
36390144,0,-0.0,-0.0,0.0,0.66863906,0.0,1.0,0.0,0.0
36502143,0,-0.0,-0.0,0.0,0.6804734,0.0,1.0,0.0,0.0
36602142,0,-0.0,-0.0,0.0,0.71597636,0.0,1.0,0.0,0.0
36690144,0,-0.0,-0.0,0.0,0.7495069,0.0,1.0,0.0,0.0
36790144,0,-0.0,-0.0,0.0,0.75936884,0.0,1.0,0.0,0.0
36902143,0,-0.0,-0.0,0.0,0.77120316,0.0,1.0,0.0,0.0
37002142,0,-0.0,-0.0,0.0,0.7928994,0.0,1.0,0.0,0.0
37090388,0,-0.0,-0.0,0.0,0.83136094,0.0,1.0,0.0,0.0
37210142,0,-0.0,-0.0,0.0,0.88757396,0.0,1.0,0.0,0.0
37294145,0,-0.0,-0.0,0.0,0.9161736,0.0,1.0,0.0,0.0
37406152,0,-0.0,-0.0,-0.03187251,0.9664694,0.0,1.0,0.0,0.0
37490143,0,-0.0,-0.0,-0.043824703,0.9861933,0.0,1.0,0.0,0.0
37590239,0,-0.0,-0.0,-0.017928287,1.0,0.0,1.0,0.0,0.0
37702163,0,-0.0,-0.0,-0.007968128,1.0,0.0,1.0,0.0,0.0
37798413,0,-0.0,-0.0,-0.0996016,1.0,0.0,1.0,0.0,0.0
37910142,0,-0.0,-0.0,-0.0996016,1.0,0.0,1.0,0.0,0.0
37998254,0,-0.0,-0.0,-0.097609565,1.0,0.0,1.0,0.0,0.0
38094142,0,-0.0,-0.0,-0.1494024,1.0,0.0,1.0,0.0,0.0
38194142,0,-0.0,-0.0,-0.21513945,1.0,0.0,1.0,0.0,0.0
38306141,0,-0.0,-0.0,-0.16733068,1.0,0.0,1.0,0.0,0.0
38410466,0,-0.0,-0.0,-0.109561756,1.0,0.0,1.0,0.0,0.0
38502220,0,-0.0,-0.0,-0.1374502,1.0,0.0,1.0,0.0,0.0
38606150,0,-0.0,-0.0,-0.07968128,1.0,0.0,1.0,0.0,0.0
38710270,0,-0.0,-0.0,-0.035856575,1.0,0.0,1.0,0.0,0.0
38790453,0,-0.0,-0.0,0.0,1.0,0.0,1.0,0.0,0.0
38906280,0,-0.0,-0.0,-0.01992032,1.0,0.0,1.0,0.0,0.0
38998143,0,-0.0,-0.0,-0.01992032,1.0,0.0,1.0,0.0,0.0
39090144,0,-0.0,-0.0,0.0,1.0,0.0,1.0,0.0,0.0
39190143,0,-0.0,-0.0,0.0,1.0,0.0,1.0,0.0,0.0
39294164,0,-0.0,-0.0,0.0,1.0,0.0,1.0,0.0,0.0
39406142,0,-0.0,-0.0,0.0,1.0,0.0,1.0,0.0,0.0
39498143,0,-0.0,-0.0,0.001992032,1.0,0.0,1.0,0.0,0.0
39594142,0,-0.0,-0.0,0.007968128,1.0,0.0,1.0,0.0,0.0
39686143,0,-0.0,-0.0,0.003984064,1.0,0.0,1.0,0.0,0.0
39806141,0,-0.0,-0.0,0.0,1.0,0.0,1.0,0.0,0.0
39898143,0,-0.0,-0.0,0.0,1.0,0.0,1.0,0.0,0.0
40002141,0,-0.0,-0.0,0.0,1.0,0.0,1.0,0.0,0.0
40098157,0,-0.0,-0.0,0.0,1.0,0.0,1.0,0.0,0.0
40198166,0,-0.0,-0.0,0.017928287,1.0,0.0,1.0,0.0,0.0
40282141,0,-0.0,-0.0,0.06374502,1.0,0.0,1.0,0.0,0.0
40386143,0,-0.0,-0.0,0.06374502,1.0,0.0,1.0,0.0,0.0
40506497,0,-0.0,-0.003984064,0.0,1.0,0.0,1.0,0.0,0.0
40606941,0,0.045725647,-0.14143427,0.0,0.9980276,0.0,1.0,0.0,0.0
40710142,0,-0.0,-0.065737054,0.0,0.995069,0.0,1.0,0.0,0.0
40806460,0,-0.0,-0.023904383,0.0,0.995069,0.0,1.0,0.0,0.0
40890185,0,-0.0,-0.0,0.0,0.9723866,0.0,1.0,0.0,0.0
41006142,0,-0.0,-0.0,0.0,0.9122288,0.0,1.0,0.0,0.0
41102143,0,0.015904572,-0.0,0.0,0.89053255,0.0,1.0,0.0,0.0
41202633,0,0.085487075,-0.0,0.0,0.89053255,0.0,1.0,0.0,0.0
41306181,0,0.04771372,-0.0,0.0,0.8747535,0.0,1.0,0.0,0.0
41410143,0,0.013916501,-0.0139442235,0.0,0.8530572,0.0,1.0,0.0,0.0
41510177,0,-0.0,-0.055776894,0.0,0.8165681,0.0,1.0,0.0,0.0
41606157,0,-0.0,-0.0498008,0.0,0.74556214,0.0,1.0,0.0,0.0
41698143,0,-0.0,-0.0,0.0,0.7051282,0.0,1.0,0.0,0.0
41782141,0,-0.0,-0.0,0.0,0.6725838,0.0,1.0,0.0,0.0
41910141,0,0.041749503,-0.06374502,0.011952192,0.6725838,0.0,1.0,0.0,0.0
42006143,0,0.07355865,-0.117529884,0.07171315,0.71203154,0.0,1.0,0.0,0.0
42106142,0,0.05367793,-0.12151395,0.067729086,0.71301776,0.0,1.0,0.0,0.0
42210303,0,-0.0,-0.0,0.0,0.71597636,0.0,1.0,0.0,0.0
42302143,0,-0.0,0.047808766,0.0,0.64299804,0.0,1.0,0.0,0.0
42406143,0,0.15904573,0.18326694,0.13346614,0.5493097,0.0,1.0,0.0,0.0
42506141,0,0.07554672,0.067729086,0.109561756,0.5473373,0.0,1.0,0.0,0.0
42602143,0,0.06560636,0.047808766,0.047808766,0.50788957,0.0,1.0,0.0,0.0
42706145,0,0.11332008,0.06972112,0.07171315,0.50788957,0.0,1.0,0.0,0.0
42806892,0,0.077534795,0.10159363,0.08167331,0.50788957,0.0,1.0,0.0,0.0
42910283,0,0.055666003,0.21314742,-0.003984064,0.47140038,0.0,1.0,0.0,0.0
43002142,0,-0.0,0.09163347,0.0,0.4733728,0.0,1.0,0.0,0.0
43106430,0,0.041749503,0.087649405,0.09561753,0.5167653,0.0,1.0,0.0,0.0
43206256,0,0.03777336,0.12350598,0.08167331,0.5187377,0.0,1.0,0.0,0.0
43310144,0,0.019880716,0.1374502,0.015936255,0.4566075,0.0,1.0,0.0,0.0
43402146,0,0.017892644,0.087649405,0.035856575,0.44871795,0.0,1.0,0.0,0.0
43478144,0,-0.0,0.035856575,0.07569721,0.44871795,0.0,1.0,0.0,0.0
43598152,0,-0.0,0.0936255,0.027888447,0.44773176,0.0,1.0,0.0,0.0
43702144,0,0.005964215,0.035856575,0.0,0.44773176,0.0,1.0,0.0,0.0
43810141,0,-0.0,-0.0,0.03984064,0.44773176,0.0,1.0,0.0,0.0
43898142,0,-0.0,-0.0,0.13147411,0.46351084,0.0,1.0,0.0,0.0
44006142,0,0.013916501,0.033864543,0.119521916,0.46646944,0.0,1.0,0.0,0.0
44098140,0,0.033797216,0.06374502,0.119521916,0.46745563,0.0,1.0,0.0,0.0
44202143,0,0.029821074,0.0936255,0.13147411,0.469428,0.0,1.0,0.0,0.0
44306142,0,0.077534795,0.107569724,0.13545817,0.469428,0.0,1.0,0.0,0.0
44398189,0,-0.0,0.043824703,0.12350598,0.469428,0.0,1.0,0.0,0.0
44494142,0,0.013916501,-0.0,0.10159363,0.469428,0.0,1.0,0.0,0.0
44602310,0,-0.0,-0.0,0.15936255,0.469428,0.0,1.0,0.0,0.0
44706143,0,-0.0,-0.0,0.16334662,0.4733728,0.0,1.0,0.0,0.0
44806142,0,-0.0,0.04183267,0.11155379,0.438856,0.0,1.0,0.0,0.0
44894142,0,-0.0,0.05179283,0.1494024,0.44970414,0.0,1.0,0.0,0.0
45006142,0,0.005964215,0.05179283,0.15139443,0.44970414,0.0,1.0,0.0,0.0
45098142,0,0.0019880715,0.08366534,0.22709164,0.46153846,0.0,1.0,0.0,0.0
45210142,0,0.015904572,0.029880479,0.28286853,0.48422092,0.0,1.0,0.0,0.0
45302143,0,0.009940358,-0.0,0.26494023,0.4871795,0.0,1.0,0.0,0.0
45406167,0,-0.0,-0.0,0.07370518,0.4871795,0.0,1.0,0.0,0.0
45506143,0,-0.0,-0.0,0.0,0.47534516,0.0,1.0,0.0,0.0
45602143,0,-0.0,-0.0,-0.07370518,0.46252465,0.0,1.0,0.0,0.0
45710142,0,-0.0,-0.0,-0.029880479,0.46153846,0.0,1.0,0.0,0.0
45806290,0,-0.0,-0.0,-0.07569721,0.4733728,0.0,1.0,0.0,0.0
45898169,0,-0.0,-0.0,0.0,0.4861933,0.0,1.0,0.0,0.0
46002142,0,-0.0,-0.0,0.0,0.50591713,0.0,1.0,0.0,0.0
46110145,0,-0.0,-0.0,0.0,0.46252465,0.0,1.0,0.0,0.0
46206185,0,-0.007984032,-0.0,-0.09561753,0.44970414,0.0,1.0,0.0,0.0
46310142,0,-0.013972056,-0.0,-0.07968128,0.45857987,0.0,1.0,0.0,0.0
46402430,0,-0.013972056,-0.0,0.0,0.47140038,0.0,1.0,0.0,0.0
46502464,0,-0.0,-0.0,0.0,0.48027614,0.0,1.0,0.0,0.0
46606142,0,-0.0,-0.0,0.0,0.48126233,0.0,1.0,0.0,0.0
46706141,0,-0.0,-0.0,0.01992032,0.45759368,0.0,1.0,0.0,0.0
46810212,0,-0.01996008,-0.0,0.0,0.43096647,0.0,1.0,0.0,0.0
46906142,0,-0.1736527,-0.0,0.0,0.44871795,0.0,1.0,0.0,0.0
47006141,0,-0.2275449,-0.0,-0.057768926,0.46252465,0.0,1.0,0.0,0.0
47110144,0,-0.17964073,-0.0,-0.17529881,0.46548325,0.0,1.0,0.0,0.0
47202143,0,-0.12774451,-0.0,-0.07171315,0.51282054,0.0,1.0,0.0,0.0
47306143,0,-0.077844314,-0.0,-0.06374502,0.5502958,0.0,1.0,0.0,0.0
47398142,0,-0.0499002,-0.0,-0.07171315,0.5897436,0.0,1.0,0.0,0.0
47510144,0,-0.0499002,-0.0,-0.067729086,0.58185405,0.0,1.0,0.0,0.0
47603056,0,-0.14570858,-0.0,-0.0936255,0.50788957,0.0,1.0,0.0,0.0
47706157,0,-0.17764471,-0.0,-0.13147411,0.50788957,0.0,1.0,0.0,0.0
47806143,0,-0.18163672,-0.0,-0.23306774,0.48816568,0.0,1.0,0.0,0.0
47902425,0,-0.18562874,-0.0,-0.27689242,0.50788957,0.0,1.0,0.0,0.0
48010142,0,-0.12175649,0.027888447,-0.13346614,0.54043394,0.0,1.0,0.0,0.0
48106143,0,-0.031936128,0.055776894,-0.12749004,0.5424063,0.0,1.0,0.0,0.0
48206141,0,-0.033932135,0.053784862,-0.16932271,0.5424063,0.0,1.0,0.0,0.0
48302203,0,-0.103792414,0.025896415,-0.043824703,0.58481264,0.0,1.0,0.0,0.0
48410141,0,-0.059880238,0.029880479,-0.045816734,0.5877712,0.0,1.0,0.0,0.0
48506143,0,-0.077844314,-0.0,-0.055776894,0.5996055,0.0,1.0,0.0,0.0
48598157,0,-0.11377245,-0.0,-0.16733068,0.5996055,0.0,1.0,0.0,0.0
48710143,0,-0.119760476,-0.0,-0.18326694,0.56607497,0.0,1.0,0.0,0.0
48802142,0,-0.119760476,-0.0,-0.17330678,0.5532544,0.0,1.0,0.0,0.0
48906146,0,-0.059880238,-0.0,-0.067729086,0.55226827,0.0,1.0,0.0,0.0
48998142,0,-0.0,-0.0,0.0,0.55226827,0.0,1.0,0.0,0.0
49110142,0,-0.0,-0.0,0.03984064,0.5325444,0.0,1.0,0.0,0.0
49206143,0,-0.0,-0.0,0.03984064,0.49309665,0.0,1.0,0.0,0.0
49306143,0,-0.03992016,0.003984064,-0.07171315,0.43392506,0.0,1.0,0.0,0.0
49410935,0,-0.027944112,-0.0,-0.16733068,0.43195266,0.0,1.0,0.0,0.0
49494143,0,-0.0,-0.0,-0.187251,0.44378698,0.0,1.0,0.0,0.0
49602140,0,-0.0,-0.0,-0.067729086,0.50788957,0.0,1.0,0.0,0.0
49706175,0,-0.0,-0.0,-0.03187251,0.5108481,0.0,1.0,0.0,0.0
49802143,0,-0.0,-0.0,0.0,0.51282054,0.0,1.0,0.0,0.0
49910891,0,-0.0,-0.0,0.0,0.49506903,0.0,1.0,0.0,0.0
50006142,0,-0.013972056,-0.0,-0.14741036,0.49112427,0.0,1.0,0.0,0.0
50106141,0,-0.12974052,-0.0,-0.16733068,0.50591713,0.0,1.0,0.0,0.0
50202518,0,-0.1497006,-0.0,-0.16334662,0.50591713,0.0,1.0,0.0,0.0
50302163,0,-0.12774451,0.001992032,-0.17928287,0.45759368,0.0,1.0,0.0,0.0
50406143,0,-0.06986028,0.047808766,-0.19521913,0.37278107,0.0,1.0,0.0,0.0
50510144,0,-0.0,0.053784862,-0.03984064,0.42209074,0.0,1.0,0.0,0.0
50610176,0,-0.025948104,0.029880479,-0.25298804,0.41025642,0.0,1.0,0.0,0.0
50702141,0,-0.15369262,0.025896415,-0.35059762,0.40927023,0.0,1.0,0.0,0.0
50806246,0,-0.14570858,-0.0,-0.29083666,0.40729782,0.0,1.0,0.0,0.0
50906142,0,-0.16367266,-0.0,-0.3007968,0.4852071,0.0,1.0,0.0,0.0
51002142,0,-0.13373253,-0.0,-0.29681274,0.49605522,0.0,1.0,0.0,0.0
51106142,0,-0.18363273,0.017928287,-0.26693228,0.49605522,0.0,1.0,0.0,0.0
51206142,0,-0.23353294,-0.0,-0.34063745,0.47435898,0.0,1.0,0.0,0.0
51310141,0,-0.29740518,-0.0,-0.45418328,0.46153846,0.0,1.0,0.0,0.0
51402357,0,-0.29740518,-0.0,-0.53386456,0.44970414,0.0,1.0,0.0,0.0
51506162,0,-0.28143713,-0.0,-0.51195216,0.44970414,0.0,1.0,0.0,0.0
51606142,0,-0.24550898,-0.0,-0.35458168,0.44970414,0.0,1.0,0.0,0.0
51710144,0,-0.093812376,-0.0,-0.18326694,0.46153846,0.0,1.0,0.0,0.0
51802142,0,0.099403575,-0.0,0.0,0.46153846,0.0,1.0,0.0,0.0
51906145,0,0.16699801,-0.0,0.0,0.46153846,0.0,1.0,0.0,0.0
52006143,0,0.16699801,-0.0,0.06175299,0.45857987,0.0,1.0,0.0,0.0
52102142,0,0.049701788,0.003984064,0.10358566,0.4556213,0.0,1.0,0.0,0.0
52210178,0,-0.0,-0.0,0.0,0.4408284,0.0,1.0,0.0,0.0
52306156,0,0.15705766,-0.0,0.11155379,0.45266274,0.0,1.0,0.0,0.0
52406141,0,0.17296223,-0.0,0.07569721,0.44378698,0.0,1.0,0.0,0.0
52502143,0,0.14910537,-0.0,0.087649405,0.44378698,0.0,1.0,0.0,0.0
52610157,0,0.42345923,-0.0,0.097609565,0.44378698,0.0,1.0,0.0,0.0
52706142,0,0.31809145,0.001992032,0.05179283,0.4684418,0.0,1.0,0.0,0.0
52806143,0,0.27037773,-0.0,0.055776894,0.4418146,0.0,1.0,0.0,0.0
52902143,0,0.18489066,-0.0,0.015936255,0.43293884,0.0,1.0,0.0,0.0
53002141,0,0.055666003,-0.0,0.0,0.41025642,0.0,1.0,0.0,0.0
53094140,0,-0.0,-0.0,-0.003984064,0.40039447,0.0,1.0,0.0,0.0
53206143,0,-0.037924152,-0.0,0.0,0.40039447,0.0,1.0,0.0,0.0
53310143,0,-0.21357286,-0.0,0.0,0.40039447,0.0,1.0,0.0,0.0
53406142,0,-0.28742516,-0.0,0.0,0.40039447,0.0,1.0,0.0,0.0
53506174,0,-0.103792414,-0.007968128,0.0,0.40039447,0.0,1.0,0.0,0.0
53610285,0,-0.1736527,-0.0,-0.021912351,0.39940828,0.0,1.0,0.0,0.0
53702421,0,-0.33932135,-0.0,-0.023904383,0.39940828,0.0,1.0,0.0,0.0
53806165,0,-0.33732533,-0.0,-0.011952192,0.40039447,0.0,1.0,0.0,0.0
53898143,0,-0.21357286,-0.0,-0.011952192,0.40039447,0.0,1.0,0.0,0.0
54010143,0,-0.3013972,-0.0,-0.011952192,0.40039447,0.0,1.0,0.0,0.0
54110141,0,-0.33333334,-0.0,-0.003984064,0.40039447,0.0,1.0,0.0,0.0
54207476,0,-0.4011976,-0.0,-0.0139442235,0.40039447,0.0,1.0,0.0,0.0
54306477,0,-0.48902196,-0.0,-0.12749004,0.40039447,0.0,1.0,0.0,0.0
54402142,0,-0.48902196,-0.0,-0.15737052,0.40039447,0.0,1.0,0.0,0.0
54502141,0,-0.45708582,-0.0,-0.187251,0.39940828,0.0,1.0,0.0,0.0
54606283,0,-0.49301398,-0.0,-0.26095617,0.39940828,0.0,1.0,0.0,0.0
54710143,0,-0.49301398,-0.0,-0.29681274,0.3984221,0.0,1.0,0.0,0.0
54810142,0,-0.43712574,-0.0,-0.29282868,0.39940828,0.0,1.0,0.0,0.0
54902141,0,-0.25948104,-0.0,-0.17330678,0.4289941,0.0,1.0,0.0,0.0
55006145,0,-0.19560878,-0.0,-0.17330678,0.469428,0.0,1.0,0.0,0.0
55106142,0,-0.1736527,-0.0,-0.15936255,0.4733728,0.0,1.0,0.0,0.0
55210142,0,-0.25948104,-0.003984064,-0.187251,0.47534516,0.0,1.0,0.0,0.0
55306592,0,-0.1257485,-0.015936255,-0.17131475,0.47140038,0.0,1.0,0.0,0.0
55406584,0,-0.13173653,-0.05179283,-0.15737052,0.46252465,0.0,1.0,0.0,0.0
55510214,0,-0.037924152,-0.0,-0.11354582,0.4398422,0.0,1.0,0.0,0.0
55594143,0,-0.043912176,-0.0,0.0,0.43786982,0.0,1.0,0.0,0.0
55706438,0,-0.0,-0.0,0.0,0.43589744,0.0,1.0,0.0,0.0
55790142,0,-0.0,-0.0,-0.007968128,0.42406312,0.0,1.0,0.0,0.0
55910142,0,-0.0,-0.0,-0.011952192,0.42209074,0.0,1.0,0.0,0.0
56002164,0,-0.01996008,-0.0,-0.08366534,0.40729782,0.0,1.0,0.0,0.0
56106186,0,-0.017964073,-0.05179283,-0.057768926,0.40631163,0.0,1.0,0.0,0.0
56206143,0,-0.1257485,-0.003984064,0.007968128,0.43589744,0.0,1.0,0.0,0.0
56302143,0,0.43141153,-0.023904383,0.13147411,0.44674557,0.0,1.0,0.0,0.0
56410141,0,0.5387674,-0.0,0.17928287,0.44970414,0.0,1.0,0.0,0.0
56506143,0,0.48906562,-0.0,0.17529881,0.45167652,0.0,1.0,0.0,0.0
56610348,0,0.21272366,-0.0,0.13545817,0.45167652,0.0,1.0,0.0,0.0
56702143,0,0.031809144,-0.0,0.07171315,0.45167652,0.0,1.0,0.0,0.0
56794243,0,-0.0,-0.0,0.0,0.42702168,0.0,1.0,0.0,0.0
56906172,0,-0.0,-0.0,0.0,0.4289941,0.0,1.0,0.0,0.0
57006143,0,-0.0,-0.0,0.04183267,0.43195266,0.0,1.0,0.0,0.0
57110141,0,0.033797216,-0.0,0.13147411,0.43392506,0.0,1.0,0.0,0.0
57202143,0,0.013916501,-0.0,0.12948208,0.43589744,0.0,1.0,0.0,0.0
57306144,0,0.029821074,-0.0,0.12350598,0.42406312,0.0,1.0,0.0,0.0
57406143,0,-0.0,-0.0,0.16334662,0.44871795,0.0,1.0,0.0,0.0
57502342,0,0.07355865,-0.0,0.16733068,0.47928995,0.0,1.0,0.0,0.0
57606142,0,0.055666003,-0.0,0.13147411,0.48027614,0.0,1.0,0.0,0.0
57706143,0,0.03777336,-0.025896415,0.047808766,0.4704142,0.0,1.0,0.0,0.0
57810142,0,0.017892644,-0.065737054,0.0,0.4704142,0.0,1.0,0.0,0.0
57886253,0,-0.0,-0.0,0.0,0.469428,0.0,1.0,0.0,0.0
58006143,0,-0.0,-0.0,0.00996016,0.43688363,0.0,1.0,0.0,0.0
58098143,0,-0.0,-0.0,0.027888447,0.40927023,0.0,1.0,0.0,0.0
58210142,0,0.019880716,-0.0,0.065737054,0.4122288,0.0,1.0,0.0,0.0
58302143,0,-0.0,-0.023904383,0.027888447,0.43786982,0.0,1.0,0.0,0.0
58406144,0,-0.0,-0.0,0.001992032,0.45759368,0.0,1.0,0.0,0.0
58506142,0,-0.0,-0.0,0.0,0.4556213,0.0,1.0,0.0,0.0
58602142,0,-0.0,-0.027888447,0.0,0.44378698,0.0,1.0,0.0,0.0
58710142,0,-0.0,-0.0,0.0,0.4398422,0.0,1.0,0.0,0.0
58806163,0,-0.0,-0.0,0.007968128,0.42209074,0.0,1.0,0.0,0.0
58910143,0,-0.0,-0.0,0.001992032,0.40729782,0.0,1.0,0.0,0.0
59010143,0,-0.16367266,0.043824703,-0.2310757,0.40433925,0.0,1.0,0.0,0.0
59102294,0,-0.13173653,-0.0,-0.2310757,0.40433925,0.0,1.0,0.0,0.0
59206144,0,-0.021956088,-0.0,-0.07569721,0.40039447,0.0,1.0,0.0,0.0
59306140,0,-0.0,-0.0,-0.047808766,0.40039447,0.0,1.0,0.0,0.0
59390143,0,-0.0,-0.0,0.0,0.41025642,0.0,1.0,0.0,0.0
59506142,0,-0.0,-0.0,0.0,0.41025642,0.0,1.0,0.0,0.0
59606143,0,-0.03992016,-0.0,-0.11155379,0.41025642,0.0,1.0,0.0,0.0
59710142,0,-0.063872255,-0.0,-0.23904383,0.41025642,0.0,1.0,0.0,0.0
59794142,0,-0.10978044,-0.0,-0.20717132,0.41025642,0.0,1.0,0.0,0.0
59906142,0,-0.14371258,-0.0,-0.17330678,0.41025642,0.0,1.0,0.0,0.0
60006215,0,-0.091816366,-0.0,-0.003984064,0.44773176,0.0,1.0,0.0,0.0
60110144,0,-0.0,-0.0,0.0,0.44970414,0.0,1.0,0.0,0.0
60202142,0,-0.0,-0.00996016,0.0,0.45167652,0.0,1.0,0.0,0.0
60306278,0,-0.0,-0.007968128,0.0,0.46745563,0.0,1.0,0.0,0.0
60406164,0,-0.017964073,-0.0,-0.001992032,0.469428,0.0,1.0,0.0,0.0
60502165,0,-0.017964073,-0.0,-0.011952192,0.4704142,0.0,1.0,0.0,0.0
60610141,0,-0.0,-0.03187251,0.0,0.5029586,0.0,1.0,0.0,0.0
60706144,0,0.029821074,-0.0,0.07370518,0.5029586,0.0,1.0,0.0,0.0
60810142,0,0.13916501,-0.0,0.19521913,0.50394475,0.0,1.0,0.0,0.0
60902531,0,0.119284295,-0.0,0.22509961,0.50394475,0.0,1.0,0.0,0.0
61010141,0,0.13121273,-0.0,0.2310757,0.50394475,0.0,1.0,0.0,0.0
61106142,0,0.18687873,-0.0,0.21513945,0.49211046,0.0,1.0,0.0,0.0
61206143,0,0.20477137,-0.0,0.17131475,0.4556213,0.0,1.0,0.0,0.0
61310341,0,0.22067595,-0.0,0.20318726,0.4566075,0.0,1.0,0.0,0.0
61406145,0,0.15705766,-0.0,0.25099602,0.45857987,0.0,1.0,0.0,0.0
61506142,0,0.11133201,-0.0,0.26294822,0.45857987,0.0,1.0,0.0,0.0
61602947,0,0.11332008,-0.0,0.24900399,0.45857987,0.0,1.0,0.0,0.0
61710142,0,0.035785288,-0.0,0.2370518,0.45759368,0.0,1.0,0.0,0.0
61806143,0,0.003976143,-0.0,0.12151395,0.4418146,0.0,1.0,0.0,0.0
61906142,0,-0.0,-0.0,0.045816734,0.43786982,0.0,1.0,0.0,0.0
62010144,0,-0.0,-0.0,0.011952192,0.42998028,0.0,1.0,0.0,0.0
62102292,0,-0.015968064,-0.0,0.0,0.42998028,0.0,1.0,0.0,0.0
62206142,0,-0.01996008,-0.0,0.0,0.42011833,0.0,1.0,0.0,0.0
62306142,0,-0.0,-0.0,0.0,0.43096647,0.0,1.0,0.0,0.0
62402143,0,-0.0,-0.0,0.0,0.43096647,0.0,1.0,0.0,0.0
62510142,0,-0.0,-0.0,0.023904383,0.4398422,0.0,1.0,0.0,0.0
62594142,0,-0.0,-0.0,0.11553785,0.4418146,0.0,1.0,0.0,0.0
62710145,0,-0.0,-0.0,0.077689245,0.44378698,0.0,1.0,0.0,0.0
62802142,0,-0.0,-0.0,0.0996016,0.45364892,0.0,1.0,0.0,0.0
62910142,0,-0.0,-0.0,0.00996016,0.4566075,0.0,1.0,0.0,0.0
62994140,0,-0.0,-0.0,0.0,0.44378698,0.0,1.0,0.0,0.0
63106142,0,-0.0,-0.0,0.0,0.4122288,0.0,1.0,0.0,0.0
63210142,0,-0.0,-0.0,0.0,0.4112426,0.0,1.0,0.0,0.0
63306143,0,-0.0,-0.0,-0.1434263,0.40138066,0.0,1.0,0.0,0.0
63406143,0,-0.0,-0.0,0.0,0.42209074,0.0,1.0,0.0,0.0
63482142,0,-0.0,-0.0,0.0,0.42011833,0.0,1.0,0.0,0.0
63610296,0,-0.0,-0.0,0.0,0.42307693,0.0,1.0,0.0,0.0
63706288,0,-0.0,-0.0,0.0,0.4260355,0.0,1.0,0.0,0.0
63806143,0,0.0019880715,-0.0,0.03984064,0.4260355,0.0,1.0,0.0,0.0
63902142,0,-0.0,-0.0,0.035856575,0.4260355,0.0,1.0,0.0,0.0
63994142,0,-0.0,-0.0,0.0,0.4260355,0.0,1.0,0.0,0.0
64106143,0,-0.007984032,-0.0,-0.027888447,0.41715977,0.0,1.0,0.0,0.0
64198144,0,-0.0,-0.0,0.0,0.4398422,0.0,1.0,0.0,0.0
64302508,0,-0.0,-0.0,0.04183267,0.4398422,0.0,1.0,0.0,0.0
64402192,0,-0.0,-0.0,0.10557769,0.4398422,0.0,1.0,0.0,0.0
64506143,0,-0.0,-0.0,0.17131475,0.4289941,0.0,1.0,0.0,0.0
64606142,0,-0.0,-0.0,0.15537849,0.42702168,0.0,1.0,0.0,0.0
64698142,0,-0.0,-0.0,0.08167331,0.42406312,0.0,1.0,0.0,0.0
64810205,0,-0.0,-0.0,0.017928287,0.40433925,0.0,1.0,0.0,0.0
64906461,0,-0.0,-0.0,0.0936255,0.40433925,0.0,1.0,0.0,0.0
65010143,0,-0.0,-0.0,0.12350598,0.40532544,0.0,1.0,0.0,0.0
65094154,0,-0.0,-0.0,0.119521916,0.40433925,0.0,1.0,0.0,0.0
65186143,0,-0.0,-0.0,0.12350598,0.40433925,0.0,1.0,0.0,0.0
65306141,0,-0.0,-0.0,0.12151395,0.40433925,0.0,1.0,0.0,0.0
65382143,0,-0.0,-0.0,0.12151395,0.40532544,0.0,1.0,0.0,0.0
65502484,0,-0.0,-0.0,0.13545817,0.40532544,0.0,1.0,0.0,0.0
65606654,0,-0.0,-0.0,0.15139443,0.40631163,0.0,1.0,0.0,0.0
65706509,0,-0.0,-0.0,0.15338646,0.41025642,0.0,1.0,0.0,0.0
65806498,0,-0.0,-0.0,0.15936255,0.42307693,0.0,1.0,0.0,0.0
65902144,0,-0.0,-0.0,0.087649405,0.41715977,0.0,1.0,0.0,0.0
66006233,0,-0.0,-0.043824703,0.023904383,0.40729782,0.0,1.0,0.0,0.0
66106385,0,-0.0,-0.03187251,0.0,0.41025642,0.0,1.0,0.0,0.0
66210142,0,-0.021956088,-0.015936255,-0.01992032,0.42209074,0.0,1.0,0.0,0.0
66302143,0,-0.017964073,-0.0,-0.023904383,0.43293884,0.0,1.0,0.0,0.0
66406143,0,-0.033932135,-0.005976096,-0.0498008,0.43293884,0.0,1.0,0.0,0.0
66506143,0,-0.037924152,-0.059760958,-0.19123507,0.43293884,0.0,1.0,0.0,0.0
66610164,0,-0.11377245,-0.037848607,-0.043824703,0.4733728,0.0,1.0,0.0,0.0
66710142,0,-0.063872255,-0.047808766,-0.09163347,0.4733728,0.0,1.0,0.0,0.0
66806144,0,-0.10978044,-0.0,-0.11354582,0.43786982,0.0,1.0,0.0,0.0
66906142,0,-0.093812376,-0.0,-0.07569721,0.438856,0.0,1.0,0.0,0.0
67002141,0,-0.045908183,-0.0,0.0,0.44871795,0.0,1.0,0.0,0.0
67110163,0,-0.1017964,-0.0,0.0,0.44871795,0.0,1.0,0.0,0.0
67206142,0,-0.3273453,-0.0,0.0,0.44871795,0.0,1.0,0.0,0.0
67310142,0,-0.41317365,-0.0,0.0,0.4595661,0.0,1.0,0.0,0.0
67390142,0,-0.43313372,-0.0,0.0,0.4595661,0.0,1.0,0.0,0.0
67506143,0,-0.35329342,-0.0,0.0,0.4595661,0.0,1.0,0.0,0.0
67606368,0,-0.00998004,-0.0,0.0,0.45857987,0.0,1.0,0.0,0.0
67702441,0,-0.0,-0.0,0.0,0.45857987,0.0,1.0,0.0,0.0
67802167,0,-0.0,-0.0,0.0,0.4595661,0.0,1.0,0.0,0.0
67874152,0,-0.0,-0.0,0.0,0.4595661,0.0,1.0,0.0,0.0
67990318,0,-0.0,-0.0,0.0,0.4595661,0.0,1.0,0.0,0.0
68102143,0,-0.0,-0.0,0.0,0.4595661,0.0,1.0,0.0,0.0
68202142,0,-0.0,-0.0,0.07968128,0.4595661,0.0,1.0,0.0,0.0
68302224,0,-0.0,-0.0,0.16135459,0.4595661,0.0,1.0,0.0,0.0
68398145,0,-0.0,-0.0,0.17529881,0.4595661,0.0,1.0,0.0,0.0
68502143,0,-0.0,-0.0,0.17928287,0.4595661,0.0,1.0,0.0,0.0
68582141,0,-0.0,-0.0,0.16533865,0.4595661,0.0,1.0,0.0,0.0
68686142,0,-0.0,-0.0,0.15139443,0.4595661,0.0,1.0,0.0,0.0
68806423,0,-0.0,-0.0,0.15338646,0.4595661,0.0,1.0,0.0,0.0
68902173,0,-0.0,-0.0,0.15537849,0.45857987,0.0,1.0,0.0,0.0
69010143,0,-0.0,-0.0,0.24900399,0.4595661,0.0,1.0,0.0,0.0
69106143,0,-0.0,-0.0,0.27689242,0.4595661,0.0,1.0,0.0,0.0
69210425,0,-0.0,-0.0,0.21513945,0.4595661,0.0,1.0,0.0,0.0
69294204,0,-0.0,-0.0,0.187251,0.4595661,0.0,1.0,0.0,0.0
69410141,0,-0.0,-0.0,0.0,0.45857987,0.0,1.0,0.0,0.0
69494143,0,-0.0,-0.0,0.0,0.45857987,0.0,1.0,0.0,0.0
69606140,0,-0.0,-0.0,-0.03187251,0.4398422,0.0,1.0,0.0,0.0
69710141,0,-0.0,-0.0,-0.06374502,0.4398422,0.0,1.0,0.0,0.0
69807241,0,-0.0,-0.0,-0.20318726,0.45266274,0.0,1.0,0.0,0.0
69906619,0,-0.0,-0.0,-0.17529881,0.4546351,0.0,1.0,0.0,0.0
70006598,0,-0.0,-0.0,-0.06175299,0.4546351,0.0,1.0,0.0,0.0
70110141,0,-0.0,-0.0,-0.011952192,0.4556213,0.0,1.0,0.0,0.0
70186426,0,-0.0,-0.0,0.0,0.4556213,0.0,1.0,0.0,0.0
70298144,0,-0.0,-0.0,-0.017928287,0.45364892,0.0,1.0,0.0,0.0
70410144,0,-0.0,-0.0,-0.017928287,0.43392506,0.0,1.0,0.0,0.0
70502303,0,-0.0,-0.0,-0.11155379,0.43195266,0.0,1.0,0.0,0.0
70598310,0,-0.0,-0.0,-0.14143427,0.43392506,0.0,1.0,0.0,0.0
70706250,0,-0.0,-0.0,-0.09163347,0.43392506,0.0,1.0,0.0,0.0
70810144,0,-0.0,-0.0,-0.001992032,0.43392506,0.0,1.0,0.0,0.0
70894144,0,-0.0,-0.0,0.0,0.43589744,0.0,1.0,0.0,0.0
71006159,0,-0.0,-0.0,0.0,0.44773176,0.0,1.0,0.0,0.0
71098166,0,-0.0,-0.0,0.0,0.44871795,0.0,1.0,0.0,0.0
71198140,0,-0.0,-0.0,0.0,0.44871795,0.0,1.0,0.0,0.0
71302143,0,-0.0,-0.0,0.0,0.44871795,0.0,1.0,0.0,0.0
71386190,0,-0.0,-0.0,0.0,0.44871795,0.0,1.0,0.0,0.0
71506143,0,-0.0,-0.0,0.0,0.44871795,0.0,1.0,0.0,0.0
71610200,0,-0.0,-0.0,0.0,0.44871795,0.0,1.0,0.0,0.0
71706432,0,-0.0,-0.0,-0.017928287,0.44773176,0.0,1.0,0.0,0.0
71806144,0,-0.0,-0.0,-0.047808766,0.43392506,0.0,1.0,0.0,0.0
71898164,0,-0.0,-0.0,0.0,0.43195266,0.0,1.0,0.0,0.0
72010143,0,-0.0,-0.0,0.0,0.43096647,0.0,1.0,0.0,0.0
72094142,0,-0.0,-0.0,0.0,0.43096647,0.0,1.0,0.0,0.0
72206144,0,-0.0,-0.0,0.0,0.4408284,0.0,1.0,0.0,0.0
72302419,0,-0.0,-0.0,0.0,0.45364892,0.0,1.0,0.0,0.0
72382144,0,-0.0,-0.0,0.0,0.4546351,0.0,1.0,0.0,0.0
72506143,0,-0.045908183,-0.0,-0.047808766,0.42209074,0.0,1.0,0.0,0.0
72606142,0,-0.0499002,-0.0,-0.07370518,0.3974359,0.0,1.0,0.0,0.0
72702142,0,-0.013972056,-0.0,-0.043824703,0.40828404,0.0,1.0,0.0,0.0
72795007,0,-0.0,-0.0,-0.04183267,0.40532544,0.0,1.0,0.0,0.0
72906144,0,-0.0,-0.0,-0.043824703,0.3974359,0.0,1.0,0.0,0.0
73010251,0,-0.0,-0.0,0.0,0.40828404,0.0,1.0,0.0,0.0
73102142,0,-0.0,-0.0,0.0,0.40927023,0.0,1.0,0.0,0.0
73210164,0,-0.0,-0.0,0.0,0.41025642,0.0,1.0,0.0,0.0
73298144,0,-0.0,-0.0,0.0,0.4289941,0.0,1.0,0.0,0.0
73410144,0,-0.0,-0.0,0.0,0.4289941,0.0,1.0,0.0,0.0
73494683,0,-0.0,-0.0,-0.067729086,0.4280079,0.0,1.0,0.0,0.0
73606266,0,-0.0,-0.0,-0.15338646,0.41420117,0.0,1.0,0.0,0.0
73706141,0,-0.0,-0.0,-0.117529884,0.40039447,0.0,1.0,0.0,0.0
73806146,0,-0.0,-0.0,-0.057768926,0.40039447,0.0,1.0,0.0,0.0
73910143,0,-0.0,-0.0,-0.035856575,0.41420117,0.0,1.0,0.0,0.0
74002168,0,-0.0,-0.0,0.0,0.4151874,0.0,1.0,0.0,0.0
74106144,0,-0.0,-0.0,0.005976096,0.41617358,0.0,1.0,0.0,0.0
74202145,0,-0.0,-0.0,0.077689245,0.41617358,0.0,1.0,0.0,0.0
74294144,0,-0.0,-0.0,0.17529881,0.43392506,0.0,1.0,0.0,0.0
74406145,0,0.01192843,-0.0,0.20517929,0.45167652,0.0,1.0,0.0,0.0
74506141,0,0.049701788,-0.0,0.21713148,0.46252465,0.0,1.0,0.0,0.0
74610144,0,0.045725647,-0.0,0.21513945,0.46548325,0.0,1.0,0.0,0.0
74694142,0,-0.0,-0.0,0.18525897,0.46548325,0.0,1.0,0.0,0.0
74806143,0,-0.0,-0.0,0.07569721,0.42702168,0.0,1.0,0.0,0.0
74906171,0,-0.0,-0.0,0.023904383,0.40335307,0.0,1.0,0.0,0.0
75002214,0,-0.0,-0.0,0.001992032,0.37278107,0.0,1.0,0.0,0.0
75094141,0,-0.0,-0.0,0.0,0.37278107,0.0,1.0,0.0,0.0
75206143,0,-0.0,-0.0,0.0,0.37278107,0.0,1.0,0.0,0.0
75310161,0,-0.0499002,-0.0,-0.0936255,0.40039447,0.0,1.0,0.0,0.0
75402142,0,-0.033932135,-0.0,-0.097609565,0.41814595,0.0,1.0,0.0,0.0
75510164,0,-0.0,-0.0,-0.09561753,0.41715977,0.0,1.0,0.0,0.0
75598153,0,-0.0,-0.0,-0.07370518,0.41420117,0.0,1.0,0.0,0.0
75702672,0,-0.0,-0.0,-0.023904383,0.4122288,0.0,1.0,0.0,0.0
75802601,0,-0.0,-0.0,-0.055776894,0.38560158,0.0,1.0,0.0,0.0
75906144,0,-0.0,-0.0,-0.037848607,0.38264298,0.0,1.0,0.0,0.0
75998143,0,-0.0,-0.0,-0.0498008,0.38264298,0.0,1.0,0.0,0.0
76082410,0,-0.0,-0.0,-0.119521916,0.36982247,0.0,1.0,0.0,0.0
76202770,0,-0.0,-0.0,-0.15338646,0.36094674,0.0,1.0,0.0,0.0
76306142,0,-0.0,-0.0,-0.043824703,0.3846154,0.0,1.0,0.0,0.0
76406146,0,-0.0,-0.0,-0.001992032,0.3974359,0.0,1.0,0.0,0.0
76502186,0,-0.0,-0.0,0.0,0.41025642,0.0,1.0,0.0,0.0
76607139,0,-0.0,-0.0,0.0,0.4122288,0.0,1.0,0.0,0.0
76702328,0,-0.0,-0.0,0.0,0.41420117,0.0,1.0,0.0,0.0
76806160,0,-0.0,-0.0,0.0,0.41420117,0.0,1.0,0.0,0.0
76902142,0,-0.0,-0.0,-0.06175299,0.39250493,0.0,1.0,0.0,0.0
76994142,0,-0.0,-0.0,-0.07968128,0.35897437,0.0,1.0,0.0,0.0
77078144,0,-0.0,-0.0,-0.03187251,0.36883628,0.0,1.0,0.0,0.0
77210142,0,-0.0,-0.0,0.0,0.36883628,0.0,1.0,0.0,0.0
77302167,0,-0.0,-0.0,0.0,0.40039447,0.0,1.0,0.0,0.0
77406653,0,-0.0,-0.0,0.0,0.41025642,0.0,1.0,0.0,0.0
77506381,0,-0.0,-0.0,0.0,0.3974359,0.0,1.0,0.0,0.0
77610142,0,-0.0,-0.0,0.0,0.38560158,0.0,1.0,0.0,0.0
77702143,0,-0.0,-0.0,0.0,0.36291912,0.0,1.0,0.0,0.0
77786358,0,-0.0,-0.0,0.0,0.35996056,0.0,1.0,0.0,0.0
77886144,0,-0.0,-0.0,0.0,0.35897437,0.0,1.0,0.0,0.0
77998268,0,-0.0,-0.0,0.0,0.35897437,0.0,1.0,0.0,0.0
78102143,0,-0.0,-0.0,-0.003984064,0.35897437,0.0,1.0,0.0,0.0
78178161,0,-0.0,-0.0,-0.01992032,0.35897437,0.0,1.0,0.0,0.0
78298144,0,-0.0,-0.0,-0.047808766,0.35897437,0.0,1.0,0.0,0.0
78402241,0,-0.0,-0.0,-0.059760958,0.41025642,0.0,1.0,0.0,0.0
78510142,0,-0.0,-0.007968128,-0.021912351,0.4418146,0.0,1.0,0.0,0.0
78606143,0,-0.0,-0.06374502,-0.011952192,0.44477317,0.0,1.0,0.0,0.0
78706143,0,-0.0,-0.027888447,0.0,0.44575936,0.0,1.0,0.0,0.0
78810673,0,-0.0,-0.0498008,0.0,0.4566075,0.0,1.0,0.0,0.0
78902162,0,-0.0,-0.06374502,0.0,0.48027614,0.0,1.0,0.0,0.0
79006145,0,-0.06986028,-0.005976096,-0.015936255,0.46548325,0.0,1.0,0.0,0.0
79106142,0,-0.093812376,-0.0,-0.119521916,0.42998028,0.0,1.0,0.0,0.0
79202143,0,-0.07984032,-0.023904383,-0.1434263,0.43096647,0.0,1.0,0.0,0.0
79310204,0,-0.08982036,-0.015936255,-0.15338646,0.44378698,0.0,1.0,0.0,0.0
79406143,0,-0.10778443,-0.007968128,-0.14741036,0.44575936,0.0,1.0,0.0,0.0
79510439,0,-0.07385229,-0.027888447,-0.15737052,0.46351084,0.0,1.0,0.0,0.0
79602326,0,-0.06986028,-0.007968128,-0.11354582,0.46548325,0.0,1.0,0.0,0.0
79710141,0,-0.07385229,-0.007968128,-0.15737052,0.4852071,0.0,1.0,0.0,0.0
79794611,0,-0.0499002,-0.007968128,-0.17330678,0.4852071,0.0,1.0,0.0,0.0
79906143,0,-0.08582834,-0.0,-0.16733068,0.4822485,0.0,1.0,0.0,0.0
80010141,0,-0.11776447,-0.0,-0.1812749,0.4595661,0.0,1.0,0.0,0.0
80106143,0,-0.16367266,-0.0,-0.1374502,0.46153846,0.0,1.0,0.0,0.0
80206163,0,-0.10978044,-0.0,-0.1374502,0.45167652,0.0,1.0,0.0,0.0
80306164,0,-0.051896207,-0.0,-0.11354582,0.45364892,0.0,1.0,0.0,0.0
80402142,0,-0.001996008,-0.0,-0.09163347,0.47534516,0.0,1.0,0.0,0.0
80506143,0,-0.0,-0.0,-0.05179283,0.47830376,0.0,1.0,0.0,0.0
80586141,0,-0.0,-0.0,-0.05179283,0.4990138,0.0,1.0,0.0,0.0
80710142,0,-0.0,-0.0,-0.0498008,0.5,0.0,1.0,0.0,0.0
80786187,0,-0.0,-0.0,-0.0139442235,0.50986195,0.0,1.0,0.0,0.0
80886303,0,-0.0,-0.0,0.0,0.5088757,0.0,1.0,0.0,0.0
81006234,0,-0.0,-0.0,0.0,0.5088757,0.0,1.0,0.0,0.0
81110143,0,0.19880715,-0.0,0.035856575,0.50788957,0.0,1.0,0.0,0.0
81202180,0,0.17097415,-0.0,0.11553785,0.49802762,0.0,1.0,0.0,0.0
81306143,0,0.11530815,-0.0,0.12749004,0.49506903,0.0,1.0,0.0,0.0
81406245,0,0.119284295,-0.0,0.047808766,0.4990138,0.0,1.0,0.0,0.0
81502143,0,0.10735586,-0.0,0.047808766,0.5009862,0.0,1.0,0.0,0.0
81610197,0,0.049701788,-0.00996016,0.035856575,0.49211046,0.0,1.0,0.0,0.0
81706142,0,0.055666003,-0.033864543,0.025896415,0.5009862,0.0,1.0,0.0,0.0
81810239,0,-0.0,-0.033864543,0.001992032,0.50394475,0.0,1.0,0.0,0.0
81902324,0,-0.0,-0.0,0.017928287,0.5147929,0.0,1.0,0.0,0.0
81986141,0,-0.0,-0.0,0.015936255,0.5147929,0.0,1.0,0.0,0.0
82106142,0,-0.0,-0.0,0.0,0.51282054,0.0,1.0,0.0,0.0
82198209,0,-0.0,-0.0,0.0,0.47830376,0.0,1.0,0.0,0.0
82302143,0,-0.0,-0.0,0.0,0.44773176,0.0,1.0,0.0,0.0
82406144,0,-0.07385229,-0.0,-0.12749004,0.44871795,0.0,1.0,0.0,0.0
82498144,0,-0.11377245,-0.0,-0.17330678,0.4595661,0.0,1.0,0.0,0.0
82602142,0,-0.14570858,-0.0,-0.17330678,0.48915187,0.0,1.0,0.0,0.0
82710141,0,-0.13173653,-0.0,-0.14741036,0.52071005,0.0,1.0,0.0,0.0
82786143,0,-0.13373253,-0.0,-0.17529881,0.53451675,0.0,1.0,0.0,0.0
82906310,0,-0.09580839,-0.0,-0.067729086,0.55719924,0.0,1.0,0.0,0.0
83010143,0,-0.07385229,-0.0,-0.045816734,0.53747535,0.0,1.0,0.0,0.0
83094143,0,-0.07385229,0.00996016,-0.043824703,0.53451675,0.0,1.0,0.0,0.0
83198144,0,-0.06986028,0.027888447,-0.04183267,0.5,0.0,1.0,0.0,0.0
83306141,0,-0.063872255,0.017928287,-0.027888447,0.4990138,0.0,1.0,0.0,0.0
83410143,0,-0.059880238,0.015936255,-0.027888447,0.4990138,0.0,1.0,0.0,0.0
83510141,0,-0.055888224,-0.0,-0.023904383,0.4990138,0.0,1.0,0.0,0.0
83598449,0,-0.0,-0.0,0.0,0.4990138,0.0,1.0,0.0,0.0
83710142,0,-0.0,-0.0,0.0,0.48816568,0.0,1.0,0.0,0.0
83794319,0,-0.0,0.007968128,0.001992032,0.4871795,0.0,1.0,0.0,0.0
83906143,0,-0.0,-0.0,0.055776894,0.48422092,0.0,1.0,0.0,0.0
84006149,0,0.033797216,-0.0,0.107569724,0.48422092,0.0,1.0,0.0,0.0
84098141,0,0.071570575,-0.0,0.107569724,0.4871795,0.0,1.0,0.0,0.0
84210524,0,0.009940358,-0.0,0.077689245,0.46548325,0.0,1.0,0.0,0.0
84306143,0,0.013916501,-0.0,0.07370518,0.45364892,0.0,1.0,0.0,0.0
84398142,0,0.06361829,-0.0,0.00996016,0.43392506,0.0,1.0,0.0,0.0
84498144,0,0.08151093,-0.0,0.011952192,0.43392506,0.0,1.0,0.0,0.0
84602163,0,0.07554672,0.05179283,0.011952192,0.38757396,0.0,1.0,0.0,0.0
84706294,0,0.10139165,0.06374502,0.08366534,0.40039447,0.0,1.0,0.0,0.0
84806435,0,0.14115308,0.003984064,0.12350598,0.42998028,0.0,1.0,0.0,0.0
84910143,0,0.03777336,-0.0,0.087649405,0.4556213,0.0,1.0,0.0,0.0
85002143,0,0.035785288,-0.0,0.08565737,0.45364892,0.0,1.0,0.0,0.0
85106441,0,0.08946322,-0.0,0.08565737,0.45167652,0.0,1.0,0.0,0.0
85198163,0,-0.0,-0.0,0.06175299,0.43688363,0.0,1.0,0.0,0.0
85298315,0,-0.0,0.007968128,0.047808766,0.42406312,0.0,1.0,0.0,0.0
85402143,0,-0.0,0.007968128,0.045816734,0.42209074,0.0,1.0,0.0,0.0
85506143,0,0.003976143,-0.0,0.025896415,0.42209074,0.0,1.0,0.0,0.0
85610144,0,-0.0,-0.0,0.0,0.42209074,0.0,1.0,0.0,0.0
85702141,0,-0.0,-0.0,0.0,0.44871795,0.0,1.0,0.0,0.0
85802142,0,-0.0,-0.0,0.067729086,0.44970414,0.0,1.0,0.0,0.0
85894405,0,-0.0,-0.0,0.14541833,0.45167652,0.0,1.0,0.0,0.0
86010207,0,-0.0,-0.0,0.119521916,0.4566075,0.0,1.0,0.0,0.0
86102165,0,-0.0,-0.0,0.08167331,0.4566075,0.0,1.0,0.0,0.0
86206143,0,-0.0,-0.0,0.07370518,0.42011833,0.0,1.0,0.0,0.0
86298660,0,-0.0,-0.0,0.07569721,0.41025642,0.0,1.0,0.0,0.0
86406140,0,-0.0,-0.0,0.087649405,0.40729782,0.0,1.0,0.0,0.0
86510164,0,-0.0,-0.0,0.10358566,0.40729782,0.0,1.0,0.0,0.0
86602140,0,-0.0,-0.0,0.14541833,0.4280079,0.0,1.0,0.0,0.0
86690369,0,-0.0,-0.0,0.16932271,0.43786982,0.0,1.0,0.0,0.0
86782144,0,-0.0,-0.0,0.16932271,0.43786982,0.0,1.0,0.0,0.0
86910157,0,-0.0,-0.0,0.12749004,0.3964497,0.0,1.0,0.0,0.0
87006142,0,-0.0,0.023904383,0.13147411,0.39250493,0.0,1.0,0.0,0.0
87106143,0,-0.0,0.011952192,0.17131475,0.3944773,0.0,1.0,0.0,0.0
87198142,0,-0.0,0.011952192,0.21513945,0.3964497,0.0,1.0,0.0,0.0
87302141,0,-0.0,-0.0,0.24103586,0.3974359,0.0,1.0,0.0,0.0
87406143,0,-0.0,-0.0,0.22509961,0.41814595,0.0,1.0,0.0,0.0
87498772,0,-0.0,-0.0,0.11553785,0.41814595,0.0,1.0,0.0,0.0
87590142,0,-0.0,-0.0,0.06175299,0.41814595,0.0,1.0,0.0,0.0
87710141,0,-0.0,-0.0,0.097609565,0.41814595,0.0,1.0,0.0,0.0
87798150,0,-0.0,-0.0,0.059760958,0.3846154,0.0,1.0,0.0,0.0
87906143,0,-0.0,-0.0,0.0,0.3500986,0.0,1.0,0.0,0.0
87990143,0,-0.001996008,-0.0,0.047808766,0.40433925,0.0,1.0,0.0,0.0
88106178,0,-0.001996008,-0.0,0.057768926,0.4151874,0.0,1.0,0.0,0.0
88198144,0,-0.0,-0.0,0.055776894,0.41814595,0.0,1.0,0.0,0.0
88298141,0,-0.0,-0.0,0.06972112,0.4280079,0.0,1.0,0.0,0.0
88410275,0,-0.0,-0.0,0.043824703,0.4398422,0.0,1.0,0.0,0.0
88506144,0,-0.0,-0.0,0.03984064,0.4260355,0.0,1.0,0.0,0.0
88606499,0,-0.0,-0.0,0.021912351,0.41025642,0.0,1.0,0.0,0.0
88698338,0,-0.0,-0.0,0.00996016,0.4260355,0.0,1.0,0.0,0.0
88794142,0,-0.0,-0.0,0.07370518,0.43786982,0.0,1.0,0.0,0.0
88906252,0,-0.0,-0.0,0.18326694,0.4408284,0.0,1.0,0.0,0.0
89006448,0,-0.0,-0.0,0.22111554,0.4418146,0.0,1.0,0.0,0.0
89110213,0,-0.0,-0.0,0.17529881,0.42998028,0.0,1.0,0.0,0.0
89202142,0,-0.0,-0.0,0.10159363,0.42702168,0.0,1.0,0.0,0.0
89306145,0,-0.0,-0.0,0.0,0.44871795,0.0,1.0,0.0,0.0
89398245,0,-0.0,-0.0,0.0,0.44871795,0.0,1.0,0.0,0.0
89510144,0,-0.0,-0.021912351,-0.04183267,0.44871795,0.0,1.0,0.0,0.0
89602154,0,-0.003992016,-0.011952192,-0.027888447,0.46548325,0.0,1.0,0.0,0.0
89706143,0,-0.023952097,-0.0,-0.07569721,0.45167652,0.0,1.0,0.0,0.0
89810179,0,-0.0,-0.0,0.0,0.46252465,0.0,1.0,0.0,0.0
89902164,0,-0.0,-0.0,0.0,0.46252465,0.0,1.0,0.0,0.0
90010142,0,-0.0,-0.0,0.0,0.45266274,0.0,1.0,0.0,0.0
90094140,0,-0.0,-0.0,0.023904383,0.45266274,0.0,1.0,0.0,0.0
90210143,0,-0.0,-0.0,0.035856575,0.45167652,0.0,1.0,0.0,0.0
90294165,0,-0.0,-0.0,0.03984064,0.45167652,0.0,1.0,0.0,0.0
90406144,0,-0.0,-0.0,0.021912351,0.45167652,0.0,1.0,0.0,0.0
90506142,0,-0.0,-0.0,0.04183267,0.45167652,0.0,1.0,0.0,0.0
90602288,0,-0.0,-0.0,0.11553785,0.45167652,0.0,1.0,0.0,0.0
90710141,0,-0.0,-0.0,0.09163347,0.45167652,0.0,1.0,0.0,0.0
90802722,0,-0.0,-0.0,0.035856575,0.43392506,0.0,1.0,0.0,0.0
90906143,0,-0.0,-0.0,0.08565737,0.43096647,0.0,1.0,0.0,0.0
90970141,0,-0.0,-0.0,0.12749004,0.42998028,0.0,1.0,0.0,0.0
91086164,0,-0.0,-0.0,0.15537849,0.42998028,0.0,1.0,0.0,0.0
91202142,0,-0.0,-0.0,0.14143427,0.42011833,0.0,1.0,0.0,0.0
91306164,0,-0.0,-0.0,0.12549801,0.41025642,0.0,1.0,0.0,0.0
91410144,0,-0.0,-0.0,0.15139443,0.40927023,0.0,1.0,0.0,0.0
91502143,0,-0.0,-0.0,0.09163347,0.40927023,0.0,1.0,0.0,0.0
91594143,0,-0.0,-0.0,0.0,0.40828404,0.0,1.0,0.0,0.0
91690165,0,-0.0,-0.0,0.0,0.40927023,0.0,1.0,0.0,0.0
91802144,0,-0.0,-0.0,0.0,0.42011833,0.0,1.0,0.0,0.0
91910141,0,-0.0,-0.0,0.0,0.39053255,0.0,1.0,0.0,0.0
91998143,0,-0.0,-0.0,0.0,0.40236688,0.0,1.0,0.0,0.0
92110142,0,-0.027944112,-0.0,0.07370518,0.40433925,0.0,1.0,0.0,0.0
92202143,0,-0.023952097,0.027888447,0.119521916,0.40433925,0.0,1.0,0.0,0.0
92306142,0,-0.0,0.035856575,0.119521916,0.39349112,0.0,1.0,0.0,0.0
92406195,0,-0.0,0.035856575,0.13346614,0.36489153,0.0,1.0,0.0,0.0
92506142,0,-0.0,0.007968128,0.119521916,0.3530572,0.0,1.0,0.0,0.0
92602143,0,-0.0,-0.0,0.10358566,0.3530572,0.0,1.0,0.0,0.0
92706167,0,-0.0,-0.0,0.07569721,0.35207102,0.0,1.0,0.0,0.0
92806142,0,-0.0,-0.0,0.05179283,0.3530572,0.0,1.0,0.0,0.0
92902142,0,-0.0,-0.0,0.05179283,0.35502958,0.0,1.0,0.0,0.0
93010165,0,-0.0,-0.0,0.035856575,0.38856015,0.0,1.0,0.0,0.0
93102141,0,0.105367795,-0.0,0.06374502,0.40236688,0.0,1.0,0.0,0.0
93198143,0,0.21868788,-0.0,0.07569721,0.43589744,0.0,1.0,0.0,0.0
93302430,0,-0.0,-0.0,0.0,0.4112426,0.0,1.0,0.0,0.0
93394239,0,-0.0,-0.0,0.0,0.41025642,0.0,1.0,0.0,0.0
93506143,0,-0.011976048,-0.0,0.0,0.35897437,0.0,1.0,0.0,0.0
93606181,0,-0.063872255,-0.0,-0.007968128,0.34615386,0.0,1.0,0.0,0.0
93710217,0,-0.13173653,-0.0,-0.10358566,0.34516767,0.0,1.0,0.0,0.0
93802165,0,-0.093812376,-0.0,-0.08167331,0.3530572,0.0,1.0,0.0,0.0
93894475,0,-0.091816366,-0.0,-0.09561753,0.3530572,0.0,1.0,0.0,0.0
94010338,0,-0.063872255,-0.0,-0.09561753,0.35502958,0.0,1.0,0.0,0.0
94090142,0,-0.017964073,-0.0,-0.087649405,0.35798818,0.0,1.0,0.0,0.0
94210142,0,-0.013972056,-0.0,-0.0996016,0.34615386,0.0,1.0,0.0,0.0
94306227,0,-0.09780439,-0.0,-0.097609565,0.34319526,0.0,1.0,0.0,0.0
94410360,0,-0.14570858,-0.0,-0.25896415,0.34516767,0.0,1.0,0.0,0.0
94502143,0,-0.14570858,-0.0,-0.3187251,0.34516767,0.0,1.0,0.0,0.0
94606143,0,-0.12774451,-0.0,-0.2310757,0.3530572,0.0,1.0,0.0,0.0
94706141,0,-0.10978044,-0.0,-0.17729084,0.35502958,0.0,1.0,0.0,0.0
94806141,0,-0.07984032,-0.0,-0.08366534,0.37278107,0.0,1.0,0.0,0.0
94910142,0,-0.065868266,-0.0,-0.17131475,0.3500986,0.0,1.0,0.0,0.0
95006206,0,-0.0,-0.0,-0.1374502,0.33037475,0.0,1.0,0.0,0.0
95098142,0,-0.0,-0.0,-0.1932271,0.32840237,0.0,1.0,0.0,0.0
95202144,0,-0.0,-0.0,-0.19721116,0.34911242,0.0,1.0,0.0,0.0
95302143,0,-0.035928145,-0.0,-0.187251,0.35897437,0.0,1.0,0.0,0.0
95406143,0,-0.03992016,-0.0,-0.1434263,0.35897437,0.0,1.0,0.0,0.0
95506163,0,-0.00998004,-0.0,-0.017928287,0.37278107,0.0,1.0,0.0,0.0
95590413,0,-0.0,-0.0,0.0,0.38658777,0.0,1.0,0.0,0.0
95702141,0,-0.0,-0.0,0.007968128,0.38658777,0.0,1.0,0.0,0.0
95798143,0,-0.0,-0.0,0.0,0.37672585,0.0,1.0,0.0,0.0
95906146,0,-0.0,-0.05179283,0.0,0.43392506,0.0,1.0,0.0,0.0
96010142,0,-0.0,-0.011952192,0.0,0.40433925,0.0,1.0,0.0,0.0
96102142,0,-0.0,-0.0,0.0,0.3846154,0.0,1.0,0.0,0.0
96198446,0,-0.0,-0.0,0.017928287,0.3668639,0.0,1.0,0.0,0.0
96310168,0,-0.0,-0.0,0.055776894,0.3984221,0.0,1.0,0.0,0.0
96402142,0,0.15109344,-0.0,0.14741036,0.39940828,0.0,1.0,0.0,0.0
96506144,0,0.22067595,0.0139442235,0.13545817,0.43688363,0.0,1.0,0.0,0.0
96606141,0,0.055666003,0.015936255,0.12350598,0.4260355,0.0,1.0,0.0,0.0
96710144,0,-0.0,-0.0,0.0,0.41420117,0.0,1.0,0.0,0.0
96802145,0,-0.003992016,-0.0,-0.03984064,0.40138066,0.0,1.0,0.0,0.0
96906142,0,-0.005988024,-0.0,0.04183267,0.43392506,0.0,1.0,0.0,0.0
96998144,0,-0.0,-0.0,0.025896415,0.42406312,0.0,1.0,0.0,0.0
97102166,0,-0.0,-0.0,0.0,0.3816568,0.0,1.0,0.0,0.0
97210143,0,-0.0,-0.0,0.0,0.35601577,0.0,1.0,0.0,0.0
97302141,0,-0.0,-0.0,0.0,0.35502958,0.0,1.0,0.0,0.0
97406142,0,-0.0,-0.0,-0.05179283,0.3540434,0.0,1.0,0.0,0.0
97510142,0,-0.029940119,-0.0,-0.117529884,0.33333334,0.0,1.0,0.0,0.0
97594142,0,-0.06786427,-0.0,-0.067729086,0.33431953,0.0,1.0,0.0,0.0
97706143,0,-0.01996008,-0.0,-0.08167331,0.34911242,0.0,1.0,0.0,0.0
97770143,0,-0.017964073,-0.0,-0.16334662,0.3500986,0.0,1.0,0.0,0.0
97890266,0,-0.017964073,-0.0,-0.17729084,0.3500986,0.0,1.0,0.0,0.0
97994142,0,-0.015968064,-0.0,-0.16733068,0.3510848,0.0,1.0,0.0,0.0
98106142,0,-0.013972056,-0.0,-0.24701196,0.3402367,0.0,1.0,0.0,0.0
98206142,0,-0.015968064,-0.0,-0.14741036,0.3678501,0.0,1.0,0.0,0.0
98294515,0,-0.029940119,-0.0,-0.17330678,0.36883628,0.0,1.0,0.0,0.0
98406142,0,-0.017964073,-0.0,-0.21115538,0.3668639,0.0,1.0,0.0,0.0
98506143,0,-0.017964073,-0.0,-0.15537849,0.3668639,0.0,1.0,0.0,0.0
98610142,0,-0.013972056,-0.0,-0.1434263,0.35502958,0.0,1.0,0.0,0.0
98702142,0,-0.013972056,-0.0,-0.107569724,0.34516767,0.0,1.0,0.0,0.0
98806143,0,-0.001996008,-0.0,-0.01992032,0.32149902,0.0,1.0,0.0,0.0
98906143,0,-0.0,-0.0,0.003984064,0.32051283,0.0,1.0,0.0,0.0
98998143,0,-0.0,-0.0,0.067729086,0.31854042,0.0,1.0,0.0,0.0
99102365,0,-0.0,-0.0,0.12350598,0.32051283,0.0,1.0,0.0,0.0
99194141,0,-0.0,-0.0,0.14741036,0.32840237,0.0,1.0,0.0,0.0
99306496,0,-0.0,-0.0,0.18326694,0.34122288,0.0,1.0,0.0,0.0
99398164,0,-0.0,-0.0,0.17131475,0.34319526,0.0,1.0,0.0,0.0
99510142,0,-0.0,-0.0,0.12948208,0.34714004,0.0,1.0,0.0,0.0
99606226,0,-0.0,-0.0,0.07171315,0.38757396,0.0,1.0,0.0,0.0
99706144,0,-0.0,-0.0,0.007968128,0.37672585,0.0,1.0,0.0,0.0
99810142,0,-0.0,-0.0,0.0,0.36489153,0.0,1.0,0.0,0.0
99902141,0,-0.0,-0.0,0.0,0.34319526,0.0,1.0,0.0,0.0
99998142,0,-0.0,-0.0,0.0,0.34122288,0.0,1.0,0.0,0.0
100106745,0,-0.0,-0.0,0.001992032,0.34122288,0.0,1.0,0.0,0.0
100202142,0,-0.0,-0.0,0.011952192,0.34122288,0.0,1.0,0.0,0.0
100286587,0,-0.0,-0.0,0.035856575,0.34122288,0.0,1.0,0.0,0.0
100406671,0,-0.0,-0.0,0.005976096,0.34122288,0.0,1.0,0.0,0.0
100510143,0,-0.0,-0.0,-0.11155379,0.3234714,0.0,1.0,0.0,0.0
100602142,0,-0.0,-0.0,-0.07968128,0.33333334,0.0,1.0,0.0,0.0
100706232,0,-0.0,-0.0,-0.0498008,0.34516767,0.0,1.0,0.0,0.0
100806371,0,-0.0,-0.0,0.0,0.34714004,0.0,1.0,0.0,0.0
100910180,0,-0.0,-0.0,-0.08366534,0.35601577,0.0,1.0,0.0,0.0
101010141,0,-0.0,-0.0,-0.0936255,0.35798818,0.0,1.0,0.0,0.0
101106142,0,-0.0,-0.0,-0.12350598,0.35897437,0.0,1.0,0.0,0.0
101206145,0,-0.0,-0.0,-0.087649405,0.34812623,0.0,1.0,0.0,0.0
101302143,0,-0.0,-0.0,-0.011952192,0.34615386,0.0,1.0,0.0,0.0
101402175,0,-0.0,-0.0,0.0,0.34911242,0.0,1.0,0.0,0.0
101486142,0,-0.0,-0.0,0.0,0.35700196,0.0,1.0,0.0,0.0
101606142,0,-0.0,-0.0,-0.007968128,0.34319526,0.0,1.0,0.0,0.0
101702142,0,-0.0,-0.0,-0.007968128,0.33530572,0.0,1.0,0.0,0.0
101802173,0,-0.0,-0.0,0.0,0.33530572,0.0,1.0,0.0,0.0
101906142,0,-0.0,-0.0,0.0,0.33530572,0.0,1.0,0.0,0.0
101998143,0,-0.0,-0.0,0.0,0.3382643,0.0,1.0,0.0,0.0
102110142,0,-0.0,-0.0,0.011952192,0.3402367,0.0,1.0,0.0,0.0
102175186,0,-0.0,-0.0,0.057768926,0.3402367,0.0,1.0,0.0,0.0
102306143,0,-0.0,-0.0,0.005976096,0.3382643,0.0,1.0,0.0,0.0
102410143,0,-0.0,-0.0,0.0,0.3402367,0.0,1.0,0.0,0.0
102490141,0,-0.0,-0.0,0.027888447,0.3402367,0.0,1.0,0.0,0.0
102594964,0,-0.0,-0.0,0.06374502,0.34122288,0.0,1.0,0.0,0.0
102706142,0,-0.0,-0.0,0.09561753,0.34122288,0.0,1.0,0.0,0.0
102810143,0,-0.0,-0.0,0.13147411,0.34122288,0.0,1.0,0.0,0.0
102894842,0,-0.0,-0.0,0.11553785,0.34122288,0.0,1.0,0.0,0.0
103006141,0,-0.0,-0.0,0.09163347,0.34122288,0.0,1.0,0.0,0.0
103106171,0,-0.0,-0.0,-0.023904383,0.34122288,0.0,1.0,0.0,0.0
103202191,0,-0.0,-0.0,-0.03984064,0.34220907,0.0,1.0,0.0,0.0
103310141,0,-0.0,-0.0,0.0,0.35502958,0.0,1.0,0.0,0.0
103406143,0,-0.0,-0.0,0.0,0.3678501,0.0,1.0,0.0,0.0
103506149,0,-0.0,-0.0,0.13346614,0.36982247,0.0,1.0,0.0,0.0
103602142,0,-0.0,-0.0,0.23505977,0.3708087,0.0,1.0,0.0,0.0
103702164,0,-0.0,-0.0,0.22111554,0.3708087,0.0,1.0,0.0,0.0
103806393,0,-0.0,-0.0,0.13346614,0.3708087,0.0,1.0,0.0,0.0
103906141,0,-0.0,-0.0,0.059760958,0.3708087,0.0,1.0,0.0,0.0
103982142,0,-0.0,-0.0,0.027888447,0.3708087,0.0,1.0,0.0,0.0
104066141,0,-0.0,-0.0,0.03187251,0.3708087,0.0,1.0,0.0,0.0
104206143,0,-0.0,-0.0,0.03187251,0.36982247,0.0,1.0,0.0,0.0
104306142,0,-0.0,-0.0,0.12948208,0.3708087,0.0,1.0,0.0,0.0
104410141,0,-0.0,-0.0,0.17928287,0.3708087,0.0,1.0,0.0,0.0
104502141,0,-0.0,-0.0,0.21513945,0.3708087,0.0,1.0,0.0,0.0
104606142,0,-0.0,-0.0,0.21912351,0.3708087,0.0,1.0,0.0,0.0
104703228,0,-0.0,-0.0,0.0,0.3708087,0.0,1.0,0.0,0.0
104783067,0,-0.0,-0.0,0.0,0.3708087,0.0,1.0,0.0,0.0
104906144,0,-0.0,-0.017928287,0.0,0.39053255,0.0,1.0,0.0,0.0
105006141,0,-0.0,-0.021912351,0.0,0.39053255,0.0,1.0,0.0,0.0
105110144,0,-0.0,-0.0,0.0,0.37672585,0.0,1.0,0.0,0.0
105210155,0,-0.0,-0.007968128,0.011952192,0.38757396,0.0,1.0,0.0,0.0
105306156,0,-0.0,-0.0,0.09163347,0.38264298,0.0,1.0,0.0,0.0
105406166,0,-0.0,-0.0,0.07569721,0.3806706,0.0,1.0,0.0,0.0
105498141,0,-0.0,-0.0,0.05179283,0.35897437,0.0,1.0,0.0,0.0
105586142,0,-0.0,-0.0,0.07569721,0.35700196,0.0,1.0,0.0,0.0
105706143,0,-0.0,-0.0,0.005976096,0.35502958,0.0,1.0,0.0,0.0
105798143,0,-0.0,-0.0,0.0,0.32149902,0.0,1.0,0.0,0.0
105902182,0,-0.0,-0.0,-0.01992032,0.30078897,0.0,1.0,0.0,0.0
106002157,0,-0.0,-0.0,0.0,0.31163707,0.0,1.0,0.0,0.0
106098143,0,-0.0,-0.0,0.0,0.31459567,0.0,1.0,0.0,0.0
106206141,0,-0.0,-0.0,0.0,0.33431953,0.0,1.0,0.0,0.0
106302320,0,-0.0,-0.0,0.0,0.33530572,0.0,1.0,0.0,0.0
106394144,0,-0.0,0.027888447,0.0,0.33530572,0.0,1.0,0.0,0.0
106506278,0,-0.0,-0.0,0.0,0.33530572,0.0,1.0,0.0,0.0
106610143,0,-0.0,0.023904383,0.0,0.3372781,0.0,1.0,0.0,0.0
106702142,0,-0.0,-0.0,0.057768926,0.3530572,0.0,1.0,0.0,0.0
106786142,0,-0.0,-0.0,0.09561753,0.35502958,0.0,1.0,0.0,0.0
106906141,0,-0.0,-0.0,0.08565737,0.35601577,0.0,1.0,0.0,0.0
106998143,0,-0.0,0.01992032,0.1434263,0.35700196,0.0,1.0,0.0,0.0
107038143,0,-0.0,0.017928287,0.14541833,0.35897437,0.0,1.0,0.0,0.0
107206142,0,-0.0,-0.0,0.0996016,0.3510848,0.0,1.0,0.0,0.0
107311121,0,-0.0,-0.0,0.03984064,0.3500986,0.0,1.0,0.0,0.0
107402142,0,-0.0,-0.0,0.027888447,0.3510848,0.0,1.0,0.0,0.0
107510309,0,-0.0,0.01992032,0.055776894,0.3510848,0.0,1.0,0.0,0.0
107606142,0,-0.0,-0.0,0.07171315,0.35207102,0.0,1.0,0.0,0.0
107706328,0,0.009940358,-0.0,0.16135459,0.3530572,0.0,1.0,0.0,0.0
107798142,0,-0.0,0.005976096,0.16334662,0.3540434,0.0,1.0,0.0,0.0
107910142,0,-0.0,0.007968128,0.17529881,0.35502958,0.0,1.0,0.0,0.0
108006142,0,-0.0,-0.0,0.12549801,0.35502958,0.0,1.0,0.0,0.0
108098143,0,-0.0,-0.0,0.06175299,0.35502958,0.0,1.0,0.0,0.0
108182206,0,-0.0,-0.0,0.057768926,0.35601577,0.0,1.0,0.0,0.0
108302645,0,-0.0,-0.0,0.027888447,0.37475345,0.0,1.0,0.0,0.0
108386142,0,-0.0,-0.0,0.0,0.36489153,0.0,1.0,0.0,0.0
108490161,0,-0.027944112,-0.0,-0.05179283,0.36489153,0.0,1.0,0.0,0.0
108602145,0,-0.06187625,-0.0,-0.14741036,0.36291912,0.0,1.0,0.0,0.0
108706165,0,-0.045908183,-0.0,-0.13346614,0.35996056,0.0,1.0,0.0,0.0
108798143,0,-0.031936128,-0.0,-0.14741036,0.35897437,0.0,1.0,0.0,0.0
108910145,0,-0.027944112,-0.0,-0.16334662,0.35798818,0.0,1.0,0.0,0.0
108994165,0,-0.027944112,-0.0,-0.13545817,0.35502958,0.0,1.0,0.0,0.0
109106144,0,-0.021956088,-0.0,-0.15737052,0.3530572,0.0,1.0,0.0,0.0
109206141,0,-0.037924152,-0.0,-0.22111554,0.3530572,0.0,1.0,0.0,0.0
109302142,0,-0.03992016,-0.0,-0.31474105,0.3530572,0.0,1.0,0.0,0.0
109402141,0,-0.037924152,-0.0,-0.2430279,0.3530572,0.0,1.0,0.0,0.0
109506142,0,-0.00998004,-0.0,-0.067729086,0.36291912,0.0,1.0,0.0,0.0
109598548,0,-0.0,-0.0,-0.057768926,0.36291912,0.0,1.0,0.0,0.0
109702145,0,-0.0,-0.0,-0.033864543,0.36291912,0.0,1.0,0.0,0.0
109810234,0,-0.0,-0.0,-0.057768926,0.36291912,0.0,1.0,0.0,0.0
109894142,0,-0.0,-0.0,-0.007968128,0.36291912,0.0,1.0,0.0,0.0
110006140,0,-0.0,-0.0,0.0,0.36291912,0.0,1.0,0.0,0.0
110090142,0,-0.0,-0.0,0.0,0.36291912,0.0,1.0,0.0,0.0
110182142,0,-0.0,-0.0,0.0,0.36291912,0.0,1.0,0.0,0.0
110306142,0,0.035785288,-0.0,0.011952192,0.36291912,0.0,1.0,0.0,0.0
110406142,0,-0.0,-0.0,0.027888447,0.36291912,0.0,1.0,0.0,0.0
110494143,0,-0.0,-0.0,-0.007968128,0.3500986,0.0,1.0,0.0,0.0
110606371,0,-0.0,-0.0,-0.01992032,0.33530572,0.0,1.0,0.0,0.0
110706142,0,-0.0,-0.0,0.0,0.34516767,0.0,1.0,0.0,0.0
110806145,0,-0.0,-0.0,0.0,0.34516767,0.0,1.0,0.0,0.0
110902141,0,-0.0,-0.0,0.0,0.34516767,0.0,1.0,0.0,0.0
111006143,0,-0.0,-0.0,0.0,0.34516767,0.0,1.0,0.0,0.0
111086141,0,-0.0,-0.0,0.0,0.34516767,0.0,1.0,0.0,0.0
111198333,0,-0.0,-0.0,0.0,0.34516767,0.0,1.0,0.0,0.0
111302142,0,-0.0,-0.0,-0.035856575,0.33530572,0.0,1.0,0.0,0.0
111406145,0,-0.0,-0.0,-0.043824703,0.34122288,0.0,1.0,0.0,0.0
111506624,0,-0.0,-0.0,-0.107569724,0.34220907,0.0,1.0,0.0,0.0
111602141,0,-0.0,-0.0,0.0,0.36094674,0.0,1.0,0.0,0.0
111710162,0,-0.0,-0.0,0.0,0.36094674,0.0,1.0,0.0,0.0
111798608,0,0.041749503,-0.0,0.0,0.3708087,0.0,1.0,0.0,0.0
111898143,0,-0.0,-0.0,0.047808766,0.3708087,0.0,1.0,0.0,0.0
112002144,0,-0.0,-0.0,0.033864543,0.36982247,0.0,1.0,0.0,0.0
112102143,0,-0.0,-0.0,0.0,0.36489153,0.0,1.0,0.0,0.0
112194141,0,-0.0,-0.0,0.0,0.3639053,0.0,1.0,0.0,0.0
112306369,0,-0.0,-0.0,0.0,0.36291912,0.0,1.0,0.0,0.0
112410143,0,-0.0,-0.0,0.0,0.36291912,0.0,1.0,0.0,0.0
112506368,0,-0.0,-0.0,0.0,0.36291912,0.0,1.0,0.0,0.0
112606143,0,-0.0,-0.0,0.0,0.36291912,0.0,1.0,0.0,0.0
112706141,0,-0.0,-0.0,-0.06374502,0.36094674,0.0,1.0,0.0,0.0
112802142,0,-0.0,-0.0,-0.08366534,0.36094674,0.0,1.0,0.0,0.0
112906143,0,-0.0,-0.0,-0.055776894,0.36291912,0.0,1.0,0.0,0.0
112986143,0,-0.0,-0.0,-0.067729086,0.36291912,0.0,1.0,0.0,0.0
113110142,0,-0.0,-0.0,-0.13346614,0.34319526,0.0,1.0,0.0,0.0
113202142,0,-0.0,-0.0,-0.007968128,0.37968442,0.0,1.0,0.0,0.0
113306155,0,-0.0,-0.0,0.0,0.37771204,0.0,1.0,0.0,0.0
113406167,0,-0.0,-0.0,0.0,0.37771204,0.0,1.0,0.0,0.0
113510142,0,-0.0,-0.0,0.0,0.37771204,0.0,1.0,0.0,0.0
113610142,0,-0.0,-0.0,0.07370518,0.37771204,0.0,1.0,0.0,0.0
113702141,0,-0.0,-0.0,0.107569724,0.37771204,0.0,1.0,0.0,0.0
113798142,0,-0.0,-0.0,0.035856575,0.37771204,0.0,1.0,0.0,0.0
113890204,0,-0.0,-0.0,0.021912351,0.37771204,0.0,1.0,0.0,0.0
114010142,0,-0.0,-0.0,0.043824703,0.37771204,0.0,1.0,0.0,0.0
114106345,0,-0.0,-0.0,0.011952192,0.37771204,0.0,1.0,0.0,0.0
114198149,0,-0.0,-0.0,0.0,0.37771204,0.0,1.0,0.0,0.0
114310141,0,-0.0,-0.0,0.04183267,0.40039447,0.0,1.0,0.0,0.0
114402141,0,-0.0,-0.0,0.03984064,0.40138066,0.0,1.0,0.0,0.0
114506715,0,0.07554672,-0.0,0.05179283,0.40039447,0.0,1.0,0.0,0.0
114606142,0,0.005964215,-0.0,0.055776894,0.36982247,0.0,1.0,0.0,0.0
114710189,0,-0.0,-0.0,0.08167331,0.36883628,0.0,1.0,0.0,0.0
114806143,0,-0.0,-0.0,0.021912351,0.3678501,0.0,1.0,0.0,0.0
114898143,0,-0.0,-0.0,0.0,0.34714004,0.0,1.0,0.0,0.0
115006152,0,-0.0,-0.0,0.0,0.33333334,0.0,1.0,0.0,0.0
115074142,0,-0.0,-0.0,0.0,0.33037475,0.0,1.0,0.0,0.0
115186156,0,-0.0,-0.0,0.0,0.33136094,0.0,1.0,0.0,0.0
115278278,0,-0.017964073,-0.0,-0.10557769,0.33136094,0.0,1.0,0.0,0.0
115410367,0,-0.033932135,-0.0,-0.08366534,0.33333334,0.0,1.0,0.0,0.0
115502142,0,-0.027944112,-0.0,-0.07370518,0.33530572,0.0,1.0,0.0,0.0
115606144,0,-0.0,-0.0,-0.09163347,0.3372781,0.0,1.0,0.0,0.0
115706144,0,-0.0,-0.0,-0.15139443,0.3372781,0.0,1.0,0.0,0.0
115798142,0,-0.0,-0.0,-0.1932271,0.3372781,0.0,1.0,0.0,0.0
115910145,0,-0.0,-0.0,-0.20318726,0.33530572,0.0,1.0,0.0,0.0
116006146,0,-0.0,-0.0,-0.2430279,0.3372781,0.0,1.0,0.0,0.0
116106176,0,-0.0,-0.0,-0.19123507,0.34911242,0.0,1.0,0.0,0.0
116198141,0,-0.0,-0.0,-0.17529881,0.3500986,0.0,1.0,0.0,0.0
116310142,0,-0.015968064,-0.0,-0.1992032,0.3500986,0.0,1.0,0.0,0.0
116398160,0,-0.077844314,-0.0,-0.15139443,0.3510848,0.0,1.0,0.0,0.0
116506163,0,-0.063872255,-0.0,-0.13346614,0.35207102,0.0,1.0,0.0,0.0
116610142,0,-0.0,-0.0,-0.027888447,0.3530572,0.0,1.0,0.0,0.0
116674200,0,-0.0,-0.0,-0.007968128,0.3530572,0.0,1.0,0.0,0.0
116798142,0,-0.0,-0.0,0.0,0.3500986,0.0,1.0,0.0,0.0
116898178,0,-0.0,-0.0,0.0,0.3402367,0.0,1.0,0.0,0.0
117002720,0,-0.0,-0.0,0.011952192,0.32938856,0.0,1.0,0.0,0.0
117106164,0,0.05367793,-0.0,0.005976096,0.3086785,0.0,1.0,0.0,0.0
117206142,0,0.09343936,-0.0,0.08167331,0.3106509,0.0,1.0,0.0,0.0
117310144,0,-0.0,-0.0,0.03187251,0.31360948,0.0,1.0,0.0,0.0
117374142,0,-0.0,-0.0,0.017928287,0.31459567,0.0,1.0,0.0,0.0
117502142,0,-0.0,-0.0,0.055776894,0.31854042,0.0,1.0,0.0,0.0
117606265,0,-0.0,-0.0,0.04183267,0.32051283,0.0,1.0,0.0,0.0
117702143,0,-0.0,-0.0,0.001992032,0.32051283,0.0,1.0,0.0,0.0
117782214,0,-0.0,-0.0,0.0,0.32051283,0.0,1.0,0.0,0.0
117906144,0,0.029821074,-0.001992032,0.0,0.3086785,0.0,1.0,0.0,0.0
118006142,0,-0.0,-0.0,-0.12749004,0.2751479,0.0,1.0,0.0,0.0
118102143,0,-0.0,-0.0,-0.07171315,0.3234714,0.0,1.0,0.0,0.0
118210142,0,-0.0,-0.0,-0.033864543,0.32643,0.0,1.0,0.0,0.0
118306143,0,-0.0,-0.003984064,0.0,0.32840237,0.0,1.0,0.0,0.0
118410747,0,-0.0,-0.001992032,0.0,0.34714004,0.0,1.0,0.0,0.0
118510933,0,-0.0,-0.0,0.0,0.34812623,0.0,1.0,0.0,0.0
118602179,0,-0.0,-0.011952192,0.0,0.3372781,0.0,1.0,0.0,0.0
118706143,0,-0.0,-0.053784862,0.0,0.3224852,0.0,1.0,0.0,0.0
118798142,0,-0.0,-0.107569724,0.0,0.31360948,0.0,1.0,0.0,0.0
