timestamp,timestamp_sample,accel_device_id,gyro_device_id,delta_angle[0],delta_angle[1],delta_angle[2],delta_velocity[0],delta_velocity[1],delta_velocity[2],delta_angle_dt,delta_velocity_dt,delta_velocity_clipping,accel_calibration_count,gyro_calibration_count
17066978,17066594,3932170,3932170,-2.364732e-05,-3.0145575e-06,5.551249e-07,-0.0016523612,0.0012084987,-0.048898134,4998,4998,0,2,1
17571629,17571248,3932170,3932170,-1.9977919e-05,1.1442857e-05,-9.951471e-06,-0.0016612986,0.0014290363,-0.04893547,4997,4997,0,2,1
18066291,18065910,3932170,3932170,-2.1663507e-05,6.503072e-06,-9.052762e-06,-0.0016670139,0.0011105896,-0.04883967,4997,4997,0,2,1
18566026,18565568,3932170,3932170,-7.1676864e-06,6.7233736e-07,-4.936712e-06,-0.0016608762,0.0011118146,-0.048831347,4994,4994,0,2,1
19065630,19065226,3932170,3932170,-1.27010635e-05,2.198015e-05,-1.7077316e-07,-0.0016859296,0.0012780067,-0.04898356,4996,4996,0,2,1
19570265,19569881,3932170,3932170,-3.2033106e-05,2.009502e-05,-5.6556183e-07,-0.0017028723,0.0012465793,-0.04882764,4996,4996,0,2,1
20069976,20069540,3932170,3932170,-1.20027935e-05,-2.5276736e-07,-5.330268e-06,-0.001738597,0.0013259846,-0.04881845,4997,4997,0,2,1
20569579,20569198,3932170,3932170,-2.419423e-05,1.1894714e-05,4.25103e-06,-0.0017797444,0.0013847518,-0.048829615,4997,4997,0,2,1
21069237,21068856,3932170,3932170,-6.17159e-06,5.8225883e-06,-1.0152808e-05,-0.0017054825,0.0011245369,-0.04890099,4997,4997,0,2,1
21563903,21563518,3932170,3932170,-2.322554e-05,6.7719066e-06,-3.5382357e-06,-0.001745351,0.0013896523,-0.04890469,4997,4997,0,2,1
22068554,22068172,3932170,3932170,-1.750549e-05,1.2272815e-05,1.3804531e-06,-0.0016622434,0.0013067911,-0.048955873,4996,4996,0,2,1
22568212,22567830,3932170,3932170,-1.896235e-05,3.3765525e-06,-3.4830487e-06,-0.0016581028,0.0011567916,-0.048886776,4996,4996,0,2,1
23067869,23067488,3932170,3932170,-2.2946217e-05,1.2751731e-05,2.5869165e-06,-0.0016252376,0.0012934726,-0.048794083,4996,4996,0,2,1
23567531,23567146,3932170,3932170,-3.366188e-05,9.318965e-06,4.9535706e-06,-0.0017743522,0.0010426497,-0.050188363,4996,4996,0,2,1
24067187,24066805,3932170,3932170,-1.5121282e-05,-5.1343295e-06,-2.0172665e-06,-0.0015766344,0.0009991883,-0.049181342,4997,4997,0,2,1
24572020,24571459,3932170,3932170,-2.2844875e-05,1.7251716e-06,-1.3545493e-05,-0.0019092215,0.001405524,-0.048520677,4996,4996,0,2,1
25066501,25066121,3932170,3932170,1.3014278e-06,-2.465844e-06,5.0155254e-06,-0.0016097497,0.0010598535,-0.048538726,4997,4997,0,2,1
25566163,25565781,3932170,3932170,-2.8717934e-05,-1.5958078e-05,1.9028139e-05,-0.0020226594,0.0015207311,-0.048742685,4999,4999,0,2,1
26065817,26065436,3932170,3932170,-6.2897493e-06,3.8288723e-05,-6.316434e-06,-0.0022192812,0.0012259008,-0.049054734,4996,4996,0,2,1
26565476,26565094,3932170,3932170,-2.8165648e-05,-8.794964e-06,1.4151344e-07,-0.0016336163,0.0012556607,-0.048818283,4996,4996,0,2,1
27070134,27069749,3932170,3932170,-9.014323e-06,-5.053808e-06,-8.547634e-06,-0.002102128,0.0013816898,-0.048752107,4997,4997,0,2,1
27569824,27569408,3932170,3932170,3.0845513e-06,1.8753617e-05,-1.7585562e-05,-0.0018599869,0.0011398619,-0.04872448,4995,4995,0,2,1
28069446,28069065,3932170,3932170,-3.0514911e-05,-4.7487065e-06,-1.090119e-06,-0.0018705825,0.0014802392,-0.04849742,4997,4997,0,2,1
28564109,28563726,3932170,3932170,-5.6276454e-06,2.343098e-06,-9.155929e-06,-0.0018033234,0.0012647784,-0.049261056,4997,4997,0,2,1
29068765,29068380,3932170,3932170,-1.8370365e-05,4.4507856e-06,-4.0369728e-06,-0.0018804496,0.0011928324,-0.048810158,4996,4996,0,2,1
29568547,29568038,3932170,3932170,-6.126684e-06,1.2895308e-05,-3.8719318e-06,-0.0017952962,0.001163142,-0.049041852,4996,4996,0,2,1
30068223,30067697,3932170,3932170,-2.2288152e-05,6.8447594e-06,1.2423814e-08,-0.0017378881,0.0011097318,-0.049278002,4998,4998,0,2,1
30567905,30567354,3932170,3932170,-1.12234475e-05,-8.358863e-06,-9.775837e-06,-0.0016543857,0.0017240429,-0.048956674,4997,4997,0,2,1
31067519,31067011,3932170,3932170,-3.891603e-05,7.402525e-06,2.3891498e-06,-0.0017342479,0.00072769553,-0.048457686,4996,4996,0,2,1
31567177,31566669,3932170,3932170,1.4016002e-06,3.4307568e-06,-3.0334404e-06,-0.0016970017,0.0012083004,-0.048910208,4996,4996,0,2,1
32066839,32066327,3932170,3932170,-4.5376064e-06,1.4417912e-05,-7.1262866e-06,-0.0018177087,0.0014427927,-0.048629533,4997,4997,0,2,1
32566493,32565986,3932170,3932170,-3.921512e-05,1.1667467e-05,-7.1502623e-06,-0.001813143,0.0010130559,-0.048676193,4998,4998,0,2,1
33066153,33065643,3932170,3932170,-2.8581931e-05,1.1850849e-05,-7.8673594e-07,-0.002166612,0.0009458691,-0.04876108,4997,4997,0,2,1
33565808,33565300,3932170,3932170,-1.2232307e-05,1.663408e-05,-2.6330881e-06,-0.0020172705,0.0014472835,-0.048837367,4996,4996,0,2,1
34070462,34069955,3932170,3932170,-3.25703e-05,7.2781004e-06,1.3224435e-05,-0.0019748493,0.0012159302,-0.049284536,4997,4997,0,2,1
34570122,34569613,3932170,3932170,-1.4462187e-05,4.5494808e-06,1.1090391e-05,-0.0016411747,0.0012927077,-0.048830554,4997,4997,0,2,1
35069779,35069271,3932170,3932170,-4.777867e-06,-1.2804386e-05,1.3959544e-05,-0.0014821371,0.0014277638,-0.049069762,4997,4997,0,2,1
35564440,35563932,3932170,3932170,-5.7319845e-05,-2.5630693e-06,8.663228e-05,-0.0008070116,0.00092068565,-0.049382523,4997,4997,0,2,1
36069091,36068586,3932170,3932170,0.0002297158,3.2798784e-05,0.00014170428,0.0022338813,0.0006670301,-0.048251346,4996,4996,0,2,1
36568751,36568244,3932170,3932170,-0.00012376682,2.947205e-06,6.744388e-05,0.0029499955,0.0007491488,-0.04861161,4997,4997,0,2,1
37068433,37067902,3932170,3932170,3.1172593e-05,-7.810089e-05,-1.4222345e-05,0.010321131,-0.00010132972,-0.04473605,4997,4997,0,2,1
37568191,37567810,3932170,3932170,0.00013352769,-3.8442016e-05,2.2891574e-05,0.00022101236,0.0061396747,-0.044506557,4997,4997,0,2,1
38067852,38067469,3932170,3932170,-5.5299315e-05,6.9292386e-05,4.3123955e-06,0.0066849715,0.0041928208,-0.061468188,4998,4998,0,2,1
38567506,38567125,3932170,3932170,-9.303707e-05,-6.705479e-05,-1.37304105e-05,-0.0005278043,0.0071390434,-0.026985977,4996,4996,0,2,1
39067164,39066783,3932170,3932170,5.4484848e-05,0.00012347712,-4.9805825e-05,0.018829504,0.008101096,-0.06373915,4996,4996,0,2,1
39566820,39566441,3932170,3932170,-7.1961826e-05,-2.6332358e-05,1.5515272e-05,0.009249127,0.004850084,-0.042134013,4997,4997,0,2,1
40066486,40066099,3932170,3932170,0.00019376334,-2.9641613e-05,-3.839494e-05,0.021283621,0.004080834,-0.050222103,4997,4997,0,2,1
40566153,40565757,3932170,3932170,-1.8760662e-05,-5.7207875e-05,-5.484945e-05,0.008428702,-0.004358555,-0.060596406,4995,4995,0,2,1
41065825,41065415,3932170,3932170,7.3078125e-05,-0.000116564406,2.6545546e-05,0.0053019444,0.001938395,-0.052228514,4997,4997,0,2,1
41570450,41570069,3932170,3932170,-2.580184e-05,1.469734e-05,1.1140309e-05,0.0036098291,0.0024200554,-0.050347447,4996,4996,0,2,1
42070110,42069727,3932170,3932170,5.0760145e-06,0.00024995158,1.1751321e-05,0.0015568518,0.0013086174,-0.050419845,4996,4996,0,2,1
42564772,42564388,3932170,3932170,8.57052e-06,3.6914298e-05,9.180565e-06,-0.003219328,0.0009647825,-0.051057354,4996,4996,0,2,1
43064427,43064046,3932170,3932170,8.172005e-05,-6.5509834e-05,-2.6129774e-05,-0.0034883828,0.0009880983,-0.047227457,4996,4996,0,2,1
43569082,43568701,3932170,3932170,6.555795e-05,-6.894182e-05,5.749737e-06,-0.0021531403,0.0010510914,-0.047103904,4997,4997,0,2,1
44068738,44068359,3932170,3932170,8.45488e-06,2.4414223e-05,2.4003612e-05,-0.0032333245,0.0018527722,-0.049156055,4997,4997,0,2,1
44568400,44568017,3932170,3932170,-1.7729715e-05,-2.0100675e-05,6.20442e-05,-0.0011377122,0.0009107157,-0.048331555,4997,4997,0,2,1
45068058,45067675,3932170,3932170,2.1694641e-05,-2.8035893e-05,7.532884e-05,-0.0024752528,-0.0007134961,-0.048904978,4997,4997,0,2,1
45567719,45567333,3932170,3932170,8.760442e-05,4.5966677e-05,9.153143e-05,-0.0017645545,-0.00034515455,-0.04824898,4997,4997,0,2,1
46067373,46066991,3932170,3932170,3.806121e-05,3.5494864e-05,4.2572476e-05,-0.0016114685,0.0028197663,-0.04958111,4997,4997,0,2,1
46567029,46566649,3932170,3932170,-4.1392796e-05,5.0117716e-05,-5.0325798e-05,-0.0016634448,0.0008900576,-0.049126867,4996,4996,0,2,1
47066688,47066307,3932170,3932170,-4.750384e-05,3.0056557e-05,-7.662235e-05,-0.001630542,0.0005739758,-0.04895796,4996,4996,0,2,1
47566348,47565965,3932170,3932170,-5.80832e-05,-1.8564625e-06,-9.295888e-05,0.0003148785,0.0005002927,-0.04947915,4996,4996,0,2,1
48066004,48065623,3932170,3932170,-4.470084e-05,-3.850921e-06,-0.00013281687,-0.0011078628,0.0016674873,-0.049561027,4996,4996,0,2,1
48570658,48570278,3932170,3932170,-8.731286e-05,-7.884988e-05,-0.000116482675,0.00083605695,0.0014290973,-0.048400354,4996,4996,0,2,1
49070317,49069936,3932170,3932170,-0.00012221579,-9.50018e-06,-3.038984e-05,-0.0003879671,0.00040851318,-0.04948396,4996,4996,0,2,1
49565000,49564598,3932170,3932170,2.4874276e-05,2.0083558e-05,3.3576707e-05,-0.0014196845,0.0010815506,-0.048640884,4997,4997,0,2,1
50064637,50064256,3932170,3932170,2.2528187e-05,3.586912e-05,7.57981e-05,-0.0009624902,-0.00083382387,-0.04969054,4996,4996,0,2,1
50569295,50568913,3932170,3932170,9.590271e-06,-1.804672e-05,7.285386e-05,-0.0025232206,0.0004072347,-0.049362104,4999,4999,0,2,1
51068950,51068569,3932170,3932170,-9.967975e-05,1.3357461e-05,8.796382e-06,-0.001345918,0.0010561035,-0.048399057,4996,4996,0,2,1
51568605,51568227,3932170,3932170,-7.9917285e-05,1.8680803e-05,-0.00017251051,-0.0015436041,0.002830979,-0.04736209,4996,4996,0,2,1
52068305,52067886,3932170,3932170,-0.000113313195,9.383443e-06,-0.00015981993,-0.0012394666,-0.0038528165,-0.04995905,4997,4997,0,2,1
52567961,52567544,3932170,3932170,6.966953e-05,4.8432044e-06,-8.760533e-05,-0.0007387108,-0.0011352666,-0.050476793,4997,4997,0,2,1
53067618,53067202,3932170,3932170,0.00012670012,1.6321306e-05,7.184538e-05,-0.0013457276,-0.0025455987,-0.04850544,4996,4996,0,2,1
53567277,53566861,3932170,3932170,7.6342556e-05,6.4907003e-06,0.00025273435,-0.0014856198,0.0010029639,-0.049109668,4997,4997,0,2,1
54067001,54066519,3932170,3932170,-8.636663e-05,-4.3750795e-05,0.0003035613,-0.0017461575,0.0027451385,-0.0482139,4997,4997,0,2,1
54566594,54566178,3932170,3932170,4.3180015e-07,-1.5788795e-05,1.9626038e-06,-0.00136685,0.0044611315,-0.04843433,4997,4997,0,2,1
55066255,55065836,3932170,3932170,-6.9571724e-05,-5.8500773e-06,-0.00013616707,-0.0010065195,0.0029828385,-0.048807926,4997,4997,0,2,1
55570908,55570491,3932170,3932170,-7.027517e-05,4.933239e-05,-0.00026137166,-0.0012119714,0.002633284,-0.05022963,4997,4997,0,2,1
56070565,56070149,3932170,3932170,-5.5171917e-05,-1.9897285e-05,-0.0001999451,-0.0011589567,0.00044501663,-0.04813976,4996,4996,0,2,1
56565258,56564811,3932170,3932170,-3.3889406e-05,8.263242e-06,-1.62889e-05,-0.0015080735,0.0012827278,-0.04888079,4996,4996,0,2,1
57064886,57064470,3932170,3932170,0.00010383489,-5.7959364e-06,-9.413131e-06,-0.0010278089,0.0011103757,-0.047568176,4997,4997,0,2,1
57569542,57569125,3932170,3932170,9.9581936e-05,-1.3561509e-05,4.7905374e-05,-0.0010711341,2.6445787e-05,-0.049926605,4997,4997,0,2,1
58069198,58068783,3932170,3932170,0.00014249905,3.663763e-05,7.979506e-05,-0.0011128435,0.0007855844,-0.050527457,4996,4996,0,2,1
58568853,58568442,3932170,3932170,6.9063266e-05,5.226078e-05,5.5564095e-05,-0.0010107952,0.0010137791,-0.049375903,4997,4997,0,2,1
59068482,59068101,3932170,3932170,1.3327864e-05,1.8472241e-05,3.0661875e-05,-0.002229598,0.0019177672,-0.048699178,4997,4997,0,2,1
59568141,59567759,3932170,3932170,-0.00012982337,2.3570535e-06,-5.9365368e-05,-0.0014974828,0.002408482,-0.04918838,4996,4996,0,2,1
60067799,60067418,3932170,3932170,-0.00016311638,3.5871965e-06,-0.00014563455,-0.0012567621,0.002290996,-0.048780445,4997,4997,0,2,1
60567458,60567077,3932170,3932170,-9.823485e-05,-5.0627914e-06,-0.00016728326,-0.00060951925,0.0003223703,-0.048805386,4997,4997,0,2,1
61067119,61066736,3932170,3932170,-0.00010646702,-1.5710673e-05,-3.0132046e-06,-0.00038135715,-4.3519456e-05,-0.049410377,4997,4997,0,2,1
61566777,61566394,3932170,3932170,4.5665347e-06,6.5983145e-06,0.000162671,-0.0008724025,-0.0018786258,-0.048856936,4997,4997,0,2,1
62066469,62066053,3932170,3932170,0.00015822452,2.3110113e-05,0.00018483508,-0.0013049,0.0005411538,-0.048849724,4997,4997,0,2,1
62571090,62570708,3932170,3932170,7.386174e-05,-1.480864e-05,3.9746228e-05,-0.0013549195,0.0017615487,-0.0488509,4997,4997,0,2,1
63070753,63070367,3932170,3932170,7.846151e-05,1.8171086e-05,-6.804449e-05,-0.0011014955,0.0015338535,-0.04805883,4997,4997,0,2,1
63565412,63565029,3932170,3932170,8.151864e-06,3.150692e-05,-0.00012524886,-0.0013879853,0.0015004601,-0.049011167,4997,4997,0,2,1
64065101,64064688,3932170,3932170,-7.558265e-05,1.2616331e-05,-0.00011899611,-0.0013390069,-0.00014175246,-0.048824392,4997,4997,0,2,1
64569736,64569343,3932170,3932170,-0.00012740414,7.2585503e-06,2.2087127e-06,-0.0012896362,8.673469e-05,-0.048641954,4996,4996,0,2,1
65069381,65069002,3932170,3932170,-5.4582335e-05,-1.7131164e-05,6.755855e-05,-0.001570452,0.00064690306,-0.048841916,4996,4996,0,2,1
65569042,65568661,3932170,3932170,1.5631353e-05,-5.902227e-06,0.000112841306,-0.0013872287,9.553598e-05,-0.04932595,4996,4996,0,2,1
66068704,66068320,3932170,3932170,7.50162e-05,-6.0013735e-06,0.00011210038,-0.0007465901,0.00077898457,-0.048364248,4997,4997,0,2,1
66568361,66567979,3932170,3932170,1.1012385e-05,4.1439813e-05,3.7377384e-05,-0.00034382913,0.0018909774,-0.04913132,4996,4996,0,2,1
67068021,67067638,3932170,3932170,-4.514938e-05,7.2635003e-06,-0.00012528729,-0.0013305186,0.0017701634,-0.04908215,4997,4997,0,2,1
67567676,67567297,3932170,3932170,-7.554288e-05,5.902633e-07,-6.5486034e-05,-0.0008957563,0.0013211399,-0.048423838,4996,4996,0,2,1
68067337,68066956,3932170,3932170,-8.219029e-05,-1.5836551e-05,-7.7288925e-05,-0.0005169598,0.0013396859,-0.048509423,4997,4997,0,2,1
68566996,68566615,3932170,3932170,-8.8528366e-05,-4.2343752e-05,7.7145654e-05,-0.00082822377,-0.00036107647,-0.04913999,4996,4996,0,2,1
69066655,69066274,3932170,3932170,2.6151722e-05,-1.2559596e-05,0.0001487598,-0.0009715121,-0.0005763496,-0.04884071,4996,4996,0,2,1
69566364,69565933,3932170,3932170,0.0001633138,-8.603804e-06,0.00013593341,-0.0010168707,0.0006859747,-0.04926839,4996,4996,0,2,1
70071012,70070596,3932170,3932170,0.000106791274,2.0321193e-05,-7.605551e-05,-0.0010819713,0.003000453,-0.04858075,5004,5004,0,2,1
70565666,70565252,3932170,3932170,6.427651e-05,1.9201021e-05,-0.00022062798,-0.0015026699,0.0012239204,-0.04852264,4997,4997,0,2,1
71065325,71064911,3932170,3932170,-6.681855e-05,1.972767e-05,-0.00013947721,-0.0011950799,0.000542857,-0.049219504,4997,4997,0,2,1
71564987,71564570,3932170,3932170,-9.391015e-05,1.4728403e-05,-2.9184424e-05,-0.0013741533,0.00049360347,-0.048930913,4997,4997,0,2,1
72069644,72069226,3932170,3932170,-6.2148545e-05,1.9535131e-05,2.405059e-05,-0.0014332924,0.00038265422,-0.049185466,4997,4997,0,2,1
72569297,72568885,3932170,3932170,-2.5969437e-05,7.6965e-06,3.271122e-05,-0.0011829097,0.0006324322,-0.04904249,4996,4996,0,2,1
73068958,73068544,3932170,3932170,-1.92205e-05,2.829132e-05,8.00556e-06,-0.0019270744,0.0010066566,-0.04875585,4996,4996,0,2,1
73568619,73568204,3932170,3932170,-1.4207506e-06,2.1474834e-05,1.9081828e-05,-0.001389207,0.00057074206,-0.04903582,4997,4997,0,2,1
74068279,74067863,3932170,3932170,-6.425198e-05,8.166243e-06,3.861261e-05,-0.0016754164,0.0013201933,-0.0492243,4996,4996,0,2,1
74567938,74567523,3932170,3932170,-9.592257e-05,1.9910593e-05,0.00012400636,-0.0011596166,-0.0007693264,-0.048941143,4997,4997,0,2,1
75067597,75067182,3932170,3932170,6.616935e-05,-5.998291e-06,0.0001477485,-0.0015376001,0.0008240437,-0.048638336,4997,4997,0,2,1
75567282,75566841,3932170,3932170,0.00010336784,9.312977e-06,1.1156309e-05,-0.0015483218,0.0025806196,-0.049038485,4996,4996,0,2,1
76066915,76066501,3932170,3932170,2.1343032e-05,2.7530787e-06,-9.6899705e-05,-0.001629891,0.000910298,-0.048765942,4997,4997,0,2,1
76566575,76566161,3932170,3932170,-2.4763829e-05,5.417527e-06,-0.000115287214,-0.0013594697,0.0007453689,-0.048685916,4997,4997,0,2,1
77071231,77070816,3932170,3932170,-5.0612452e-05,-2.1727716e-05,-4.5325243e-05,-0.001395475,0.00026171783,-0.048754256,4996,4996,0,2,1
77565908,77565479,3932170,3932170,-7.989604e-05,-3.3878496e-05,2.629693e-06,-0.0013482147,0.000496074,-0.04822043,4996,4996,0,2,1
78065555,78065139,3932170,3932170,-4.8079266e-05,-4.9163316e-07,1.8136352e-05,-0.0017210083,0.0008466759,-0.04831123,4997,4997,0,2,1
78565216,78564798,3932170,3932170,-2.0716767e-05,-3.2088898e-05,-1.0907734e-05,-0.0012713575,0.00061977486,-0.04871342,4996,4996,0,2,1
79069867,79069455,3932170,3932170,-1.0407425e-05,5.743101e-05,-2.726072e-05,-0.00061987055,0.0009897621,-0.050842956,4997,4997,0,2,1
79569527,79569114,3932170,3932170,-3.159937e-05,4.811705e-05,-2.7557959e-05,-0.00059151923,6.489895e-05,-0.049241737,4996,4996,0,2,1
80069187,80068774,3932170,3932170,-2.2954047e-05,4.2961616e-05,-5.22422e-05,-0.00093661726,0.0013701078,-0.04999672,4996,4996,0,2,1
80568852,80568434,3932170,3932170,-4.635651e-05,-4.1300063e-06,-0.00011879445,-0.0006216725,0.00075015775,-0.049724825,4996,4996,0,2,1
81068506,81068093,3932170,3932170,-4.339049e-05,-2.9422347e-06,-9.382383e-05,-0.0007288546,0.00067100103,-0.04806749,4996,4996,0,2,1
81568166,81567753,3932170,3932170,-2.3730703e-05,-5.383663e-05,9.0420406e-05,-0.00025404908,-0.0017032293,-0.04837666,4996,4996,0,2,1
82067825,82067413,3932170,3932170,2.6946114e-05,5.99744e-05,0.00015385597,-0.0010193822,0.0021842744,-0.05025312,4996,4996,0,2,1
82567511,82567073,3932170,3932170,5.3883745e-05,5.9847545e-05,5.761459e-05,-0.001489495,0.0017883319,-0.049572363,4997,4997,0,2,1
83067147,83066733,3932170,3932170,-3.1882435e-05,5.8447207e-05,-6.3650485e-05,-0.0006047002,0.0019906631,-0.050243083,4997,4997,0,2,1
83566808,83566392,3932170,3932170,-6.141996e-05,-7.0166757e-06,-0.00013985392,-0.0008774323,0.002023995,-0.049247373,4996,4996,0,2,1
84071430,84071049,3932170,3932170,-6.546108e-05,1.861947e-05,-8.044611e-05,-0.0010082991,-0.00026631862,-0.048661366,4997,4997,0,2,1
84566096,84565712,3932170,3932170,-8.377305e-06,1.6079834e-05,5.1197898e-05,-0.0020927058,0.00090622244,-0.04744712,4995,4995,0,2,1
85065761,85065372,3932170,3932170,-3.4896257e-05,-4.2334046e-05,7.781819e-05,-0.0010800099,0.0013347714,-0.04797496,4996,4996,0,2,1
85565414,85565032,3932170,3932170,4.4909534e-06,-1.7318166e-06,0.0001104233,-0.0013317218,0.0008298897,-0.048412967,4996,4996,0,2,1
86070073,86069689,3932170,3932170,-4.0544917e-05,1.7219625e-05,3.8321738e-05,-0.0012618533,0.0018947795,-0.048512552,4997,4997,0,2,1
86569732,86569349,3932170,3932170,-3.3167653e-05,4.3374464e-05,2.6879528e-05,-0.0016228583,0.0011192663,-0.048874285,4997,4997,0,2,1
87069391,87069009,3932170,3932170,1.7605646e-05,-6.840403e-06,3.6024212e-05,-0.0020388886,-0.00019875825,-0.049230207,4993,4993,0,2,1
87569054,87568669,3932170,3932170,1.8744699e-05,-3.037965e-07,7.6322205e-05,-0.0012263798,-0.00061820325,-0.048547864,4997,4997,0,2,1
88068710,88068329,3932170,3932170,5.4189346e-05,-1.5012706e-05,3.0900643e-05,-0.0017763458,0.0011103452,-0.048942033,4997,4997,0,2,1
88568388,88567989,3932170,3932170,3.4522942e-05,-2.2181608e-05,-5.269984e-05,-0.0009947354,0.0008939824,-0.049391426,4996,4996,0,2,1
89068032,89067649,3932170,3932170,-4.6012035e-05,-2.5741083e-05,-3.0979845e-05,-0.0010985505,0.0009980908,-0.04792484,4996,4996,0,2,1
89567691,89567310,3932170,3932170,6.0899274e-06,-7.5275893e-06,-2.5014942e-05,-0.00037864345,0.0011184391,-0.0486063,4997,4997,0,2,1
90067372,90066970,3932170,3932170,-5.180851e-05,4.170699e-05,-4.443378e-05,-0.0010316756,0.0019455894,-0.04939534,4997,4997,0,2,1
90567010,90566630,3932170,3932170,-6.810372e-05,-5.1069164e-06,-7.078303e-05,-0.0010723445,0.00049315224,-0.048536688,4997,4997,0,2,1
91071669,91071287,3932170,3932170,-3.323638e-06,1.06734315e-05,-6.276793e-05,-0.0012922934,-1.7690809e-05,-0.048785258,4996,4996,0,2,1
91566332,91565951,3932170,3932170,4.034197e-05,2.9010174e-05,-4.8913175e-06,-0.0015977161,-0.00030897712,-0.049047597,4997,4997,0,2,1
92065994,92065611,3932170,3932170,2.1366823e-06,1.816412e-05,7.844645e-05,-0.0017509899,0.0008688921,-0.048705492,4997,4997,0,2,1
92565651,92565271,3932170,3932170,-6.269281e-05,-5.9696238e-05,0.00010057691,-0.0019875064,0.00032556822,-0.047607627,4996,4996,0,2,1
93065311,93064932,3932170,3932170,-1.0903646e-05,-2.4741346e-05,8.137748e-05,-0.0013690541,0.0007512716,-0.049004212,4997,4997,0,2,1
93569970,93569589,3932170,3932170,3.475389e-05,1.9635372e-05,3.0519226e-05,-0.0015076724,0.0011027983,-0.04990611,4997,4997,0,2,1
94069631,94069249,3932170,3932170,-3.2414264e-06,1.1223282e-05,1.1667066e-05,-0.0017238184,0.0013868259,-0.048242047,4996,4996,0,2,1
94569292,94568911,3932170,3932170,1.6054713e-05,9.237244e-06,-8.3226514e-05,-0.0023057805,0.0013956906,-0.048487708,4998,4998,0,2,1
95063957,95063574,3932170,3932170,-0.00013221893,-2.597816e-05,-0.00011681866,-0.0016724067,0.0015344599,-0.04842496,4997,4997,0,2,1
95568663,95568231,3932170,3932170,-0.00013234906,-1.231468e-05,-0.00015185005,-0.0016168632,-0.0003206355,-0.048948232,4997,4997,0,2,1
96068274,96067891,3932170,3932170,-2.2193104e-05,2.8124336e-06,-0.0001091421,-0.00055750535,-0.00014622393,-0.049325235,4997,4997,0,2,1
96567932,96567552,3932170,3932170,-2.0269266e-05,-1.7433147e-05,3.1272815e-05,-0.0015290136,0.00016841052,-0.048621308,4997,4997,0,2,1
97067594,97067212,3932170,3932170,3.7677346e-06,-1.7229572e-06,0.00013821325,-0.00074298,0.00064917665,-0.049218044,4996,4996,0,2,1
97567253,97566873,3932170,3932170,3.57876e-05,2.1130038e-05,0.00014191147,-0.0020626732,0.0010998771,-0.048903875,4997,4997,0,2,1
98066932,98066534,3932170,3932170,2.930638e-05,1.929142e-05,1.2309665e-05,-0.0016900338,0.0016485851,-0.04947145,4997,4997,0,2,1
98566579,98566194,3932170,3932170,-0.00010537373,3.157587e-05,-0.00010546265,-0.0019331806,0.0026091246,-0.04866813,4996,4996,0,2,1
99066236,99065855,3932170,3932170,-0.00013799655,8.832541e-06,-0.00011879532,-0.0021903343,0.00074125774,-0.048304584,4997,4997,0,2,1
99565896,99565516,3932170,3932170,-3.6774076e-05,-9.2723085e-06,3.863423e-05,-0.0018336391,-0.0012003034,-0.04853334,4996,4996,0,2,1
100065558,100065176,3932170,3932170,3.8862825e-05,1.9741678e-06,0.00011113137,-0.0019055349,6.3270134e-05,-0.049268756,4996,4996,0,2,1
100570221,100569834,3932170,3932170,3.8595197e-05,2.0494874e-06,0.00010503579,-0.0017175183,0.0010020349,-0.048953827,4997,4997,0,2,1
101069877,101069495,3932170,3932170,-7.5014204e-06,-1.5370773e-05,3.8638525e-05,-0.0017344316,0.0017878568,-0.04918443,4997,4997,0,2,1
101569535,101569155,3932170,3932170,-4.2228323e-05,-2.9310509e-06,-8.3158055e-05,-0.0016764449,0.0011083606,-0.04930808,4996,4996,0,2,1
102064203,102063820,3932170,3932170,-5.158341e-05,1.7029697e-05,-0.00010733313,-0.0020059946,0.00061733666,-0.048261527,4997,4997,0,2,1
102568864,102568477,3932170,3932170,-3.0209638e-05,-2.724805e-05,-7.964238e-05,-0.0017376628,0.0004158902,-0.048175115,4996,4996,0,2,1
103068585,103068138,3932170,3932170,1.5698753e-05,3.7362054e-06,9.674297e-06,-0.0017796103,-0.0002880914,-0.04906059,4997,4997,0,2,1
103568205,103567799,3932170,3932170,-6.811852e-05,-5.585804e-06,5.263416e-05,-0.0019132529,0.0007315906,-0.04812003,4997,4997,0,2,1
104067851,104067460,3932170,3932170,8.754932e-05,5.037437e-06,4.6284094e-05,-0.0018187746,0.00013043983,-0.049105965,4997,4997,0,2,1
104567503,104567121,3932170,3932170,-8.22516e-06,9.1974994e-07,7.718925e-05,-0.0019696231,9.308854e-05,-0.049637306,4996,4996,0,2,1
105067174,105066782,3932170,3932170,4.9530252e-05,2.6650903e-05,3.980428e-05,-0.0011854325,0.0012788436,-0.049833093,4996,4996,0,2,1
105566824,105566443,3932170,3932170,-3.3804463e-05,3.6880923e-05,2.8564642e-05,-0.0019732069,0.001037642,-0.050173018,4996,4996,0,2,1
106066489,106066104,3932170,3932170,-3.6665137e-05,2.469454e-05,-6.6491534e-06,-0.002128709,0.001111532,-0.049600832,4996,4996,0,2,1
106566163,106565765,3932170,3932170,-3.704536e-05,6.498448e-06,-5.3877007e-05,-0.0023127531,0.0008654682,-0.049841914,4996,4996,0,2,1
107070816,107070423,3932170,3932170,-3.359157e-05,-1.47751825e-05,-6.2479325e-05,-0.002217357,0.0008840648,-0.04806909,4996,4996,0,2,1
107570467,107570084,3932170,3932170,5.0315117e-05,-3.0701136e-05,-2.6327829e-05,-0.0023460083,6.558272e-05,-0.048259795,4996,4996,0,2,1
108070136,108069746,3932170,3932170,2.7446682e-05,-5.555858e-05,3.9698345e-05,-0.0018875923,-0.0006079427,-0.04866522,4997,4997,0,2,1
108569801,108569407,3932170,3932170,7.66761e-05,1.6485021e-06,7.651035e-05,-0.0019718478,0.001352784,-0.04852434,4997,4997,0,2,1
109064454,109064071,3932170,3932170,-7.078451e-05,2.6031486e-05,-8.469072e-06,-0.0019626394,0.0020018683,-0.049385402,4996,4996,0,2,1
109569112,109568729,3932170,3932170,-9.527167e-05,7.213454e-05,-0.00016728726,-0.002359267,0.0023089196,-0.049530763,4997,4997,0,2,1
110068772,110068390,3932170,3932170,-0.00010395395,2.8338203e-05,-0.00018219255,-0.0022186486,-7.484107e-05,-0.048735015,4996,4996,0,2,1
110568433,110568052,3932170,3932170,-7.556886e-05,1.36007375e-05,-6.363942e-05,-0.0021596088,-0.0013052302,-0.049313523,4997,4997,0,2,1
111068095,111067713,3932170,3932170,-6.0117065e-05,2.5895768e-05,9.189359e-05,-0.0023103536,-0.0017082964,-0.04888831,4997,4997,0,2,1
111567758,111567374,3932170,3932170,2.9455225e-05,6.7139035e-07,9.2692164e-05,-0.0021243275,0.0012040205,-0.048171237,4996,4996,0,2,1
112067419,112067036,3932170,3932170,4.4751967e-05,8.972955e-06,4.7505564e-06,-0.0017827143,-0.00080545264,-0.048900697,4997,4997,0,2,1
112567079,112566697,3932170,3932170,7.3716155e-06,6.3785654e-07,3.0746727e-05,-0.0019602366,-0.00019850602,-0.048823975,4996,4996,0,2,1
113066742,113066359,3932170,3932170,-6.401423e-06,-3.0922647e-06,1.9808678e-05,-0.0019877104,0.0012681767,-0.048284296,4997,4997,0,2,1
113566452,113566020,3932170,3932170,-9.624181e-05,9.3945914e-07,2.0579044e-05,-0.002059438,0.00027244582,-0.04815184,4996,4996,0,2,1
114066088,114065682,3932170,3932170,-3.2232703e-05,-3.1642983e-06,2.4250423e-05,-0.001918822,0.0001515532,-0.048623323,4997,4997,0,2,1
114570725,114570340,3932170,3932170,-2.009074e-05,-7.1976133e-06,1.3247758e-05,-0.0015515676,-0.0004135941,-0.048506312,4997,4997,0,2,1
115070383,115070001,3932170,3932170,5.4785607e-05,1.2617485e-05,4.866439e-05,-0.0022556034,-0.00013136088,-0.048820674,4995,4995,0,2,1
115570047,115569663,3932170,3932170,6.221132e-05,1.0853215e-05,-2.7091566e-05,-0.002038408,0.0008719942,-0.048286278,4993,4993,0,2,1
116064759,116064328,3932170,3932170,6.372558e-05,1.141527e-05,-0.00013004527,-0.0023883916,0.0019594424,-0.04892753,4997,4997,0,2,1
116564368,116563990,3932170,3932170,-8.8280125e-05,3.5348632e-05,-0.0001532141,-0.0021330807,0.0012185463,-0.050005075,4997,4997,0,2,1
117069032,117068648,3932170,3932170,-0.000112758375,3.8886503e-07,-8.198549e-05,-0.0022912659,-0.00047435562,-0.048625644,4997,4997,0,2,1
117568690,117568310,3932170,3932170,-7.084128e-05,-2.3939965e-06,4.5069704e-05,-0.0027061403,4.3965345e-05,-0.04864566,4997,4997,0,2,1
118068354,118067971,3932170,3932170,2.3507244e-05,-3.626343e-06,7.425747e-05,-0.0023142048,0.0011185141,-0.048741154,4996,4996,0,2,1
118568014,118567633,3932170,3932170,-1.1720472e-06,1.7547451e-06,6.3789346e-05,-0.0020385096,0.00032976313,-0.049204532,4997,4997,0,2,1
119067689,119067295,3932170,3932170,2.3243869e-05,0.000112735695,4.9674232e-05,-0.0029146601,0.0013499763,-0.050096657,4997,4997,0,2,1
119567336,119566957,3932170,3932170,7.198815e-05,2.1146745e-05,1.004591e-06,-0.0023020587,0.0009878967,-0.049430907,4997,4997,0,2,1
120066999,120066618,3932170,3932170,1.3204307e-05,0.00010286505,-3.8786762e-05,-0.0028563847,0.0011295757,-0.049141377,4996,4996,0,2,1
120566667,120566281,3932170,3932170,-3.8110535e-05,-1.3345509e-05,-5.8717316e-05,-0.002176342,0.0014049078,-0.049017936,4997,4997,0,2,1
121066329,121065942,3932170,3932170,-9.895826e-05,-2.3835304e-05,-0.00013835897,-0.0024514666,0.0013066913,-0.048584886,4996,4996,0,2,1
121565984,121565604,3932170,3932170,-8.8307555e-05,1.9324807e-05,-0.00012015199,-0.00030044018,0.0006224714,-0.048184898,4997,4997,0,2,1
122070658,122070263,3932170,3932170,-1.8668425e-05,0.00011435222,-2.262706e-05,-0.0030333803,0.00040928472,-0.051109545,4997,4997,0,2,1
122570306,122569925,3932170,3932170,-2.7685355e-05,1.1612456e-05,9.383871e-05,-0.0005355343,-8.6528205e-05,-0.04911931,4997,4997,0,2,1
123064971,123064590,3932170,3932170,7.774983e-06,-1.8168406e-05,9.3309536e-05,-0.0019233526,0.0008581263,-0.048431184,4997,4997,0,2,1
123564635,123564252,3932170,3932170,-4.4649318e-05,1.674022e-05,8.621643e-05,-0.00097845,0.00075628224,-0.048327234,4997,4997,0,2,1
124069339,124068911,3932170,3932170,-7.836043e-05,2.198618e-05,7.214815e-05,-0.0028893098,7.094383e-05,-0.049834862,4997,4997,0,2,1
124568952,124568573,3932170,3932170,-3.4125098e-06,2.901656e-05,-1.596817e-05,-0.0013527904,0.0014982522,-0.0488985,4997,4997,0,2,1
125068619,125068235,3932170,3932170,0.00010808317,9.707574e-05,-0.00016401845,-0.0015892849,0.0021169116,-0.0526535,4997,4997,0,2,1
125568283,125567897,3932170,3932170,-0.00014273237,4.5098768e-05,-6.7781744e-05,-0.0018916172,-0.0006423833,-0.054369975,4997,4997,0,2,1
126067938,126067559,3932170,3932170,-3.374292e-05,-7.981762e-05,4.135266e-05,0.0012073162,-0.0050297887,-0.05153906,4997,4997,0,2,1
126567602,126567221,3932170,3932170,8.708081e-05,-8.6513e-05,0.00011782944,-0.0017961354,0.0009397319,-0.05671676,4996,4996,0,2,1
127067288,127066883,3932170,3932170,-0.00017875154,-0.00010066705,0.00011991048,-0.0029509002,0.005147441,-0.036433935,4996,4996,0,2,1
127566996,127566546,3932170,3932170,9.788198e-05,-0.0002501914,4.8543112e-05,0.0095313545,0.0027921984,-0.0576397,4997,4997,0,2,1
128066622,128066208,3932170,3932170,-7.044071e-05,-1.9396055e-05,2.0843354e-05,0.0013895324,-0.0011880329,-0.050335843,4997,4997,0,2,1
128566285,128565870,3932170,3932170,0.00013086386,-5.8917336e-05,-6.287422e-06,-0.0055373665,0.0034466663,-0.034930903,4996,4996,0,2,1
129070951,129070535,3932170,3932170,-0.00015851298,-5.822092e-05,-2.2184631e-05,0.0036068899,-0.0003111258,-0.04485702,5002,5002,0,2,1
129570647,129570192,3932170,3932170,-0.00015130705,3.319716e-05,-6.835045e-05,-0.0018153347,0.002402684,-0.060607694,4997,4997,0,2,1
130065272,130064857,3932170,3932170,-8.5352e-05,6.072478e-05,-5.7017955e-05,-0.0015867302,0.003176195,-0.03429646,4996,4996,0,2,1
130564933,130564520,3932170,3932170,-5.076747e-05,-3.73472e-05,-1.2067643e-05,-0.0073244516,0.0033653183,-0.02481972,4995,4995,0,2,1
131069597,131069179,3932170,3932170,-5.5535074e-05,-6.877586e-05,-2.5703133e-05,-0.019759895,-0.0012912571,-0.01724506,4997,4997,0,2,1
131569262,131568841,3932170,3932170,9.729681e-06,1.3148942e-05,-3.7299298e-05,-0.0016740301,0.008288523,-0.06576294,4996,4996,0,2,1
132069071,132068504,3932170,3932170,-1.2159002e-05,0.0001393451,-2.9646691e-05,0.011174831,0.009944895,-0.05568768,4997,4997,0,2,1
132568585,132568167,3932170,3932170,0.00014250127,1.0155269e-05,-3.0473759e-05,-0.016094489,-0.011731683,-0.040750634,4997,4997,0,2,1
133068245,133067829,3932170,3932170,6.3970574e-06,5.1011102e-05,-2.0398487e-05,-0.014764716,-0.007880166,-0.036795333,4997,4997,0,2,1
133567913,133567491,3932170,3932170,5.013963e-05,-1.4740084e-05,-1.0805069e-05,-0.0031581204,0.0041741547,-0.06265018,4996,4996,0,2,1
134067572,134067154,3932170,3932170,3.837242e-05,-6.2541345e-05,2.563217e-05,0.0020429124,0.007925501,-0.05000427,4997,4997,0,2,1
134567233,134566816,3932170,3932170,-6.8548816e-06,-4.226277e-05,4.5169716e-05,-0.009620835,0.006482915,-0.041655075,4996,4996,0,2,1
135066896,135066479,3932170,3932170,-5.017835e-05,-7.551479e-05,4.325689e-05,-0.008308928,0.0029601366,-0.030979741,4997,4997,0,2,1
135566559,135566142,3932170,3932170,-6.956146e-05,-9.388597e-05,6.763265e-05,-0.012966433,0.005093249,-0.03786764,4997,4997,0,2,1
136071221,136070801,3932170,3932170,-4.1800147e-05,-2.2117494e-05,5.0893137e-05,-0.013356389,0.008913644,-0.037567485,4997,4997,0,2,1
136570879,136570464,3932170,3932170,-2.7173317e-05,-4.9176142e-05,0.000108202876,-0.008920001,-0.0064343307,-0.041729894,4997,4997,0,2,1
137065559,137065130,3932170,3932170,-9.781823e-05,-0.00014390633,7.961111e-05,0.008505049,-0.0020321086,-0.040198,4997,4997,0,2,1
137565212,137564793,3932170,3932170,1.2479655e-05,9.0342925e-05,6.355462e-05,0.0040863017,-0.00028017745,-0.06027794,4997,4997,0,2,1
138064873,138064455,3932170,3932170,1.5504242e-05,-6.843049e-05,0.00010252385,0.010114804,-0.00039355745,-0.056222428,4996,4996,0,2,1
138569529,138569115,3932170,3932170,0.00013835591,7.230602e-06,-1.3365071e-05,-0.006277953,0.002293563,-0.03513627,4997,4997,0,2,1
139069196,139068778,3932170,3932170,9.480462e-06,3.2303837e-05,-8.987693e-05,0.0004766169,-0.0011089663,-0.060597975,4997,4997,0,2,1
139568856,139568440,3932170,3932170,-7.142999e-05,-4.2095442e-05,-0.000112535636,-0.0039734356,0.0013200564,-0.020398678,4996,4996,0,2,1
140068521,140068103,3932170,3932170,-0.00016237555,-3.0749172e-05,-0.00010962133,-0.011263507,-0.0009581697,-0.031931024,4996,4996,0,2,1
140568182,140567766,3932170,3932170,-6.411066e-05,-8.721806e-05,-0.00016662199,-0.0126402145,-0.008926447,-0.04140393,4996,4996,0,2,1
141067869,141067429,3932170,3932170,-0.00011147582,0.00016045614,-0.00020152786,-0.0036568574,-0.0070095896,-0.033303376,4996,4996,0,2,1
141567508,141567092,3932170,3932170,-6.976355e-05,-6.276093e-05,-0.00015557354,-0.0064596278,-0.01406655,-0.052807696,4996,4996,0,2,1
142067173,142066755,3932170,3932170,-0.00011775085,1.0709339e-05,-1.6247208e-05,-0.020567019,-0.005566459,-0.03378137,4996,4996,0,2,1
142566834,142566418,3932170,3932170,1.1186165e-05,-6.560513e-06,-2.7051248e-05,0.014675485,0.0045853658,-0.03415427,4996,4996,0,2,1
143066521,143066082,3932170,3932170,-2.8475608e-05,-8.889252e-05,-9.2233395e-06,-0.016939681,0.014794509,-0.032634273,4997,4997,0,2,1
143571176,143570741,3932170,3932170,-9.1127695e-05,-7.370359e-05,-7.7561024e-05,-0.022982402,0.009819133,-0.049129702,4997,4997,0,2,1
144065821,144065408,3932170,3932170,3.604464e-05,0.00013788995,-3.8853337e-05,0.011761834,-0.01302624,-0.061005738,4997,4997,0,2,1
144565488,144565071,3932170,3932170,-8.367644e-05,-3.850729e-05,2.505693e-05,-0.016726758,0.011981227,-0.030305333,4997,4997,0,2,1
145065162,145064734,3932170,3932170,1.0543029e-05,-3.0705287e-05,4.3774216e-05,-0.015130848,0.012323387,-0.03109929,4997,4997,0,2,1
145569808,145569394,3932170,3932170,1.8559676e-05,0.00012148441,4.7389458e-05,-0.0011289085,-0.0034749806,-0.061064683,4997,4997,0,2,1
146069471,146069057,3932170,3932170,-0.0001255404,2.2278087e-05,8.814113e-05,0.015397954,-0.00062471896,-0.04110734,4997,4997,0,2,1
146569138,146568720,3932170,3932170,0.00020338422,-1.7365506e-05,1.5115323e-05,-0.00972381,0.0007352387,-0.04161461,4997,4997,0,2,1
147068798,147068383,3932170,3932170,-0.00011652997,4.1671687e-05,8.05021e-05,0.012758418,0.002258919,-0.046219893,4996,4996,0,2,1
147568463,147568047,3932170,3932170,1.6604747e-05,7.287846e-05,-4.1329095e-05,-0.001916162,-0.0016302494,-0.04250822,4997,4997,0,2,1
148068125,148067710,3932170,3932170,-0.00010078773,-0.00011131241,-1.2322965e-05,0.003731378,-0.00024670496,-0.0501839,4997,4997,0,2,1
148567787,148567373,3932170,3932170,-0.00013562533,3.285199e-05,-1.713457e-05,-0.006302831,0.0019572142,-0.06468432,4996,4996,0,2,1
149067453,149067037,3932170,3932170,4.6668334e-05,-1.5960546e-05,-7.767469e-05,0.004202021,0.003530616,-0.04271956,4997,4997,0,2,1
149567124,149566700,3932170,3932170,-1.2438168e-05,6.7559367e-06,-9.5316056e-05,0.00021639928,0.0033660124,-0.04970705,4997,4997,0,2,1
150066807,150066363,3932170,3932170,3.8825066e-05,8.0460486e-05,-8.161724e-05,0.00011483024,0.002088098,-0.059142344,4996,4996,0,2,1
150571440,150571023,3932170,3932170,-0.00010284214,-2.4317285e-05,-3.744349e-05,0.009032673,0.0026807638,-0.04830814,4996,4996,0,2,1
151066105,151065690,3932170,3932170,-7.8102115e-05,-1.41084165e-05,-5.446851e-05,0.0010321052,0.00082429126,-0.04649886,4996,4996,0,2,1
151565770,151565354,3932170,3932170,-0.00011041662,5.9024283e-06,-2.857614e-07,0.002876011,0.005422799,-0.052296124,4997,4997,0,2,1
152065433,152065017,3932170,3932170,-9.294459e-05,-2.0514595e-05,1.2773914e-05,0.0009926955,-0.0021446988,-0.04363829,4996,4996,0,2,1
152570093,152569678,3932170,3932170,-0.00016267931,6.672242e-05,-6.990661e-06,-0.0023034075,-0.0024178312,-0.050241143,4997,4997,0,2,1
153069757,153069341,3932170,3932170,0.000109302506,1.2564539e-06,-1.141952e-05,0.0033685644,0.0002939092,-0.04979043,4997,4997,0,2,1
153569421,153569005,3932170,3932170,-2.8646102e-05,-1.8798242e-05,5.9470218e-05,-0.0015892895,-0.0031431832,-0.04836822,4997,4997,0,2,1
154069085,154068668,3932170,3932170,0.00010525707,1.4538528e-05,7.06378e-05,-0.0015727723,0.001713134,-0.050703283,4996,4996,0,2,1
154568750,154568332,3932170,3932170,0.00016690436,2.9172106e-05,4.6600206e-05,0.003037221,-0.00078530225,-0.04666973,4997,4997,0,2,1
155068410,155067996,3932170,3932170,-0.00010148688,2.3296292e-05,7.1856e-05,0.0037016224,0.0018958037,-0.049609847,4997,4997,0,2,1
155568093,155567659,3932170,3932170,-5.7175534e-06,-9.805882e-05,6.4605556e-05,-0.0019425638,0.0028071082,-0.04519366,4994,4994,0,2,1
156067737,156067323,3932170,3932170,7.0723574e-05,5.6035653e-05,6.6093045e-05,0.0005282779,0.0050013065,-0.051976163,4997,4997,0,2,1
156567402,156566987,3932170,3932170,-5.251267e-05,-9.619567e-06,2.8278782e-05,-0.0044850647,0.0023608673,-0.05216143,4997,4997,0,2,1
157067086,157066651,3932170,3932170,1.8652108e-05,3.2375738e-05,6.4166375e-06,-0.0034259916,0.0010487962,-0.04975549,4997,4997,0,2,1
157571751,157571312,3932170,3932170,-9.288885e-06,-3.8379505e-05,7.1096015e-06,-0.0040451903,-0.0007630238,-0.050316483,4998,4998,0,2,1
158066409,158065978,3932170,3932170,-1.6485943e-06,-2.1765493e-06,-7.6197193e-06,-0.0025482683,-0.00046329355,-0.049082574,4996,4996,0,2,1
158566060,158565642,3932170,3932170,-7.130419e-05,-4.5016714e-06,-1.8283905e-05,-0.0007342659,0.0002237844,-0.048898336,4996,4996,0,2,1
159065725,159065306,3932170,3932170,2.4767804e-05,-1.1223535e-05,-2.1348038e-05,-0.0011224289,0.0003472731,-0.048837677,4997,4997,0,2,1
159565388,159564970,3932170,3932170,-3.2009306e-05,2.4401525e-05,2.9026869e-05,-0.0026214758,-0.00015580346,-0.048673067,4997,4997,0,2,1
160070045,160069631,3932170,3932170,6.872252e-05,6.7332408e-06,-1.5682592e-05,-0.0011254055,0.0009401832,-0.048909303,4997,4997,0,2,1
160569721,160569294,3932170,3932170,-6.242073e-06,-2.7473532e-06,2.78506e-07,-0.001029382,-0.0004140482,-0.04855649,4996,4996,0,2,1
161069396,161068958,3932170,3932170,-4.6054814e-05,9.930217e-06,2.5145375e-05,-0.0018447099,-2.5983267e-05,-0.049019683,4996,4996,0,2,1
161564041,161563626,3932170,3932170,-1.1149123e-05,3.1384777e-06,-1.4499113e-05,-0.0015717514,-0.00038192736,-0.049029384,4997,4997,0,2,1
162068700,162068286,3932170,3932170,-1.4181389e-05,1.7384353e-05,3.8918483e-06,-0.0013022893,-7.769918e-05,-0.04877054,4996,4996,0,2,1
162568368,162567951,3932170,3932170,-2.8791972e-05,-9.9768595e-06,1.0938743e-06,-0.0012011536,0.0008062738,-0.048617344,4997,4997,0,2,1
163068058,163067615,3932170,3932170,-7.235721e-06,1.8043958e-05,6.1815545e-06,-0.0015575513,0.0001855559,-0.048897218,4997,4997,0,2,1
163567696,163567279,3932170,3932170,-6.537096e-05,-9.647234e-06,5.442086e-06,-0.0011872944,4.2070693e-05,-0.048829548,4997,4997,0,2,1
164067357,164066943,3932170,3932170,-3.0376414e-05,1.5992731e-05,2.070462e-06,-0.0013402295,0.00026579647,-0.048874244,4997,4997,0,2,1
164567023,164566607,3932170,3932170,2.0219428e-05,8.6895325e-06,-1.4716576e-05,-0.0013991441,-0.00031242595,-0.049028732,4996,4996,0,2,1
165066689,165066271,3932170,3932170,-2.360083e-05,9.530162e-06,-1.2799616e-05,-0.0013473528,0.00049849984,-0.049052283,4996,4996,0,2,1
165566353,165565935,3932170,3932170,-3.14501e-05,9.609089e-06,3.5674213e-06,-0.0012583942,0.00081269327,-0.04882775,4996,4996,0,2,1
166066015,166065600,3932170,3932170,-4.4607972e-05,-6.6754916e-07,-1.1424004e-05,-0.00134536,-9.506939e-05,-0.048938088,4996,4996,0,2,1
166565678,166565264,3932170,3932170,-4.98268e-06,1.3381429e-05,2.6774892e-06,-0.0014880786,0.00037718838,-0.048919223,4997,4997,0,2,1
167070339,167069925,3932170,3932170,6.960112e-05,3.6703317e-05,-4.7143414e-05,-0.0015976568,8.605434e-05,-0.0490666,4997,4997,0,2,1
167570004,167569589,3932170,3932170,6.185242e-05,-2.8706377e-06,-1.0540913e-05,-0.0011027787,-0.00036840976,-0.0488056,4996,4996,0,2,1
168069691,168069254,3932170,3932170,1.8664126e-05,1.7703967e-05,-1.4341665e-05,-0.0011997507,-0.000490082,-0.048747186,4997,4997,0,2,1
168564336,168563922,3932170,3932170,-2.3700391e-05,-1.2785411e-05,9.201707e-06,-0.0008840464,-0.0003173123,-0.04902486,4997,4997,0,2,1
169068997,169068582,3932170,3932170,-2.7463931e-05,4.6988066e-06,-1.0441959e-05,-0.0017088269,-0.0009827135,-0.048946954,4996,4996,0,2,1
169568660,169568247,3932170,3932170,-6.7803165e-05,-1.5207746e-05,3.7685368e-05,-0.0012475296,-7.699924e-06,-0.049175106,4997,4997,0,2,1
170068327,170067911,3932170,3932170,-3.625967e-05,1.5419893e-06,-3.2035541e-06,-0.0018982472,5.7723395e-05,-0.048993062,4996,4996,0,2,1
170567991,170567576,3932170,3932170,2.7169366e-05,3.1411408e-05,6.2942513e-06,-0.0013917786,-0.00018394762,-0.04885496,4997,4997,0,2,1
171067652,171067240,3932170,3932170,-6.0093616e-06,1.785324e-06,-3.2249573e-05,-0.0015652406,-0.000662493,-0.04953891,4996,4996,0,2,1
171567321,171566905,3932170,3932170,3.0938277e-06,1.8966142e-05,4.740296e-06,-0.0012300563,-0.0007728074,-0.04889806,4997,4997,0,2,1
172066987,172066569,3932170,3932170,-9.714197e-05,-4.8385195e-06,6.880163e-06,-0.0013574067,0.00025035703,-0.04969992,4996,4996,0,2,1
172566648,172566234,3932170,3932170,-1.4398155e-05,8.27048e-06,7.416199e-08,-0.0013146404,-0.00024992213,-0.04874183,4997,4997,0,2,1
173066317,173065900,3932170,3932170,2.2058514e-06,1.711373e-05,-1.0757945e-05,-0.0012249523,-0.0010198796,-0.048887145,4998,4998,0,2,1
173565980,173565563,3932170,3932170,2.4242854e-06,8.8196e-06,-1.9985408e-05,-0.0014032131,3.9944076e-05,-0.04879943,4996,4996,0,2,1
174070643,174070225,3932170,3932170,1.5534579e-05,1.0801546e-05,-1.1695631e-05,-0.0015229714,-0.000353783,-0.049372826,4997,4997,0,2,1
174570306,174569889,3932170,3932170,-4.6683956e-05,8.189729e-06,-4.4218687e-06,-0.0011199255,-6.424557e-05,-0.048739456,4996,4996,0,2,1
175069971,175069554,3932170,3932170,-3.438672e-05,-1.0384689e-05,-2.106291e-06,-0.001209833,-0.0006576956,-0.04871427,4997,4997,0,2,1
175564638,175564223,3932170,3932170,2.2485854e-06,8.83688e-07,-2.0830297e-05,-0.001267231,-0.0003293146,-0.048794355,4998,4998,0,2,1
176069299,176068883,3932170,3932170,-7.286303e-07,1.1644075e-05,1.0412593e-05,-0.0013416627,-0.001289182,-0.048954505,4996,4996,0,2,1
176568961,176568548,3932170,3932170,-8.896724e-07,4.67085e-06,-5.4121265e-06,-0.0013509894,-8.3359875e-05,-0.048787765,4996,4996,0,2,1
177068627,177068213,3932170,3932170,-1.1902199e-05,7.447256e-06,-1.3678699e-05,-0.0010989052,-0.0007527646,-0.049050815,4996,4996,0,2,1
177568290,177567878,3932170,3932170,-3.0308956e-05,-1.4846548e-06,-3.197709e-06,-0.0014157,-0.00045886563,-0.048973255,4997,4997,0,2,1
178067958,178067543,3932170,3932170,-3.125353e-05,1.439139e-05,-7.098794e-06,-0.0011341203,-0.0006444083,-0.048960485,4997,4997,0,2,1
178567664,178567208,3932170,3932170,-2.5254683e-05,-3.3134045e-06,-8.9493315e-06,-0.0014567656,0.00014639007,-0.048880015,4997,4997,0,2,1
179067286,179066873,3932170,3932170,5.2743076e-06,1.34291295e-05,-2.0397263e-06,-0.0013117502,-0.0003049593,-0.049212933,4997,4997,0,2,1
179566950,179566538,3932170,3932170,2.297724e-05,3.7813518e-06,-9.947861e-06,-0.0013414866,-0.00057849253,-0.048781577,4997,4997,0,2,1
180066617,180066203,3932170,3932170,6.090976e-05,1.558955e-05,-4.41508e-06,-0.0012942881,-0.00060151273,-0.04898497,4997,4997,0,2,1
180566287,180565868,3932170,3932170,-2.7226575e-05,1.2780196e-05,-1.7726128e-05,-0.0013612302,-0.0007061671,-0.049268164,4997,4997,0,2,1
181066093,181065533,3932170,3932170,-5.464705e-05,-9.599086e-06,1.2394975e-05,-0.0010256694,-0.00055183796,-0.048944436,4995,4995,0,2,1
181570636,181570194,3932170,3932170,-7.979832e-06,5.1696784e-06,-1.6628306e-05,-0.0014973534,-0.000450127,-0.048690233,4996,4996,0,2,1
182070286,182069859,3932170,3932170,1.3720978e-05,1.6848067e-05,-7.5392327e-06,-0.0013995143,-0.0007218808,-0.04898573,4996,4996,0,2,1
182564945,182564528,3932170,3932170,3.1055138e-06,1.6010512e-05,-1.0687086e-05,-0.0014433177,-0.00013256144,-0.048955362,4997,4997,0,2,1
183064607,183064193,3932170,3932170,-2.6340875e-05,-4.196867e-06,1.1015529e-05,-0.0012776168,-0.0004896466,-0.04882215,4997,4997,0,2,1
183569289,183568855,3932170,3932170,-4.100637e-06,8.276281e-06,-4.078812e-06,-0.0014146457,-0.00082795206,-0.048986897,4997,4997,0,2,1
184069077,184068520,3932170,3932170,3.322672e-05,9.595649e-06,-1.5262558e-05,-0.0011695077,-0.0008037643,-0.04881986,4997,4997,0,2,1
184568599,184568185,3932170,3932170,-4.371049e-05,3.25118e-06,2.0420564e-06,-0.001319754,-0.0006675629,-0.04894971,4996,4996,0,2,1
185068265,185067851,3932170,3932170,-7.5363576e-05,-8.57867e-06,7.214429e-06,-0.0011557387,0.00039320145,-0.048917424,4997,4997,0,2,1
185567935,185567517,3932170,3932170,-1.7215436e-05,1.1261114e-05,-1.5665344e-06,-0.0015925834,-0.00012506369,-0.048919745,4997,4997,0,2,1
186067595,186067181,3932170,3932170,-4.588849e-06,2.6843486e-06,-5.8684577e-06,-0.0013628507,-0.00033465,-0.04898562,4997,4997,0,2,1
186567273,186566846,3932170,3932170,-4.399639e-05,6.9911157e-06,3.142948e-06,-0.0015084019,-0.00042368137,-0.04883438,4996,4996,0,2,1
187066928,187066512,3932170,3932170,-9.78404e-06,1.4238913e-05,-6.3003977e-06,-0.0013164692,-0.0006071014,-0.048939284,4997,4997,0,2,1
187566590,187566177,3932170,3932170,-3.2763815e-05,3.0125052e-06,2.2361692e-06,-0.0012770072,-0.00058761705,-0.04880792,4996,4996,0,2,1
188066256,188065843,3932170,3932170,-1.780588e-05,1.0436032e-05,-3.8064932e-06,-0.0013993201,-0.000481001,-0.04900576,4997,4997,0,2,1
188570924,188570505,3932170,3932170,-2.9961191e-05,4.7245985e-06,-2.3917469e-06,-0.0013933139,-0.00071588374,-0.048970047,4996,4996,0,2,1
189065652,189065173,3932170,3932170,-1.5838705e-05,1.5994437e-05,1.4247472e-06,-0.0013276759,-0.0005163394,-0.04902102,4995,4995,0,2,1
189565258,189564839,3932170,3932170,-1.7541255e-05,-1.0163061e-05,-9.29733e-06,-0.0014157837,-0.0005487936,-0.04895654,4997,4997,0,2,1
190064927,190064504,3932170,3932170,-1.0573875e-05,1.43451625e-05,-3.026527e-06,-0.0011662494,-0.000382391,-0.048977584,4996,4996,0,2,1
