timestamp,timestamp_last_signal,rssi,rc_lost_frame_count,rc_total_frame_count,rc_ppm_frame_length,values[0],values[1],values[2],values[3],values[4],values[5],values[6],values[7],values[8],values[9],values[10],values[11],values[12],values[13],values[14],values[15],values[16],values[17],channel_count,rc_failsafe,rc_lost,input_source
17402115,17402115,255,0,0,0,1495,1494,1494,1494,982,982,2006,1494,1494,1494,1494,1494,1494,1494,1494,1494,998,998,18,0,0,9
17906114,17906114,255,0,0,0,1495,1494,1494,1494,982,982,2006,1494,1494,1494,1494,1494,1494,1494,1494,1494,998,998,18,0,0,9
18398516,18398516,255,0,0,0,1495,1494,1494,1494,982,982,2006,1494,1494,1494,1494,1494,1494,1494,1494,1494,998,998,18,0,0,9
18902113,18902113,255,0,0,0,1494,1494,1494,1494,982,982,2006,1494,1494,1494,1494,1494,1494,1494,1494,1494,998,998,18,0,0,9
19402113,19402113,255,0,0,0,1495,1494,1494,1494,982,982,2006,1494,1494,1494,1494,1494,1494,1494,1494,1494,998,998,18,0,0,9
19906113,19906113,255,0,0,0,1495,1494,1494,1494,982,982,2006,1494,1494,1494,1494,1494,1494,1494,1494,1494,998,998,18,0,0,9
20406546,20406546,255,0,0,0,1494,1494,1494,1494,982,982,2006,1494,1494,1494,1494,1494,1494,1494,1494,1494,998,998,18,0,0,9
20902113,20902113,255,0,0,0,1495,1494,1494,1494,982,982,2006,1494,1494,1494,1494,1494,1494,1494,1494,1494,998,998,18,0,0,9
21406113,21406113,255,0,0,0,1495,1494,1494,1494,982,982,2006,1494,1494,1494,1494,1494,1494,1494,1494,1494,998,998,18,0,0,9
21898113,21898113,255,0,0,0,1494,1494,1494,1494,982,982,2006,1494,1494,1494,1494,1494,1494,1494,1494,1494,998,998,18,0,0,9
22402113,22402113,255,0,0,0,1494,1494,1494,1494,982,982,2006,1494,1494,1494,1494,1494,1494,1494,1494,1494,998,998,18,0,0,9
22898332,22898332,255,0,0,0,1495,1494,1494,1494,1037,1037,2006,1494,1494,1494,1494,1494,1494,1494,1494,1494,998,998,18,0,0,9
23406112,23406112,255,0,0,0,1495,1494,1494,1494,1132,1132,2006,1494,1494,1494,1494,1494,1494,1494,1494,1494,998,998,18,0,0,9
23902112,23902112,255,0,0,0,1495,1494,1494,1494,1175,1175,2006,1494,1494,1494,1494,1494,1494,1494,1494,1494,998,998,18,0,0,9
24406113,24406113,255,0,0,0,1495,1494,1494,1494,1247,1247,2006,1494,1494,1494,1494,1494,1494,1494,1494,1494,998,998,18,0,0,9
24906113,24906113,255,0,0,0,1495,1494,1494,1494,1247,1247,2006,1494,1494,1494,1494,1494,1494,1494,1494,1494,998,998,18,0,0,9
25402125,25402125,255,0,0,0,1495,1494,1494,1494,1245,1245,2006,1494,1494,1494,1494,1494,1494,1494,1494,1494,998,998,18,0,0,9
25902113,25902113,255,0,0,0,1494,1494,1494,1494,1223,1223,2006,1494,1494,1494,1494,1494,1494,1494,1494,1494,998,998,18,0,0,9
26398113,26398113,255,0,0,0,1495,1494,1494,1494,1215,1215,2006,1494,1494,1494,1494,1494,1494,1494,1494,1494,998,998,18,0,0,9
26902113,26902113,255,0,0,0,1495,1494,1494,1494,1215,1215,2006,1494,1494,1494,1494,1494,1494,1494,1494,1494,998,998,18,0,0,9
27402113,27402113,255,0,0,0,1494,1494,1494,1494,1215,1215,2006,1494,1494,1494,1494,1494,1494,1494,1494,1494,998,998,18,0,0,9
27906113,27906113,255,0,0,0,1494,1494,1494,1494,1215,1215,2006,1494,1494,1494,1494,1494,1494,1494,1494,1494,998,998,18,0,0,9
28398414,28398414,255,0,0,0,1495,1494,1494,1494,1215,1215,2006,1494,1494,1494,1494,1494,1494,1494,1494,1494,998,998,18,0,0,9
28902113,28902113,255,0,0,0,1495,1494,1494,1494,1215,1215,2006,1494,1494,1494,1494,1494,1494,1494,1494,1494,998,998,18,0,0,9
29398765,29398765,255,0,0,0,1495,1494,1494,1494,1215,1215,2006,1494,1494,1494,1494,1494,1494,1494,1494,1494,998,998,18,0,0,9
29898280,29898280,255,0,0,0,1494,1494,1494,1494,1215,1215,2006,1494,1494,1494,1494,1494,1494,1494,1494,1494,998,998,18,0,0,9
30402205,30402205,255,0,0,0,1494,1494,1494,1494,1215,1215,2006,1494,1494,1494,1494,1494,1494,1494,1494,1494,998,998,18,0,0,9
30906113,30906113,255,0,0,0,1495,1494,1494,1494,1215,1215,2006,1494,1494,1494,1494,1494,1494,1494,1494,1494,998,998,18,0,0,9
31406113,31406113,255,0,0,0,1495,1494,1494,1494,1215,1215,2006,1494,1494,1494,1494,1494,1494,1494,1494,1494,998,998,18,0,0,9
31902326,31902326,255,0,0,0,1494,1494,1494,1494,1215,1215,2006,1494,1494,1494,1494,1494,1494,1494,1494,1494,998,998,18,0,0,9
32402320,32402320,255,0,0,0,1495,1494,1494,1494,1215,1215,2006,1494,1494,1494,1494,1494,1494,1494,1494,1494,998,998,18,0,0,9
32898113,32898113,255,0,0,0,1495,1494,1494,1494,1215,1215,2006,1494,1494,1494,1494,1494,1494,1494,1494,1494,998,998,18,0,0,9
33402491,33402491,255,0,0,0,1495,1494,1494,1494,1215,1215,2006,1494,1494,1494,1494,1494,1494,1494,1494,1494,998,998,18,0,0,9
33902298,33902298,255,0,0,0,1495,1494,1494,1494,1215,1215,2006,1494,1494,1494,1494,1494,1494,1494,1494,1494,998,998,18,0,0,9
34406113,34406113,255,0,0,0,1494,1494,1494,1494,1245,1245,2006,1494,1494,1494,1494,1494,1494,1494,1494,1494,998,998,18,0,0,9
34906113,34906113,255,0,0,0,1495,1494,1494,1494,1331,1331,2006,1494,1494,1494,1494,1494,1494,1494,1494,1494,998,998,18,0,0,9
35402112,35402112,255,0,0,0,1495,1494,1494,1494,1378,1378,2006,1494,1494,1494,1494,1494,1494,1494,1494,1494,998,998,18,0,0,9
35898316,35898316,255,0,0,0,1494,1494,1494,1494,1458,1458,2006,1494,1494,1494,1494,1494,1494,1494,1494,1494,998,998,18,0,0,9
36398114,36398114,255,0,0,0,1495,1494,1494,1494,1670,1670,2006,1494,1494,1494,1494,1494,1494,1494,1494,1494,998,998,18,0,0,9
36902113,36902113,255,0,0,0,1495,1494,1494,1494,1774,1774,2006,1494,1494,1494,1494,1494,1494,1494,1494,1494,998,998,18,0,0,9
37406123,37406123,255,0,0,0,1495,1494,1494,1468,1972,1972,2006,1494,1494,1494,1494,1494,1494,1494,1494,1494,998,998,18,0,0,9
37906113,37906113,255,0,0,0,1494,1494,1494,1434,2006,2006,2006,1494,1494,1494,1494,1494,1494,1494,1494,1494,998,998,18,0,0,9
38402114,38402114,255,0,0,0,1494,1494,1494,1429,2006,2006,2006,1494,1494,1494,1494,1494,1494,1494,1494,1494,998,998,18,0,0,9
38906249,38906249,255,0,0,0,1494,1494,1494,1474,2006,2006,2006,1494,1494,1494,1494,1494,1494,1494,1494,1494,998,998,18,0,0,9
39398113,39398113,255,0,0,0,1494,1494,1494,1494,2006,2006,2006,1494,1494,1494,1494,1494,1494,1494,1494,1494,998,998,18,0,0,9
39902116,39902116,255,0,0,0,1494,1494,1494,1496,2006,2006,2006,1494,1494,1494,1494,1494,1494,1494,1494,1494,998,998,18,0,0,9
40402114,40402114,255,0,0,0,1495,1494,1494,1536,2006,2006,2006,1494,1494,1494,1494,1494,1494,1494,1494,1494,998,998,18,0,0,9
40898223,40898223,255,0,0,0,1495,1494,1496,1494,1978,1978,2006,1494,1494,1494,1494,1494,1494,1494,1494,1494,998,998,18,0,0,9
41402113,41402113,255,0,0,0,1480,1478,1510,1497,1857,1857,2006,1494,1494,1494,1494,1494,1494,1494,1494,1494,998,998,18,0,0,9
41902166,41902166,255,0,0,0,1465,1464,1536,1505,1674,1674,2006,1494,1494,1494,1494,1494,1494,1494,1494,1494,998,998,18,0,0,9
42406113,42406113,255,0,0,0,1405,1405,1392,1571,1549,1549,2006,1494,1494,1494,1494,1494,1494,1494,1494,1494,998,998,18,0,0,9
42902412,42902412,255,0,0,0,1456,1456,1377,1482,1470,1470,2006,1494,1494,1494,1494,1494,1494,1494,1494,1494,998,998,18,0,0,9
43402116,43402116,255,0,0,0,1477,1476,1440,1522,1447,1447,2006,1494,1494,1494,1494,1494,1494,1494,1494,1494,998,998,18,0,0,9
43898113,43898113,255,0,0,0,1494,1492,1494,1570,1462,1462,2006,1494,1494,1494,1494,1494,1494,1494,1494,1494,998,998,18,0,0,9
44406114,44406114,255,0,0,0,1489,1488,1462,1566,1468,1468,2006,1494,1494,1494,1494,1494,1494,1494,1494,1494,998,998,18,0,0,9
44902112,44902112,255,0,0,0,1493,1492,1458,1579,1448,1448,2006,1494,1494,1494,1494,1494,1494,1494,1494,1494,998,998,18,0,0,9
45406113,45406113,255,0,0,0,1492,1492,1491,1541,1486,1486,2006,1494,1494,1494,1494,1494,1494,1494,1494,1494,998,998,18,0,0,9
45906113,45906113,255,0,0,0,1495,1494,1494,1494,1485,1485,2006,1494,1494,1494,1494,1494,1494,1494,1494,1494,998,998,18,0,0,9
46402400,46402400,255,0,0,0,1512,1512,1494,1493,1470,1470,2006,1494,1494,1494,1494,1494,1494,1494,1494,1494,998,998,18,0,0,9
46902113,46902113,255,0,0,0,1593,1592,1494,1494,1446,1446,2006,1494,1494,1494,1494,1494,1494,1494,1494,1494,998,998,18,0,0,9
47398114,47398114,255,0,0,0,1531,1530,1490,1448,1590,1590,2006,1494,1494,1494,1494,1494,1494,1494,1494,1494,998,998,18,0,0,9
47902395,47902395,255,0,0,0,1598,1598,1494,1345,1507,1507,2006,1494,1494,1494,1494,1494,1494,1494,1494,1494,998,998,18,0,0,9
48402136,48402136,255,0,0,0,1529,1528,1468,1461,1588,1588,2006,1494,1494,1494,1494,1494,1494,1494,1494,1494,998,998,18,0,0,9
48906113,48906113,255,0,0,0,1535,1535,1494,1450,1552,1552,2006,1494,1494,1494,1494,1494,1494,1494,1494,1494,998,998,18,0,0,9
49406114,49406114,255,0,0,0,1519,1519,1491,1396,1430,1430,2006,1494,1494,1494,1494,1494,1494,1494,1494,1494,998,998,18,0,0,9
49902127,49902127,255,0,0,0,1495,1494,1494,1505,1494,1494,2006,1494,1494,1494,1494,1494,1494,1494,1494,1494,998,998,18,0,0,9
50398113,50398113,255,0,0,0,1540,1540,1465,1385,1370,1370,2006,1494,1494,1494,1494,1494,1494,1494,1494,1494,998,998,18,0,0,9
50898114,50898114,255,0,0,0,1587,1587,1494,1327,1473,1473,2006,1494,1494,1494,1494,1494,1494,1494,1494,1494,998,998,18,0,0,9
51402328,51402328,255,0,0,0,1654,1654,1494,1216,1448,1448,2006,1494,1494,1494,1494,1494,1494,1494,1494,1494,998,998,18,0,0,9
51906113,51906113,255,0,0,0,1402,1401,1495,1500,1460,1460,2006,1494,1494,1494,1494,1494,1494,1494,1494,1494,998,998,18,0,0,9
52406113,52406113,255,0,0,0,1399,1398,1494,1542,1442,1442,2006,1494,1494,1494,1494,1494,1494,1494,1494,1494,998,998,18,0,0,9
52902112,52902112,255,0,0,0,1392,1392,1494,1512,1431,1431,2006,1494,1494,1494,1494,1494,1494,1494,1494,1494,998,998,18,0,0,9
53402113,53402113,255,0,0,0,1639,1638,1494,1492,1398,1398,2006,1494,1494,1494,1494,1494,1494,1494,1494,1494,998,998,18,0,0,9
53898112,53898112,255,0,0,0,1612,1612,1494,1478,1398,1398,2006,1494,1494,1494,1494,1494,1494,1494,1494,1494,998,998,18,0,0,9
54402113,54402113,255,0,0,0,1752,1750,1495,1405,1398,1398,2006,1494,1494,1494,1494,1494,1494,1494,1494,1494,998,998,18,0,0,9
54902113,54902113,255,0,0,0,1636,1635,1494,1397,1427,1427,2006,1494,1494,1494,1494,1494,1494,1494,1494,1494,998,998,18,0,0,9
55406554,55406554,255,0,0,0,1571,1571,1530,1405,1461,1461,2006,1494,1494,1494,1494,1494,1494,1494,1494,1494,998,998,18,0,0,9
55902113,55902113,255,0,0,0,1495,1495,1494,1486,1420,1420,2006,1494,1494,1494,1494,1494,1494,1494,1494,1494,998,998,18,0,0,9
56402112,56402112,255,0,0,0,1197,1196,1495,1594,1448,1448,2006,1494,1494,1494,1494,1494,1494,1494,1494,1494,998,998,18,0,0,9
56898114,56898114,255,0,0,0,1493,1493,1494,1494,1427,1427,2006,1494,1494,1494,1494,1494,1494,1494,1494,1494,998,998,18,0,0,9
57398113,57398113,255,0,0,0,1489,1488,1488,1586,1434,1434,2006,1494,1494,1494,1494,1494,1494,1494,1494,1494,998,998,18,0,0,9
57902113,57902113,255,0,0,0,1505,1505,1495,1494,1468,1468,2006,1494,1494,1494,1494,1494,1494,1494,1494,1494,998,998,18,0,0,9
58406113,58406113,255,0,0,0,1495,1494,1495,1505,1456,1456,2006,1494,1494,1494,1494,1494,1494,1494,1494,1494,998,998,18,0,0,9
58906113,58906113,255,0,0,0,1494,1494,1494,1505,1405,1405,2006,1494,1494,1494,1494,1494,1494,1494,1494,1494,998,998,18,0,0,9
59402292,59402292,255,0,0,0,1495,1495,1494,1492,1408,1408,2006,1494,1494,1494,1494,1494,1494,1494,1494,1494,998,998,18,0,0,9
59906112,59906112,255,0,0,0,1578,1577,1494,1397,1408,1408,2006,1494,1494,1494,1494,1494,1494,1494,1494,1494,998,998,18,0,0,9
60398112,60398112,255,0,0,0,1504,1504,1502,1483,1468,1468,2006,1494,1494,1494,1494,1494,1494,1494,1494,1494,998,998,18,0,0,9
60902112,60902112,255,0,0,0,1426,1425,1494,1617,1503,1503,2006,1494,1494,1494,1494,1494,1494,1494,1494,1494,998,998,18,0,0,9
61402262,61402262,255,0,0,0,1415,1415,1494,1630,1456,1456,2006,1494,1494,1494,1494,1494,1494,1494,1494,1494,998,998,18,0,0,9
61906113,61906113,255,0,0,0,1492,1492,1504,1527,1436,1436,2006,1494,1494,1494,1494,1494,1494,1494,1494,1494,998,998,18,0,0,9
62402113,62402113,255,0,0,0,1496,1496,1494,1498,1429,1429,2006,1494,1494,1494,1494,1494,1494,1494,1494,1494,998,998,18,0,0,9
62902113,62902113,255,0,0,0,1495,1494,1494,1515,1455,1455,2006,1494,1494,1494,1494,1494,1494,1494,1494,1494,998,998,18,0,0,9
63406113,63406113,255,0,0,0,1495,1494,1494,1488,1420,1420,2006,1494,1494,1494,1494,1494,1494,1494,1494,1494,998,998,18,0,0,9
63902112,63902112,255,0,0,0,1494,1492,1494,1522,1424,1424,2006,1494,1494,1494,1494,1494,1494,1494,1494,1494,998,998,18,0,0,9
64402113,64402113,255,0,0,0,1494,1494,1494,1557,1438,1438,2006,1494,1494,1494,1494,1494,1494,1494,1494,1494,998,998,18,0,0,9
64898113,64898113,255,0,0,0,1494,1494,1494,1545,1402,1402,2006,1494,1494,1494,1494,1494,1494,1494,1494,1494,998,998,18,0,0,9
65398114,65398114,255,0,0,0,1494,1494,1494,1565,1403,1403,2006,1494,1494,1494,1494,1494,1494,1494,1494,1494,998,998,18,0,0,9
65902114,65902114,255,0,0,0,1495,1494,1494,1548,1415,1415,2006,1494,1494,1494,1494,1494,1494,1494,1494,1494,998,998,18,0,0,9
66406113,66406113,255,0,0,0,1522,1522,1507,1459,1431,1431,2006,1494,1494,1494,1494,1494,1494,1494,1494,1494,998,998,18,0,0,9
66906113,66906113,255,0,0,0,1554,1552,1492,1446,1437,1437,2006,1494,1494,1494,1494,1494,1494,1494,1494,1494,998,998,18,0,0,9
67402159,67402159,255,0,0,0,1722,1722,1494,1494,1458,1458,2006,1494,1494,1494,1494,1494,1494,1494,1494,1494,998,998,18,0,0,9
67902112,67902112,255,0,0,0,1495,1495,1494,1494,1458,1458,2006,1494,1494,1494,1494,1494,1494,1494,1494,1494,998,998,18,0,0,9
68398115,68398115,255,0,0,0,1495,1494,1494,1592,1458,1458,2006,1494,1494,1494,1494,1494,1494,1494,1494,1494,998,998,18,0,0,9
68902142,68902142,255,0,0,0,1495,1495,1494,1582,1457,1457,2006,1494,1494,1494,1494,1494,1494,1494,1494,1494,998,998,18,0,0,9
69402502,69402502,255,0,0,0,1494,1494,1494,1510,1457,1457,2006,1494,1494,1494,1494,1494,1494,1494,1494,1494,998,998,18,0,0,9
69906588,69906588,255,0,0,0,1495,1494,1494,1396,1453,1453,2006,1494,1494,1494,1494,1494,1494,1494,1494,1494,998,998,18,0,0,9
70402254,70402254,255,0,0,0,1495,1494,1494,1481,1432,1432,2006,1494,1494,1494,1494,1494,1494,1494,1494,1494,998,998,18,0,0,9
70902113,70902113,255,0,0,0,1495,1494,1494,1492,1434,1434,2006,1494,1494,1494,1494,1494,1494,1494,1494,1494,998,998,18,0,0,9
71398114,71398114,255,0,0,0,1495,1494,1494,1494,1447,1447,2006,1494,1494,1494,1494,1494,1494,1494,1494,1494,998,998,18,0,0,9
71898113,71898113,255,0,0,0,1495,1494,1494,1487,1430,1430,2006,1494,1494,1494,1494,1494,1494,1494,1494,1494,998,998,18,0,0,9
72402113,72402113,255,0,0,0,1495,1494,1494,1493,1453,1453,2006,1494,1494,1494,1494,1494,1494,1494,1494,1494,998,998,18,0,0,9
72906114,72906114,255,0,0,0,1496,1495,1494,1462,1395,1395,2006,1494,1494,1494,1494,1494,1494,1494,1494,1494,998,998,18,0,0,9
73406113,73406113,255,0,0,0,1495,1494,1494,1494,1427,1427,2006,1494,1494,1494,1494,1494,1494,1494,1494,1494,998,998,18,0,0,9
73902113,73902113,255,0,0,0,1495,1494,1494,1467,1412,1412,2006,1494,1494,1494,1494,1494,1494,1494,1494,1494,998,998,18,0,0,9
74402114,74402114,255,0,0,0,1480,1478,1494,1606,1450,1450,2006,1494,1494,1494,1494,1494,1494,1494,1494,1494,998,998,18,0,0,9
74898114,74898114,255,0,0,0,1494,1494,1494,1521,1401,1401,2006,1494,1494,1494,1494,1494,1494,1494,1494,1494,998,998,18,0,0,9
75402113,75402113,255,0,0,0,1523,1522,1494,1435,1416,1416,2006,1494,1494,1494,1494,1494,1494,1494,1494,1494,998,998,18,0,0,9
75906114,75906114,255,0,0,0,1495,1495,1494,1465,1380,1380,2006,1494,1494,1494,1494,1494,1494,1494,1494,1494,998,998,18,0,0,9
76406113,76406113,255,0,0,0,1495,1494,1494,1483,1395,1395,2006,1494,1494,1494,1494,1494,1494,1494,1494,1494,998,998,18,0,0,9
76902113,76902113,255,0,0,0,1495,1494,1494,1453,1390,1390,2006,1494,1494,1494,1494,1494,1494,1494,1494,1494,998,998,18,0,0,9
77406622,77406622,255,0,0,0,1494,1494,1494,1494,1408,1408,2006,1494,1494,1494,1494,1494,1494,1494,1494,1494,998,998,18,0,0,9
77898308,77898308,255,0,0,0,1495,1495,1494,1492,1356,1356,2006,1494,1494,1494,1494,1494,1494,1494,1494,1494,998,998,18,0,0,9
78402118,78402118,255,0,0,0,1495,1494,1494,1454,1408,1408,2006,1494,1494,1494,1494,1494,1494,1494,1494,1494,998,998,18,0,0,9
78902133,78902133,255,0,0,0,1495,1494,1536,1493,1479,1479,2006,1494,1494,1494,1494,1494,1494,1494,1494,1494,998,998,18,0,0,9
79406114,79406114,255,0,0,0,1560,1559,1508,1410,1444,1444,2006,1494,1494,1494,1494,1494,1494,1494,1494,1494,998,998,18,0,0,9
79906113,79906113,255,0,0,0,1549,1548,1498,1400,1481,1481,2006,1494,1494,1494,1494,1494,1494,1494,1494,1494,998,998,18,0,0,9
80402113,80402113,255,0,0,0,1507,1506,1494,1438,1474,1474,2006,1494,1494,1494,1494,1494,1494,1494,1494,1494,998,998,18,0,0,9
80906265,80906265,255,0,0,0,1495,1494,1494,1492,1508,1508,2006,1494,1494,1494,1494,1494,1494,1494,1494,1494,998,998,18,0,0,9
81398113,81398113,255,0,0,0,1436,1435,1493,1528,1498,1498,2006,1494,1494,1494,1494,1494,1494,1494,1494,1494,998,998,18,0,0,9
81902294,81902294,255,0,0,0,1488,1487,1502,1513,1514,1514,2006,1494,1494,1494,1494,1494,1494,1494,1494,1494,998,998,18,0,0,9
82402114,82402114,255,0,0,0,1536,1536,1494,1420,1447,1447,2006,1494,1494,1494,1494,1494,1494,1494,1494,1494,998,998,18,0,0,9
82898114,82898114,255,0,0,0,1563,1562,1494,1450,1557,1557,2006,1494,1494,1494,1494,1494,1494,1494,1494,1494,998,998,18,0,0,9
83402113,83402113,255,0,0,0,1536,1535,1472,1470,1498,1498,2006,1494,1494,1494,1494,1494,1494,1494,1494,1494,998,998,18,0,0,9
83906113,83906113,255,0,0,0,1495,1494,1493,1532,1483,1483,2006,1494,1494,1494,1494,1494,1494,1494,1494,1494,998,998,18,0,0,9
84406112,84406112,255,0,0,0,1453,1453,1492,1509,1432,1432,2006,1494,1494,1494,1494,1494,1494,1494,1494,1494,998,998,18,0,0,9
84902114,84902114,255,0,0,0,1467,1466,1490,1554,1454,1454,2006,1494,1494,1494,1494,1494,1494,1494,1494,1494,998,998,18,0,0,9
85402113,85402113,255,0,0,0,1494,1493,1480,1527,1420,1420,2006,1494,1494,1494,1494,1494,1494,1494,1494,1494,998,998,18,0,0,9
85898113,85898113,255,0,0,0,1494,1494,1492,1577,1450,1450,2006,1494,1494,1494,1494,1494,1494,1494,1494,1494,998,998,18,0,0,9
86406112,86406112,255,0,0,0,1495,1494,1494,1548,1405,1405,2006,1494,1494,1494,1494,1494,1494,1494,1494,1494,998,998,18,0,0,9
86902544,86902544,255,0,0,0,1495,1494,1489,1569,1405,1405,2006,1494,1494,1494,1494,1494,1494,1494,1494,1494,998,998,18,0,0,9
87406113,87406113,255,0,0,0,1487,1487,1494,1617,1416,1416,2006,1494,1494,1494,1494,1494,1494,1494,1494,1494,998,998,18,0,0,9
87906113,87906113,255,0,0,0,1498,1497,1488,1500,1347,1347,2006,1494,1494,1494,1494,1494,1494,1494,1494,1494,998,998,18,0,0,9
88402113,88402113,255,0,0,0,1495,1495,1494,1532,1438,1438,2006,1494,1494,1494,1494,1494,1494,1494,1494,1494,998,998,18,0,0,9
88902113,88902113,255,0,0,0,1494,1494,1494,1596,1438,1438,2006,1494,1494,1494,1494,1494,1494,1494,1494,1494,998,998,18,0,0,9
89398215,89398215,255,0,0,0,1504,1502,1499,1488,1447,1447,2006,1494,1494,1494,1494,1494,1494,1494,1494,1494,998,998,18,0,0,9
89902112,89902112,255,0,0,0,1497,1496,1495,1494,1461,1461,2006,1494,1494,1494,1494,1494,1494,1494,1494,1494,998,998,18,0,0,9
90406114,90406114,255,0,0,0,1494,1494,1494,1515,1450,1450,2006,1494,1494,1494,1494,1494,1494,1494,1494,1494,998,998,18,0,0,9
90906113,90906113,255,0,0,0,1495,1494,1494,1547,1429,1429,2006,1494,1494,1494,1494,1494,1494,1494,1494,1494,998,998,18,0,0,9
91402114,91402114,255,0,0,0,1492,1490,1494,1574,1407,1407,2006,1494,1494,1494,1494,1494,1494,1494,1494,1494,998,998,18,0,0,9
91902114,91902114,255,0,0,0,1495,1495,1494,1487,1388,1388,2006,1494,1494,1494,1494,1494,1494,1494,1494,1494,998,998,18,0,0,9
92398113,92398113,255,0,0,0,1495,1494,1466,1570,1362,1362,2006,1494,1494,1494,1494,1494,1494,1494,1494,1494,998,998,18,0,0,9
92902112,92902112,255,0,0,0,1494,1494,1494,1530,1352,1352,2006,1494,1494,1494,1494,1494,1494,1494,1494,1494,998,998,18,0,0,9
93402373,93402373,255,0,0,0,1495,1495,1494,1494,1408,1408,2006,1494,1494,1494,1494,1494,1494,1494,1494,1494,998,998,18,0,0,9
93906113,93906113,255,0,0,0,1552,1551,1494,1436,1350,1350,2006,1494,1494,1494,1494,1494,1494,1494,1494,1494,998,998,18,0,0,9
94406134,94406134,255,0,0,0,1578,1578,1494,1365,1342,1342,2006,1494,1494,1494,1494,1494,1494,1494,1494,1494,998,998,18,0,0,9
94902189,94902189,255,0,0,0,1538,1538,1494,1405,1347,1347,2006,1494,1494,1494,1494,1494,1494,1494,1494,1494,998,998,18,0,0,9
95398114,95398114,255,0,0,0,1527,1526,1494,1402,1356,1356,2006,1494,1494,1494,1494,1494,1494,1494,1494,1494,998,998,18,0,0,9
95898113,95898113,255,0,0,0,1496,1496,1530,1496,1431,1431,2006,1494,1494,1494,1494,1494,1494,1494,1494,1494,998,998,18,0,0,9
96402113,96402113,255,0,0,0,1409,1409,1487,1578,1397,1397,2006,1494,1494,1494,1494,1494,1494,1494,1494,1494,998,998,18,0,0,9
96906113,96906113,255,0,0,0,1508,1508,1494,1525,1432,1432,2006,1494,1494,1494,1494,1494,1494,1494,1494,1494,998,998,18,0,0,9
97406113,97406113,255,0,0,0,1496,1496,1494,1458,1351,1351,2006,1494,1494,1494,1494,1494,1494,1494,1494,1494,998,998,18,0,0,9
97902113,97902113,255,0,0,0,1515,1514,1494,1395,1347,1347,2006,1494,1494,1494,1494,1494,1494,1494,1494,1494,998,998,18,0,0,9
98406113,98406113,255,0,0,0,1514,1514,1494,1378,1364,1364,2006,1494,1494,1494,1494,1494,1494,1494,1494,1494,998,998,18,0,0,9
98898113,98898113,255,0,0,0,1498,1497,1494,1500,1317,1317,2006,1494,1494,1494,1494,1494,1494,1494,1494,1494,998,998,18,0,0,9
99402116,99402116,255,0,0,0,1494,1494,1494,1590,1340,1340,2006,1494,1494,1494,1494,1494,1494,1494,1494,1494,998,998,18,0,0,9
99902113,99902113,255,0,0,0,1495,1494,1494,1490,1340,1340,2006,1494,1494,1494,1494,1494,1494,1494,1494,1494,998,998,18,0,0,9
100398113,100398113,255,0,0,0,1495,1495,1494,1517,1338,1338,2006,1494,1494,1494,1494,1494,1494,1494,1494,1494,998,998,18,0,0,9
100906355,100906355,255,0,0,0,1495,1495,1494,1442,1345,1345,2006,1494,1494,1494,1494,1494,1494,1494,1494,1494,998,998,18,0,0,9
101402146,101402146,255,0,0,0,1495,1495,1494,1494,1346,1346,2006,1494,1494,1494,1494,1494,1494,1494,1494,1494,998,998,18,0,0,9
101906113,101906113,255,0,0,0,1495,1494,1494,1494,1332,1332,2006,1494,1494,1494,1494,1494,1494,1494,1494,1494,998,998,18,0,0,9
102398112,102398112,255,0,0,0,1495,1494,1494,1498,1336,1336,2006,1494,1494,1494,1494,1494,1494,1494,1494,1494,998,998,18,0,0,9
102902114,102902114,255,0,0,0,1495,1494,1494,1562,1338,1338,2006,1494,1494,1494,1494,1494,1494,1494,1494,1494,998,998,18,0,0,9
103402113,103402113,255,0,0,0,1495,1494,1494,1494,1364,1364,2006,1494,1494,1494,1494,1494,1494,1494,1494,1494,998,998,18,0,0,9
103906113,103906113,255,0,0,0,1495,1494,1494,1534,1368,1368,2006,1494,1494,1494,1494,1494,1494,1494,1494,1494,998,998,18,0,0,9
104402306,104402306,255,0,0,0,1494,1494,1494,1593,1368,1368,2006,1494,1494,1494,1494,1494,1494,1494,1494,1494,998,998,18,0,0,9
104906113,104906113,255,0,0,0,1495,1494,1513,1494,1388,1388,2006,1494,1494,1494,1494,1494,1494,1494,1494,1494,998,998,18,0,0,9
105406136,105406136,255,0,0,0,1495,1495,1496,1542,1378,1378,2006,1494,1494,1494,1494,1494,1494,1494,1494,1494,998,998,18,0,0,9
105902151,105902151,255,0,0,0,1502,1501,1494,1474,1297,1297,2006,1494,1494,1494,1494,1494,1494,1494,1494,1494,998,998,18,0,0,9
106402113,106402113,255,0,0,0,1495,1494,1470,1494,1332,1332,2006,1494,1494,1494,1494,1494,1494,1494,1494,1494,998,998,18,0,0,9
106898114,106898114,255,0,0,0,1494,1494,1487,1547,1353,1353,2006,1494,1494,1494,1494,1494,1494,1494,1494,1494,998,998,18,0,0,9
107402112,107402112,255,0,0,0,1495,1494,1494,1518,1348,1348,2006,1494,1494,1494,1494,1494,1494,1494,1494,1494,998,998,18,0,0,9
107902113,107902113,255,0,0,0,1493,1492,1480,1591,1352,1352,2006,1494,1494,1494,1494,1494,1494,1494,1494,1494,998,998,18,0,0,9
108406113,108406113,255,0,0,0,1504,1502,1494,1497,1362,1362,2006,1494,1494,1494,1494,1494,1494,1494,1494,1494,998,998,18,0,0,9
108906113,108906113,255,0,0,0,1520,1519,1494,1408,1355,1355,2006,1494,1494,1494,1494,1494,1494,1494,1494,1494,998,998,18,0,0,9
109402112,109402112,255,0,0,0,1525,1524,1494,1362,1350,1350,2006,1494,1494,1494,1494,1494,1494,1494,1494,1494,998,998,18,0,0,9
109898234,109898234,255,0,0,0,1496,1495,1494,1480,1360,1360,2006,1494,1494,1494,1494,1494,1494,1494,1494,1494,998,998,18,0,0,9
110398113,110398113,255,0,0,0,1490,1488,1494,1524,1360,1360,2006,1494,1494,1494,1494,1494,1494,1494,1494,1494,998,998,18,0,0,9
110902113,110902113,255,0,0,0,1495,1494,1494,1496,1342,1342,2006,1494,1494,1494,1494,1494,1494,1494,1494,1494,998,998,18,0,0,9
111406113,111406113,255,0,0,0,1498,1498,1494,1462,1338,1338,2006,1494,1494,1494,1494,1494,1494,1494,1494,1494,998,998,18,0,0,9
111906769,111906769,255,0,0,0,1489,1488,1494,1528,1368,1368,2006,1494,1494,1494,1494,1494,1494,1494,1494,1494,998,998,18,0,0,9
112402113,112402113,255,0,0,0,1495,1494,1494,1494,1360,1360,2006,1494,1494,1494,1494,1494,1494,1494,1494,1494,998,998,18,0,0,9
112902113,112902113,255,0,0,0,1495,1495,1494,1456,1360,1360,2006,1494,1494,1494,1494,1494,1494,1494,1494,1494,998,998,18,0,0,9
113398137,113398137,255,0,0,0,1494,1494,1494,1493,1375,1375,2006,1494,1494,1494,1494,1494,1494,1494,1494,1494,998,998,18,0,0,9
113902112,113902112,255,0,0,0,1494,1494,1495,1515,1375,1375,2006,1494,1494,1494,1494,1494,1494,1494,1494,1494,998,998,18,0,0,9
114402113,114402113,255,0,0,0,1494,1494,1496,1524,1399,1399,2006,1494,1494,1494,1494,1494,1494,1494,1494,1494,998,998,18,0,0,9
114906114,114906114,255,0,0,0,1495,1494,1494,1500,1344,1344,2006,1494,1494,1494,1494,1494,1494,1494,1494,1494,998,998,18,0,0,9
115402113,115402113,255,0,0,0,1522,1522,1494,1441,1328,1328,2006,1494,1494,1494,1494,1494,1494,1494,1494,1494,998,998,18,0,0,9
115902112,115902112,255,0,0,0,1495,1495,1494,1382,1334,1334,2006,1494,1494,1494,1494,1494,1494,1494,1494,1494,998,998,18,0,0,9
116398129,116398129,255,0,0,0,1545,1544,1498,1408,1348,1348,2006,1494,1494,1494,1494,1494,1494,1494,1494,1494,998,998,18,0,0,9
116898113,116898113,255,0,0,0,1495,1494,1494,1494,1337,1337,2006,1494,1494,1494,1494,1494,1494,1494,1494,1494,998,998,18,0,0,9
117402113,117402113,255,0,0,0,1494,1494,1494,1513,1311,1311,2006,1494,1494,1494,1494,1494,1494,1494,1494,1494,998,998,18,0,0,9
117906114,117906114,255,0,0,0,1470,1470,1505,1487,1305,1305,2006,1494,1494,1494,1494,1494,1494,1494,1494,1494,998,998,18,0,0,9
118406113,118406113,255,0,0,0,1494,1494,1510,1494,1334,1334,2006,1494,1494,1494,1494,1494,1494,1494,1494,1494,998,998,18,0,0,9
118902113,118902113,255,0,0,0,1495,1494,1550,1487,1297,1297,2006,1494,1494,1494,1494,1494,1494,1494,1494,1494,998,998,18,0,0,9
119406113,119406113,255,0,0,0,1496,1495,1494,1470,1252,1252,2006,1494,1494,1494,1494,1494,1494,1494,1494,1494,998,998,18,0,0,9
119898114,119898114,255,0,0,0,1521,1521,1537,1402,1277,1277,2006,1494,1494,1494,1494,1494,1494,1494,1494,1494,998,998,18,0,0,9
120402113,120402113,255,0,0,0,1557,1556,1494,1422,1291,1291,2006,1494,1494,1494,1494,1494,1494,1494,1494,1494,998,998,18,0,0,9
120902400,120902400,255,0,0,0,1543,1543,1495,1408,1284,1284,2006,1494,1494,1494,1494,1494,1494,1494,1494,1494,998,998,18,0,0,9
121406138,121406138,255,0,0,0,1489,1488,1546,1478,1279,1279,2006,1494,1494,1494,1494,1494,1494,1494,1494,1494,998,998,18,0,0,9
121902689,121902689,255,0,0,0,1497,1496,1558,1495,1267,1267,2006,1494,1494,1494,1494,1494,1494,1494,1494,1494,998,998,18,0,0,9
122402202,122402202,255,0,0,0,1494,1493,1495,1558,1271,1271,2006,1494,1494,1494,1494,1494,1494,1494,1494,1494,998,998,18,0,0,9
122906113,122906113,255,0,0,0,1495,1495,1516,1504,1265,1265,2006,1494,1494,1494,1494,1494,1494,1494,1494,1494,998,998,18,0,0,9
123398113,123398113,255,0,0,0,1502,1501,1550,1460,1207,1207,2006,1494,1494,1494,1494,1494,1494,1494,1494,1494,998,998,18,0,0,9
123902113,123902113,255,0,0,0,1494,1494,1524,1497,1193,1193,2006,1494,1494,1494,1494,1494,1494,1494,1494,1494,998,998,18,0,0,9
124398115,124398115,255,0,0,0,1497,1496,1569,1398,1120,1120,2006,1494,1494,1494,1494,1494,1494,1494,1494,1494,998,998,18,0,0,9
124906114,124906114,255,0,0,0,1506,1505,1560,1441,1134,1134,2006,1494,1494,1494,1494,1494,1494,1494,1494,1494,998,998,18,0,0,9
125402112,125402112,255,0,0,0,1533,1532,1553,1485,1140,1140,2006,1494,1494,1494,1494,1494,1494,1494,1494,1494,998,998,18,0,0,9
125906161,125906161,255,0,0,0,1458,1458,1522,1560,1062,1062,2006,1494,1494,1494,1494,1494,1494,1494,1494,1494,998,998,18,0,0,9
126406136,126406136,255,0,0,0,1451,1451,1554,1488,982,982,2006,1494,1494,1494,1494,1494,1494,1494,1494,1494,998,998,18,0,0,9
126902112,126902112,255,0,0,0,1475,1474,1510,1516,982,982,2006,1494,1494,1494,1494,1494,1494,1494,1494,1494,998,998,18,0,0,9
127402400,127402400,255,0,0,0,1494,1494,1497,1494,982,982,2006,1494,1494,1494,1494,1494,1494,1494,1494,1494,998,998,18,0,0,9
127898113,127898113,255,0,0,0,1495,1494,1494,1446,982,982,2006,1494,1494,1494,1494,1494,1494,1494,1494,1494,998,998,18,0,0,9
128402146,128402146,255,0,0,0,1495,1494,1504,1498,982,982,2006,1494,1494,1494,1494,1494,1494,1494,1494,1494,998,998,18,0,0,9
128902113,128902113,255,0,0,0,1528,1528,1495,1388,982,982,2006,1494,1494,1494,1494,1494,1494,1494,1494,1494,998,998,18,0,0,9
129406377,129406377,255,0,0,0,1519,1519,1494,1388,982,982,2006,1494,1494,1494,1494,1494,1494,1494,1494,1494,998,998,18,0,0,9
129902113,129902113,255,0,0,0,1497,1497,1494,1491,982,982,2006,1494,1494,1494,1494,1494,1494,1494,1494,1494,998,998,18,0,0,9
130402112,130402112,255,0,0,0,1495,1494,1494,1483,982,982,2006,1494,1494,1494,1494,1494,1494,1494,1494,1494,998,998,18,0,0,9
130898113,130898113,255,0,0,0,1499,1499,1498,1407,982,982,2006,1494,1494,1494,1494,1494,1494,1494,1494,1494,998,998,18,0,0,9
131398113,131398113,255,0,0,0,1495,1494,1495,1488,982,982,2006,1494,1494,1494,1494,1494,1494,1494,1494,1494,998,998,18,0,0,9
131902112,131902112,255,0,0,0,1495,1494,1494,1454,982,982,2006,1494,1494,1494,1494,1494,1494,1494,1494,1494,998,998,18,0,0,9
132406113,132406113,255,0,0,0,1494,1494,1494,1450,982,982,2006,1494,1494,1494,1494,1494,1494,1494,1494,1494,998,998,18,0,0,9
132906113,132906113,255,0,0,0,1495,1494,1514,1430,982,982,2006,1494,1494,1494,1494,1494,1494,1494,1494,1494,998,998,18,0,0,9
133402135,133402135,255,0,0,0,1492,1492,1504,1492,982,982,2006,1494,1494,1494,1494,1494,1494,1494,1494,1494,998,998,18,0,0,9
133902113,133902113,255,0,0,0,1494,1494,1495,1494,982,982,2006,1494,1494,1494,1494,1494,1494,1494,1494,1494,998,998,18,0,0,9
134398113,134398113,255,0,0,0,1442,1440,1494,1522,982,982,2006,1494,1494,1494,1494,1494,1494,1494,1494,1494,998,998,18,0,0,9
134902475,134902475,255,0,0,0,1494,1494,1494,1494,982,982,2006,1494,1494,1494,1494,1494,1494,1494,1494,1494,998,998,18,0,0,9
135406114,135406114,255,0,0,0,1494,1494,1494,1500,982,982,2006,1494,1494,1494,1494,1494,1494,1494,1494,1494,998,998,18,0,0,9
135898113,135898113,255,0,0,0,1494,1494,1494,1494,982,982,2006,1494,1494,1494,1494,1494,1494,1494,1494,1494,998,998,18,0,0,9
136402114,136402114,255,0,0,0,1494,1494,1494,1494,982,982,2006,1494,1494,1494,1494,1494,1494,1494,1494,1494,998,998,18,0,0,9
136902113,136902113,255,0,0,0,1495,1494,1494,1494,982,982,2006,1494,1494,1494,1494,1494,1494,1494,1494,1494,998,998,18,0,0,9
137398113,137398113,255,0,0,0,1495,1494,1494,1494,982,982,2006,1494,1494,1494,1494,1494,1494,1494,1494,1494,998,998,18,0,0,9
137902113,137902113,255,0,0,0,1495,1494,1494,1494,982,982,2006,1494,1494,1494,1494,1494,1494,1494,1494,1494,998,998,18,0,0,9
138402158,138402158,255,0,0,0,1494,1494,1495,1172,982,982,2006,1494,1494,1494,1494,1494,1494,1494,1494,1494,998,998,18,0,0,9
138906113,138906113,255,0,0,0,1546,1546,1494,1233,982,982,2006,1494,1494,1494,1494,1494,1494,1494,1494,1494,998,998,18,0,0,9
139402646,139402646,255,0,0,0,1512,1512,1494,1174,982,982,2006,1494,1494,1494,1494,1494,1494,1494,1494,1494,998,998,18,0,0,9
139902113,139902113,255,0,0,0,1502,1502,1494,1191,982,982,2006,1494,1494,1494,1494,1494,1494,1494,1494,1494,998,998,18,0,0,9
140406113,140406113,255,0,0,0,1495,1495,1494,1081,982,982,2006,1494,1494,1494,1494,1494,1494,1494,1494,1494,998,998,18,0,0,9
140898557,140898557,255,0,0,0,1496,1495,1494,1038,982,982,2006,1494,1494,1494,1494,1494,1494,1494,1494,1494,998,998,18,0,0,9
141402113,141402113,255,0,0,0,1495,1495,1494,1281,982,982,2006,1494,1494,1494,1494,1494,1494,1494,1494,1494,998,998,18,0,0,9
141902135,141902135,255,0,0,0,1494,1494,1494,1392,982,982,2006,1494,1494,1494,1494,1494,1494,1494,1494,1494,998,998,18,0,0,9
142406112,142406112,255,0,0,0,1495,1494,1494,1438,982,982,2006,1494,1494,1494,1494,1494,1494,1494,1494,1494,998,998,18,0,0,9
142902121,142902121,255,0,0,0,1495,1494,1494,1336,982,982,2006,1494,1494,1494,1494,1494,1494,1494,1494,1494,998,998,18,0,0,9
143402113,143402113,255,0,0,0,1495,1494,1494,1420,982,982,2006,1494,1494,1494,1494,1494,1494,1494,1494,1494,998,998,18,0,0,9
143906589,143906589,255,0,0,0,1495,1494,1494,1412,982,982,2006,1494,1494,1494,1494,1494,1494,1494,1494,1494,998,998,18,0,0,9
144402113,144402113,255,0,0,0,1495,1494,1494,1442,982,982,2006,1494,1494,1494,1494,1494,1494,1494,1494,1494,998,998,18,0,0,9
144902113,144902113,255,0,0,0,1495,1495,1494,1440,982,982,2006,1494,1494,1494,1494,1494,1494,1494,1494,1494,998,998,18,0,0,9
145398113,145398113,255,0,0,0,1495,1494,1494,1394,982,982,2006,1494,1494,1494,1494,1494,1494,1494,1494,1494,998,998,18,0,0,9
145906112,145906112,255,0,0,0,1495,1494,1494,1354,982,982,2006,1494,1494,1494,1494,1494,1494,1494,1494,1494,998,998,18,0,0,9
146402113,146402113,255,0,0,0,1495,1494,1494,1267,982,982,2006,1494,1494,1494,1494,1494,1494,1494,1494,1494,998,998,18,0,0,9
146906277,146906277,255,0,0,0,1496,1495,1494,1253,982,982,2006,1494,1494,1494,1494,1494,1494,1494,1494,1494,998,998,18,0,0,9
147406113,147406113,255,0,0,0,1495,1494,1494,1271,982,982,2006,1494,1494,1494,1494,1494,1494,1494,1494,1494,998,998,18,0,0,9
147902112,147902112,255,0,0,0,1494,1494,1494,1284,982,982,2006,1494,1494,1494,1494,1494,1494,1494,1494,1494,998,998,18,0,0,9
148402128,148402128,255,0,0,0,1494,1494,1494,1254,982,982,2006,1494,1494,1494,1494,1494,1494,1494,1494,1494,998,998,18,0,0,9
148898112,148898112,255,0,0,0,1495,1494,1494,1175,982,982,2006,1494,1494,1494,1494,1494,1494,1494,1494,1494,998,998,18,0,0,9
149402112,149402112,255,0,0,0,1495,1494,1494,1167,982,982,2006,1494,1494,1494,1494,1494,1494,1494,1494,1494,998,998,18,0,0,9
149906113,149906113,255,0,0,0,1495,1494,1494,1167,982,982,2006,1494,1494,1494,1494,1494,1494,1494,1494,1494,998,998,18,0,0,9
150406113,150406113,255,0,0,0,1495,1494,1494,1254,982,982,2006,1494,1494,1494,1494,1494,1494,1494,1494,1494,998,998,18,0,0,9
150902113,150902113,255,0,0,0,1495,1494,1494,1302,982,982,2006,1494,1494,1494,1494,1494,1494,1494,1494,1494,998,998,18,0,0,9
151402320,151402320,255,0,0,0,1494,1494,1494,1341,982,982,2006,1494,1494,1494,1494,1494,1494,1494,1494,1494,998,998,18,0,0,9
151898113,151898113,255,0,0,0,1494,1494,1494,1397,982,982,2006,1494,1494,1494,1494,1494,1494,1494,1494,1494,998,998,18,0,0,9
152402113,152402113,255,0,0,0,1495,1494,1494,1470,982,982,2006,1494,1494,1494,1494,1494,1494,1494,1494,1494,998,998,18,0,0,9
152902113,152902113,255,0,0,0,1495,1494,1494,1493,982,982,2006,1494,1494,1494,1494,1494,1494,1494,1494,1494,998,998,18,0,0,9
153406472,153406472,255,0,0,0,1495,1494,1494,1493,982,982,2006,1494,1494,1494,1494,1494,1494,1494,1494,1494,998,998,18,0,0,9
153906113,153906113,255,0,0,0,1495,1494,1494,1493,982,982,2006,1494,1494,1494,1494,1494,1494,1494,1494,1494,998,998,18,0,0,9
154402113,154402113,255,0,0,0,1495,1494,1494,1253,982,982,2006,1494,1494,1494,1494,1494,1494,1494,1494,1494,998,998,18,0,0,9
154902114,154902114,255,0,0,0,1495,1494,1494,1273,982,982,2006,1494,1494,1494,1494,1494,1494,1494,1494,1494,998,998,18,0,0,9
155398113,155398113,255,0,0,0,1495,1494,1494,1415,982,982,2006,1494,1494,1494,1494,1494,1494,1494,1494,1494,998,998,18,0,0,9
155902113,155902113,255,0,0,0,1495,1494,1494,1487,982,982,2006,1494,1494,1494,1494,1494,1494,1494,1494,1494,998,998,18,0,0,9
156406115,156406115,255,0,0,0,1495,1494,1494,1493,982,982,2006,1494,1494,1494,1494,1494,1494,1494,1494,1494,998,998,18,0,0,9
156906114,156906114,255,0,0,0,1495,1494,1494,1493,982,982,2006,1494,1494,1494,1494,1494,1494,1494,1494,1494,998,998,18,0,0,9
157402115,157402115,255,0,0,0,1494,1494,1494,1494,982,982,2006,1494,1494,1494,1494,1494,1494,1494,1494,1494,998,998,18,0,0,9
157906114,157906114,255,0,0,0,1495,1494,1494,1493,982,982,2006,1494,1494,1494,1494,1494,1494,1494,1494,1494,998,998,18,0,0,9
158398112,158398112,255,0,0,0,1494,1494,1494,1493,982,982,2006,1494,1494,1494,1494,1494,1494,1494,1494,1494,998,998,18,0,0,9
158902114,158902114,255,0,0,0,1495,1494,1494,1493,982,982,2006,1494,1494,1494,1494,1494,1494,1494,1494,1494,998,998,18,0,0,9
159402114,159402114,255,0,0,0,1495,1494,1494,1494,982,982,2006,1494,1494,1494,1494,1494,1494,1494,1494,1494,998,998,18,0,0,9
159906116,159906116,255,0,0,0,1495,1494,1494,1493,982,982,2006,1494,1494,1494,1494,1494,1494,1494,1494,1494,998,998,18,0,0,9
160406113,160406113,255,0,0,0,1494,1494,1494,1494,982,982,2006,1494,1494,1494,1494,1494,1494,1494,1494,1494,998,998,18,0,0,9
160902147,160902147,255,0,0,0,1495,1494,1494,1494,982,982,2006,1494,1494,1494,1494,1494,1494,1494,1494,1494,998,998,18,0,0,9
161398144,161398144,255,0,0,0,1495,1494,1494,1494,982,982,2006,1494,1494,1494,1494,1494,1494,1494,1494,1494,998,998,18,0,0,9
161898113,161898113,255,0,0,0,1495,1494,1494,1493,982,982,2006,1494,1494,1494,1494,1494,1494,1494,1494,1494,998,998,18,0,0,9
162402113,162402113,255,0,0,0,1495,1494,1494,1494,982,982,2006,1494,1494,1494,1494,1494,1494,1494,1494,1494,998,998,18,0,0,9
162902354,162902354,255,0,0,0,1495,1494,1494,1494,982,982,2006,1494,1494,1494,1494,1494,1494,1494,1494,1494,998,998,18,0,0,9
163406113,163406113,255,0,0,0,1495,1494,1494,1494,982,982,2006,1494,1494,1494,1494,1494,1494,1494,1494,1494,998,998,18,0,0,9
163902113,163902113,255,0,0,0,1495,1494,1494,1494,982,982,2006,1494,1494,1494,1494,1494,1494,1494,1494,1494,998,998,18,0,0,9
164406113,164406113,255,0,0,0,1495,1494,1494,1494,982,982,2006,1494,1494,1494,1494,1494,1494,1494,1494,1494,998,998,18,0,0,9
164906113,164906113,255,0,0,0,1495,1494,1494,1494,982,982,2006,1494,1494,1494,1494,1494,1494,1494,1494,1494,998,998,18,0,0,9
165402113,165402113,255,0,0,0,1495,1494,1494,1493,982,982,2006,1494,1494,1494,1494,1494,1494,1494,1494,1494,998,998,18,0,0,9
165902112,165902112,255,0,0,0,1495,1494,1494,1493,982,982,2006,1494,1494,1494,1494,1494,1494,1494,1494,1494,998,998,18,0,0,9
166398114,166398114,255,0,0,0,1495,1494,1494,1494,982,982,2006,1494,1494,1494,1494,1494,1494,1494,1494,1494,998,998,18,0,0,9
166902113,166902113,255,0,0,0,1494,1494,1494,1494,982,982,2006,1494,1494,1494,1494,1494,1494,1494,1494,1494,998,998,18,0,0,9
167402112,167402112,255,0,0,0,1494,1494,1494,1494,982,982,2006,1494,1494,1494,1494,1494,1494,1494,1494,1494,998,998,18,0,0,9
167906114,167906114,255,0,0,0,1495,1494,1494,1494,982,982,2006,1494,1494,1494,1494,1494,1494,1494,1494,1494,998,998,18,0,0,9
168406113,168406113,255,0,0,0,1495,1494,1494,1494,982,982,2006,1494,1494,1494,1494,1494,1494,1494,1494,1494,998,998,18,0,0,9
168902113,168902113,255,0,0,0,1495,1494,1494,1493,982,982,2006,1494,1494,1494,1494,1494,1494,1494,1494,1494,998,998,18,0,0,9
169398113,169398113,255,0,0,0,1495,1494,1494,1493,982,982,2006,1494,1494,1494,1494,1494,1494,1494,1494,1494,998,998,18,0,0,9
169898112,169898112,255,0,0,0,1494,1494,1494,1493,982,982,2006,1494,1494,1494,1494,1494,1494,1494,1494,1494,998,998,18,0,0,9
170402113,170402113,255,0,0,0,1495,1494,1494,1493,982,982,2006,1494,1494,1494,1494,1494,1494,1494,1494,1494,998,998,18,0,0,9
170906113,170906113,255,0,0,0,1494,1494,1494,1494,982,982,2006,1494,1494,1494,1494,1494,1494,1494,1494,1494,998,998,18,0,0,9
171406113,171406113,255,0,0,0,1494,1494,1494,1494,982,982,2006,1494,1494,1494,1494,1494,1494,1494,1494,1494,998,998,18,0,0,9
171902231,171902231,255,0,0,0,1495,1494,1494,1493,982,982,2006,1494,1494,1494,1494,1494,1494,1494,1494,1494,998,998,18,0,0,9
172402113,172402113,255,0,0,0,1494,1494,1494,1494,982,982,2006,1494,1494,1494,1494,1494,1494,1494,1494,1494,998,998,18,0,0,9
172898137,172898137,255,0,0,0,1494,1494,1494,1494,982,982,2006,1494,1494,1494,1494,1494,1494,1494,1494,1494,998,998,18,0,0,9
173402158,173402158,255,0,0,0,1495,1494,1494,1494,982,982,2006,1494,1494,1494,1494,1494,1494,1494,1494,1494,998,998,18,0,0,9
173902113,173902113,255,0,0,0,1495,1494,1494,1493,982,982,2006,1494,1494,1494,1494,1494,1494,1494,1494,1494,998,998,18,0,0,9
174406115,174406115,255,0,0,0,1495,1494,1494,1494,982,982,2006,1494,1494,1494,1494,1494,1494,1494,1494,1494,998,998,18,0,0,9
174906113,174906113,255,0,0,0,1495,1494,1494,1494,982,982,2006,1494,1494,1494,1494,1494,1494,1494,1494,1494,998,998,18,0,0,9
175402113,175402113,255,0,0,0,1495,1494,1494,1493,982,982,2006,1494,1494,1494,1494,1494,1494,1494,1494,1494,998,998,18,0,0,9
175898113,175898113,255,0,0,0,1495,1494,1494,1493,982,982,2006,1494,1494,1494,1494,1494,1494,1494,1494,1494,998,998,18,0,0,9
176398113,176398113,255,0,0,0,1494,1494,1494,1493,982,982,2006,1494,1494,1494,1494,1494,1494,1494,1494,1494,998,998,18,0,0,9
176902113,176902113,255,0,0,0,1495,1494,1494,1494,982,982,2006,1494,1494,1494,1494,1494,1494,1494,1494,1494,998,998,18,0,0,9
177406114,177406114,255,0,0,0,1495,1494,1494,1493,982,982,2006,1494,1494,1494,1494,1494,1494,1494,1494,1494,998,998,18,0,0,9
177906112,177906112,255,0,0,0,1495,1494,1494,1493,982,982,2006,1494,1494,1494,1494,1494,1494,1494,1494,1494,998,998,18,0,0,9
178402113,178402113,255,0,0,0,1494,1494,1494,1493,982,982,2006,1494,1494,1494,1494,1494,1494,1494,1494,1494,998,998,18,0,0,9
178906113,178906113,255,0,0,0,1495,1494,1494,1494,982,982,2006,1494,1494,1494,1494,1494,1494,1494,1494,1494,998,998,18,0,0,9
179398146,179398146,255,0,0,0,1495,1494,1494,1494,982,982,2006,1494,1494,1494,1494,1494,1494,1494,1494,1494,998,998,18,0,0,9
179902211,179902211,255,0,0,0,1495,1494,1494,1494,982,982,2006,1494,1494,1494,1494,1494,1494,1494,1494,1494,998,998,18,0,0,9
180402113,180402113,255,0,0,0,1494,1494,1494,1493,982,982,2006,1494,1494,1494,1494,1494,1494,1494,1494,1494,998,998,18,0,0,9
180898113,180898113,255,0,0,0,1494,1494,1494,1494,982,982,2006,1494,1494,1494,1494,1494,1494,1494,1494,1494,998,998,18,0,0,9
181402130,181402130,255,0,0,0,1495,1494,1494,1494,982,982,2006,1494,1494,1494,1494,1494,1494,1494,1494,1494,998,998,18,0,0,9
181902113,181902113,255,0,0,0,1494,1494,1494,1493,982,982,2006,1494,1494,1494,1494,1494,1494,1494,1494,1494,998,998,18,0,0,9
182406113,182406113,255,0,0,0,1495,1494,1494,1493,982,982,2006,1494,1494,1494,1494,1494,1494,1494,1494,1494,998,998,18,0,0,9
182898113,182898113,255,0,0,0,1494,1494,1494,1493,982,982,2006,1494,1494,1494,1494,1494,1494,1494,1494,1494,998,998,18,0,0,9
183402113,183402113,255,0,0,0,1494,1494,1494,1493,982,982,2006,1494,1494,1494,1494,1494,1494,1494,1494,1494,998,998,18,0,0,9
183898112,183898112,255,0,0,0,1494,1494,1494,1493,982,982,2006,1494,1494,1494,1494,1494,1494,1494,1494,1494,998,998,18,0,0,9
184406113,184406113,255,0,0,0,1494,1494,1494,1494,982,982,2006,1494,1494,1494,1494,1494,1494,1494,1494,1494,998,998,18,0,0,9
184902112,184902112,255,0,0,0,1495,1494,1494,1494,982,982,2006,1494,1494,1494,1494,1494,1494,1494,1494,1494,998,998,18,0,0,9
185406113,185406113,255,0,0,0,1495,1494,1494,1494,982,982,2006,1494,1494,1494,1494,1494,1494,1494,1494,1494,998,998,18,0,0,9
185906113,185906113,255,0,0,0,1495,1494,1494,1494,982,982,2006,1494,1494,1494,1494,1494,1494,1494,1494,1494,998,998,18,0,0,9
186402180,186402180,255,0,0,0,1495,1494,1494,1494,982,982,2006,1494,1494,1494,1494,1494,1494,1494,1494,1494,998,998,18,0,0,9
186902186,186902186,255,0,0,0,1494,1494,1494,1494,982,982,2006,1494,1494,1494,1494,1494,1494,1494,1494,1494,998,998,18,0,0,9
187398113,187398113,255,0,0,0,1495,1494,1494,1493,982,982,2006,1494,1494,1494,1494,1494,1494,1494,1494,1494,998,998,18,0,0,9
187902113,187902113,255,0,0,0,1495,1494,1494,1494,982,982,2006,1494,1494,1494,1494,1494,1494,1494,1494,1494,998,998,18,0,0,9
188402112,188402112,255,0,0,0,1495,1494,1494,1494,982,982,2006,1494,1494,1494,1494,1494,1494,1494,1494,1494,998,998,18,0,0,9
188906113,188906113,255,0,0,0,1495,1494,1494,1494,982,982,2006,1494,1494,1494,1494,1494,1494,1494,1494,1494,998,998,18,0,0,9
189406113,189406113,255,0,0,0,1494,1494,1494,1494,982,982,2006,1494,1494,1494,1494,1494,1494,1494,1494,1494,998,998,18,0,0,9
189902139,189902139,255,0,0,0,1494,1494,1494,1494,982,982,982,1494,1494,1494,1494,1494,1494,1494,1494,1494,998,998,18,0,0,9
190398131,190398131,255,0,0,0,1495,1494,1494,1494,982,982,982,1494,1494,1494,1494,1494,1494,1494,1494,1494,998,998,18,0,0,9
