timestamp,timestamp_sample,gps_hvel[0],gps_hvel[1],gps_vvel,gps_hpos[0],gps_hpos[1],gps_vpos,ev_hvel[0],ev_hvel[1],ev_vvel,ev_hpos[0],ev_hpos[1],ev_vpos,rng_vpos,baro_vpos,aux_hvel[0],aux_hvel[1],aux_vvel,flow[0],flow[1],heading,mag_field[0],mag_field[1],mag_field[2],drag[0],drag[1],airspeed,beta,hagl,hagl_rate
17172202,17071592,0.011056794,0.0013536607,0.036995847,0.0585495,0.0030508419,0.0,0.0,0.0,0.0,0.0,0.0,0.0,0.0,-0.25293732,0.0,0.0,nan,0.0,0.0,0.002033472,0.0,0.0,0.0,0.0,0.0,0.0,0.0,0.0,0.0
17671940,17571248,-0.013360732,-0.00929982,0.00782066,0.06008922,0.0025986722,0.0,0.0,0.0,0.0,0.0,0.0,0.0,0.0,-0.33612633,0.0,0.0,nan,0.0,0.0,-0.0038108826,0.0,0.0,0.0,0.0,0.0,0.0,0.0,0.0,0.0
18171452,18070906,-0.0028111064,0.014566066,-0.0072206818,0.07383199,0.00228397,0.0,0.0,0.0,0.0,0.0,0.0,0.0,0.0,0.051034927,0.0,0.0,nan,0.0,0.0,-0.0012879372,0.0,0.0,0.0,0.0,0.0,0.0,0.0,0.0,0.0
18671181,18570567,-0.0068160803,0.020187913,-0.022968844,0.07662123,0.0020296797,0.0,0.0,0.0,0.0,0.0,0.0,0.0,0.0,0.15750694,0.0,0.0,nan,0.0,0.0,-0.00480628,0.0,0.0,0.0,0.0,0.0,0.0,0.0,0.0,0.0
19170850,19070223,-0.0072738286,-0.0025375371,-0.0061082565,0.08007416,0.001896901,0.0,0.0,0.0,0.0,0.0,0.0,0.0,0.0,-0.0047130585,0.0,0.0,nan,0.0,0.0,-0.005526066,0.0,0.0,0.0,0.0,0.0,0.0,0.0,0.0,0.0
19670425,19569881,0.0062627834,-0.006196432,-0.025844071,0.08374849,0.009893484,0.0,0.0,0.0,0.0,0.0,0.0,0.0,0.0,-0.01842308,0.0,0.0,nan,0.0,0.0,-0.002461195,0.0,0.0,0.0,0.0,0.0,0.0,0.0,0.0,0.0
20170227,20069540,0.019027926,0.0016909068,0.0125508495,0.07688037,0.017634848,0.0,0.0,0.0,0.0,0.0,0.0,0.0,0.0,-0.044439316,0.0,0.0,nan,0.0,0.0,0.0034868717,0.0,0.0,0.0,0.0,0.0,0.0,0.0,0.0,0.0
20680103,20579191,-0.011235212,-0.01029658,0.010288013,0.08023594,0.024630515,0.0,0.0,0.0,0.0,0.0,0.0,0.0,0.0,-0.055776596,0.0,0.0,nan,0.0,0.0,0.0013456345,0.0,0.0,0.0,0.0,0.0,0.0,0.0,0.0,0.0
21169398,21068856,-0.022191716,-0.00998303,0.022590134,0.08680799,0.023315245,0.0,0.0,0.0,0.0,0.0,0.0,0.0,0.0,0.025457382,0.0,0.0,nan,0.0,0.0,-0.0017302036,0.0,0.0,0.0,0.0,0.0,0.0,0.0,0.0,0.0
21669190,21568514,-0.0069006225,0.021930201,-0.018907998,0.09181423,0.038479228,0.0,0.0,0.0,0.0,0.0,0.0,0.0,0.0,-0.084020615,0.0,0.0,nan,0.0,0.0,-3.9815903e-05,0.0,0.0,0.0,0.0,0.0,0.0,0.0,0.0,0.0
22168850,22068172,0.007909536,0.005605269,0.020131357,0.086046726,0.045011565,0.0,0.0,0.0,0.0,0.0,0.0,0.0,0.0,0.082855225,0.0,0.0,nan,0.0,0.0,-0.0048258305,0.0,0.0,0.0,0.0,0.0,0.0,0.0,0.0,0.0
22678437,22577824,0.004174597,5.224871e-05,0.051877543,0.07009789,0.050536435,0.0,0.0,0.0,0.0,0.0,0.0,0.0,0.0,0.009735107,0.0,0.0,nan,0.0,0.0,2.193451e-05,0.0,0.0,0.0,0.0,0.0,0.0,0.0,0.0,0.0
23178438,23077482,-0.0060329847,0.0023558193,-0.003457956,0.065286994,0.0638942,0.0,0.0,0.0,0.0,0.0,0.0,0.0,0.0,0.1289959,0.0,0.0,nan,0.0,0.0,-0.0021686554,0.0,0.0,0.0,0.0,0.0,0.0,0.0,0.0,0.0
23678016,23577140,-0.0017671632,-0.00041131582,-0.024434166,0.061968803,0.069102004,0.0,0.0,0.0,0.0,0.0,0.0,0.0,0.0,0.07938957,0.0,0.0,nan,0.0,0.0,0.003753662,0.0,0.0,0.0,0.0,0.0,0.0,0.0,0.0,0.0
24177830,24076798,0.0016039244,-0.00033245573,-0.022466235,0.058882788,0.073752835,0.0,0.0,0.0,0.0,0.0,0.0,0.0,0.0,0.08251572,0.0,0.0,nan,0.0,0.0,0.0018513203,0.0,0.0,0.0,0.0,0.0,0.0,0.0,0.0,0.0
24677489,24576456,0.019059164,0.010318662,0.012401856,0.06710437,0.07044777,0.0,0.0,0.0,0.0,0.0,0.0,0.0,0.0,0.08166313,0.0,0.0,nan,0.0,0.0,-0.011419296,0.0,0.0,0.0,0.0,0.0,0.0,0.0,0.0,0.0
25176741,25076114,0.00880582,-0.01866205,-0.014438442,0.064894184,0.07658276,0.0,0.0,0.0,0.0,0.0,0.0,0.0,0.0,-0.1713562,0.0,0.0,nan,0.0,0.0,-0.005179167,0.0,0.0,0.0,0.0,0.0,0.0,0.0,0.0,0.0
25676396,25575772,0.036948897,-0.035629258,-0.05976461,0.07202026,0.073077604,0.0,0.0,0.0,0.0,0.0,0.0,0.0,0.0,-0.08297348,0.0,0.0,nan,0.0,0.0,-0.000320673,0.0,0.0,0.0,0.0,0.0,0.0,0.0,0.0,0.0
26175972,26075430,-0.01747259,0.028130077,-0.0013124521,0.068668485,0.062097657,0.0,0.0,0.0,0.0,0.0,0.0,0.0,0.0,-0.41668892,0.0,0.0,nan,0.0,0.0,0.0064234734,0.0,0.0,0.0,0.0,0.0,0.0,0.0,0.0,0.0
26675851,26575088,0.0015200842,0.0034608725,0.037971925,0.05545266,0.07632136,0.0,0.0,0.0,0.0,0.0,0.0,0.0,0.0,0.0007972717,0.0,0.0,nan,0.0,0.0,0.0014901161,0.0,0.0,0.0,0.0,0.0,0.0,0.0,0.0,0.0
27175346,27074745,0.002864608,-0.0148772765,-0.024230085,0.053596586,0.07324372,0.0,0.0,0.0,0.0,0.0,0.0,0.0,0.0,0.16755867,0.0,0.0,nan,0.0,0.0,-0.0005788803,0.0,0.0,0.0,0.0,0.0,0.0,0.0,0.0,0.0
27675014,27574403,-0.023755878,0.0007209312,-0.0033957122,0.04045099,0.08802167,0.0,0.0,0.0,0.0,0.0,0.0,0.0,0.0,-8.392334e-05,0.0,0.0,nan,0.0,0.0,0.000692606,0.0,0.0,0.0,0.0,0.0,0.0,0.0,0.0,0.0
28174690,28074061,0.022751937,-0.0065302365,0.0058764224,0.028163284,0.093407765,0.0,0.0,0.0,0.0,0.0,0.0,0.0,0.0,-0.06827164,0.0,0.0,nan,0.0,0.0,-0.00071263313,0.0,0.0,0.0,0.0,0.0,0.0,0.0,0.0,0.0
28674276,28573719,-0.028310334,0.004335448,-0.029142808,0.016068012,0.09841207,0.0,0.0,0.0,0.0,0.0,0.0,0.0,0.0,-0.12505913,0.0,0.0,nan,0.0,0.0,-0.00063323975,0.0,0.0,0.0,0.0,0.0,0.0,0.0,0.0,0.0
29174251,29073377,0.018589614,0.0068085864,-0.008797878,0.00508371,0.10410125,0.0,0.0,0.0,0.0,0.0,0.0,0.0,0.0,0.045028687,0.0,0.0,nan,0.0,0.0,0.0058534145,0.0,0.0,0.0,0.0,0.0,0.0,0.0,0.0,0.0
29673874,29573035,-0.0005339214,0.00076736417,0.010803927,-0.0058876723,0.10083749,0.0,0.0,0.0,0.0,0.0,0.0,0.0,0.0,0.05164528,0.0,0.0,nan,0.0,0.0,0.00024104118,0.0,0.0,0.0,0.0,0.0,0.0,0.0,0.0,0.0
30173413,30072692,-0.020296372,-0.020595487,0.005729181,-0.017509133,0.10539561,0.0,0.0,0.0,0.0,0.0,0.0,0.0,0.0,0.015748978,0.0,0.0,nan,0.0,0.0,-0.0015964508,0.0,0.0,0.0,0.0,0.0,0.0,0.0,0.0,0.0
30673023,30572350,-0.01422563,0.018545788,0.005087194,-0.016709208,0.09414008,0.0,0.0,0.0,0.0,0.0,0.0,0.0,0.0,0.037757874,0.0,0.0,nan,0.0,0.0,0.00052404404,0.0,0.0,0.0,0.0,0.0,0.0,0.0,0.0,0.0
31172683,31072008,-0.014615192,0.014117591,-0.0009581825,-0.02790685,0.09048307,0.0,0.0,0.0,0.0,0.0,0.0,0.0,0.0,0.014696121,0.0,0.0,nan,0.0,0.0,-0.0002439022,0.0,0.0,0.0,0.0,0.0,0.0,0.0,0.0,0.0
31672378,31571666,0.012439348,0.020143282,0.0061298218,-0.026732385,0.08804768,0.0,0.0,0.0,0.0,0.0,0.0,0.0,0.0,0.014469147,0.0,0.0,nan,0.0,0.0,0.0011534691,0.0,0.0,0.0,0.0,0.0,0.0,0.0,0.0,0.0
32172170,32071324,-0.024860032,0.012072824,0.049587987,-0.037307598,0.08563284,0.0,0.0,0.0,0.0,0.0,0.0,0.0,0.0,0.12494469,0.0,0.0,nan,0.0,0.0,0.0033204556,0.0,0.0,0.0,0.0,0.0,0.0,0.0,0.0,0.0
32671650,32570982,-0.0072752014,-0.006755912,-0.0016809334,-0.036296986,0.08318844,0.0,0.0,0.0,0.0,0.0,0.0,0.0,0.0,-0.16723633,0.0,0.0,nan,0.0,0.0,0.0028157234,0.0,0.0,0.0,0.0,0.0,0.0,0.0,0.0,0.0
33171334,33070639,-0.010456428,-0.015753001,-0.018754067,-0.035347305,0.08083962,0.0,0.0,0.0,0.0,0.0,0.0,0.0,0.0,-0.1675415,0.0,0.0,nan,0.0,0.0,0.004413128,0.0,0.0,0.0,0.0,0.0,0.0,0.0,0.0,0.0
33671019,33570297,0.011170657,0.012023086,-0.027998308,-0.045799628,0.07887459,0.0,0.0,0.0,0.0,0.0,0.0,0.0,0.0,0.16921043,0.0,0.0,nan,0.0,0.0,0.0051221848,0.0,0.0,0.0,0.0,0.0,0.0,0.0,0.0,0.0
34170650,34069955,0.021890529,0.011373864,0.018993586,-0.033185653,0.084700756,0.0,0.0,0.0,0.0,0.0,0.0,0.0,0.0,0.08372879,0.0,0.0,nan,0.0,0.0,0.00089001656,0.0,0.0,0.0,0.0,0.0,0.0,0.0,0.0,0.0
34670409,34569613,-0.002457087,0.025461346,0.0049703475,-0.04346113,0.082792096,0.0,0.0,0.0,0.0,0.0,0.0,0.0,0.0,-0.0020923615,0.0,0.0,nan,0.0,0.0,-0.0018684864,0.0,0.0,0.0,0.0,0.0,0.0,0.0,0.0,0.0
35180285,35079264,0.036361318,0.01045654,0.0127235735,-0.043301433,0.07191112,0.0,0.0,0.0,0.0,0.0,0.0,0.0,0.0,-0.16888046,0.0,0.0,nan,0.0,0.0,0.0017096996,0.0,0.0,0.0,0.0,0.0,0.0,0.0,0.0,0.0
35669598,35568928,0.07419337,-0.059572704,0.004039762,-0.030338638,0.05205726,0.0,0.0,0.0,0.0,0.0,0.0,0.0,0.0,0.16196823,0.0,0.0,nan,0.0,0.0,0.0005171299,0.0,0.0,0.0,0.0,0.0,0.0,0.0,0.0,0.0
36169284,36068586,0.20625594,-0.15582934,0.0019783056,0.059322566,-0.02299466,0.0,0.0,0.0,0.0,0.0,0.0,0.0,0.0,-0.2529316,0.0,0.0,nan,0.0,0.0,0.012416363,0.0,0.0,0.0,0.0,0.0,0.0,0.0,0.0,0.0
36669047,36568244,0.25698614,-0.2457262,-0.01567366,0.1540888,-0.112485126,0.0,0.0,0.0,0.0,0.0,0.0,0.0,0.0,0.16388702,0.0,0.0,nan,0.0,0.0,0.00890851,0.0,0.0,0.0,0.0,0.0,0.0,0.0,0.0,0.0
37179045,37077895,1.4619497,-0.6882413,-0.12380019,1.0286014,-0.5033731,0.0,0.0,0.0,0.0,0.0,0.0,0.0,0.0,-0.20275116,0.0,0.0,nan,0.0,0.0,-0.027618408,0.0,0.0,0.0,0.0,0.0,0.0,0.0,0.0,0.0
37678615,37577803,1.6401653,-0.73774,-0.057198305,1.5960952,-0.75277835,0.0,0.0,0.0,0.0,0.0,0.0,0.0,0.0,-0.40844536,0.0,0.0,nan,0.0,0.0,-0.04523635,0.0,0.0,0.0,0.0,0.0,0.0,0.0,0.0,0.0
38178032,38077461,1.8619157,-0.9220371,-0.15897149,2.40943,-1.1510515,0.0,0.0,0.0,0.0,0.0,0.0,0.0,0.0,-0.4029312,0.0,0.0,nan,0.0,0.0,-0.0351305,0.0,0.0,0.0,0.0,0.0,0.0,0.0,0.0,0.0
38677657,38577118,2.0612245,-0.99700093,-0.24473734,3.379581,-1.6146438,0.0,0.0,0.0,0.0,0.0,0.0,0.0,0.0,-0.7463169,0.0,0.0,nan,0.0,0.0,-0.035829544,0.0,0.0,0.0,0.0,0.0,0.0,0.0,0.0,0.0
39177384,39076776,2.28326,-1.1426727,-0.14287075,4.4871264,-2.1727672,0.0,0.0,0.0,0.0,0.0,0.0,0.0,0.0,-0.30530357,0.0,0.0,nan,0.0,0.0,-0.03583002,0.0,0.0,0.0,0.0,0.0,0.0,0.0,0.0,0.0
39677037,39576434,2.5817661,-1.331572,-0.20073049,5.718473,-2.7999449,0.0,0.0,0.0,0.0,0.0,0.0,0.0,0.0,-0.52695274,0.0,0.0,nan,0.0,0.0,-0.031034231,0.0,0.0,0.0,0.0,0.0,0.0,0.0,0.0,0.0
40176717,40076092,2.7992868,-1.4166683,-0.20679142,7.070556,-3.4907432,0.0,0.0,0.0,0.0,0.0,0.0,0.0,0.0,-0.8781719,0.0,0.0,nan,0.0,0.0,-0.026530504,0.0,0.0,0.0,0.0,0.0,0.0,0.0,0.0,0.0
40676295,40575751,3.0560877,-1.6221015,-0.26291877,8.556509,-4.2617965,0.0,0.0,0.0,0.0,0.0,0.0,0.0,0.0,-1.0230141,0.0,0.0,nan,0.0,0.0,-0.019416332,0.0,0.0,0.0,0.0,0.0,0.0,0.0,0.0,0.0
41176008,41075408,3.400787,-1.7088697,-0.17629445,10.169841,-5.079647,0.0,0.0,0.0,0.0,0.0,0.0,0.0,0.0,-1.0760841,0.0,0.0,nan,0.0,0.0,-0.021336794,0.0,0.0,0.0,0.0,0.0,0.0,0.0,0.0,0.0
41675660,41575066,3.6678176,-1.8717256,-0.17456985,11.941423,-5.9792027,0.0,0.0,0.0,0.0,0.0,0.0,0.0,0.0,-0.9850483,0.0,0.0,nan,0.0,0.0,-0.026569605,0.0,0.0,0.0,0.0,0.0,0.0,0.0,0.0,0.0
42175403,42074724,3.8982215,-1.9474738,0.00093498826,13.780262,-6.895252,0.0,0.0,0.0,0.0,0.0,0.0,0.0,0.0,-0.9194565,0.0,0.0,nan,0.0,0.0,-0.032889366,0.0,0.0,0.0,0.0,0.0,0.0,0.0,0.0,0.0
42675046,42574382,4.3324485,-2.0289934,0.11515343,15.787867,-7.9156,0.0,0.0,0.0,0.0,0.0,0.0,0.0,0.0,-0.7125397,0.0,0.0,nan,0.0,0.0,-0.04046011,0.0,0.0,0.0,0.0,0.0,0.0,0.0,0.0,0.0
43174593,43074040,4.4870644,-2.2518284,0.06447691,17.965754,-9.00546,0.0,0.0,0.0,0.0,0.0,0.0,0.0,0.0,-0.665411,0.0,0.0,nan,0.0,0.0,-0.047480345,0.0,0.0,0.0,0.0,0.0,0.0,0.0,0.0,0.0
43674243,43573697,7.398382,-4.7440467,0.61469305,27.377165,-17.18649,0.0,0.0,0.0,0.0,0.0,0.0,0.0,0.0,0.14682579,0.0,0.0,nan,0.0,0.0,-0.041042328,0.0,0.0,0.0,0.0,0.0,0.0,0.0,0.0,0.0
44173896,44073355,6.9869556,-4.5782127,0.28796893,32.423744,-20.227547,0.0,0.0,0.0,0.0,0.0,0.0,0.0,0.0,0.86501503,0.0,0.0,nan,0.0,0.0,-0.05254078,0.0,0.0,0.0,0.0,0.0,0.0,0.0,0.0,0.0
44673785,44573014,6.970157,-4.57468,0.24597444,36.49475,-22.865448,0.0,0.0,0.0,0.0,0.0,0.0,0.0,0.0,0.56147766,0.0,0.0,nan,0.0,0.0,-0.061114073,0.0,0.0,0.0,0.0,0.0,0.0,0.0,0.0,0.0
45173246,45072672,6.9444537,-4.4724264,0.20889615,40.214355,-25.260342,0.0,0.0,0.0,0.0,0.0,0.0,0.0,0.0,0.9117794,0.0,0.0,nan,0.0,0.0,-0.0689888,0.0,0.0,0.0,0.0,0.0,0.0,0.0,0.0,0.0
45672893,45572330,6.7229767,-4.415475,0.21015209,43.90049,-27.612122,0.0,0.0,0.0,0.0,0.0,0.0,0.0,0.0,1.074688,0.0,0.0,nan,0.0,0.0,-0.0815351,0.0,0.0,0.0,0.0,0.0,0.0,0.0,0.0,0.0
46172531,46071988,6.687146,-4.284125,0.17128913,47.325386,-29.81877,0.0,0.0,0.0,0.0,0.0,0.0,0.0,0.0,1.1463833,0.0,0.0,nan,0.0,0.0,-0.095335245,0.0,0.0,0.0,0.0,0.0,0.0,0.0,0.0,0.0
46672319,46571646,6.788255,-4.066804,0.1547824,50.72408,-31.959835,0.0,0.0,0.0,0.0,0.0,0.0,0.0,0.0,1.2914124,0.0,0.0,nan,0.0,0.0,-0.12507987,0.0,0.0,0.0,0.0,0.0,0.0,0.0,0.0,0.0
47171941,47071304,6.7272353,-3.8038073,0.14063832,54.134224,-33.98337,0.0,0.0,0.0,0.0,0.0,0.0,0.0,0.0,1.2645588,0.0,0.0,nan,0.0,0.0,-0.13504577,0.0,0.0,0.0,0.0,0.0,0.0,0.0,0.0,0.0
47671557,47570962,6.7963233,-3.6471894,0.20432894,57.517044,-35.86858,0.0,0.0,0.0,0.0,0.0,0.0,0.0,0.0,1.3688602,0.0,0.0,nan,0.0,0.0,-0.14196396,0.0,0.0,0.0,0.0,0.0,0.0,0.0,0.0,0.0
48171211,48070620,6.8307066,-3.5502331,0.15746577,60.930397,-37.66604,0.0,0.0,0.0,0.0,0.0,0.0,0.0,0.0,1.3021355,0.0,0.0,nan,0.0,0.0,-0.13621259,0.0,0.0,0.0,0.0,0.0,0.0,0.0,0.0,0.0
48670924,48570278,6.9028616,-3.4286609,0.16568251,64.34909,-39.407764,0.0,0.0,0.0,0.0,0.0,0.0,0.0,0.0,1.4007587,0.0,0.0,nan,0.0,0.0,-0.121234894,0.0,0.0,0.0,0.0,0.0,0.0,0.0,0.0,0.0
49170512,49069936,6.980416,-3.4334276,0.121065244,67.82469,-41.118,0.0,0.0,0.0,0.0,0.0,0.0,0.0,0.0,1.4766464,0.0,0.0,nan,0.0,0.0,-0.10382795,0.0,0.0,0.0,0.0,0.0,0.0,0.0,0.0,0.0
49670154,49569594,6.987606,-3.5572016,0.12332609,71.34083,-42.869415,0.0,0.0,0.0,0.0,0.0,0.0,0.0,0.0,1.5897255,0.0,0.0,nan,0.0,0.0,-0.08139706,0.0,0.0,0.0,0.0,0.0,0.0,0.0,0.0,0.0
50169885,50069253,6.9248614,-3.5950983,0.08230544,74.80626,-44.64327,0.0,0.0,0.0,0.0,0.0,0.0,0.0,0.0,1.5121689,0.0,0.0,nan,0.0,0.0,-0.08361769,0.0,0.0,0.0,0.0,0.0,0.0,0.0,0.0,0.0
50669559,50568913,6.884472,-3.6154978,0.089115776,78.26594,-46.44371,0.0,0.0,0.0,0.0,0.0,0.0,0.0,0.0,1.4084644,0.0,0.0,nan,0.0,0.0,-0.0809567,0.0,0.0,0.0,0.0,0.0,0.0,0.0,0.0,0.0
51169210,51068569,6.8239603,-3.4673,0.04629776,81.705765,-48.20525,0.0,0.0,0.0,0.0,0.0,0.0,0.0,0.0,1.5719299,0.0,0.0,nan,0.0,0.0,-0.08896613,0.0,0.0,0.0,0.0,0.0,0.0,0.0,0.0,0.0
51678855,51578221,6.878,-3.267113,0.022045234,85.98168,-50.307617,0.0,0.0,0.0,0.0,0.0,0.0,0.0,0.0,1.587553,0.0,0.0,nan,0.0,0.0,-0.088070154,0.0,0.0,0.0,0.0,0.0,0.0,0.0,0.0,0.0
52178991,52077879,0.0022034645,-0.025015593,0.029592894,0.035247803,-0.014209747,0.0,0.0,0.0,0.0,0.0,0.0,0.0,0.0,1.5890484,0.0,0.0,nan,0.0,0.0,-0.07557416,0.0,0.0,0.0,0.0,0.0,0.0,0.0,0.0,0.0
52678484,52577537,0.0055565834,0.073711395,-0.01798869,0.007156372,0.0047454834,0.0,0.0,0.0,0.0,0.0,0.0,0.0,0.0,1.5089855,0.0,0.0,nan,0.0,0.0,-0.06783724,0.0,0.0,0.0,0.0,0.0,0.0,0.0,0.0,0.0
53178299,53077196,-0.017797947,0.1482296,-0.06654873,0.055023193,0.01594162,0.0,0.0,0.0,0.0,0.0,0.0,0.0,0.0,1.2054234,0.0,0.0,nan,0.0,0.0,-0.06745291,0.0,0.0,0.0,0.0,0.0,0.0,0.0,0.0,0.0
53677960,53576854,-0.02029705,0.20712924,-0.051417597,0.05517578,0.052204132,0.0,0.0,0.0,0.0,0.0,0.0,0.0,0.0,1.1254177,0.0,0.0,nan,0.0,0.0,-0.07374239,0.0,0.0,0.0,0.0,0.0,0.0,0.0,0.0,0.0
54177263,54076512,-0.030082226,0.23981333,-0.05837963,0.027832031,0.100997925,0.0,0.0,0.0,0.0,0.0,0.0,0.0,0.0,1.3002224,0.0,0.0,nan,0.0,0.0,-0.0763309,0.0,0.0,0.0,0.0,0.0,0.0,0.0,0.0,0.0
54676926,54576171,-0.04818535,0.20649672,-0.07358741,-0.037765503,0.16223145,0.0,0.0,0.0,0.0,0.0,0.0,0.0,0.0,1.0854969,0.0,0.0,nan,0.0,0.0,-0.080839396,0.0,0.0,0.0,0.0,0.0,0.0,0.0,0.0,0.0
55176596,55075829,-0.051469326,0.23970461,-0.099253446,0.027862549,0.14742279,0.0,0.0,0.0,0.0,0.0,0.0,0.0,0.0,0.97462463,0.0,0.0,nan,0.0,0.0,-0.07292724,0.0,0.0,0.0,0.0,0.0,0.0,0.0,0.0,0.0
55676305,55575488,6.5927854,-3.3050456,-0.1714574,9.727852,-5.095478,0.0,0.0,0.0,0.0,0.0,0.0,0.0,0.0,0.9069691,0.0,0.0,nan,0.0,0.0,-0.0998106,0.0,0.0,0.0,0.0,0.0,0.0,0.0,0.0,0.0
56175869,56075146,7.2877293,-3.5775506,-0.06482963,13.221916,-6.8069763,0.0,0.0,0.0,0.0,0.0,0.0,0.0,0.0,1.1398029,0.0,0.0,nan,0.0,0.0,-0.089150906,0.0,0.0,0.0,0.0,0.0,0.0,0.0,0.0,0.0
56675599,56574804,8.10522,-3.774535,0.08931149,17.089104,-8.639515,0.0,0.0,0.0,0.0,0.0,0.0,0.0,0.0,1.0050087,0.0,0.0,nan,0.0,0.0,-0.085381985,0.0,0.0,0.0,0.0,0.0,0.0,0.0,0.0,0.0
57175392,57074463,6.426973,-3.6612473,-0.05584931,20.142494,-10.3204155,0.0,0.0,0.0,0.0,0.0,0.0,0.0,0.0,0.5126953,0.0,0.0,nan,0.0,0.0,-0.010941267,0.0,0.0,0.0,0.0,0.0,0.0,0.0,0.0,0.0
57674813,57574122,6.3663816,-3.833559,-0.12166604,23.394943,-12.171307,0.0,0.0,0.0,0.0,0.0,0.0,0.0,0.0,0.6880913,0.0,0.0,nan,0.0,0.0,-0.00054192543,0.0,0.0,0.0,0.0,0.0,0.0,0.0,0.0,0.0
58174536,58073780,6.3251057,-3.9093535,-0.014536689,26.594658,-14.112949,0.0,0.0,0.0,0.0,0.0,0.0,0.0,0.0,0.731102,0.0,0.0,nan,0.0,0.0,0.009422779,0.0,0.0,0.0,0.0,0.0,0.0,0.0,0.0,0.0
58674218,58573439,6.306128,-3.9699996,-0.026240075,29.774353,-16.101948,0.0,0.0,0.0,0.0,0.0,0.0,0.0,0.0,0.6542263,0.0,0.0,nan,0.0,0.0,-0.02033186,0.0,0.0,0.0,0.0,0.0,0.0,0.0,0.0,0.0
59173645,59073097,6.377479,-3.978222,0.09118809,32.936707,-18.089565,0.0,0.0,0.0,0.0,0.0,0.0,0.0,0.0,0.65135,0.0,0.0,nan,0.0,0.0,-0.052323103,0.0,0.0,0.0,0.0,0.0,0.0,0.0,0.0,0.0
59673375,59572756,6.3405724,-3.8052123,0.0014821552,36.100883,-20.040691,0.0,0.0,0.0,0.0,0.0,0.0,0.0,0.0,0.6794262,0.0,0.0,nan,0.0,0.0,-0.07457876,0.0,0.0,0.0,0.0,0.0,0.0,0.0,0.0,0.0
60172967,60072414,6.3303866,-3.721879,0.021762751,39.263588,-21.907822,0.0,0.0,0.0,0.0,0.0,0.0,0.0,0.0,0.5787182,0.0,0.0,nan,0.0,0.0,-0.09828806,0.0,0.0,0.0,0.0,0.0,0.0,0.0,0.0,0.0
60672614,60572073,6.3173294,-3.6202207,0.018446444,42.43357,-23.716282,0.0,0.0,0.0,0.0,0.0,0.0,0.0,0.0,0.46407127,0.0,0.0,nan,0.0,0.0,-0.0840826,0.0,0.0,0.0,0.0,0.0,0.0,0.0,0.0,0.0
61172383,61071732,6.3561788,-3.7223036,0.095083,45.6164,-25.538631,0.0,0.0,0.0,0.0,0.0,0.0,0.0,0.0,0.5307026,0.0,0.0,nan,0.0,0.0,-0.06758213,0.0,0.0,0.0,0.0,0.0,0.0,0.0,0.0,0.0
61672082,61571390,6.2883253,-3.8655128,0.024521466,48.78115,-27.449951,0.0,0.0,0.0,0.0,0.0,0.0,0.0,0.0,0.51968,0.0,0.0,nan,0.0,0.0,-0.045482635,0.0,0.0,0.0,0.0,0.0,0.0,0.0,0.0,0.0
62171621,62071049,6.153028,-4.0972223,0.0011086399,51.890327,-29.462772,0.0,0.0,0.0,0.0,0.0,0.0,0.0,0.0,0.43152428,0.0,0.0,nan,0.0,0.0,-0.04155302,0.0,0.0,0.0,0.0,0.0,0.0,0.0,0.0,0.0
62671287,62570708,6.208498,-4.181291,0.011310555,54.996002,-31.517994,0.0,0.0,0.0,0.0,0.0,0.0,0.0,0.0,0.59555054,0.0,0.0,nan,0.0,0.0,-0.053072214,0.0,0.0,0.0,0.0,0.0,0.0,0.0,0.0,0.0
63170948,63070367,6.1287155,-4.309249,0.056360044,58.077316,-33.6517,0.0,0.0,0.0,0.0,0.0,0.0,0.0,0.0,0.33098984,0.0,0.0,nan,0.0,0.0,-0.06251383,0.0,0.0,0.0,0.0,0.0,0.0,0.0,0.0,0.0
63670693,63570026,6.2327843,-3.948835,-0.036291424,61.202034,-35.478886,0.0,0.0,0.0,0.0,0.0,0.0,0.0,0.0,0.40594864,0.0,0.0,nan,0.0,0.0,-0.07627535,0.0,0.0,0.0,0.0,0.0,0.0,0.0,0.0,0.0
64170276,64069684,6.2556148,-3.876634,-0.016378261,64.30209,-37.41926,0.0,0.0,0.0,0.0,0.0,0.0,0.0,0.0,0.06469154,0.0,0.0,nan,0.0,0.0,-0.07478762,0.0,0.0,0.0,0.0,0.0,0.0,0.0,0.0,0.0
64669902,64569343,6.22368,-3.819855,-0.010055431,67.426254,-39.31978,0.0,0.0,0.0,0.0,0.0,0.0,0.0,0.0,0.64296913,0.0,0.0,nan,0.0,0.0,-0.07226539,0.0,0.0,0.0,0.0,0.0,0.0,0.0,0.0,0.0
65169604,65069002,6.2064886,-3.8549156,-0.06755147,70.529594,-41.22603,0.0,0.0,0.0,0.0,0.0,0.0,0.0,0.0,0.38814163,0.0,0.0,nan,0.0,0.0,-0.06328583,0.0,0.0,0.0,0.0,0.0,0.0,0.0,0.0,0.0
65679331,65578654,6.0842834,-3.9002059,-0.068540476,74.36655,-43.644516,0.0,0.0,0.0,0.0,0.0,0.0,0.0,0.0,0.46691322,0.0,0.0,nan,0.0,0.0,-0.05299306,0.0,0.0,0.0,0.0,0.0,0.0,0.0,0.0,0.0
66179078,66078314,6.022093,-3.9352465,-0.059782624,77.40175,-45.604004,0.0,0.0,0.0,0.0,0.0,0.0,0.0,0.0,0.20832634,0.0,0.0,nan,0.0,0.0,-0.06480861,0.0,0.0,0.0,0.0,0.0,0.0,0.0,0.0,0.0
66668542,66567979,6.0695734,-3.9199283,-0.07746277,79.680466,-47.071724,0.0,0.0,0.0,0.0,0.0,0.0,0.0,0.0,0.3125286,0.0,0.0,nan,0.0,0.0,-0.07204652,0.0,0.0,0.0,0.0,0.0,0.0,0.0,0.0,0.0
67168206,67067638,6.1223826,-3.8080864,-0.042696707,82.75508,-48.977345,0.0,0.0,0.0,0.0,0.0,0.0,0.0,0.0,0.39867592,0.0,0.0,nan,0.0,0.0,-0.08521986,0.0,0.0,0.0,0.0,0.0,0.0,0.0,0.0,0.0
67677893,67577290,6.2761965,-3.6650677,-0.02093004,85.88307,-50.828705,0.0,0.0,0.0,0.0,0.0,0.0,0.0,0.0,0.24508858,0.0,0.0,nan,0.0,0.0,-0.08066702,0.0,0.0,0.0,0.0,0.0,0.0,0.0,0.0,0.0
68177496,68076949,6.3029404,-3.643074,-0.005946601,89.05118,-52.64996,0.0,0.0,0.0,0.0,0.0,0.0,0.0,0.0,0.30517387,0.0,0.0,nan,0.0,0.0,-0.0791204,0.0,0.0,0.0,0.0,0.0,0.0,0.0,0.0,0.0
68677365,68576608,6.346606,-3.6644144,0.039363287,93.03252,-54.938988,0.0,0.0,0.0,0.0,0.0,0.0,0.0,0.0,0.16700554,0.0,0.0,nan,0.0,0.0,-0.05990839,0.0,0.0,0.0,0.0,0.0,0.0,0.0,0.0,0.0
69177435,69076267,0.0075120926,0.0065596104,-0.02002021,0.034423828,-0.027275085,0.0,0.0,0.0,0.0,0.0,0.0,0.0,0.0,0.27575493,0.0,0.0,nan,0.0,0.0,-0.05948758,0.0,0.0,0.0,0.0,0.0,0.0,0.0,0.0,0.0
69676719,69575927,6.306656,-3.7666454,-0.049876794,2.8222961,-1.6954575,0.0,0.0,0.0,0.0,0.0,0.0,0.0,0.0,0.23290825,0.0,0.0,nan,0.0,0.0,-0.06858277,0.0,0.0,0.0,0.0,0.0,0.0,0.0,0.0,0.0
70176427,70075586,6.2847824,-3.7792988,-0.1062399,5.2108307,-3.1034088,0.0,0.0,0.0,0.0,0.0,0.0,0.0,0.0,0.0068359375,0.0,0.0,nan,0.0,0.0,-0.07412958,0.0,0.0,0.0,0.0,0.0,0.0,0.0,0.0,0.0
70676009,70575245,6.2782965,-3.8391147,-0.02213557,9.160721,-5.49984,0.0,0.0,0.0,0.0,0.0,0.0,0.0,0.0,0.1508522,0.0,0.0,nan,0.0,0.0,-0.06859183,0.0,0.0,0.0,0.0,0.0,0.0,0.0,0.0,0.0
71175754,71074904,6.618151,-3.5370367,-0.01695655,12.6688385,-7.093498,0.0,0.0,0.0,0.0,0.0,0.0,0.0,0.0,0.24861526,0.0,0.0,nan,0.0,0.0,-0.076961756,0.0,0.0,0.0,0.0,0.0,0.0,0.0,0.0,0.0
71675409,71574564,6.6164536,-3.4666789,-0.0058051045,16.005127,-8.834702,0.0,0.0,0.0,0.0,0.0,0.0,0.0,0.0,0.1310978,0.0,0.0,nan,0.0,0.0,-0.07347751,0.0,0.0,0.0,0.0,0.0,0.0,0.0,0.0,0.0
72174900,72074224,6.642228,-3.482864,-0.037368897,18.507278,-10.152061,0.0,0.0,0.0,0.0,0.0,0.0,0.0,0.0,0.10643005,0.0,0.0,nan,0.0,0.0,-0.06140256,0.0,0.0,0.0,0.0,0.0,0.0,0.0,0.0,0.0
72674638,72573882,6.6458797,-3.5060105,-0.026269553,21.84433,-11.892418,0.0,0.0,0.0,0.0,0.0,0.0,0.0,0.0,-0.31180573,0.0,0.0,nan,0.0,0.0,-0.054522753,0.0,0.0,0.0,0.0,0.0,0.0,0.0,0.0,0.0
73174244,73073541,6.5665884,-3.5625224,0.011216254,25.14624,-13.654427,0.0,0.0,0.0,0.0,0.0,0.0,0.0,0.0,0.02460289,0.0,0.0,nan,0.0,0.0,-0.057385683,0.0,0.0,0.0,0.0,0.0,0.0,0.0,0.0,0.0
73673998,73573200,6.5148544,-3.5069208,-0.04671481,28.404922,-15.415382,0.0,0.0,0.0,0.0,0.0,0.0,0.0,0.0,0.1051445,0.0,0.0,nan,0.0,0.0,-0.054816484,0.0,0.0,0.0,0.0,0.0,0.0,0.0,0.0,0.0
74173580,74072860,6.4945507,-3.5438156,-0.023080584,31.651093,-17.161934,0.0,0.0,0.0,0.0,0.0,0.0,0.0,0.0,0.18885994,0.0,0.0,nan,0.0,0.0,-0.05080557,0.0,0.0,0.0,0.0,0.0,0.0,0.0,0.0,0.0
74673218,74572519,6.487837,-3.4398248,0.042929295,34.898254,-18.885506,0.0,0.0,0.0,0.0,0.0,0.0,0.0,0.0,0.10443497,0.0,0.0,nan,0.0,0.0,-0.05261326,0.0,0.0,0.0,0.0,0.0,0.0,0.0,0.0,0.0
75172967,75072178,6.381105,-3.5937583,0.04007636,38.13542,-20.650612,0.0,0.0,0.0,0.0,0.0,0.0,0.0,0.0,0.020868301,0.0,0.0,nan,0.0,0.0,-0.041254044,0.0,0.0,0.0,0.0,0.0,0.0,0.0,0.0,0.0
75672617,75571838,6.3849325,-3.5809276,0.026910026,41.33748,-22.43937,0.0,0.0,0.0,0.0,0.0,0.0,0.0,0.0,-0.14840508,0.0,0.0,nan,0.0,0.0,-0.050390005,0.0,0.0,0.0,0.0,0.0,0.0,0.0,0.0,0.0
76172277,76071498,6.3493285,-3.494604,0.060986586,44.538635,-24.194435,0.0,0.0,0.0,0.0,0.0,0.0,0.0,0.0,-0.30874443,0.0,0.0,nan,0.0,0.0,-0.05164528,0.0,0.0,0.0,0.0,0.0,0.0,0.0,0.0,0.0
76671909,76571157,6.3892145,-3.3801386,-0.049413018,47.750443,-25.881119,0.0,0.0,0.0,0.0,0.0,0.0,0.0,0.0,-0.01102829,0.0,0.0,nan,0.0,0.0,-0.05955887,0.0,0.0,0.0,0.0,0.0,0.0,0.0,0.0,0.0
77171590,77070816,6.4649296,-3.2387958,-0.07268723,50.964798,-27.508743,0.0,0.0,0.0,0.0,0.0,0.0,0.0,0.0,0.008262634,0.0,0.0,nan,0.0,0.0,-0.06290531,0.0,0.0,0.0,0.0,0.0,0.0,0.0,0.0,0.0
77671156,77570476,6.430794,-3.1998158,-0.060988218,54.18857,-29.121674,0.0,0.0,0.0,0.0,0.0,0.0,0.0,0.0,-0.0646019,0.0,0.0,nan,0.0,0.0,-0.054578066,0.0,0.0,0.0,0.0,0.0,0.0,0.0,0.0,0.0
78171021,78070135,6.411096,-3.2167435,-0.08885835,57.41342,-30.727074,0.0,0.0,0.0,0.0,0.0,0.0,0.0,0.0,-0.075136185,0.0,0.0,nan,0.0,0.0,-0.0432961,0.0,0.0,0.0,0.0,0.0,0.0,0.0,0.0,0.0
78670748,78569795,6.4002223,-3.2420108,-0.18608613,60.626892,-32.340088,0.0,0.0,0.0,0.0,0.0,0.0,0.0,0.0,-0.10346413,0.0,0.0,nan,0.0,0.0,-0.035522938,0.0,0.0,0.0,0.0,0.0,0.0,0.0,0.0,0.0
79170174,79069455,6.4203176,-3.2561252,-0.16777559,63.848663,-33.959763,0.0,0.0,0.0,0.0,0.0,0.0,0.0,0.0,-0.25017357,0.0,0.0,nan,0.0,0.0,-0.038457632,0.0,0.0,0.0,0.0,0.0,0.0,0.0,0.0,0.0
79669797,79569114,6.5129128,-3.3151066,-0.048841197,67.08661,-35.6099,0.0,0.0,0.0,0.0,0.0,0.0,0.0,0.0,-0.27973175,0.0,0.0,nan,0.0,0.0,-0.03252244,0.0,0.0,0.0,0.0,0.0,0.0,0.0,0.0,0.0
80179455,80078767,6.5558023,-3.2941148,-0.057064652,70.34317,-37.258812,0.0,0.0,0.0,0.0,0.0,0.0,0.0,0.0,-0.34858894,0.0,0.0,nan,0.0,0.0,-0.02256608,0.0,0.0,0.0,0.0,0.0,0.0,0.0,0.0,0.0
80679202,80578427,6.655421,-3.2836537,0.08834959,74.46895,-39.288246,0.0,0.0,0.0,0.0,0.0,0.0,0.0,0.0,-0.32686234,0.0,0.0,nan,0.0,0.0,-0.023874044,0.0,0.0,0.0,0.0,0.0,0.0,0.0,0.0,0.0
81168769,81068093,6.6147685,-3.3315713,0.06811136,76.97107,-40.52854,0.0,0.0,0.0,0.0,0.0,0.0,0.0,0.0,-0.11678314,0.0,0.0,nan,0.0,0.0,-0.017199993,0.0,0.0,0.0,0.0,0.0,0.0,0.0,0.0,0.0
81668523,81567753,6.6101704,-3.4435806,-0.04299165,80.27463,-42.24208,0.0,0.0,0.0,0.0,0.0,0.0,0.0,0.0,-0.112989426,0.0,0.0,nan,0.0,0.0,-0.0069704056,0.0,0.0,0.0,0.0,0.0,0.0,0.0,0.0,0.0
82178182,82077406,6.568478,-3.7486684,-0.03436364,84.39961,-44.507576,0.0,0.0,0.0,0.0,0.0,0.0,0.0,0.0,-0.44226074,0.0,0.0,nan,0.0,0.0,-0.0010001659,0.0,0.0,0.0,0.0,0.0,0.0,0.0,0.0,0.0
82677760,82577066,6.563493,-3.7882657,0.0650463,86.86786,-45.91426,0.0,0.0,0.0,0.0,0.0,0.0,0.0,0.0,-0.35381317,0.0,0.0,nan,0.0,0.0,-0.011882544,0.0,0.0,0.0,0.0,0.0,0.0,0.0,0.0,0.0
83177496,83076726,6.6111836,-3.6871789,0.17972466,91.00383,-48.2313,0.0,0.0,0.0,0.0,0.0,0.0,0.0,0.0,-0.34848213,0.0,0.0,nan,0.0,0.0,-0.018867731,0.0,0.0,0.0,0.0,0.0,0.0,0.0,0.0,0.0
83677112,83576386,6.715834,-3.6554813,0.14814523,93.50557,-49.60186,0.0,0.0,0.0,0.0,0.0,0.0,0.0,0.0,-0.44278908,0.0,0.0,nan,0.0,0.0,-0.020229816,0.0,0.0,0.0,0.0,0.0,0.0,0.0,0.0,0.0
84176713,84076046,6.6697187,-3.7206616,0.15073262,2.4475708,-1.350296,0.0,0.0,0.0,0.0,0.0,0.0,0.0,0.0,-0.34370613,0.0,0.0,nan,0.0,0.0,-0.011313438,0.0,0.0,0.0,0.0,0.0,0.0,0.0,0.0,0.0
84676252,84575706,6.5216985,-3.7917805,0.13115343,5.3708496,-3.0125122,0.0,0.0,0.0,0.0,0.0,0.0,0.0,0.0,0.15913963,0.0,0.0,nan,0.0,0.0,-0.008882523,0.0,0.0,0.0,0.0,0.0,0.0,0.0,0.0,0.0
85176135,85075365,6.3776517,-3.8467338,0.054352704,8.607971,-4.921173,0.0,0.0,0.0,0.0,0.0,0.0,0.0,0.0,-0.088092804,0.0,0.0,nan,0.0,0.0,-0.004794359,0.0,0.0,0.0,0.0,0.0,0.0,0.0,0.0,0.0
85675635,85575025,6.295394,-3.8733215,-0.0035542548,11.800812,-6.846451,0.0,0.0,0.0,0.0,0.0,0.0,0.0,0.0,-0.0064296722,0.0,0.0,nan,0.0,0.0,-0.0062782764,0.0,0.0,0.0,0.0,0.0,0.0,0.0,0.0,0.0
86175297,86074685,6.2225657,-3.8954294,-0.010877036,14.935913,-8.780823,0.0,0.0,0.0,0.0,0.0,0.0,0.0,0.0,-0.007801056,0.0,0.0,nan,0.0,0.0,-0.012276888,0.0,0.0,0.0,0.0,0.0,0.0,0.0,0.0,0.0
86675044,86574345,6.240127,-3.9302065,0.044254944,18.048676,-10.7247925,0.0,0.0,0.0,0.0,0.0,0.0,0.0,0.0,0.030252457,0.0,0.0,nan,0.0,0.0,-0.01687622,0.0,0.0,0.0,0.0,0.0,0.0,0.0,0.0,0.0
87174575,87074006,6.1390123,-3.9151454,0.0057686334,21.140442,-12.667343,0.0,0.0,0.0,0.0,0.0,0.0,0.0,0.0,0.103759766,0.0,0.0,nan,0.0,0.0,-0.018027544,0.0,0.0,0.0,0.0,0.0,0.0,0.0,0.0,0.0
87674289,87573666,6.05613,-3.9228582,-0.059401516,24.21988,-14.619614,0.0,0.0,0.0,0.0,0.0,0.0,0.0,0.0,0.18309212,0.0,0.0,nan,0.0,0.0,-0.017656326,0.0,0.0,0.0,0.0,0.0,0.0,0.0,0.0,0.0
88173951,88073326,6.044083,-3.9098954,-0.006596173,27.254944,-16.581131,0.0,0.0,0.0,0.0,0.0,0.0,0.0,0.0,-0.022880554,0.0,0.0,nan,0.0,0.0,-0.027143955,0.0,0.0,0.0,0.0,0.0,0.0,0.0,0.0,0.0
88673537,88572986,6.0368824,-3.8535736,-0.075224735,30.28067,-18.505615,0.0,0.0,0.0,0.0,0.0,0.0,0.0,0.0,0.14522171,0.0,0.0,nan,0.0,0.0,-0.031574726,0.0,0.0,0.0,0.0,0.0,0.0,0.0,0.0,0.0
89173231,89072646,6.0783095,-3.755628,-0.054957677,33.32556,-20.40709,0.0,0.0,0.0,0.0,0.0,0.0,0.0,0.0,0.04386139,0.0,0.0,nan,0.0,0.0,-0.036654472,0.0,0.0,0.0,0.0,0.0,0.0,0.0,0.0,0.0
89672946,89572306,6.147316,-3.750593,-0.07803555,36.403778,-22.28894,0.0,0.0,0.0,0.0,0.0,0.0,0.0,0.0,0.047704697,0.0,0.0,nan,0.0,0.0,-0.042912483,0.0,0.0,0.0,0.0,0.0,0.0,0.0,0.0,0.0
90172595,90071966,6.2363586,-3.6807733,-0.055854656,39.519196,-24.154114,0.0,0.0,0.0,0.0,0.0,0.0,0.0,0.0,-0.12684059,0.0,0.0,nan,0.0,0.0,-0.048704863,0.0,0.0,0.0,0.0,0.0,0.0,0.0,0.0,0.0
90672238,90571627,6.312538,-3.614917,-0.07874079,42.686768,-25.976807,0.0,0.0,0.0,0.0,0.0,0.0,0.0,0.0,-0.038784027,0.0,0.0,nan,0.0,0.0,-0.047628403,0.0,0.0,0.0,0.0,0.0,0.0,0.0,0.0,0.0
91171885,91071287,6.3242426,-3.620693,-0.06691605,45.87845,-27.781143,0.0,0.0,0.0,0.0,0.0,0.0,0.0,0.0,-0.18111992,0.0,0.0,nan,0.0,0.0,-0.03747368,0.0,0.0,0.0,0.0,0.0,0.0,0.0,0.0,0.0
91671499,91570947,6.3238144,-3.6322901,-0.12834893,49.058807,-29.60263,0.0,0.0,0.0,0.0,0.0,0.0,0.0,0.0,-0.43118477,0.0,0.0,nan,0.0,0.0,-0.03556776,0.0,0.0,0.0,0.0,0.0,0.0,0.0,0.0,0.0
92171243,92070607,6.3004265,-3.6537232,-0.023345066,52.21698,-31.442154,0.0,0.0,0.0,0.0,0.0,0.0,0.0,0.0,-0.0117435455,0.0,0.0,nan,0.0,0.0,-0.04088974,0.0,0.0,0.0,0.0,0.0,0.0,0.0,0.0,0.0
92670817,92570268,6.275152,-3.6036546,-0.09785741,55.37445,-33.255234,0.0,0.0,0.0,0.0,0.0,0.0,0.0,0.0,-0.26212883,0.0,0.0,nan,0.0,0.0,-0.041275978,0.0,0.0,0.0,0.0,0.0,0.0,0.0,0.0,0.0
93170471,93069928,6.23287,-3.5822709,-0.18465017,58.510834,-35.04254,0.0,0.0,0.0,0.0,0.0,0.0,0.0,0.0,-0.26005173,0.0,0.0,nan,0.0,0.0,-0.039378166,0.0,0.0,0.0,0.0,0.0,0.0,0.0,0.0,0.0
93670140,93569589,6.2628617,-3.5148277,-0.2062094,61.65509,-36.7856,0.0,0.0,0.0,0.0,0.0,0.0,0.0,0.0,-0.34194756,0.0,0.0,nan,0.0,0.0,-0.037982464,0.0,0.0,0.0,0.0,0.0,0.0,0.0,0.0,0.0
94179881,94079242,6.292835,-3.4541495,-0.12714025,65.59213,-38.949585,0.0,0.0,0.0,0.0,0.0,0.0,0.0,0.0,-0.5081463,0.0,0.0,nan,0.0,0.0,-0.042788267,0.0,0.0,0.0,0.0,0.0,0.0,0.0,0.0,0.0
94679638,94578903,6.3362765,-3.302244,-0.155439,68.772705,-40.613297,0.0,0.0,0.0,0.0,0.0,0.0,0.0,0.0,-0.33395767,0.0,0.0,nan,0.0,0.0,-0.034673452,0.0,0.0,0.0,0.0,0.0,0.0,0.0,0.0,0.0
95169178,95068570,6.3837867,-3.1284435,-0.19115564,71.17462,-41.802277,0.0,0.0,0.0,0.0,0.0,0.0,0.0,0.0,-0.6658211,0.0,0.0,nan,0.0,0.0,-0.04717374,0.0,0.0,0.0,0.0,0.0,0.0,0.0,0.0,0.0
95668780,95568231,6.4312553,-3.070004,-0.15533996,74.409,-43.34088,0.0,0.0,0.0,0.0,0.0,0.0,0.0,0.0,-0.6563225,0.0,0.0,nan,0.0,0.0,-0.03625703,0.0,0.0,0.0,0.0,0.0,0.0,0.0,0.0,0.0
96178626,96077884,6.4258585,-2.9077365,-0.16952395,78.44269,-45.20308,0.0,0.0,0.0,0.0,0.0,0.0,0.0,0.0,-0.47617722,0.0,0.0,nan,0.0,0.0,-0.01628232,0.0,0.0,0.0,0.0,0.0,0.0,0.0,0.0,0.0
96678223,96577545,6.4010878,-3.2741249,-0.26220238,81.66113,-46.92363,0.0,0.0,0.0,0.0,0.0,0.0,0.0,0.0,-0.78108025,0.0,0.0,nan,0.0,0.0,-0.007060051,0.0,0.0,0.0,0.0,0.0,0.0,0.0,0.0,0.0
97177976,97077206,6.3170495,-3.4244092,-0.12623192,84.85382,-48.58879,0.0,0.0,0.0,0.0,0.0,0.0,0.0,0.0,-0.81028175,0.0,0.0,nan,0.0,0.0,0.002765894,0.0,0.0,0.0,0.0,0.0,0.0,0.0,0.0,0.0
97677464,97576866,6.380259,-3.5127656,-0.101600684,87.2446,-49.889908,0.0,0.0,0.0,0.0,0.0,0.0,0.0,0.0,-1.0144596,0.0,0.0,nan,0.0,0.0,-0.0052039623,0.0,0.0,0.0,0.0,0.0,0.0,0.0,0.0,0.0
98177075,98076527,6.3643126,-3.4975953,-0.12194744,90.43564,-51.626495,0.0,0.0,0.0,0.0,0.0,0.0,0.0,0.0,-0.8556042,0.0,0.0,nan,0.0,0.0,-0.009975433,0.0,0.0,0.0,0.0,0.0,0.0,0.0,0.0,0.0
98676731,98576187,6.442181,-3.319743,-0.15674475,2.351532,-1.2432861,0.0,0.0,0.0,0.0,0.0,0.0,0.0,0.0,-0.97208023,0.0,0.0,nan,0.0,0.0,-0.013289928,0.0,0.0,0.0,0.0,0.0,0.0,0.0,0.0,0.0
99176593,99075848,6.422644,-3.2491245,-0.15937962,5.1993103,-2.6882782,0.0,0.0,0.0,0.0,0.0,0.0,0.0,0.0,-1.0888386,0.0,0.0,nan,0.0,0.0,-0.0070638657,0.0,0.0,0.0,0.0,0.0,0.0,0.0,0.0,0.0
99676152,99575509,6.362993,-3.2858057,-0.1991177,8.393066,-4.3316956,0.0,0.0,0.0,0.0,0.0,0.0,0.0,0.0,-1.1200085,0.0,0.0,nan,0.0,0.0,0.003269434,0.0,0.0,0.0,0.0,0.0,0.0,0.0,0.0,0.0
100175790,100075170,6.231217,-3.534817,-0.2641676,11.537689,-6.070587,0.0,0.0,0.0,0.0,0.0,0.0,0.0,0.0,-1.3443298,0.0,0.0,nan,0.0,0.0,0.012543917,0.0,0.0,0.0,0.0,0.0,0.0,0.0,0.0,0.0
100675470,100574830,6.145308,-3.571412,-0.19975811,14.628662,-7.8398285,0.0,0.0,0.0,0.0,0.0,0.0,0.0,0.0,-1.2953224,0.0,0.0,nan,0.0,0.0,0.00889802,0.0,0.0,0.0,0.0,0.0,0.0,0.0,0.0,0.0
101175116,101074491,6.169927,-3.5866008,-0.19764501,17.728607,-9.613007,0.0,0.0,0.0,0.0,0.0,0.0,0.0,0.0,-1.3996696,0.0,0.0,nan,0.0,0.0,0.012708664,0.0,0.0,0.0,0.0,0.0,0.0,0.0,0.0,0.0
101675009,101574152,6.277438,-3.4580638,-0.24609363,20.832703,-11.362717,0.0,0.0,0.0,0.0,0.0,0.0,0.0,0.0,-1.304184,0.0,0.0,nan,0.0,0.0,-0.002006054,0.0,0.0,0.0,0.0,0.0,0.0,0.0,0.0,0.0
102174472,102073813,6.2658744,-3.5293221,-0.1846539,23.95633,-13.1076355,0.0,0.0,0.0,0.0,0.0,0.0,0.0,0.0,-1.6254864,0.0,0.0,nan,0.0,0.0,0.009866238,0.0,0.0,0.0,0.0,0.0,0.0,0.0,0.0,0.0
102674099,102573474,6.25832,-3.527914,-0.14457889,27.092316,-14.851044,0.0,0.0,0.0,0.0,0.0,0.0,0.0,0.0,-1.613987,0.0,0.0,nan,0.0,0.0,0.013778925,0.0,0.0,0.0,0.0,0.0,0.0,0.0,0.0,0.0
103173756,103073135,6.222992,-3.5512521,-0.21145879,30.205872,-16.619675,0.0,0.0,0.0,0.0,0.0,0.0,0.0,0.0,-2.1042786,0.0,0.0,nan,0.0,0.0,0.011337757,0.0,0.0,0.0,0.0,0.0,0.0,0.0,0.0,0.0
103673340,103572796,6.237894,-3.6536994,-0.24000001,33.3071,-18.416,0.0,0.0,0.0,0.0,0.0,0.0,0.0,0.0,-2.0908775,0.0,0.0,nan,0.0,0.0,0.0077769756,0.0,0.0,0.0,0.0,0.0,0.0,0.0,0.0,0.0
104172999,104072457,6.238361,-3.7162235,-0.16706875,36.40982,-20.255188,0.0,0.0,0.0,0.0,0.0,0.0,0.0,0.0,-1.8260288,0.0,0.0,nan,0.0,0.0,0.014830351,0.0,0.0,0.0,0.0,0.0,0.0,0.0,0.0,0.0
104672670,104572118,6.2062435,-3.7846642,-0.16832674,39.511597,-22.13768,0.0,0.0,0.0,0.0,0.0,0.0,0.0,0.0,-1.727993,0.0,0.0,nan,0.0,0.0,0.0048880577,0.0,0.0,0.0,0.0,0.0,0.0,0.0,0.0,0.0
105172499,105071779,6.199792,-3.8141713,-0.30340537,42.614746,-24.036484,0.0,0.0,0.0,0.0,0.0,0.0,0.0,0.0,-2.2976665,0.0,0.0,nan,0.0,0.0,0.005073786,0.0,0.0,0.0,0.0,0.0,0.0,0.0,0.0,0.0
105671989,105571440,6.2958837,-3.8270197,-0.23447186,45.738403,-25.9375,0.0,0.0,0.0,0.0,0.0,0.0,0.0,0.0,-2.3590393,0.0,0.0,nan,0.0,0.0,-0.005126238,0.0,0.0,0.0,0.0,0.0,0.0,0.0,0.0,0.0
106171645,106071101,6.3148003,-3.7563157,-0.13182496,48.885223,-27.822159,0.0,0.0,0.0,0.0,0.0,0.0,0.0,0.0,-2.3534412,0.0,0.0,nan,0.0,0.0,-0.004350424,0.0,0.0,0.0,0.0,0.0,0.0,0.0,0.0,0.0
106671339,106570762,6.2951345,-3.6854749,-0.13105085,52.031494,-29.668701,0.0,0.0,0.0,0.0,0.0,0.0,0.0,0.0,-2.396061,0.0,0.0,nan,0.0,0.0,-0.012812853,0.0,0.0,0.0,0.0,0.0,0.0,0.0,0.0,0.0
107171023,107070423,6.262843,-3.66572,-0.105791755,55.178925,-31.491318,0.0,0.0,0.0,0.0,0.0,0.0,0.0,0.0,-2.3637161,0.0,0.0,nan,0.0,0.0,-0.008336067,0.0,0.0,0.0,0.0,0.0,0.0,0.0,0.0,0.0
107670684,107570084,6.271348,-3.6207159,-0.16165943,58.326355,-33.301575,0.0,0.0,0.0,0.0,0.0,0.0,0.0,0.0,-2.378292,0.0,0.0,nan,0.0,0.0,-0.005040407,0.0,0.0,0.0,0.0,0.0,0.0,0.0,0.0,0.0
108170296,108069746,6.2464166,-3.690147,-0.18239944,61.450317,-35.134903,0.0,0.0,0.0,0.0,0.0,0.0,0.0,0.0,-2.639017,0.0,0.0,nan,0.0,0.0,0.0022752285,0.0,0.0,0.0,0.0,0.0,0.0,0.0,0.0,0.0
108680091,108579400,6.2813725,-3.713171,-0.25644758,65.36447,-37.442245,0.0,0.0,0.0,0.0,0.0,0.0,0.0,0.0,-2.5971622,0.0,0.0,nan,0.0,0.0,-0.006365061,0.0,0.0,0.0,0.0,0.0,0.0,0.0,0.0,0.0
109169664,109069068,6.359241,-3.5572205,-0.23575914,67.74417,-38.803482,0.0,0.0,0.0,0.0,0.0,0.0,0.0,0.0,-2.7434902,0.0,0.0,nan,0.0,0.0,-0.012998104,0.0,0.0,0.0,0.0,0.0,0.0,0.0,0.0,0.0
109669499,109568729,6.4655385,-3.4395876,-0.19938052,70.944916,-40.576324,0.0,0.0,0.0,0.0,0.0,0.0,0.0,0.0,-2.8988934,0.0,0.0,nan,0.0,0.0,-0.015754938,0.0,0.0,0.0,0.0,0.0,0.0,0.0,0.0,0.0
110169096,110068390,6.550533,-3.3513217,-0.16132273,74.2041,-42.267,0.0,0.0,0.0,0.0,0.0,0.0,0.0,0.0,-2.7104454,0.0,0.0,nan,0.0,0.0,-0.011980534,0.0,0.0,0.0,0.0,0.0,0.0,0.0,0.0,0.0
110678742,110578045,6.480884,-3.38027,-0.18264951,78.28613,-44.38849,0.0,0.0,0.0,0.0,0.0,0.0,0.0,0.0,-2.9718266,0.0,0.0,nan,0.0,0.0,-0.0046904087,0.0,0.0,0.0,0.0,0.0,0.0,0.0,0.0,0.0
111178361,111077706,6.440751,-3.4902554,-0.115135156,81.53067,-46.119553,0.0,0.0,0.0,0.0,0.0,0.0,0.0,0.0,-2.8597012,0.0,0.0,nan,0.0,0.0,0.000106334686,0.0,0.0,0.0,0.0,0.0,0.0,0.0,0.0,0.0
111678014,111577368,6.378754,-3.5455868,-0.20538828,84.71146,-47.897324,0.0,0.0,0.0,0.0,0.0,0.0,0.0,0.0,-3.4253197,0.0,0.0,nan,0.0,0.0,0.0059678555,0.0,0.0,0.0,0.0,0.0,0.0,0.0,0.0,0.0
112177683,112077029,6.370576,-3.546241,-0.1450739,87.902374,-49.65782,0.0,0.0,0.0,0.0,0.0,0.0,0.0,0.0,-3.154766,0.0,0.0,nan,0.0,0.0,0.0044095516,0.0,0.0,0.0,0.0,0.0,0.0,0.0,0.0,0.0
112677299,112576690,6.345209,-3.6020494,-0.11302827,90.29291,-51.00334,0.0,0.0,0.0,0.0,0.0,0.0,0.0,0.0,-3.0552845,0.0,0.0,nan,0.0,0.0,0.002497673,0.0,0.0,0.0,0.0,0.0,0.0,0.0,0.0,0.0
113177018,113076352,6.3277726,-3.5835958,-0.1533771,2.7797852,-1.5636597,0.0,0.0,0.0,0.0,0.0,0.0,0.0,0.0,-3.2024899,0.0,0.0,nan,0.0,0.0,0.0004942417,0.0,0.0,0.0,0.0,0.0,0.0,0.0,0.0,0.0
113676680,113576013,6.39267,-3.5177927,-0.19030021,5.9715576,-3.3329163,0.0,0.0,0.0,0.0,0.0,0.0,0.0,0.0,-3.350605,0.0,0.0,nan,0.0,0.0,-0.0040183067,0.0,0.0,0.0,0.0,0.0,0.0,0.0,0.0,0.0
114176360,114075675,6.4275107,-3.5210361,-0.2077057,9.196259,-5.0933533,0.0,0.0,0.0,0.0,0.0,0.0,0.0,0.0,-3.5814743,0.0,0.0,nan,0.0,0.0,0.0042045116,0.0,0.0,0.0,0.0,0.0,0.0,0.0,0.0,0.0
114676035,114575336,6.4233055,-3.535359,-0.1109725,12.409363,-6.8710938,0.0,0.0,0.0,0.0,0.0,0.0,0.0,0.0,-3.8081627,0.0,0.0,nan,0.0,0.0,0.004422426,0.0,0.0,0.0,0.0,0.0,0.0,0.0,0.0,0.0
115175786,115074998,6.4355316,-3.6604602,-0.18026632,14.822784,-8.233856,0.0,0.0,0.0,0.0,0.0,0.0,0.0,0.0,-3.5400047,0.0,0.0,nan,0.0,0.0,0.0037150383,0.0,0.0,0.0,0.0,0.0,0.0,0.0,0.0,0.0
115675345,115574660,6.4649954,-3.6270587,-0.10163055,18.036438,-10.046509,0.0,0.0,0.0,0.0,0.0,0.0,0.0,0.0,-3.2683296,0.0,0.0,nan,0.0,0.0,0.00035500526,0.0,0.0,0.0,0.0,0.0,0.0,0.0,0.0,0.0
116175068,116074321,6.4763036,-3.5204835,-0.16375169,21.27182,-11.835754,0.0,0.0,0.0,0.0,0.0,0.0,0.0,0.0,-3.5723248,0.0,0.0,nan,0.0,0.0,-0.0071754456,0.0,0.0,0.0,0.0,0.0,0.0,0.0,0.0,0.0
116674583,116573983,6.524324,-3.3744593,-0.09747919,24.53955,-13.548828,0.0,0.0,0.0,0.0,0.0,0.0,0.0,0.0,-3.61701,0.0,0.0,nan,0.0,0.0,-0.013336182,0.0,0.0,0.0,0.0,0.0,0.0,0.0,0.0,0.0
117174260,117073644,6.565224,-3.3093107,-0.1475327,27.820496,-15.195007,0.0,0.0,0.0,0.0,0.0,0.0,0.0,0.0,-3.671751,0.0,0.0,nan,0.0,0.0,-0.009209871,0.0,0.0,0.0,0.0,0.0,0.0,0.0,0.0,0.0
117673902,117573306,6.5117674,-3.3456478,-0.15305208,31.102417,-16.866455,0.0,0.0,0.0,0.0,0.0,0.0,0.0,0.0,-3.6705818,0.0,0.0,nan,0.0,0.0,0.004913807,0.0,0.0,0.0,0.0,0.0,0.0,0.0,0.0,0.0
118173705,118072968,6.42605,-3.4563553,-0.15802763,35.12726,-19.02774,0.0,0.0,0.0,0.0,0.0,0.0,0.0,0.0,-3.9367218,0.0,0.0,nan,0.0,0.0,0.013199568,0.0,0.0,0.0,0.0,0.0,0.0,0.0,0.0,0.0
118673177,118572630,6.3533545,-3.521417,-0.20871486,37.52896,-20.33014,0.0,0.0,0.0,0.0,0.0,0.0,0.0,0.0,-3.8067684,0.0,0.0,nan,0.0,0.0,0.009186745,0.0,0.0,0.0,0.0,0.0,0.0,0.0,0.0,0.0
119173041,119072291,6.319448,-3.565132,-0.21958143,40.71762,-22.108154,0.0,0.0,0.0,0.0,0.0,0.0,0.0,0.0,-3.9642143,0.0,0.0,nan,0.0,0.0,0.0102472305,0.0,0.0,0.0,0.0,0.0,0.0,0.0,0.0,0.0
119672605,119571953,6.367874,-3.5101197,-0.10046087,43.89972,-23.860718,0.0,0.0,0.0,0.0,0.0,0.0,0.0,0.0,-4.000698,0.0,0.0,nan,0.0,0.0,0.00042176247,0.0,0.0,0.0,0.0,0.0,0.0,0.0,0.0,0.0
120172221,120071615,6.280508,-3.4581172,-0.12607163,47.057495,-25.597229,0.0,0.0,0.0,0.0,0.0,0.0,0.0,0.0,-3.9420338,0.0,0.0,nan,0.0,0.0,0.0039391518,0.0,0.0,0.0,0.0,0.0,0.0,0.0,0.0,0.0
120671921,120571277,6.2735415,-3.3685312,-0.19006947,50.216614,-27.28543,0.0,0.0,0.0,0.0,0.0,0.0,0.0,0.0,-4.1370773,0.0,0.0,nan,0.0,0.0,-0.00406909,0.0,0.0,0.0,0.0,0.0,0.0,0.0,0.0,0.0
121171485,121070939,6.2616186,-3.1583655,-0.14652704,53.362823,-28.894135,0.0,0.0,0.0,0.0,0.0,0.0,0.0,0.0,-3.8656788,0.0,0.0,nan,0.0,0.0,-0.006640196,0.0,0.0,0.0,0.0,0.0,0.0,0.0,0.0,0.0
121671147,121570603,6.2560925,-3.1133118,-0.13743387,56.50934,-30.455566,0.0,0.0,0.0,0.0,0.0,0.0,0.0,0.0,-4.0113144,0.0,0.0,nan,0.0,0.0,0.007223606,0.0,0.0,0.0,0.0,0.0,0.0,0.0,0.0,0.0
122170833,122070263,6.1796985,-3.2182817,-0.10302417,59.644867,-32.026398,0.0,0.0,0.0,0.0,0.0,0.0,0.0,0.0,-3.9872322,0.0,0.0,nan,0.0,0.0,0.016191721,0.0,0.0,0.0,0.0,0.0,0.0,0.0,0.0,0.0
122670530,122569925,6.0553794,-3.324612,-0.082199365,62.714233,-33.63864,0.0,0.0,0.0,0.0,0.0,0.0,0.0,0.0,-4.2129745,0.0,0.0,nan,0.0,0.0,0.025721788,0.0,0.0,0.0,0.0,0.0,0.0,0.0,0.0,0.0
123170186,123069587,5.939398,-3.332642,-0.06196943,65.705444,-35.294556,0.0,0.0,0.0,0.0,0.0,0.0,0.0,0.0,-4.106678,0.0,0.0,nan,0.0,0.0,0.014425278,0.0,0.0,0.0,0.0,0.0,0.0,0.0,0.0,0.0
123669790,123569249,5.838552,-3.28172,-0.17351697,68.67444,-36.952362,0.0,0.0,0.0,0.0,0.0,0.0,0.0,0.0,-3.9993591,0.0,0.0,nan,0.0,0.0,0.01564908,0.0,0.0,0.0,0.0,0.0,0.0,0.0,0.0,0.0
124169522,124068911,5.779031,-3.25137,-0.12120145,71.61017,-38.59131,0.0,0.0,0.0,0.0,0.0,0.0,0.0,0.0,-4.477503,0.0,0.0,nan,0.0,0.0,0.007226944,0.0,0.0,0.0,0.0,0.0,0.0,0.0,0.0,0.0
124669181,124568573,5.738437,-3.1899452,-0.1240723,74.51105,-40.19699,0.0,0.0,0.0,0.0,0.0,0.0,0.0,0.0,-4.5364704,0.0,0.0,nan,0.0,0.0,0.0021936893,0.0,0.0,0.0,0.0,0.0,0.0,0.0,0.0,0.0
125179086,125078228,5.6517625,-3.1613472,-0.17762457,77.37909,-41.796448,0.0,0.0,0.0,0.0,0.0,0.0,0.0,0.0,-4.2288,0.0,0.0,nan,0.0,0.0,0.013102293,0.0,0.0,0.0,0.0,0.0,0.0,0.0,0.0,0.0
125678648,125577890,5.5930643,-3.1486702,-0.21876895,80.86957,-43.76715,0.0,0.0,0.0,0.0,0.0,0.0,0.0,0.0,-4.179899,0.0,0.0,nan,0.0,0.0,0.010213852,0.0,0.0,0.0,0.0,0.0,0.0,0.0,0.0,0.0
126178267,126077552,5.5329676,-3.1909928,-0.20029584,83.65292,-45.3537,0.0,0.0,0.0,0.0,0.0,0.0,0.0,0.0,-4.385174,0.0,0.0,nan,0.0,0.0,0.016483545,0.0,0.0,0.0,0.0,0.0,0.0,0.0,0.0,0.0
126667795,126567221,5.474816,-3.1183796,-0.13775697,85.73776,-46.53131,0.0,0.0,0.0,0.0,0.0,0.0,0.0,0.0,-4.206806,0.0,0.0,nan,0.0,0.0,0.015323877,0.0,0.0,0.0,0.0,0.0,0.0,0.0,0.0,0.0
127177818,127076877,0.03288269,0.0044515133,0.020184103,0.026916504,-0.016113281,0.0,0.0,0.0,0.0,0.0,0.0,0.0,0.0,-4.7104416,0.0,0.0,nan,0.0,0.0,0.019372702,0.0,0.0,0.0,0.0,0.0,0.0,0.0,0.0,0.0
127677365,127576539,0.010041714,-0.01487422,-0.017715994,0.012084961,0.0032653809,0.0,0.0,0.0,0.0,0.0,0.0,0.0,0.0,-4.1705303,0.0,0.0,nan,0.0,0.0,0.010501862,0.0,0.0,0.0,0.0,0.0,0.0,0.0,0.0,0.0
128177021,128076201,-0.096651554,0.0070950985,0.08122726,0.00592041,0.00869751,0.0,0.0,0.0,0.0,0.0,0.0,0.0,0.0,-4.105875,0.0,0.0,nan,0.0,0.0,0.01409626,0.0,0.0,0.0,0.0,0.0,0.0,0.0,0.0,0.0
128676633,128575863,-0.17291546,0.04155755,0.13486107,-0.014526367,0.018341064,0.0,0.0,0.0,0.0,0.0,0.0,0.0,0.0,-4.1085625,0.0,0.0,nan,0.0,0.0,0.011088848,0.0,0.0,0.0,0.0,0.0,0.0,0.0,0.0,0.0
129176264,129075526,-0.12971735,0.039833307,0.19615787,-0.023376465,0.01739502,0.0,0.0,0.0,0.0,0.0,0.0,0.0,0.0,-4.0198364,0.0,0.0,nan,0.0,0.0,0.00983119,0.0,0.0,0.0,0.0,0.0,0.0,0.0,0.0,0.0
129675986,129575188,-0.14088154,0.030189037,0.253227,-0.09509277,0.042419434,0.0,0.0,0.0,0.0,0.0,0.0,0.0,0.0,-3.468811,0.0,0.0,nan,0.0,0.0,0.010538578,0.0,0.0,0.0,0.0,0.0,0.0,0.0,0.0,0.0
130175648,130074850,-0.11653185,0.029754877,0.22158113,-0.05029297,0.023590088,0.0,0.0,0.0,0.0,0.0,0.0,0.0,0.0,-3.1527462,0.0,0.0,nan,0.0,0.0,0.023603678,0.0,0.0,0.0,0.0,0.0,0.0,0.0,0.0,0.0
130675218,130574513,-0.14625216,0.009387016,0.28871062,-0.057922363,0.025299072,0.0,0.0,0.0,0.0,0.0,0.0,0.0,0.0,-2.982666,0.0,0.0,nan,0.0,0.0,0.0198493,0.0,0.0,0.0,0.0,0.0,0.0,0.0,0.0,0.0
131174968,131074176,-0.11083269,0.03701949,0.2695079,-0.05456543,0.026763916,0.0,0.0,0.0,0.0,0.0,0.0,0.0,0.0,-3.2564545,0.0,0.0,nan,0.0,0.0,0.023284435,0.0,0.0,0.0,0.0,0.0,0.0,0.0,0.0,0.0
131674571,131573838,-0.11187124,0.016379595,0.3185625,-0.059570312,0.027862549,0.0,0.0,0.0,0.0,0.0,0.0,0.0,0.0,-3.1069584,0.0,0.0,nan,0.0,0.0,0.017550707,0.0,0.0,0.0,0.0,0.0,0.0,0.0,0.0,0.0
132174229,132073500,-0.07459974,0.019717455,0.30967203,-0.09552002,0.048706055,0.0,0.0,0.0,0.0,0.0,0.0,0.0,0.0,-2.6194725,0.0,0.0,nan,0.0,0.0,0.022966862,0.0,0.0,0.0,0.0,0.0,0.0,0.0,0.0,0.0
132673940,132573163,-0.07252407,-0.0092628,0.25334486,-0.028198242,0.026855469,0.0,0.0,0.0,0.0,0.0,0.0,0.0,0.0,-2.393959,0.0,0.0,nan,0.0,0.0,0.025875807,0.0,0.0,0.0,0.0,0.0,0.0,0.0,0.0,0.0
133173610,133072825,-0.016929626,0.023190737,0.26654395,-0.027770996,0.031188965,0.0,0.0,0.0,0.0,0.0,0.0,0.0,0.0,-1.9376373,0.0,0.0,nan,0.0,0.0,0.027084589,0.0,0.0,0.0,0.0,0.0,0.0,0.0,0.0,0.0
133673315,133572488,-0.04826641,-0.043949366,0.26923886,-0.015197754,0.029083252,0.0,0.0,0.0,0.0,0.0,0.0,0.0,0.0,-1.9291077,0.0,0.0,nan,0.0,0.0,0.02624607,0.0,0.0,0.0,0.0,0.0,0.0,0.0,0.0,0.0
134172936,134072150,-0.025793314,-0.008580208,0.30256084,-0.01727295,0.027313232,0.0,0.0,0.0,0.0,0.0,0.0,0.0,0.0,-1.3357391,0.0,0.0,nan,0.0,0.0,0.025731564,0.0,0.0,0.0,0.0,0.0,0.0,0.0,0.0,0.0
134672594,134571813,-0.024762392,-0.0026378632,0.215427,-0.042541504,0.046020508,0.0,0.0,0.0,0.0,0.0,0.0,0.0,0.0,-1.7542896,0.0,0.0,nan,0.0,0.0,0.026867867,0.0,0.0,0.0,0.0,0.0,0.0,0.0,0.0,0.0
135172217,135071476,0.023611307,-0.025707483,0.2576546,0.0020141602,0.025878906,0.0,0.0,0.0,0.0,0.0,0.0,0.0,0.0,-1.1561108,0.0,0.0,nan,0.0,0.0,0.027742624,0.0,0.0,0.0,0.0,0.0,0.0,0.0,0.0,0.0
135671867,135571138,0.022075891,-0.004567027,0.15408856,0.0033569336,0.021606445,0.0,0.0,0.0,0.0,0.0,0.0,0.0,0.0,-1.2479668,0.0,0.0,nan,0.0,0.0,0.022993088,0.0,0.0,0.0,0.0,0.0,0.0,0.0,0.0,0.0
136171690,136070801,0.013752699,-0.012370348,0.15611595,0.004760742,0.027038574,0.0,0.0,0.0,0.0,0.0,0.0,0.0,0.0,-0.98830223,0.0,0.0,nan,0.0,0.0,0.01204133,0.0,0.0,0.0,0.0,0.0,0.0,0.0,0.0,0.0
136671399,136570464,0.056613922,-0.03364694,0.17556897,-0.027770996,0.047027588,0.0,0.0,0.0,0.0,0.0,0.0,0.0,0.0,-0.86950874,0.0,0.0,nan,0.0,0.0,0.017915964,0.0,0.0,0.0,0.0,0.0,0.0,0.0,0.0,0.0
137170930,137070129,0.053667545,-0.06467831,0.18666331,-0.020629883,0.035339355,0.0,0.0,0.0,0.0,0.0,0.0,0.0,0.0,-0.80397606,0.0,0.0,nan,0.0,0.0,0.0142149925,0.0,0.0,0.0,0.0,0.0,0.0,0.0,0.0,0.0
137670526,137569789,-0.008062601,0.012866259,0.10738818,-0.021850586,0.034729004,0.0,0.0,0.0,0.0,0.0,0.0,0.0,0.0,-0.7873764,0.0,0.0,nan,0.0,0.0,0.013602734,0.0,0.0,0.0,0.0,0.0,0.0,0.0,0.0,0.0
138170181,138069452,0.04628086,-0.07903981,0.13513291,-0.012573242,0.021636963,0.0,0.0,0.0,0.0,0.0,0.0,0.0,0.0,-0.738636,0.0,0.0,nan,0.0,0.0,0.012972832,0.0,0.0,0.0,0.0,0.0,0.0,0.0,0.0,0.0
138670008,138569115,0.072438955,0.049507618,-0.001120314,-0.004272461,0.026000977,0.0,0.0,0.0,0.0,0.0,0.0,0.0,0.0,-0.837162,0.0,0.0,nan,0.0,0.0,0.016943693,0.0,0.0,0.0,0.0,0.0,0.0,0.0,0.0,0.0
139180080,139078771,0.034977436,-0.027282238,0.05560127,0.020996094,0.015289307,0.0,0.0,0.0,0.0,0.0,0.0,0.0,0.0,-0.54940414,0.0,0.0,nan,0.0,0.0,0.024468184,0.0,0.0,0.0,0.0,0.0,0.0,0.0,0.0,0.0
139679551,139578434,0.040873766,-0.06536639,0.059243143,0.030151367,0.017425537,0.0,0.0,0.0,0.0,0.0,0.0,0.0,0.0,-0.55065155,0.0,0.0,nan,0.0,0.0,0.019219875,0.0,0.0,0.0,0.0,0.0,0.0,0.0,0.0,0.0
140178908,140078097,0.047939777,-0.040955186,0.013611438,0.015991211,0.01977539,0.0,0.0,0.0,0.0,0.0,0.0,0.0,0.0,-0.30013275,0.0,0.0,nan,0.0,0.0,0.022669792,0.0,0.0,0.0,0.0,0.0,0.0,0.0,0.0,0.0
140668605,140567766,0.07437587,-0.016155243,0.048835613,0.01373291,0.026123047,0.0,0.0,0.0,0.0,0.0,0.0,0.0,0.0,-0.59370804,0.0,0.0,nan,0.0,0.0,0.020406246,0.0,0.0,0.0,0.0,0.0,0.0,0.0,0.0,0.0
141178582,141077422,0.014000654,-0.035863638,0.03172142,0.029907227,0.010803223,0.0,0.0,0.0,0.0,0.0,0.0,0.0,0.0,-0.48173714,0.0,0.0,nan,0.0,0.0,0.026878595,0.0,0.0,0.0,0.0,0.0,0.0,0.0,0.0,0.0
141678196,141577085,0.046798468,-0.041552424,-0.05882946,0.027954102,0.006378174,0.0,0.0,0.0,0.0,0.0,0.0,0.0,0.0,-0.2079792,0.0,0.0,nan,0.0,0.0,0.02489686,0.0,0.0,0.0,0.0,0.0,0.0,0.0,0.0,0.0
142177483,142076748,0.000436306,0.010126591,-0.020419916,0.016967773,0.018432617,0.0,0.0,0.0,0.0,0.0,0.0,0.0,0.0,-0.42561913,0.0,0.0,nan,0.0,0.0,0.026273966,0.0,0.0,0.0,0.0,0.0,0.0,0.0,0.0,0.0
142677347,142576411,0.03187132,-0.056037307,-0.014253348,0.01776123,0.013214111,0.0,0.0,0.0,0.0,0.0,0.0,0.0,0.0,-0.07316589,0.0,0.0,nan,0.0,0.0,0.025058746,0.0,0.0,0.0,0.0,0.0,0.0,0.0,0.0,0.0
143177101,143076075,0.06382203,0.0046305656,-0.013226875,0.018615723,0.00491333,0.0,0.0,0.0,0.0,0.0,0.0,0.0,0.0,-0.03712082,0.0,0.0,nan,0.0,0.0,0.02795887,0.0,0.0,0.0,0.0,0.0,0.0,0.0,0.0,0.0
143676783,143575738,0.06461692,-0.05267489,-0.047332462,0.024169922,-0.0036315918,0.0,0.0,0.0,0.0,0.0,0.0,0.0,0.0,0.31377792,0.0,0.0,nan,0.0,0.0,0.027733088,0.0,0.0,0.0,0.0,0.0,0.0,0.0,0.0,0.0
144176552,144075401,0.06664872,-0.070231795,0.0472902,0.018981934,-0.0073547363,0.0,0.0,0.0,0.0,0.0,0.0,0.0,0.0,0.23802185,0.0,0.0,nan,0.0,0.0,0.024307251,0.0,0.0,0.0,0.0,0.0,0.0,0.0,0.0,0.0
144676141,144575064,0.01815319,-0.040629625,-0.024025377,0.013793945,-0.0020446777,0.0,0.0,0.0,0.0,0.0,0.0,0.0,0.0,-0.17438126,0.0,0.0,nan,0.0,0.0,0.029557467,0.0,0.0,0.0,0.0,0.0,0.0,0.0,0.0,0.0
145175565,145074727,0.008104324,-0.031365514,-0.017694246,0.0009765625,0.013671875,0.0,0.0,0.0,0.0,0.0,0.0,0.0,0.0,-0.12281418,0.0,0.0,nan,0.0,0.0,0.023787737,0.0,0.0,0.0,0.0,0.0,0.0,0.0,0.0,0.0
145675415,145574390,0.017611027,-0.006132126,-0.016158152,0.021484375,0.016601562,0.0,0.0,0.0,0.0,0.0,0.0,0.0,0.0,-0.066036224,0.0,0.0,nan,0.0,0.0,0.022870302,0.0,0.0,0.0,0.0,0.0,0.0,0.0,0.0,0.0
146175112,146074053,0.030462503,-0.07078403,0.04013134,0.035217285,0.019256592,0.0,0.0,0.0,0.0,0.0,0.0,0.0,0.0,0.022405624,0.0,0.0,nan,0.0,0.0,0.02050662,0.0,0.0,0.0,0.0,0.0,0.0,0.0,0.0,0.0
146674539,146573717,0.064213395,-0.04794711,-0.003988888,0.03186035,0.032043457,0.0,0.0,0.0,0.0,0.0,0.0,0.0,0.0,-0.086400986,0.0,0.0,nan,0.0,0.0,0.016663551,0.0,0.0,0.0,0.0,0.0,0.0,0.0,0.0,0.0
147174116,147073380,0.03429675,-0.07117796,0.013937511,0.016113281,0.044067383,0.0,0.0,0.0,0.0,0.0,0.0,0.0,0.0,-0.0476017,0.0,0.0,nan,0.0,0.0,0.016814232,0.0,0.0,0.0,0.0,0.0,0.0,0.0,0.0,0.0
147673778,147573043,0.025411487,-0.057870686,-0.028766548,0.036254883,0.028533936,0.0,0.0,0.0,0.0,0.0,0.0,0.0,0.0,-0.1500969,0.0,0.0,nan,0.0,0.0,0.017922878,0.0,0.0,0.0,0.0,0.0,0.0,0.0,0.0,0.0
148173493,148072707,0.04490471,-0.062105417,0.039060622,0.03668213,0.03048706,0.0,0.0,0.0,0.0,0.0,0.0,0.0,0.0,-0.17222977,0.0,0.0,nan,0.0,0.0,0.021562576,0.0,0.0,0.0,0.0,0.0,0.0,0.0,0.0,0.0
148673165,148572370,-0.021085978,-0.026250184,-0.06725746,0.035461426,0.02758789,0.0,0.0,0.0,0.0,0.0,0.0,0.0,0.0,-0.17873573,0.0,0.0,nan,0.0,0.0,0.0153000355,0.0,0.0,0.0,0.0,0.0,0.0,0.0,0.0,0.0
149172933,149072033,0.072649,-0.039122522,-0.036527947,0.04888916,0.022369385,0.0,0.0,0.0,0.0,0.0,0.0,0.0,0.0,0.015417099,0.0,0.0,nan,0.0,0.0,0.019860506,0.0,0.0,0.0,0.0,0.0,0.0,0.0,0.0,0.0
149672664,149571697,-0.018792987,-0.04303193,-0.027634209,0.031921387,0.023040771,0.0,0.0,0.0,0.0,0.0,0.0,0.0,0.0,-0.56702805,0.0,0.0,nan,0.0,0.0,0.020870447,0.0,0.0,0.0,0.0,0.0,0.0,0.0,0.0,0.0
150172099,150071360,0.0052542686,-0.023796022,-0.07159928,0.039855957,0.016113281,0.0,0.0,0.0,0.0,0.0,0.0,0.0,0.0,-0.06472778,0.0,0.0,nan,0.0,0.0,0.017044306,0.0,0.0,0.0,0.0,0.0,0.0,0.0,0.0,0.0
150671752,150571023,0.033294916,-0.075534105,-0.007041648,0.028137207,0.014221191,0.0,0.0,0.0,0.0,0.0,0.0,0.0,0.0,-0.3076477,0.0,0.0,nan,0.0,0.0,0.013447046,0.0,0.0,0.0,0.0,0.0,0.0,0.0,0.0,0.0
151171432,151070687,-0.013044834,-0.021025836,-0.0909854,0.02722168,0.009765625,0.0,0.0,0.0,0.0,0.0,0.0,0.0,0.0,0.034521103,0.0,0.0,nan,0.0,0.0,0.014959574,0.0,0.0,0.0,0.0,0.0,0.0,0.0,0.0,0.0
151671216,151570350,0.013961434,-0.025768459,-0.00047926977,0.016662598,0.0046691895,0.0,0.0,0.0,0.0,0.0,0.0,0.0,0.0,0.20890617,0.0,0.0,nan,0.0,0.0,0.013827562,0.0,0.0,0.0,0.0,0.0,0.0,0.0,0.0,0.0
152170804,152070014,0.00013387203,-0.06720573,0.022874039,-0.006652832,0.0021972656,0.0,0.0,0.0,0.0,0.0,0.0,0.0,0.0,-0.11908531,0.0,0.0,nan,0.0,0.0,0.015974045,0.0,0.0,0.0,0.0,0.0,0.0,0.0,0.0,0.0
152670410,152569678,-0.009870887,-0.04772675,-0.02531271,-0.0068969727,-0.0043029785,0.0,0.0,0.0,0.0,0.0,0.0,0.0,0.0,-0.10671425,0.0,0.0,nan,0.0,0.0,0.013094187,0.0,0.0,0.0,0.0,0.0,0.0,0.0,0.0,0.0
153170163,153069341,0.062271953,-0.049056113,-0.048579205,-0.0045166016,-0.009765625,0.0,0.0,0.0,0.0,0.0,0.0,0.0,0.0,0.05622101,0.0,0.0,nan,0.0,0.0,0.009741545,0.0,0.0,0.0,0.0,0.0,0.0,0.0,0.0,0.0
153680096,153578998,0.022613168,-0.016936362,-0.068187326,-0.0010986328,-0.015991211,0.0,0.0,0.0,0.0,0.0,0.0,0.0,0.0,-0.37155342,0.0,0.0,nan,0.0,0.0,0.005834341,0.0,0.0,0.0,0.0,0.0,0.0,0.0,0.0,0.0
154179843,154078662,0.07254213,0.014542252,0.011757664,0.002746582,-0.002960205,0.0,0.0,0.0,0.0,0.0,0.0,0.0,0.0,0.05698204,0.0,0.0,nan,0.0,0.0,0.006844282,0.0,0.0,0.0,0.0,0.0,0.0,0.0,0.0,0.0
154669234,154568332,0.045096397,0.008492172,-0.0353105,0.002319336,-0.0017089844,0.0,0.0,0.0,0.0,0.0,0.0,0.0,0.0,0.04142952,0.0,0.0,nan,0.0,0.0,0.012222052,0.0,0.0,0.0,0.0,0.0,0.0,0.0,0.0,0.0
155168828,155067996,0.06067735,-0.024278611,0.016415762,0.014770508,0.0046081543,0.0,0.0,0.0,0.0,0.0,0.0,0.0,0.0,-0.029201508,0.0,0.0,nan,0.0,0.0,-0.0010089874,0.0,0.0,0.0,0.0,0.0,0.0,0.0,0.0,0.0
155678711,155577653,0.6753113,-0.3149956,0.04850947,0.9242554,-0.46505737,0.0,0.0,0.0,0.0,0.0,0.0,0.0,0.0,0.14015388,0.0,0.0,nan,0.0,0.0,0.01676035,0.0,0.0,0.0,0.0,0.0,0.0,0.0,0.0,0.0
156178507,156077316,0.5323244,-0.24672955,0.013652175,1.1385498,-0.53222656,0.0,0.0,0.0,0.0,0.0,0.0,0.0,0.0,0.05047798,0.0,0.0,nan,0.0,0.0,0.011901379,0.0,0.0,0.0,0.0,0.0,0.0,0.0,0.0,0.0
156678278,156576980,0.5414643,-0.24595392,0.07335932,1.2982788,-0.5863037,0.0,0.0,0.0,0.0,0.0,0.0,0.0,0.0,-0.0040664673,0.0,0.0,nan,0.0,0.0,0.013653755,0.0,0.0,0.0,0.0,0.0,0.0,0.0,0.0,0.0
157177782,157076644,0.37115058,-0.14104176,-0.0062378813,1.4143677,-0.61676025,0.0,0.0,0.0,0.0,0.0,0.0,0.0,0.0,0.057462692,0.0,0.0,nan,0.0,0.0,0.01975584,0.0,0.0,0.0,0.0,0.0,0.0,0.0,0.0,0.0
157677043,157576308,0.30169123,-0.13964531,-0.046477806,1.4523315,-0.6112366,0.0,0.0,0.0,0.0,0.0,0.0,0.0,0.0,-0.08257866,0.0,0.0,nan,0.0,0.0,0.017774105,0.0,0.0,0.0,0.0,0.0,0.0,0.0,0.0,0.0
158177076,158075972,0.18894897,-0.07850624,-0.03723578,1.4708862,-0.5942688,0.0,0.0,0.0,0.0,0.0,0.0,0.0,0.0,0.0009384155,0.0,0.0,nan,0.0,0.0,0.022942305,0.0,0.0,0.0,0.0,0.0,0.0,0.0,0.0,0.0
158676729,158575635,0.10902117,-0.02775015,0.08420172,1.4525146,-0.55688477,0.0,0.0,0.0,0.0,0.0,0.0,0.0,0.0,0.06337929,0.0,0.0,nan,0.0,0.0,0.018980503,0.0,0.0,0.0,0.0,0.0,0.0,0.0,0.0,0.0
159176387,159075299,0.07974109,-0.028453827,0.032858726,1.3936157,-0.5171814,0.0,0.0,0.0,0.0,0.0,0.0,0.0,0.0,0.07618904,0.0,0.0,nan,0.0,0.0,0.018071175,0.0,0.0,0.0,0.0,0.0,0.0,0.0,0.0,0.0
159675776,159574963,-0.09972116,0.032679018,-0.03612285,1.3236694,-0.48269653,0.0,0.0,0.0,0.0,0.0,0.0,0.0,0.0,0.09664726,0.0,0.0,nan,0.0,0.0,0.022054195,0.0,0.0,0.0,0.0,0.0,0.0,0.0,0.0,0.0
160175442,160074627,-0.010631453,0.0051566404,-0.001105762,1.2404785,-0.43481445,0.0,0.0,0.0,0.0,0.0,0.0,0.0,0.0,-0.15325356,0.0,0.0,nan,0.0,0.0,0.015530348,0.0,0.0,0.0,0.0,0.0,0.0,0.0,0.0,0.0
160675009,160574291,0.02373743,0.011908866,-0.029543545,1.1628418,-0.39050293,0.0,0.0,0.0,0.0,0.0,0.0,0.0,0.0,-0.074136734,0.0,0.0,nan,0.0,0.0,0.013646364,0.0,0.0,0.0,0.0,0.0,0.0,0.0,0.0,0.0
161174692,161073955,-0.031024132,-0.008871537,0.012806173,1.1078491,-0.3598938,0.0,0.0,0.0,0.0,0.0,0.0,0.0,0.0,-0.24128151,0.0,0.0,nan,0.0,0.0,0.007207155,0.0,0.0,0.0,0.0,0.0,0.0,0.0,0.0,0.0
161674355,161573619,0.022143133,-0.002015635,0.016908288,1.060669,-0.32400513,0.0,0.0,0.0,0.0,0.0,0.0,0.0,0.0,0.092754364,0.0,0.0,nan,0.0,0.0,0.007954359,0.0,0.0,0.0,0.0,0.0,0.0,0.0,0.0,0.0
162174233,162073283,-0.04147227,0.0073990864,-0.00030450232,1.0170288,-0.29833984,0.0,0.0,0.0,0.0,0.0,0.0,0.0,0.0,0.1791153,0.0,0.0,nan,0.0,0.0,0.009106398,0.0,0.0,0.0,0.0,0.0,0.0,0.0,0.0,0.0
162673699,162572947,-0.0073885364,-0.00040079828,-0.024621805,0.96746826,-0.27545166,0.0,0.0,0.0,0.0,0.0,0.0,0.0,0.0,-0.0727005,0.0,0.0,nan,0.0,0.0,-0.0022354126,0.0,0.0,0.0,0.0,0.0,0.0,0.0,0.0,0.0
163173418,163072611,0.007941539,-0.009149283,0.053556718,0.94592285,-0.24551392,0.0,0.0,0.0,0.0,0.0,0.0,0.0,0.0,0.094343185,0.0,0.0,nan,0.0,0.0,0.0029127598,0.0,0.0,0.0,0.0,0.0,0.0,0.0,0.0,0.0
163673077,163572275,-0.027320338,-0.008106187,-0.0041887746,0.90423584,-0.22625732,0.0,0.0,0.0,0.0,0.0,0.0,0.0,0.0,0.26045036,0.0,0.0,nan,0.0,0.0,0.0030062199,0.0,0.0,0.0,0.0,0.0,0.0,0.0,0.0,0.0
164172683,164071940,-0.01588123,-0.009524425,0.0043074903,0.8765259,-0.20767212,0.0,0.0,0.0,0.0,0.0,0.0,0.0,0.0,0.06281662,0.0,0.0,nan,0.0,0.0,0.008121729,0.0,0.0,0.0,0.0,0.0,0.0,0.0,0.0,0.0
164672422,164571604,0.04265291,-0.0005363263,-0.025774337,0.8414917,-0.18209839,0.0,0.0,0.0,0.0,0.0,0.0,0.0,0.0,-0.088357925,0.0,0.0,nan,0.0,0.0,0.0030984879,0.0,0.0,0.0,0.0,0.0,0.0,0.0,0.0,0.0
165171995,165071268,0.0076337,0.033573776,0.02125854,0.81921387,-0.1572876,0.0,0.0,0.0,0.0,0.0,0.0,0.0,0.0,0.020296097,0.0,0.0,nan,0.0,0.0,0.0034286976,0.0,0.0,0.0,0.0,0.0,0.0,0.0,0.0,0.0
165671710,165570932,0.010039836,0.0130442185,0.04726005,0.80999756,-0.13504028,0.0,0.0,0.0,0.0,0.0,0.0,0.0,0.0,0.057390213,0.0,0.0,nan,0.0,0.0,0.0023479462,0.0,0.0,0.0,0.0,0.0,0.0,0.0,0.0,0.0
166171360,166070602,0.017805874,-0.015695175,-0.04536989,0.79174805,-0.11328125,0.0,0.0,0.0,0.0,0.0,0.0,0.0,0.0,-0.02355194,0.0,0.0,nan,0.0,0.0,0.00030064583,0.0,0.0,0.0,0.0,0.0,0.0,0.0,0.0,0.0
166671016,166570261,-0.015126459,0.025147954,0.022932064,0.7758179,-0.099975586,0.0,0.0,0.0,0.0,0.0,0.0,0.0,0.0,0.0052013397,0.0,0.0,nan,0.0,0.0,0.0072956085,0.0,0.0,0.0,0.0,0.0,0.0,0.0,0.0,0.0
167170821,167069925,-0.024260607,0.03552624,-0.032540213,0.74871826,-0.088653564,0.0,0.0,0.0,0.0,0.0,0.0,0.0,0.0,-0.19207382,0.0,0.0,nan,0.0,0.0,0.002087593,0.0,0.0,0.0,0.0,0.0,0.0,0.0,0.0,0.0
167670414,167569589,0.0016108456,0.021582138,-0.00257291,0.72442627,-0.06808472,0.0,0.0,0.0,0.0,0.0,0.0,0.0,0.0,-0.058418274,0.0,0.0,nan,0.0,0.0,0.004030466,0.0,0.0,0.0,0.0,0.0,0.0,0.0,0.0,0.0
168180294,168079247,-0.011146988,0.042818565,0.021011041,0.7069092,-0.057006836,0.0,0.0,0.0,0.0,0.0,0.0,0.0,0.0,-0.10778999,0.0,0.0,nan,0.0,0.0,0.0025405884,0.0,0.0,0.0,0.0,0.0,0.0,0.0,0.0,0.0
168669853,168568918,-0.041437402,0.019342043,-0.02549348,0.69055176,-0.04650879,0.0,0.0,0.0,0.0,0.0,0.0,0.0,0.0,-0.08105278,0.0,0.0,nan,0.0,0.0,0.0007572174,0.0,0.0,0.0,0.0,0.0,0.0,0.0,0.0,0.0
169169386,169068582,-0.020012833,-0.006364778,0.030906783,0.6812744,-0.036590576,0.0,0.0,0.0,0.0,0.0,0.0,0.0,0.0,0.003692627,0.0,0.0,nan,0.0,0.0,0.0004954338,0.0,0.0,0.0,0.0,0.0,0.0,0.0,0.0,0.0
169668997,169568247,-0.014278906,-0.0019329153,0.008290004,0.6612549,-0.035858154,0.0,0.0,0.0,0.0,0.0,0.0,0.0,0.0,0.0013427734,0.0,0.0,nan,0.0,0.0,0.0024924278,0.0,0.0,0.0,0.0,0.0,0.0,0.0,0.0,0.0
170179070,170077905,0.005276762,0.008345073,0.000516144,0.63830566,-0.041046143,0.0,0.0,0.0,0.0,0.0,0.0,0.0,0.0,-0.33519363,0.0,0.0,nan,0.0,0.0,-0.0028626919,0.0,0.0,0.0,0.0,0.0,0.0,0.0,0.0,0.0
170678593,170577569,0.0037539853,0.03320195,0.053999245,0.6213379,-0.040039062,0.0,0.0,0.0,0.0,0.0,0.0,0.0,0.0,-0.08516884,0.0,0.0,nan,0.0,0.0,6.6280365e-05,0.0,0.0,0.0,0.0,0.0,0.0,0.0,0.0,0.0
171178259,171077234,-0.0038075694,-0.010409975,0.017863376,0.60443115,-0.04751587,0.0,0.0,0.0,0.0,0.0,0.0,0.0,0.0,0.0008068085,0.0,0.0,nan,0.0,0.0,-0.0075552464,0.0,0.0,0.0,0.0,0.0,0.0,0.0,0.0,0.0
171677935,171576898,0.015016906,0.004265763,0.0070148855,0.57818604,-0.0541687,0.0,0.0,0.0,0.0,0.0,0.0,0.0,0.0,-0.33502388,0.0,0.0,nan,0.0,0.0,-0.002401352,0.0,0.0,0.0,0.0,0.0,0.0,0.0,0.0,0.0
172177589,172076563,0.00794223,-0.029430788,-0.06610039,0.56378174,-0.061157227,0.0,0.0,0.0,0.0,0.0,0.0,0.0,0.0,-0.0013790131,0.0,0.0,nan,0.0,0.0,0.00064373016,0.0,0.0,0.0,0.0,0.0,0.0,0.0,0.0,0.0
172677063,172576227,0.0038458018,-0.017229935,0.021378946,0.54193115,-0.068573,0.0,0.0,0.0,0.0,0.0,0.0,0.0,0.0,0.08002281,0.0,0.0,nan,0.0,0.0,-0.0022234917,0.0,0.0,0.0,0.0,0.0,0.0,0.0,0.0,0.0
173176996,173075892,0.0007414195,0.023963807,0.058947634,0.5144043,-0.066467285,0.0,0.0,0.0,0.0,0.0,0.0,0.0,0.0,-0.0020389557,0.0,0.0,nan,0.0,0.0,-0.0012750626,0.0,0.0,0.0,0.0,0.0,0.0,0.0,0.0,0.0
173676705,173575557,0.020175427,0.010464368,-0.005122725,0.5020752,-0.06402588,0.0,0.0,0.0,0.0,0.0,0.0,0.0,0.0,-0.087183,0.0,0.0,nan,0.0,0.0,0.0019152164,0.0,0.0,0.0,0.0,0.0,0.0,0.0,0.0,0.0
174176440,174075221,-0.0009914923,0.03440466,-0.032250606,0.49072266,-0.062927246,0.0,0.0,0.0,0.0,0.0,0.0,0.0,0.0,0.021280289,0.0,0.0,nan,0.0,0.0,0.0050854683,0.0,0.0,0.0,0.0,0.0,0.0,0.0,0.0,0.0
174675907,174574886,0.02695124,0.0076084808,0.061123017,0.47973633,-0.052734375,0.0,0.0,0.0,0.0,0.0,0.0,0.0,0.0,0.1336689,0.0,0.0,nan,0.0,0.0,-0.0005671978,0.0,0.0,0.0,0.0,0.0,0.0,0.0,0.0,0.0
175175450,175074551,0.0031352518,-0.019092662,0.04279737,0.48284912,-0.051605225,0.0,0.0,0.0,0.0,0.0,0.0,0.0,0.0,0.03006363,0.0,0.0,nan,0.0,0.0,0.0060961246,0.0,0.0,0.0,0.0,0.0,0.0,0.0,0.0,0.0
175675308,175574215,-0.01893292,-0.008272241,-0.018484185,0.45916748,-0.05871582,0.0,0.0,0.0,0.0,0.0,0.0,0.0,0.0,-0.074604034,0.0,0.0,nan,0.0,0.0,0.0031933784,0.0,0.0,0.0,0.0,0.0,0.0,0.0,0.0,0.0
176174921,176073880,-0.006974659,0.015009096,-0.014487094,0.44903564,-0.049438477,0.0,0.0,0.0,0.0,0.0,0.0,0.0,0.0,0.10116196,0.0,0.0,nan,0.0,0.0,0.00418067,0.0,0.0,0.0,0.0,0.0,0.0,0.0,0.0,0.0
