timestamp,timestamp_sample,gps_hvel[0],gps_hvel[1],gps_vvel,gps_hpos[0],gps_hpos[1],gps_vpos,ev_hvel[0],ev_hvel[1],ev_vvel,ev_hpos[0],ev_hpos[1],ev_vpos,rng_vpos,baro_vpos,aux_hvel[0],aux_hvel[1],aux_vvel,flow[0],flow[1],heading,mag_field[0],mag_field[1],mag_field[2],drag[0],drag[1],airspeed,beta,hagl,hagl_rate
17175642,17073949,0.012095585,0.0018385025,0.036418237,0.05863563,0.0027654916,0.0,0.0,0.0,0.0,0.0,0.0,0.0,0.0,-0.25255394,0.0,0.0,nan,0.0,0.0,0.0016376972,0.0,0.0,0.0,0.0,0.0,0.0,0.0,0.0,0.0
17670787,17569039,-0.012983819,-0.009327836,0.007831931,0.060118422,0.0024421182,0.0,0.0,0.0,0.0,0.0,0.0,0.0,0.0,-0.33686638,0.0,0.0,nan,0.0,0.0,-0.0040705204,0.0,0.0,0.0,0.0,0.0,0.0,0.0,0.0,0.0
18165788,18064129,-0.0017922908,0.01509782,-0.008102952,0.074078724,0.0022810465,0.0,0.0,0.0,0.0,0.0,0.0,0.0,0.0,0.05027008,0.0,0.0,nan,0.0,0.0,-0.0013463497,0.0,0.0,0.0,0.0,0.0,0.0,0.0,0.0,0.0
18671365,18569323,-0.0067150523,0.019745354,-0.022896053,0.076602034,0.0019489955,0.0,0.0,0.0,0.0,0.0,0.0,0.0,0.0,0.15675545,0.0,0.0,nan,0.0,0.0,-0.004928589,0.0,0.0,0.0,0.0,0.0,0.0,0.0,0.0,0.0
19166094,19064412,-0.007062466,-0.0036840031,-0.0052432087,0.08003391,0.001667175,0.0,0.0,0.0,0.0,0.0,0.0,0.0,0.0,-0.005378723,0.0,0.0,nan,0.0,0.0,-0.0057919025,0.0,0.0,0.0,0.0,0.0,0.0,0.0,0.0,0.0
19671466,19569606,0.0060921707,-0.006215253,-0.025914006,0.08369336,0.009733132,0.0,0.0,0.0,0.0,0.0,0.0,0.0,0.0,-0.019083023,0.0,0.0,nan,0.0,0.0,-0.0027928352,0.0,0.0,0.0,0.0,0.0,0.0,0.0,0.0,0.0
20166431,20064696,0.019380813,0.0009911881,0.0126205105,0.07674363,0.017426774,0.0,0.0,0.0,0.0,0.0,0.0,0.0,0.0,-0.045139313,0.0,0.0,nan,0.0,0.0,0.0030739307,0.0,0.0,0.0,0.0,0.0,0.0,0.0,0.0,0.0
20671522,20569890,-0.0069403327,-0.0013243414,-0.060093217,0.08135254,0.024446353,0.0,0.0,0.0,0.0,0.0,0.0,0.0,0.0,-0.056339264,0.0,0.0,nan,0.0,0.0,0.0009522438,0.0,0.0,0.0,0.0,0.0,0.0,0.0,0.0,0.0
21177088,21075083,-0.0019712106,0.018463816,0.013981444,0.08515256,0.031115856,0.0,0.0,0.0,0.0,0.0,0.0,0.0,0.0,0.024930954,0.0,0.0,nan,0.0,0.0,-0.0023019314,0.0,0.0,0.0,0.0,0.0,0.0,0.0,0.0,0.0
21671862,21570173,-0.0063673863,0.021432586,-0.018708969,0.091986954,0.03828188,0.0,0.0,0.0,0.0,0.0,0.0,0.0,0.0,-0.08445549,0.0,0.0,nan,0.0,0.0,-0.00066304207,0.0,0.0,0.0,0.0,0.0,0.0,0.0,0.0,0.0
22167265,22065263,0.007359812,0.003381053,0.020495016,0.08601859,0.044502787,0.0,0.0,0.0,0.0,0.0,0.0,0.0,0.0,0.08245087,0.0,0.0,nan,0.0,0.0,-0.0054769516,0.0,0.0,0.0,0.0,0.0,0.0,0.0,0.0,0.0
22672160,22570456,0.003838802,-0.00055013696,0.052039035,0.07021187,0.050288744,0.0,0.0,0.0,0.0,0.0,0.0,0.0,0.0,0.00948143,0.0,0.0,nan,0.0,0.0,-0.00047302246,0.0,0.0,0.0,0.0,0.0,0.0,0.0,0.0,0.0
23167314,23065546,0.04091695,-0.0021832094,0.08461427,0.06624186,0.06426021,0.0,0.0,0.0,0.0,0.0,0.0,0.0,0.0,-0.2520523,0.0,0.0,nan,0.0,0.0,-0.0028243065,0.0,0.0,0.0,0.0,0.0,0.0,0.0,0.0,0.0
23672420,23570739,-0.00053348235,0.00047353067,0.02900363,0.06258753,0.069276735,0.0,0.0,0.0,0.0,0.0,0.0,0.0,0.0,0.079273224,0.0,0.0,nan,0.0,0.0,0.0032684803,0.0,0.0,0.0,0.0,0.0,0.0,0.0,0.0,0.0
24167946,24065829,0.013183341,-0.0002961573,0.004791318,0.05957733,0.074208386,0.0,0.0,0.0,0.0,0.0,0.0,0.0,0.0,0.08219719,0.0,0.0,nan,0.0,0.0,0.0011639595,0.0,0.0,0.0,0.0,0.0,0.0,0.0,0.0,0.0
24672672,24571022,-0.01798563,-0.014737781,-0.020322714,0.067840174,0.07037935,0.0,0.0,0.0,0.0,0.0,0.0,0.0,0.0,0.08152008,0.0,0.0,nan,0.0,0.0,-0.012162447,0.0,0.0,0.0,0.0,0.0,0.0,0.0,0.0,0.0
25167792,25066112,0.008747833,-0.019292898,-0.014387452,0.06482938,0.07590781,0.0,0.0,0.0,0.0,0.0,0.0,0.0,0.0,-0.17149544,0.0,0.0,nan,0.0,0.0,-0.005800009,0.0,0.0,0.0,0.0,0.0,0.0,0.0,0.0,0.0
25672941,25571305,0.033753455,-0.033754792,-0.059412193,0.071116686,0.07273568,0.0,0.0,0.0,0.0,0.0,0.0,0.0,0.0,-0.08324623,0.0,0.0,nan,0.0,0.0,-0.001121521,0.0,0.0,0.0,0.0,0.0,0.0,0.0,0.0,0.0
26168072,26066394,-0.017274171,0.026161568,0.00056218624,0.06971279,0.06104537,0.0,0.0,0.0,0.0,0.0,0.0,0.0,0.0,-0.41695786,0.0,0.0,nan,0.0,0.0,0.0058374405,0.0,0.0,0.0,0.0,0.0,0.0,0.0,0.0,0.0
26673262,26571588,-0.0018950962,0.0048687556,0.0371012,0.05517313,0.07612859,0.0,0.0,0.0,0.0,0.0,0.0,0.0,0.0,0.0005607605,0.0,0.0,nan,0.0,0.0,0.0007903576,0.0,0.0,0.0,0.0,0.0,0.0,0.0,0.0,0.0
27168405,27066677,-0.0021664968,-0.013732809,-0.02519384,0.053620532,0.07266608,0.0,0.0,0.0,0.0,0.0,0.0,0.0,0.0,0.16724586,0.0,0.0,nan,0.0,0.0,-0.0010180473,0.0,0.0,0.0,0.0,0.0,0.0,0.0,0.0,0.0
27673576,27571870,-0.023934077,-0.0007617892,-0.003786218,0.041098922,0.08670251,0.0,0.0,0.0,0.0,0.0,0.0,0.0,0.0,-0.0005760193,0.0,0.0,nan,0.0,0.0,0.00013971329,0.0,0.0,0.0,0.0,0.0,0.0,0.0,0.0,0.0
28168597,28066960,0.023438893,-0.005875705,0.005229546,0.028289571,0.09203859,0.0,0.0,0.0,0.0,0.0,0.0,0.0,0.0,-0.06881523,0.0,0.0,nan,0.0,0.0,-0.00019836426,0.0,0.0,0.0,0.0,0.0,0.0,0.0,0.0,0.0
28673859,28572153,-0.027997017,0.0038459222,-0.029827967,0.016425908,0.09752206,0.0,0.0,0.0,0.0,0.0,0.0,0.0,0.0,-0.12549019,0.0,0.0,nan,0.0,0.0,-0.001147747,0.0,0.0,0.0,0.0,0.0,0.0,0.0,0.0,0.0
29169036,29067242,0.01903902,0.007247462,-0.008919809,0.0049324185,0.10259718,0.0,0.0,0.0,0.0,0.0,0.0,0.0,0.0,0.04453659,0.0,0.0,nan,0.0,0.0,0.005269289,0.0,0.0,0.0,0.0,0.0,0.0,0.0,0.0,0.0
29674405,29572435,-0.00021411461,0.0005894769,0.011211538,-0.0060678422,0.09953726,0.0,0.0,0.0,0.0,0.0,0.0,0.0,0.0,0.05125618,0.0,0.0,nan,0.0,0.0,-0.00038075447,0.0,0.0,0.0,0.0,0.0,0.0,0.0,0.0,0.0
30169176,30067525,-0.020169321,-0.02020748,0.005329682,-0.017544478,0.10434628,0.0,0.0,0.0,0.0,0.0,0.0,0.0,0.0,0.015493393,0.0,0.0,nan,0.0,0.0,-0.0021562576,0.0,0.0,0.0,0.0,0.0,0.0,0.0,0.0,0.0
30674384,30572718,-0.014712,0.016682927,0.005093161,-0.01685761,0.09280777,0.0,0.0,0.0,0.0,0.0,0.0,0.0,0.0,0.037620544,0.0,0.0,nan,0.0,0.0,3.170967e-05,0.0,0.0,0.0,0.0,0.0,0.0,0.0,0.0,0.0
31169597,31067807,-0.010983871,0.018300224,-0.0017790524,-0.02774322,0.089641646,0.0,0.0,0.0,0.0,0.0,0.0,0.0,0.0,0.014190674,0.0,0.0,nan,0.0,0.0,-0.0008187294,0.0,0.0,0.0,0.0,0.0,0.0,0.0,0.0,0.0
31674705,31573000,0.012344661,0.019570585,0.00621577,-0.026913673,0.08710103,0.0,0.0,0.0,0.0,0.0,0.0,0.0,0.0,0.014141083,0.0,0.0,nan,0.0,0.0,0.00066661835,0.0,0.0,0.0,0.0,0.0,0.0,0.0,0.0,0.0
32169799,32068090,-0.025087178,0.010487217,0.049493,-0.0375145,0.084395796,0.0,0.0,0.0,0.0,0.0,0.0,0.0,0.0,0.124341965,0.0,0.0,nan,0.0,0.0,0.0028693676,0.0,0.0,0.0,0.0,0.0,0.0,0.0,0.0,0.0
32664978,32563179,-0.0065035694,-0.0035792894,-0.0019678054,-0.035952203,0.082406506,0.0,0.0,0.0,0.0,0.0,0.0,0.0,0.0,-0.16718674,0.0,0.0,nan,0.0,0.0,0.002285719,0.0,0.0,0.0,0.0,0.0,0.0,0.0,0.0,0.0
33170029,33068372,-0.0096787885,-0.016582018,-0.018483737,-0.035201646,0.08013187,0.0,0.0,0.0,0.0,0.0,0.0,0.0,0.0,-0.16761017,0.0,0.0,nan,0.0,0.0,0.0040893555,0.0,0.0,0.0,0.0,0.0,0.0,0.0,0.0,0.0
33675277,33573565,0.010511856,0.0077397344,-0.026910929,-0.045133546,0.07823604,0.0,0.0,0.0,0.0,0.0,0.0,0.0,0.0,0.16914177,0.0,0.0,nan,0.0,0.0,0.0045681,0.0,0.0,0.0,0.0,0.0,0.0,0.0,0.0,0.0
34170313,34068655,0.021980464,0.012686399,0.018004298,-0.033289768,0.08463668,0.0,0.0,0.0,0.0,0.0,0.0,0.0,0.0,0.083379745,0.0,0.0,nan,0.0,0.0,0.00056767464,0.0,0.0,0.0,0.0,0.0,0.0,0.0,0.0,0.0
34675630,34573848,-0.0020947661,0.024958815,0.005600009,-0.04333338,0.08255608,0.0,0.0,0.0,0.0,0.0,0.0,0.0,0.0,-0.0022830963,0.0,0.0,nan,0.0,0.0,-0.0021653175,0.0,0.0,0.0,0.0,0.0,0.0,0.0,0.0,0.0
35170608,35068937,0.037100133,0.009685121,0.012433491,-0.042960614,0.07167869,0.0,0.0,0.0,0.0,0.0,0.0,0.0,0.0,-0.16897774,0.0,0.0,nan,0.0,0.0,0.0012555122,0.0,0.0,0.0,0.0,0.0,0.0,0.0,0.0,0.0
35665666,35564026,0.076439254,-0.059638605,0.0031026737,-0.029742144,0.052098207,0.0,0.0,0.0,0.0,0.0,0.0,0.0,0.0,0.16182709,0.0,0.0,nan,0.0,0.0,8.702278e-05,0.0,0.0,0.0,0.0,0.0,0.0,0.0,0.0,0.0
36170865,36069220,0.20296052,-0.15513587,0.002841069,0.05907993,-0.022596657,0.0,0.0,0.0,0.0,0.0,0.0,0.0,0.0,-0.25270653,0.0,0.0,nan,0.0,0.0,0.012033701,0.0,0.0,0.0,0.0,0.0,0.0,0.0,0.0,0.0
36666037,36564309,0.2574682,-0.24794585,-0.012218026,0.15394098,-0.11290971,0.0,0.0,0.0,0.0,0.0,0.0,0.0,0.0,0.16460228,0.0,0.0,nan,0.0,0.0,0.008446217,0.0,0.0,0.0,0.0,0.0,0.0,0.0,0.0,0.0
37171342,37069502,0.2540338,-0.27993023,0.039340183,0.26321423,-0.22816366,0.0,0.0,0.0,0.0,0.0,0.0,0.0,0.0,-0.19334984,0.0,0.0,nan,0.0,0.0,-0.02658081,0.0,0.0,0.0,0.0,0.0,0.0,0.0,0.0,0.0
37666288,37564591,1.622033,-0.7540394,-0.033053175,1.5892357,-0.7625585,0.0,0.0,0.0,0.0,0.0,0.0,0.0,0.0,-0.06652641,0.0,0.0,nan,0.0,0.0,-0.03378892,0.0,0.0,0.0,0.0,0.0,0.0,0.0,0.0,0.0
38171471,38069785,1.8334042,-0.9409399,-0.14001407,2.3889675,-1.165585,0.0,0.0,0.0,0.0,0.0,0.0,0.0,0.0,-0.37937546,0.0,0.0,nan,0.0,0.0,-0.034511566,0.0,0.0,0.0,0.0,0.0,0.0,0.0,0.0,0.0
38676588,38574978,2.0482302,-1.0305591,-0.18692845,3.354359,-1.644181,0.0,0.0,0.0,0.0,0.0,0.0,0.0,0.0,-0.71297264,0.0,0.0,nan,0.0,0.0,-0.03529501,0.0,0.0,0.0,0.0,0.0,0.0,0.0,0.0,0.0
39171770,39070067,2.2630832,-1.1719077,-0.119041406,4.438361,-2.2101488,0.0,0.0,0.0,0.0,0.0,0.0,0.0,0.0,-0.26542664,0.0,0.0,nan,0.0,0.0,-0.035380125,0.0,0.0,0.0,0.0,0.0,0.0,0.0,0.0,0.0
39667088,39565156,2.5498986,-1.3696847,-0.18119587,5.64005,-2.8455865,0.0,0.0,0.0,0.0,0.0,0.0,0.0,0.0,-0.48235893,0.0,0.0,nan,0.0,0.0,-0.030642271,0.0,0.0,0.0,0.0,0.0,0.0,0.0,0.0,0.0
40172157,40070350,2.7714121,-1.4629581,-0.18306403,6.989104,-3.563871,0.0,0.0,0.0,0.0,0.0,0.0,0.0,0.0,-0.82941246,0.0,0.0,nan,0.0,0.0,-0.02583766,0.0,0.0,0.0,0.0,0.0,0.0,0.0,0.0,0.0
40667144,40565439,3.030705,-1.6751194,-0.24446596,8.47496,-4.3692822,0.0,0.0,0.0,0.0,0.0,0.0,0.0,0.0,-0.971344,0.0,0.0,nan,0.0,0.0,-0.01856184,0.0,0.0,0.0,0.0,0.0,0.0,0.0,0.0,0.0
41172311,41070632,3.3699708,-1.7703805,-0.16486502,10.0539055,-5.202643,0.0,0.0,0.0,0.0,0.0,0.0,0.0,0.0,-1.021038,0.0,0.0,nan,0.0,0.0,-0.020559072,0.0,0.0,0.0,0.0,0.0,0.0,0.0,0.0,0.0
41667554,41565722,3.6399262,-1.9390724,-0.16626433,11.828186,-6.14534,0.0,0.0,0.0,0.0,0.0,0.0,0.0,0.0,-0.9310837,0.0,0.0,nan,0.0,0.0,-0.025667429,0.0,0.0,0.0,0.0,0.0,0.0,0.0,0.0,0.0
42172673,42070915,3.8721402,-2.021139,0.007858232,13.670681,-7.1099133,0.0,0.0,0.0,0.0,0.0,0.0,0.0,0.0,-0.866766,0.0,0.0,nan,0.0,0.0,-0.031899452,0.0,0.0,0.0,0.0,0.0,0.0,0.0,0.0,0.0
42667619,42566004,4.3120937,-2.1061792,0.11843783,15.647208,-8.15231,0.0,0.0,0.0,0.0,0.0,0.0,0.0,0.0,-0.765255,0.0,0.0,nan,0.0,0.0,-0.03926015,0.0,0.0,0.0,0.0,0.0,0.0,0.0,0.0,0.0
43172773,43071197,4.4793515,-2.333938,0.067450285,17.80008,-9.269447,0.0,0.0,0.0,0.0,0.0,0.0,0.0,0.0,-0.61730003,0.0,0.0,nan,0.0,0.0,-0.04632044,0.0,0.0,0.0,0.0,0.0,0.0,0.0,0.0,0.0
43667780,43566287,7.4030175,-4.743934,0.6133447,27.260624,-17.28712,0.0,0.0,0.0,0.0,0.0,0.0,0.0,0.0,0.18771172,0.0,0.0,nan,0.0,0.0,-0.039848328,0.0,0.0,0.0,0.0,0.0,0.0,0.0,0.0,0.0
44172939,44071480,7.015393,-4.594367,0.2993472,32.288376,-20.297546,0.0,0.0,0.0,0.0,0.0,0.0,0.0,0.0,0.89850235,0.0,0.0,nan,0.0,0.0,-0.05192542,0.0,0.0,0.0,0.0,0.0,0.0,0.0,0.0,0.0
44668056,44566570,7.004964,-4.5916705,0.24645576,36.35749,-22.925777,0.0,0.0,0.0,0.0,0.0,0.0,0.0,0.0,0.60474205,0.0,0.0,nan,0.0,0.0,-0.061748028,0.0,0.0,0.0,0.0,0.0,0.0,0.0,0.0,0.0
45173515,45071763,6.8514643,-4.4245505,0.20826945,40.20918,-25.390652,0.0,0.0,0.0,0.0,0.0,0.0,0.0,0.0,0.9425888,0.0,0.0,nan,0.0,0.0,-0.0669117,0.0,0.0,0.0,0.0,0.0,0.0,0.0,0.0,0.0
45668311,45566852,6.745794,-4.4166074,0.22242796,43.80137,-27.693556,0.0,0.0,0.0,0.0,0.0,0.0,0.0,0.0,1.1108112,0.0,0.0,nan,0.0,0.0,-0.08158612,0.0,0.0,0.0,0.0,0.0,0.0,0.0,0.0,0.0
46173575,46072046,6.680336,-4.217508,0.17153764,47.254665,-29.928629,0.0,0.0,0.0,0.0,0.0,0.0,0.0,0.0,1.1765747,0.0,0.0,nan,0.0,0.0,-0.10043025,0.0,0.0,0.0,0.0,0.0,0.0,0.0,0.0,0.0
46668658,46567137,6.7782083,-4.0201535,0.1521047,50.65167,-32.055386,0.0,0.0,0.0,0.0,0.0,0.0,0.0,0.0,1.3234711,0.0,0.0,nan,0.0,0.0,-0.12647438,0.0,0.0,0.0,0.0,0.0,0.0,0.0,0.0,0.0
47173928,47072328,6.7172995,-3.7862332,0.13924876,54.06152,-34.076866,0.0,0.0,0.0,0.0,0.0,0.0,0.0,0.0,1.2951679,0.0,0.0,nan,0.0,0.0,-0.13257957,0.0,0.0,0.0,0.0,0.0,0.0,0.0,0.0,0.0
47668962,47567418,6.797436,-3.6411002,0.2074382,57.442062,-35.95669,0.0,0.0,0.0,0.0,0.0,0.0,0.0,0.0,1.4001179,0.0,0.0,nan,0.0,0.0,-0.13781261,0.0,0.0,0.0,0.0,0.0,0.0,0.0,0.0,0.0
48174152,48072611,6.83673,-3.5423281,0.16675477,60.854694,-37.752872,0.0,0.0,0.0,0.0,0.0,0.0,0.0,0.0,1.3313847,0.0,0.0,nan,0.0,0.0,-0.13397026,0.0,0.0,0.0,0.0,0.0,0.0,0.0,0.0,0.0
48669342,48567701,6.905853,-3.430729,0.16403332,64.27343,-39.4969,0.0,0.0,0.0,0.0,0.0,0.0,0.0,0.0,1.4287415,0.0,0.0,nan,0.0,0.0,-0.12454677,0.0,0.0,0.0,0.0,0.0,0.0,0.0,0.0,0.0
49174479,49072894,6.97974,-3.4324791,0.121438436,67.74974,-41.206326,0.0,0.0,0.0,0.0,0.0,0.0,0.0,0.0,1.5054665,0.0,0.0,nan,0.0,0.0,-0.101640224,0.0,0.0,0.0,0.0,0.0,0.0,0.0,0.0,0.0
49669587,49567984,6.9958096,-3.5475612,0.12244422,71.26589,-42.957207,0.0,0.0,0.0,0.0,0.0,0.0,0.0,0.0,1.6170883,0.0,0.0,nan,0.0,0.0,-0.0795393,0.0,0.0,0.0,0.0,0.0,0.0,0.0,0.0,0.0
50164823,50063073,6.9269595,-3.5923796,0.0819317,74.73211,-44.731308,0.0,0.0,0.0,0.0,0.0,0.0,0.0,0.0,1.5401535,0.0,0.0,nan,0.0,0.0,-0.083613396,0.0,0.0,0.0,0.0,0.0,0.0,0.0,0.0,0.0
50669942,50568267,6.8826632,-3.627894,0.08603286,78.19146,-46.534042,0.0,0.0,0.0,0.0,0.0,0.0,0.0,0.0,1.4356174,0.0,0.0,nan,0.0,0.0,-0.077980995,0.0,0.0,0.0,0.0,0.0,0.0,0.0,0.0,0.0
51175047,51073460,6.8334002,-3.480169,0.059318244,81.630936,-48.29724,0.0,0.0,0.0,0.0,0.0,0.0,0.0,0.0,1.5980244,0.0,0.0,nan,0.0,0.0,-0.0894711,0.0,0.0,0.0,0.0,0.0,0.0,0.0,0.0,0.0
51670250,51568551,6.835678,-3.323974,0.06872381,85.05282,-49.986023,0.0,0.0,0.0,0.0,0.0,0.0,0.0,0.0,1.6150398,0.0,0.0,nan,0.0,0.0,-0.08431816,0.0,0.0,0.0,0.0,0.0,0.0,0.0,0.0,0.0
52175292,52073744,6.853398,-3.1917286,0.06364666,88.4907,-51.59871,0.0,0.0,0.0,0.0,0.0,0.0,0.0,0.0,1.616909,0.0,0.0,nan,0.0,0.0,-0.074589014,0.0,0.0,0.0,0.0,0.0,0.0,0.0,0.0,0.0
52670372,52568833,0.0037488937,0.079036236,-0.018733233,0.02798462,-0.0044021606,0.0,0.0,0.0,0.0,0.0,0.0,0.0,0.0,1.4131813,0.0,0.0,nan,0.0,0.0,-0.067239046,0.0,0.0,0.0,0.0,0.0,0.0,0.0,0.0,0.0
53165445,53063923,0.012812138,0.18616843,-0.046942063,0.07067871,0.00687027,0.0,0.0,0.0,0.0,0.0,0.0,0.0,0.0,1.230156,0.0,0.0,nan,0.0,0.0,-0.06670952,0.0,0.0,0.0,0.0,0.0,0.0,0.0,0.0,0.0
53670589,53569117,-0.012429237,0.23293042,-0.074129224,0.026496887,0.06824112,0.0,0.0,0.0,0.0,0.0,0.0,0.0,0.0,1.1481609,0.0,0.0,nan,0.0,0.0,-0.07330251,0.0,0.0,0.0,0.0,0.0,0.0,0.0,0.0,0.0
54165675,54064206,-0.02807808,0.25243497,-0.059709754,0.057632446,0.088077545,0.0,0.0,0.0,0.0,0.0,0.0,0.0,0.0,1.3221474,0.0,0.0,nan,0.0,0.0,-0.07648373,0.0,0.0,0.0,0.0,0.0,0.0,0.0,0.0,0.0
54670895,54569400,-0.044753075,0.22472072,-0.07540907,0.012397766,0.1397934,0.0,0.0,0.0,0.0,0.0,0.0,0.0,0.0,1.1064224,0.0,0.0,nan,0.0,0.0,-0.08099556,0.0,0.0,0.0,0.0,0.0,0.0,0.0,0.0,0.0
55165981,55064490,-0.045715332,0.25813222,-0.10199493,0.039253235,0.15059662,0.0,0.0,0.0,0.0,0.0,0.0,0.0,0.0,0.9946041,0.0,0.0,nan,0.0,0.0,-0.07286334,0.0,0.0,0.0,0.0,0.0,0.0,0.0,0.0,0.0
55671260,55569683,6.6063676,-3.3102882,-0.16941166,9.6835785,-5.063736,0.0,0.0,0.0,0.0,0.0,0.0,0.0,0.0,0.92536926,0.0,0.0,nan,0.0,0.0,-0.10851765,0.0,0.0,0.0,0.0,0.0,0.0,0.0,0.0,0.0
56176361,56074877,7.304507,-3.5680258,-0.06127313,13.183594,-6.773136,0.0,0.0,0.0,0.0,0.0,0.0,0.0,0.0,1.1591034,0.0,0.0,nan,0.0,0.0,-0.09769893,0.0,0.0,0.0,0.0,0.0,0.0,0.0,0.0,0.0
56671516,56569967,8.142801,-3.753377,0.09547069,17.071129,-8.599186,0.0,0.0,0.0,0.0,0.0,0.0,0.0,0.0,1.0254345,0.0,0.0,nan,0.0,0.0,-0.09299302,0.0,0.0,0.0,0.0,0.0,0.0,0.0,0.0,0.0
57166527,57065057,6.44249,-3.6491513,-0.055006206,20.103333,-10.27787,0.0,0.0,0.0,0.0,0.0,0.0,0.0,0.0,0.8890476,0.0,0.0,nan,0.0,0.0,-0.023532867,0.0,0.0,0.0,0.0,0.0,0.0,0.0,0.0,0.0
57671738,57570250,6.390225,-3.830809,-0.116599545,23.361877,-12.120022,0.0,0.0,0.0,0.0,0.0,0.0,0.0,0.0,0.7022381,0.0,0.0,nan,0.0,0.0,-0.008742094,0.0,0.0,0.0,0.0,0.0,0.0,0.0,0.0,0.0
58167052,58065340,6.3342032,-3.9225838,-0.012993333,26.564293,-14.055714,0.0,0.0,0.0,0.0,0.0,0.0,0.0,0.0,0.7432003,0.0,0.0,nan,0.0,0.0,0.0041377544,0.0,0.0,0.0,0.0,0.0,0.0,0.0,0.0,0.0
58672020,58570535,6.33406,-3.9863985,-0.028257277,29.746605,-16.04654,0.0,0.0,0.0,0.0,0.0,0.0,0.0,0.0,0.667099,0.0,0.0,nan,0.0,0.0,-0.026992321,0.0,0.0,0.0,0.0,0.0,0.0,0.0,0.0,0.0
59167232,59065625,6.3500237,-3.9266284,0.094099395,32.90851,-18.036095,0.0,0.0,0.0,0.0,0.0,0.0,0.0,0.0,0.6628952,0.0,0.0,nan,0.0,0.0,-0.05070877,0.0,0.0,0.0,0.0,0.0,0.0,0.0,0.0,0.0
59672591,59570818,6.3439198,-3.8543591,0.020340353,36.076256,-19.983723,0.0,0.0,0.0,0.0,0.0,0.0,0.0,0.0,0.69189453,0.0,0.0,nan,0.0,0.0,-0.080509186,0.0,0.0,0.0,0.0,0.0,0.0,0.0,0.0,0.0
60167544,60065910,6.326144,-3.6849778,0.014187365,39.23855,-21.849716,0.0,0.0,0.0,0.0,0.0,0.0,0.0,0.0,0.59355545,0.0,0.0,nan,0.0,0.0,-0.09360218,0.0,0.0,0.0,0.0,0.0,0.0,0.0,0.0,0.0
60673215,60571102,6.3279552,-3.6019797,0.024610464,42.40966,-23.65762,0.0,0.0,0.0,0.0,0.0,0.0,0.0,0.0,0.47896385,0.0,0.0,nan,0.0,0.0,-0.08223891,0.0,0.0,0.0,0.0,0.0,0.0,0.0,0.0,0.0
61167962,61066192,6.3466206,-3.7436826,0.09633104,45.59156,-25.48175,0.0,0.0,0.0,0.0,0.0,0.0,0.0,0.0,0.5391598,0.0,0.0,nan,0.0,0.0,-0.06441045,0.0,0.0,0.0,0.0,0.0,0.0,0.0,0.0,0.0
61673079,61571387,6.2850604,-3.8701699,0.02124453,48.756805,-27.392265,0.0,0.0,0.0,0.0,0.0,0.0,0.0,0.0,0.53349495,0.0,0.0,nan,0.0,0.0,-0.04337573,0.0,0.0,0.0,0.0,0.0,0.0,0.0,0.0,0.0
62168270,62066476,6.149564,-4.105295,0.0021842876,51.865868,-29.405815,0.0,0.0,0.0,0.0,0.0,0.0,0.0,0.0,0.44518852,0.0,0.0,nan,0.0,0.0,-0.039889574,0.0,0.0,0.0,0.0,0.0,0.0,0.0,0.0,0.0
62673290,62571670,6.204605,-4.1924896,0.01239517,54.969482,-31.466114,0.0,0.0,0.0,0.0,0.0,0.0,0.0,0.0,0.60962677,0.0,0.0,nan,0.0,0.0,-0.051056862,0.0,0.0,0.0,0.0,0.0,0.0,0.0,0.0,0.0
63168472,63066760,6.125882,-4.3250203,0.05804079,58.048996,-33.605682,0.0,0.0,0.0,0.0,0.0,0.0,0.0,0.0,0.34474182,0.0,0.0,nan,0.0,0.0,-0.061931133,0.0,0.0,0.0,0.0,0.0,0.0,0.0,0.0,0.0
63673537,63571954,6.231499,-3.9535766,-0.035847913,61.17607,-35.425137,0.0,0.0,0.0,0.0,0.0,0.0,0.0,0.0,0.41918373,0.0,0.0,nan,0.0,0.0,-0.07527709,0.0,0.0,0.0,0.0,0.0,0.0,0.0,0.0,0.0
64168636,64067044,6.2543783,-3.8846612,-0.017112244,64.27589,-37.366383,0.0,0.0,0.0,0.0,0.0,0.0,0.0,0.0,0.07763481,0.0,0.0,nan,0.0,0.0,-0.074071884,0.0,0.0,0.0,0.0,0.0,0.0,0.0,0.0,0.0
64673823,64572238,6.228448,-3.8098705,-0.011532923,67.400894,-39.265427,0.0,0.0,0.0,0.0,0.0,0.0,0.0,0.0,0.6558323,0.0,0.0,nan,0.0,0.0,-0.07165408,0.0,0.0,0.0,0.0,0.0,0.0,0.0,0.0,0.0
65169033,65067328,6.2150292,-3.8440368,-0.06364043,70.50466,-41.171276,0.0,0.0,0.0,0.0,0.0,0.0,0.0,0.0,0.40031433,0.0,0.0,nan,0.0,0.0,-0.06139779,0.0,0.0,0.0,0.0,0.0,0.0,0.0,0.0,0.0
65674220,65572522,6.0853333,-3.8795218,-0.060556658,73.58435,-43.106018,0.0,0.0,0.0,0.0,0.0,0.0,0.0,0.0,0.47911072,0.0,0.0,nan,0.0,0.0,-0.052773237,0.0,0.0,0.0,0.0,0.0,0.0,0.0,0.0,0.0
66169463,66067613,6.0403447,-3.9453182,-0.06708954,76.62038,-45.0558,0.0,0.0,0.0,0.0,0.0,0.0,0.0,0.0,0.2202549,0.0,0.0,nan,0.0,0.0,-0.06313419,0.0,0.0,0.0,0.0,0.0,0.0,0.0,0.0,0.0
66674447,66572807,6.0868993,-3.8920786,-0.06977056,79.655655,-47.015697,0.0,0.0,0.0,0.0,0.0,0.0,0.0,0.0,0.21753883,0.0,0.0,nan,0.0,0.0,-0.07300687,0.0,0.0,0.0,0.0,0.0,0.0,0.0,0.0,0.0
67169514,67067897,6.1428466,-3.7898526,-0.032693397,82.73217,-48.919563,0.0,0.0,0.0,0.0,0.0,0.0,0.0,0.0,0.40818977,0.0,0.0,nan,0.0,0.0,-0.08595896,0.0,0.0,0.0,0.0,0.0,0.0,0.0,0.0,0.0
67664601,67562987,6.2829432,-3.6604283,-0.022364678,85.85759,-50.77399,0.0,0.0,0.0,0.0,0.0,0.0,0.0,0.0,0.25767136,0.0,0.0,nan,0.0,0.0,-0.07222104,0.0,0.0,0.0,0.0,0.0,0.0,0.0,0.0,0.0
68169813,68068182,6.3063025,-3.6447198,-0.0077039935,89.02616,-52.59432,0.0,0.0,0.0,0.0,0.0,0.0,0.0,0.0,0.3173256,0.0,0.0,nan,0.0,0.0,-0.07901001,0.0,0.0,0.0,0.0,0.0,0.0,0.0,0.0,0.0
68674896,68573376,6.3510385,-3.6585073,-0.055668272,92.205864,-54.41804,0.0,0.0,0.0,0.0,0.0,0.0,0.0,0.0,0.17829323,0.0,0.0,nan,0.0,0.0,-0.059616327,0.0,0.0,0.0,0.0,0.0,0.0,0.0,0.0,0.0
69170007,69068466,6.2997975,-3.7794192,-0.03249974,95.39788,-56.28103,0.0,0.0,0.0,0.0,0.0,0.0,0.0,0.0,0.28710747,0.0,0.0,nan,0.0,0.0,-0.060117006,0.0,0.0,0.0,0.0,0.0,0.0,0.0,0.0,0.0
69675233,69573660,6.300132,-3.8317869,-0.05546187,2.8205414,-1.715065,0.0,0.0,0.0,0.0,0.0,0.0,0.0,0.0,0.24204445,0.0,0.0,nan,0.0,0.0,-0.066936255,0.0,0.0,0.0,0.0,0.0,0.0,0.0,0.0,0.0
70170223,70068751,6.276192,-3.8598638,-0.11166314,5.206192,-3.1505737,0.0,0.0,0.0,0.0,0.0,0.0,0.0,0.0,0.012952805,0.0,0.0,nan,0.0,0.0,-0.0722208,0.0,0.0,0.0,0.0,0.0,0.0,0.0,0.0,0.0
70665444,70563841,6.2881413,-3.9529705,-0.08475575,8.361832,-5.1039734,0.0,0.0,0.0,0.0,0.0,0.0,0.0,0.0,0.1538105,0.0,0.0,nan,0.0,0.0,-0.06658387,0.0,0.0,0.0,0.0,0.0,0.0,0.0,0.0,0.0
71170741,71069036,6.6120396,-3.5195045,-0.06200661,11.809113,-6.7186966,0.0,0.0,0.0,0.0,0.0,0.0,0.0,0.0,0.25585747,0.0,0.0,nan,0.0,0.0,-0.07923436,0.0,0.0,0.0,0.0,0.0,0.0,0.0,0.0,0.0
71665740,71564126,6.6516385,-3.4719517,0.024017898,15.145615,-8.460442,0.0,0.0,0.0,0.0,0.0,0.0,0.0,0.0,-0.13715363,0.0,0.0,nan,0.0,0.0,-0.07458377,0.0,0.0,0.0,0.0,0.0,0.0,0.0,0.0,0.0
72170843,72069321,6.643147,-3.4756737,-0.035661936,18.482483,-10.209396,0.0,0.0,0.0,0.0,0.0,0.0,0.0,0.0,0.11381149,0.0,0.0,nan,0.0,0.0,-0.06166482,0.0,0.0,0.0,0.0,0.0,0.0,0.0,0.0,0.0
72675994,72574515,6.635463,-3.5306106,-0.025638686,21.81868,-11.953041,0.0,0.0,0.0,0.0,0.0,0.0,0.0,0.0,-0.30472183,0.0,0.0,nan,0.0,0.0,-0.05555439,0.0,0.0,0.0,0.0,0.0,0.0,0.0,0.0,0.0
73171098,73069606,6.5725307,-3.5604367,0.010138253,25.121918,-13.712822,0.0,0.0,0.0,0.0,0.0,0.0,0.0,0.0,0.03177643,0.0,0.0,nan,0.0,0.0,-0.058164835,0.0,0.0,0.0,0.0,0.0,0.0,0.0,0.0,0.0
73676311,73574800,6.50948,-3.5059443,-0.045979664,28.379791,-15.474144,0.0,0.0,0.0,0.0,0.0,0.0,0.0,0.0,0.112463,0.0,0.0,nan,0.0,0.0,-0.055544615,0.0,0.0,0.0,0.0,0.0,0.0,0.0,0.0,0.0
74171381,74069891,6.495251,-3.5320706,-0.028629567,31.62648,-17.218506,0.0,0.0,0.0,0.0,0.0,0.0,0.0,0.0,0.19573402,0.0,0.0,nan,0.0,0.0,-0.050518274,0.0,0.0,0.0,0.0,0.0,0.0,0.0,0.0,0.0
74666449,74564981,6.4817863,-3.4537027,0.043218475,34.873184,-18.945038,0.0,0.0,0.0,0.0,0.0,0.0,0.0,0.0,0.110839844,0.0,0.0,nan,0.0,0.0,-0.052438974,0.0,0.0,0.0,0.0,0.0,0.0,0.0,0.0,0.0
75171638,75070176,6.3759794,-3.6110861,0.037882358,38.10965,-20.71215,0.0,0.0,0.0,0.0,0.0,0.0,0.0,0.0,0.026882172,0.0,0.0,nan,0.0,0.0,-0.041356325,0.0,0.0,0.0,0.0,0.0,0.0,0.0,0.0,0.0
75666895,75565266,6.385277,-3.5757954,0.025991954,41.312332,-22.49871,0.0,0.0,0.0,0.0,0.0,0.0,0.0,0.0,-0.14226341,0.0,0.0,nan,0.0,0.0,-0.051131487,0.0,0.0,0.0,0.0,0.0,0.0,0.0,0.0,0.0
76172582,76070461,6.350448,-3.4915216,0.06092012,44.51349,-24.253815,0.0,0.0,0.0,0.0,0.0,0.0,0.0,0.0,-0.302536,0.0,0.0,nan,0.0,0.0,-0.05233407,0.0,0.0,0.0,0.0,0.0,0.0,0.0,0.0,0.0
76667019,76565552,6.388824,-3.384068,-0.049158964,47.725266,-25.941452,0.0,0.0,0.0,0.0,0.0,0.0,0.0,0.0,-0.0051021576,0.0,0.0,nan,0.0,0.0,-0.0601995,0.0,0.0,0.0,0.0,0.0,0.0,0.0,0.0,0.0
77172264,77070746,6.4610434,-3.2379103,-0.07403032,50.939713,-27.568123,0.0,0.0,0.0,0.0,0.0,0.0,0.0,0.0,0.014156342,0.0,0.0,nan,0.0,0.0,-0.063570976,0.0,0.0,0.0,0.0,0.0,0.0,0.0,0.0,0.0
77667306,77565840,6.4294353,-3.2010791,-0.05872594,54.163605,-29.181213,0.0,0.0,0.0,0.0,0.0,0.0,0.0,0.0,-0.05813217,0.0,0.0,nan,0.0,0.0,-0.05512166,0.0,0.0,0.0,0.0,0.0,0.0,0.0,0.0,0.0
78172714,78071033,6.41098,-3.2073445,-0.086095124,57.388565,-30.786331,0.0,0.0,0.0,0.0,0.0,0.0,0.0,0.0,-0.06840706,0.0,0.0,nan,0.0,0.0,-0.044490814,0.0,0.0,0.0,0.0,0.0,0.0,0.0,0.0,0.0
78667655,78566123,6.4028625,-3.2282715,-0.18029924,60.602325,-32.39743,0.0,0.0,0.0,0.0,0.0,0.0,0.0,0.0,-0.09784508,0.0,0.0,nan,0.0,0.0,-0.0398376,0.0,0.0,0.0,0.0,0.0,0.0,0.0,0.0,0.0
79172787,79071317,6.4408684,-3.2779365,-0.16208005,63.825897,-34.02147,0.0,0.0,0.0,0.0,0.0,0.0,0.0,0.0,-0.24591255,0.0,0.0,nan,0.0,0.0,-0.039907694,0.0,0.0,0.0,0.0,0.0,0.0,0.0,0.0,0.0
79667874,79566408,6.484321,-3.3209386,-0.065650344,67.059006,-35.668877,0.0,0.0,0.0,0.0,0.0,0.0,0.0,0.0,-0.27332306,0.0,0.0,nan,0.0,0.0,-0.0335989,0.0,0.0,0.0,0.0,0.0,0.0,0.0,0.0,0.0
80173351,80071603,6.5600996,-3.2899806,-0.055054195,70.31917,-37.316742,0.0,0.0,0.0,0.0,0.0,0.0,0.0,0.0,-0.34514236,0.0,0.0,nan,0.0,0.0,-0.023397923,0.0,0.0,0.0,0.0,0.0,0.0,0.0,0.0,0.0
80668263,80566694,6.583855,-3.2705793,0.029274512,73.62077,-38.950584,0.0,0.0,0.0,0.0,0.0,0.0,0.0,0.0,-0.32312012,0.0,0.0,nan,0.0,0.0,-0.024824858,0.0,0.0,0.0,0.0,0.0,0.0,0.0,0.0,0.0
81173629,81071889,6.6145983,-3.3349586,0.068690926,76.9456,-40.589333,0.0,0.0,0.0,0.0,0.0,0.0,0.0,0.0,-0.23090172,0.0,0.0,nan,0.0,0.0,-0.01805377,0.0,0.0,0.0,0.0,0.0,0.0,0.0,0.0,0.0
81668901,81566980,6.6095657,-3.444781,-0.043898247,80.24921,-42.302643,0.0,0.0,0.0,0.0,0.0,0.0,0.0,0.0,-0.109241486,0.0,0.0,nan,0.0,0.0,-0.0075473785,0.0,0.0,0.0,0.0,0.0,0.0,0.0,0.0,0.0
82173642,82072175,6.5749288,-3.6616871,-0.011225972,83.54004,-44.109505,0.0,0.0,0.0,0.0,0.0,0.0,0.0,0.0,-0.43904686,0.0,0.0,nan,0.0,0.0,-0.0019791126,0.0,0.0,0.0,0.0,0.0,0.0,0.0,0.0,0.0
82668758,82567266,6.565289,-3.7897253,0.059909515,86.84311,-45.974,0.0,0.0,0.0,0.0,0.0,0.0,0.0,0.0,-0.34980202,0.0,0.0,nan,0.0,0.0,-0.013623238,0.0,0.0,0.0,0.0,0.0,0.0,0.0,0.0,0.0
83173936,83072460,6.5906777,-3.6982062,0.15111789,90.14557,-47.82959,0.0,0.0,0.0,0.0,0.0,0.0,0.0,0.0,-0.34703064,0.0,0.0,nan,0.0,0.0,-0.019230604,0.0,0.0,0.0,0.0,0.0,0.0,0.0,0.0,0.0
83669056,83567551,6.7171965,-3.6665318,0.14915928,93.48085,-49.662285,0.0,0.0,0.0,0.0,0.0,0.0,0.0,0.0,-0.42795753,0.0,0.0,nan,0.0,0.0,-0.02080369,0.0,0.0,0.0,0.0,0.0,0.0,0.0,0.0,0.0
84174392,84072746,6.654289,-3.7201767,0.14703521,1.9577026,-1.0840607,0.0,0.0,0.0,0.0,0.0,0.0,0.0,0.0,-0.3415203,0.0,0.0,nan,0.0,0.0,-0.012751579,0.0,0.0,0.0,0.0,0.0,0.0,0.0,0.0,0.0
84669507,84567838,6.5478272,-3.779659,0.15050882,4.539032,-2.5523376,0.0,0.0,0.0,0.0,0.0,0.0,0.0,0.0,0.1601696,0.0,0.0,nan,0.0,0.0,-0.009475946,0.0,0.0,0.0,0.0,0.0,0.0,0.0,0.0,0.0
85174626,85073033,6.374016,-3.8526976,0.039843537,7.7747803,-4.461334,0.0,0.0,0.0,0.0,0.0,0.0,0.0,0.0,-0.08805847,0.0,0.0,nan,0.0,0.0,-0.0033288002,0.0,0.0,0.0,0.0,0.0,0.0,0.0,0.0,0.0
85669789,85568124,6.2916813,-3.87314,-0.009426603,10.966187,-6.3869476,0.0,0.0,0.0,0.0,0.0,0.0,0.0,0.0,-0.004152298,0.0,0.0,nan,0.0,0.0,-0.0065276623,0.0,0.0,0.0,0.0,0.0,0.0,0.0,0.0,0.0
86175350,86073319,6.2028174,-3.9092755,-0.023269873,14.099335,-8.323227,0.0,0.0,0.0,0.0,0.0,0.0,0.0,0.0,-0.0052757263,0.0,0.0,nan,0.0,0.0,-0.01362133,0.0,0.0,0.0,0.0,0.0,0.0,0.0,0.0,0.0
86670163,86568410,6.2400365,-3.9298759,0.0463122,17.214294,-10.265732,0.0,0.0,0.0,0.0,0.0,0.0,0.0,0.0,0.032819748,0.0,0.0,nan,0.0,0.0,-0.019445658,0.0,0.0,0.0,0.0,0.0,0.0,0.0,0.0,0.0
87175219,87073605,6.138543,-3.9150326,0.005952251,20.306152,-12.208527,0.0,0.0,0.0,0.0,0.0,0.0,0.0,0.0,0.1059742,0.0,0.0,nan,0.0,0.0,-0.018981695,0.0,0.0,0.0,0.0,0.0,0.0,0.0,0.0,0.0
87670464,87568696,6.057276,-3.9222953,-0.059090942,23.385803,-14.160919,0.0,0.0,0.0,0.0,0.0,0.0,0.0,0.0,0.18540001,0.0,0.0,nan,0.0,0.0,-0.018704176,0.0,0.0,0.0,0.0,0.0,0.0,0.0,0.0,0.0
88165384,88063788,6.0430975,-3.9135725,-0.0037097456,26.42035,-16.12323,0.0,0.0,0.0,0.0,0.0,0.0,0.0,0.0,-0.020427704,0.0,0.0,nan,0.0,0.0,-0.022025108,0.0,0.0,0.0,0.0,0.0,0.0,0.0,0.0,0.0
88670600,88568983,6.0259185,-3.8650825,-0.07247191,29.445343,-18.04837,0.0,0.0,0.0,0.0,0.0,0.0,0.0,0.0,0.14769173,0.0,0.0,nan,0.0,0.0,-0.03187847,0.0,0.0,0.0,0.0,0.0,0.0,0.0,0.0,0.0
89165745,89064074,6.0643272,-3.7694736,-0.05137189,32.48929,-19.950623,0.0,0.0,0.0,0.0,0.0,0.0,0.0,0.0,0.046016693,0.0,0.0,nan,0.0,0.0,-0.0392797,0.0,0.0,0.0,0.0,0.0,0.0,0.0,0.0,0.0
89670920,89569269,6.1638002,-3.7557654,-0.07113523,35.57141,-21.83139,0.0,0.0,0.0,0.0,0.0,0.0,0.0,0.0,0.049520493,0.0,0.0,nan,0.0,0.0,-0.04366088,0.0,0.0,0.0,0.0,0.0,0.0,0.0,0.0,0.0
90176061,90074465,6.211568,-3.7060459,-0.06449343,38.681824,-23.69931,0.0,0.0,0.0,0.0,0.0,0.0,0.0,0.0,-0.12380409,0.0,0.0,nan,0.0,0.0,-0.0507257,0.0,0.0,0.0,0.0,0.0,0.0,0.0,0.0,0.0
90671301,90569556,6.3158293,-3.6195009,-0.07722557,41.852844,-25.51912,0.0,0.0,0.0,0.0,0.0,0.0,0.0,0.0,-0.036779404,0.0,0.0,nan,0.0,0.0,-0.048734903,0.0,0.0,0.0,0.0,0.0,0.0,0.0,0.0,0.0
91176549,91074751,6.3284388,-3.6038315,-0.067947954,45.043945,-27.323288,0.0,0.0,0.0,0.0,0.0,0.0,0.0,0.0,-0.1233387,0.0,0.0,nan,0.0,0.0,-0.038559437,0.0,0.0,0.0,0.0,0.0,0.0,0.0,0.0,0.0
91671756,91569843,6.320377,-3.6358342,-0.12791097,48.224,-29.14566,0.0,0.0,0.0,0.0,0.0,0.0,0.0,0.0,-0.4288845,0.0,0.0,nan,0.0,0.0,-0.0364511,0.0,0.0,0.0,0.0,0.0,0.0,0.0,0.0,0.0
92166533,92064934,6.3011646,-3.6523259,-0.02090407,51.382385,-30.985031,0.0,0.0,0.0,0.0,0.0,0.0,0.0,0.0,-0.009134293,0.0,0.0,nan,0.0,0.0,-0.04205227,0.0,0.0,0.0,0.0,0.0,0.0,0.0,0.0,0.0
92671722,92570130,6.275851,-3.6036472,-0.09779144,54.54004,-32.798187,0.0,0.0,0.0,0.0,0.0,0.0,0.0,0.0,-0.25946617,0.0,0.0,nan,0.0,0.0,-0.042264223,0.0,0.0,0.0,0.0,0.0,0.0,0.0,0.0,0.0
93166842,93065221,6.2339306,-3.581866,-0.18345982,57.676514,-34.585373,0.0,0.0,0.0,0.0,0.0,0.0,0.0,0.0,-0.25859642,0.0,0.0,nan,0.0,0.0,-0.04034114,0.0,0.0,0.0,0.0,0.0,0.0,0.0,0.0,0.0
93672092,93570417,6.2885284,-3.515332,-0.18631995,60.8237,-36.328598,0.0,0.0,0.0,0.0,0.0,0.0,0.0,0.0,-0.3398037,0.0,0.0,nan,0.0,0.0,-0.039435625,0.0,0.0,0.0,0.0,0.0,0.0,0.0,0.0,0.0
94167134,94065508,6.2935433,-3.4599624,-0.15454118,63.969604,-38.064774,0.0,0.0,0.0,0.0,0.0,0.0,0.0,0.0,-0.5045662,0.0,0.0,nan,0.0,0.0,-0.045304775,0.0,0.0,0.0,0.0,0.0,0.0,0.0,0.0,0.0
94672296,94570704,6.363394,-3.3183343,-0.18275431,67.138916,-39.746384,0.0,0.0,0.0,0.0,0.0,0.0,0.0,0.0,-0.33049393,0.0,0.0,nan,0.0,0.0,-0.04507065,0.0,0.0,0.0,0.0,0.0,0.0,0.0,0.0,0.0
95167448,95065795,6.3824973,-3.136962,-0.18669851,70.341034,-41.34459,0.0,0.0,0.0,0.0,0.0,0.0,0.0,0.0,-0.66241455,0.0,0.0,nan,0.0,0.0,-0.048424244,0.0,0.0,0.0,0.0,0.0,0.0,0.0,0.0,0.0
95672679,95570991,6.4317446,-3.0684488,-0.16022715,73.57553,-42.881912,0.0,0.0,0.0,0.0,0.0,0.0,0.0,0.0,-0.48757172,0.0,0.0,nan,0.0,0.0,-0.037124872,0.0,0.0,0.0,0.0,0.0,0.0,0.0,0.0,0.0
96167683,96066082,6.405685,-2.9782407,-0.1635046,76.79797,-44.37538,0.0,0.0,0.0,0.0,0.0,0.0,0.0,0.0,-0.6810856,0.0,0.0,nan,0.0,0.0,-0.024075031,0.0,0.0,0.0,0.0,0.0,0.0,0.0,0.0,0.0
96672983,96571278,6.3999233,-3.1570017,-0.1582033,80.02649,-46.04306,0.0,0.0,0.0,0.0,0.0,0.0,0.0,0.0,-0.77954674,0.0,0.0,nan,0.0,0.0,-0.007663965,0.0,0.0,0.0,0.0,0.0,0.0,0.0,0.0,0.0
97168210,97066370,6.3712716,-3.3965502,-0.17087714,83.21866,-47.694412,0.0,0.0,0.0,0.0,0.0,0.0,0.0,0.0,-0.80916595,0.0,0.0,nan,0.0,0.0,0.001894474,0.0,0.0,0.0,0.0,0.0,0.0,0.0,0.0,0.0
97673262,97571565,6.378678,-3.5123606,-0.10069412,86.40915,-49.41919,0.0,0.0,0.0,0.0,0.0,0.0,0.0,0.0,-1.0136013,0.0,0.0,nan,0.0,0.0,-0.0061604977,0.0,0.0,0.0,0.0,0.0,0.0,0.0,0.0,0.0
98168260,98066657,6.3589225,-3.509627,-0.12416211,89.59952,-51.157196,0.0,0.0,0.0,0.0,0.0,0.0,0.0,0.0,-0.8543205,0.0,0.0,nan,0.0,0.0,-0.011219978,0.0,0.0,0.0,0.0,0.0,0.0,0.0,0.0,0.0
98673317,98571853,6.4296546,-3.3550797,-0.16387457,1.8854675,-0.99298096,0.0,0.0,0.0,0.0,0.0,0.0,0.0,0.0,-0.9717293,0.0,0.0,nan,0.0,0.0,-0.0121798515,0.0,0.0,0.0,0.0,0.0,0.0,0.0,0.0,0.0
99168494,99066944,6.4264364,-3.2591302,-0.15861534,4.399353,-2.2645721,0.0,0.0,0.0,0.0,0.0,0.0,0.0,0.0,-1.0886765,0.0,0.0,nan,0.0,0.0,-0.0071544647,0.0,0.0,0.0,0.0,0.0,0.0,0.0,0.0,0.0
99673815,99572140,6.34463,-3.3180299,-0.20664446,7.5904846,-3.9107666,0.0,0.0,0.0,0.0,0.0,0.0,0.0,0.0,-1.1190281,0.0,0.0,nan,0.0,0.0,0.0011081696,0.0,0.0,0.0,0.0,0.0,0.0,0.0,0.0,0.0
100168857,100067232,6.2359314,-3.500998,-0.26248887,10.737793,-5.6422577,0.0,0.0,0.0,0.0,0.0,0.0,0.0,0.0,-1.3435936,0.0,0.0,nan,0.0,0.0,0.012825251,0.0,0.0,0.0,0.0,0.0,0.0,0.0,0.0,0.0
100674214,100572428,6.1457324,-3.5727348,-0.20144875,13.828674,-7.41481,0.0,0.0,0.0,0.0,0.0,0.0,0.0,0.0,-1.2951298,0.0,0.0,nan,0.0,0.0,0.008345127,0.0,0.0,0.0,0.0,0.0,0.0,0.0,0.0,0.0
101169041,101067520,6.17511,-3.580322,-0.19920999,16.929688,-9.186813,0.0,0.0,0.0,0.0,0.0,0.0,0.0,0.0,-1.3997936,0.0,0.0,nan,0.0,0.0,0.012141943,0.0,0.0,0.0,0.0,0.0,0.0,0.0,0.0,0.0
101674287,101572715,6.27884,-3.4576468,-0.24566798,20.032928,-10.937393,0.0,0.0,0.0,0.0,0.0,0.0,0.0,0.0,-1.3042278,0.0,0.0,nan,0.0,0.0,-0.0026917458,0.0,0.0,0.0,0.0,0.0,0.0,0.0,0.0,0.0
102169526,102067807,6.2652864,-3.5302594,-0.18502223,23.15625,-12.682648,0.0,0.0,0.0,0.0,0.0,0.0,0.0,0.0,-1.6256218,0.0,0.0,nan,0.0,0.0,0.00954628,0.0,0.0,0.0,0.0,0.0,0.0,0.0,0.0,0.0
102674492,102573003,6.258391,-3.5264874,-0.14311138,26.292358,-14.425964,0.0,0.0,0.0,0.0,0.0,0.0,0.0,0.0,-1.6138325,0.0,0.0,nan,0.0,0.0,0.013196468,0.0,0.0,0.0,0.0,0.0,0.0,0.0,0.0,0.0
103169554,103068095,6.2257323,-3.5433452,-0.2098426,29.406189,-16.194061,0.0,0.0,0.0,0.0,0.0,0.0,0.0,0.0,-2.1043034,0.0,0.0,nan,0.0,0.0,0.011792183,0.0,0.0,0.0,0.0,0.0,0.0,0.0,0.0,0.0
103674753,103573291,6.2465057,-3.6482556,-0.24014574,32.508423,-17.990585,0.0,0.0,0.0,0.0,0.0,0.0,0.0,0.0,-2.0907593,0.0,0.0,nan,0.0,0.0,0.0071549416,0.0,0.0,0.0,0.0,0.0,0.0,0.0,0.0,0.0
104169871,104068383,6.242303,-3.6958241,-0.1672863,35.610443,-19.828918,0.0,0.0,0.0,0.0,0.0,0.0,0.0,0.0,-1.8260593,0.0,0.0,nan,0.0,0.0,0.013606548,0.0,0.0,0.0,0.0,0.0,0.0,0.0,0.0,0.0
104675068,104573579,6.2130075,-3.7742107,-0.17183794,38.712463,-21.712418,0.0,0.0,0.0,0.0,0.0,0.0,0.0,0.0,-1.7288513,0.0,0.0,nan,0.0,0.0,0.0036587715,0.0,0.0,0.0,0.0,0.0,0.0,0.0,0.0,0.0
105170200,105068671,6.1899676,-3.8280556,-0.30106452,41.81421,-23.613419,0.0,0.0,0.0,0.0,0.0,0.0,0.0,0.0,-2.298254,0.0,0.0,nan,0.0,0.0,0.0038616657,0.0,0.0,0.0,0.0,0.0,0.0,0.0,0.0,0.0
105665232,105563763,6.300031,-3.8127315,-0.22596149,44.938812,-25.512222,0.0,0.0,0.0,0.0,0.0,0.0,0.0,0.0,-2.3588486,0.0,0.0,nan,0.0,0.0,-0.0067014694,0.0,0.0,0.0,0.0,0.0,0.0,0.0,0.0,0.0
106170421,106068960,6.313538,-3.74805,-0.12941447,48.08545,-27.39647,0.0,0.0,0.0,0.0,0.0,0.0,0.0,0.0,-2.3537312,0.0,0.0,nan,0.0,0.0,-0.0047991276,0.0,0.0,0.0,0.0,0.0,0.0,0.0,0.0,0.0
106665584,106564052,6.291956,-3.6800601,-0.12913783,51.231873,-29.243713,0.0,0.0,0.0,0.0,0.0,0.0,0.0,0.0,-2.3966694,0.0,0.0,nan,0.0,0.0,-0.013932228,0.0,0.0,0.0,0.0,0.0,0.0,0.0,0.0,0.0
107171063,107069248,6.2628937,-3.6663244,-0.106976345,54.379333,-31.066498,0.0,0.0,0.0,0.0,0.0,0.0,0.0,0.0,-2.3648586,0.0,0.0,nan,0.0,0.0,-0.011684179,0.0,0.0,0.0,0.0,0.0,0.0,0.0,0.0,0.0
107675911,107574444,6.2710514,-3.620153,-0.16165936,57.526764,-32.87683,0.0,0.0,0.0,0.0,0.0,0.0,0.0,0.0,-2.378746,0.0,0.0,nan,0.0,0.0,-0.006201029,0.0,0.0,0.0,0.0,0.0,0.0,0.0,0.0,0.0
108171005,108069537,6.2468905,-3.6894357,-0.18149625,60.650543,-34.71031,0.0,0.0,0.0,0.0,0.0,0.0,0.0,0.0,-2.639677,0.0,0.0,nan,0.0,0.0,0.0010685921,0.0,0.0,0.0,0.0,0.0,0.0,0.0,0.0,0.0
108676309,108574732,6.29369,-3.666822,-0.21486735,63.773804,-36.548798,0.0,0.0,0.0,0.0,0.0,0.0,0.0,0.0,-2.5988045,0.0,0.0,nan,0.0,0.0,-0.0072226524,0.0,0.0,0.0,0.0,0.0,0.0,0.0,0.0,0.0
109171575,109069824,6.344792,-3.576365,-0.23937471,66.943695,-38.379883,0.0,0.0,0.0,0.0,0.0,0.0,0.0,0.0,-2.7459183,0.0,0.0,nan,0.0,0.0,-0.013365507,0.0,0.0,0.0,0.0,0.0,0.0,0.0,0.0,0.0
109666477,109564917,6.453727,-3.4660096,-0.20636156,70.14374,-40.15483,0.0,0.0,0.0,0.0,0.0,0.0,0.0,0.0,-2.8971443,0.0,0.0,nan,0.0,0.0,-0.019048214,0.0,0.0,0.0,0.0,0.0,0.0,0.0,0.0,0.0
110171688,110070113,6.5433035,-3.3548768,-0.15691073,73.403595,-41.842453,0.0,0.0,0.0,0.0,0.0,0.0,0.0,0.0,-2.7115192,0.0,0.0,nan,0.0,0.0,-0.013757229,0.0,0.0,0.0,0.0,0.0,0.0,0.0,0.0,0.0
110666757,110565205,6.529744,-3.3659883,-0.17524223,76.674225,-43.530884,0.0,0.0,0.0,0.0,0.0,0.0,0.0,0.0,-3.3774223,0.0,0.0,nan,0.0,0.0,-0.00460577,0.0,0.0,0.0,0.0,0.0,0.0,0.0,0.0,0.0
111171920,111070402,6.4625983,-3.4577425,-0.1560419,79.920044,-45.25937,0.0,0.0,0.0,0.0,0.0,0.0,0.0,0.0,-2.859871,0.0,0.0,nan,0.0,0.0,-0.00055003166,0.0,0.0,0.0,0.0,0.0,0.0,0.0,0.0,0.0
111667012,111565494,6.381494,-3.5344057,-0.1437741,83.12372,-47.018646,0.0,0.0,0.0,0.0,0.0,0.0,0.0,0.0,-3.4251823,0.0,0.0,nan,0.0,0.0,0.0048503876,0.0,0.0,0.0,0.0,0.0,0.0,0.0,0.0,0.0
112172177,112070691,6.380488,-3.5553443,-0.20065217,86.30286,-48.790283,0.0,0.0,0.0,0.0,0.0,0.0,0.0,0.0,-3.1543732,0.0,0.0,nan,0.0,0.0,0.003348112,0.0,0.0,0.0,0.0,0.0,0.0,0.0,0.0,0.0
112667579,112565783,6.346227,-3.600503,-0.11334689,89.49344,-50.57814,0.0,0.0,0.0,0.0,0.0,0.0,0.0,0.0,-3.0553894,0.0,0.0,nan,0.0,0.0,0.00067043304,0.0,0.0,0.0,0.0,0.0,0.0,0.0,0.0,0.0
113172638,113070979,6.3584166,-3.566609,-0.21038575,1.8664551,-1.0458679,0.0,0.0,0.0,0.0,0.0,0.0,0.0,0.0,-3.2029037,0.0,0.0,nan,0.0,0.0,-0.0016100407,0.0,0.0,0.0,0.0,0.0,0.0,0.0,0.0,0.0
113667718,113566072,6.3985095,-3.5573373,-0.19583084,4.373413,-2.4335632,0.0,0.0,0.0,0.0,0.0,0.0,0.0,0.0,-3.3497849,0.0,0.0,nan,0.0,0.0,-0.005947113,0.0,0.0,0.0,0.0,0.0,0.0,0.0,0.0,0.0
114172868,114071268,6.444717,-3.5541887,-0.16664936,7.5982666,-4.203186,0.0,0.0,0.0,0.0,0.0,0.0,0.0,0.0,-3.5817833,0.0,0.0,nan,0.0,0.0,0.0022892952,0.0,0.0,0.0,0.0,0.0,0.0,0.0,0.0,0.0
114667907,114566361,6.4121895,-3.588885,-0.17302941,10.811798,-5.9804077,0.0,0.0,0.0,0.0,0.0,0.0,0.0,0.0,-3.8100166,0.0,0.0,nan,0.0,0.0,0.0031211376,0.0,0.0,0.0,0.0,0.0,0.0,0.0,0.0,0.0
115173155,115071557,6.4318404,-3.6710658,-0.17975046,14.025482,-7.7846985,0.0,0.0,0.0,0.0,0.0,0.0,0.0,0.0,-3.5410767,0.0,0.0,nan,0.0,0.0,0.002011776,0.0,0.0,0.0,0.0,0.0,0.0,0.0,0.0,0.0
115668119,115566650,6.4658465,-3.6486626,-0.103846304,17.238892,-9.598694,0.0,0.0,0.0,0.0,0.0,0.0,0.0,0.0,-3.5234547,0.0,0.0,nan,0.0,0.0,-0.0004043579,0.0,0.0,0.0,0.0,0.0,0.0,0.0,0.0,0.0
116173367,116071846,6.4850507,-3.4910786,-0.1635666,20.474976,-11.384033,0.0,0.0,0.0,0.0,0.0,0.0,0.0,0.0,-3.5739574,0.0,0.0,nan,0.0,0.0,-0.009750605,0.0,0.0,0.0,0.0,0.0,0.0,0.0,0.0,0.0
116668409,116566939,6.532148,-3.3499117,-0.094503775,23.743378,-13.095367,0.0,0.0,0.0,0.0,0.0,0.0,0.0,0.0,-3.619978,0.0,0.0,nan,0.0,0.0,-0.013449192,0.0,0.0,0.0,0.0,0.0,0.0,0.0,0.0,0.0
117173759,117072136,6.561343,-3.3159404,-0.14932033,27.023315,-14.744232,0.0,0.0,0.0,0.0,0.0,0.0,0.0,0.0,-3.6747932,0.0,0.0,nan,0.0,0.0,-0.01000762,0.0,0.0,0.0,0.0,0.0,0.0,0.0,0.0,0.0
117668771,117567228,6.504473,-3.3614924,-0.15389767,30.304657,-16.417206,0.0,0.0,0.0,0.0,0.0,0.0,0.0,0.0,-3.6735973,0.0,0.0,nan,0.0,0.0,0.0046052933,0.0,0.0,0.0,0.0,0.0,0.0,0.0,0.0,0.0
118174118,118072425,6.4266644,-3.4549856,-0.15838368,34.33023,-18.576782,0.0,0.0,0.0,0.0,0.0,0.0,0.0,0.0,-3.9403172,0.0,0.0,nan,0.0,0.0,0.01211524,0.0,0.0,0.0,0.0,0.0,0.0,0.0,0.0,0.0
118669177,118567519,6.3514314,-3.5217001,-0.208931,36.731323,-19.879852,0.0,0.0,0.0,0.0,0.0,0.0,0.0,0.0,-3.8102837,0.0,0.0,nan,0.0,0.0,0.007999897,0.0,0.0,0.0,0.0,0.0,0.0,0.0,0.0,0.0
119174302,119072714,6.3800893,-3.4737487,-0.14685029,40.71231,-22.091827,0.0,0.0,0.0,0.0,0.0,0.0,0.0,0.0,-3.9689732,0.0,0.0,nan,0.0,0.0,0.0091741085,0.0,0.0,0.0,0.0,0.0,0.0,0.0,0.0,0.0
119669457,119567807,6.371533,-3.5176346,-0.105279215,43.102722,-23.410492,0.0,0.0,0.0,0.0,0.0,0.0,0.0,0.0,-4.005718,0.0,0.0,nan,0.0,0.0,-0.0006043911,0.0,0.0,0.0,0.0,0.0,0.0,0.0,0.0,0.0
120174578,120073004,6.278657,-3.4687667,-0.11839541,46.259705,-25.147034,0.0,0.0,0.0,0.0,0.0,0.0,0.0,0.0,-3.9468079,0.0,0.0,nan,0.0,0.0,0.0016999245,0.0,0.0,0.0,0.0,0.0,0.0,0.0,0.0,0.0
120669558,120568097,6.2681146,-3.3267732,-0.18745121,49.418365,-26.828613,0.0,0.0,0.0,0.0,0.0,0.0,0.0,0.0,-4.1409416,0.0,0.0,nan,0.0,0.0,-0.004585743,0.0,0.0,0.0,0.0,0.0,0.0,0.0,0.0,0.0
121174755,121073294,6.250902,-3.169812,-0.13543056,52.564117,-28.44461,0.0,0.0,0.0,0.0,0.0,0.0,0.0,0.0,-3.8695736,0.0,0.0,nan,0.0,0.0,-0.008708,0.0,0.0,0.0,0.0,0.0,0.0,0.0,0.0,0.0
121669909,121568386,6.254414,-3.1182816,-0.14126645,55.71176,-30.00476,0.0,0.0,0.0,0.0,0.0,0.0,0.0,0.0,-4.01227,0.0,0.0,nan,0.0,0.0,0.006059408,0.0,0.0,0.0,0.0,0.0,0.0,0.0,0.0,0.0
122175057,122073583,6.191821,-3.1528432,-0.12080948,58.84796,-31.569458,0.0,0.0,0.0,0.0,0.0,0.0,0.0,0.0,-3.9876385,0.0,0.0,nan,0.0,0.0,0.015975475,0.0,0.0,0.0,0.0,0.0,0.0,0.0,0.0,0.0
122670698,122568676,6.0403914,-3.3338459,-0.07430512,61.91577,-33.18698,0.0,0.0,0.0,0.0,0.0,0.0,0.0,0.0,-4.21418,0.0,0.0,nan,0.0,0.0,0.025033474,0.0,0.0,0.0,0.0,0.0,0.0,0.0,0.0,0.0
123165235,123063769,5.936293,-3.33444,-0.06236534,64.90793,-34.8432,0.0,0.0,0.0,0.0,0.0,0.0,0.0,0.0,-4.1090107,0.0,0.0,nan,0.0,0.0,0.013614655,0.0,0.0,0.0,0.0,0.0,0.0,0.0,0.0,0.0
123670450,123568966,5.83847,-3.282016,-0.17336698,67.87692,-36.50052,0.0,0.0,0.0,0.0,0.0,0.0,0.0,0.0,-4.001566,0.0,0.0,nan,0.0,0.0,0.014997244,0.0,0.0,0.0,0.0,0.0,0.0,0.0,0.0,0.0
124165734,124064059,5.7745547,-3.2532644,-0.11888808,70.81229,-38.1398,0.0,0.0,0.0,0.0,0.0,0.0,0.0,0.0,-4.4801826,0.0,0.0,nan,0.0,0.0,0.006559849,0.0,0.0,0.0,0.0,0.0,0.0,0.0,0.0,0.0
124670789,124569256,5.7541246,-3.175093,-0.14231579,73.7146,-39.745087,0.0,0.0,0.0,0.0,0.0,0.0,0.0,0.0,-4.5386276,0.0,0.0,nan,0.0,0.0,0.000991106,0.0,0.0,0.0,0.0,0.0,0.0,0.0,0.0,0.0
125176058,125074453,5.677166,-3.1123114,-0.18823044,76.59088,-41.326233,0.0,0.0,0.0,0.0,0.0,0.0,0.0,0.0,-4.2348614,0.0,0.0,nan,0.0,0.0,0.009959221,0.0,0.0,0.0,0.0,0.0,0.0,0.0,0.0,0.0
125671034,125569546,5.5932884,-3.0704284,-0.1385483,79.39404,-42.875,0.0,0.0,0.0,0.0,0.0,0.0,0.0,0.0,-4.5938625,0.0,0.0,nan,0.0,0.0,0.007757187,0.0,0.0,0.0,0.0,0.0,0.0,0.0,0.0,0.0
126176264,126074743,5.6138864,-3.1016533,-0.16716152,82.20212,-44.428864,0.0,0.0,0.0,0.0,0.0,0.0,0.0,0.0,-4.4025574,0.0,0.0,nan,0.0,0.0,0.0137450695,0.0,0.0,0.0,0.0,0.0,0.0,0.0,0.0,0.0
126671320,126569836,5.5256157,-3.0390494,-0.15478033,85.00571,-45.965057,0.0,0.0,0.0,0.0,0.0,0.0,0.0,0.0,-4.234461,0.0,0.0,nan,0.0,0.0,0.012570858,0.0,0.0,0.0,0.0,0.0,0.0,0.0,0.0,0.0
127166393,127064931,5.458555,-3.0190682,-0.09849132,87.76279,-47.47162,0.0,0.0,0.0,0.0,0.0,0.0,0.0,0.0,-4.7539654,0.0,0.0,nan,0.0,0.0,0.016377926,0.0,0.0,0.0,0.0,0.0,0.0,0.0,0.0,0.0
127671681,127570128,0.01493597,-0.020979881,-0.07159974,0.08239746,-0.039855957,0.0,0.0,0.0,0.0,0.0,0.0,0.0,0.0,-4.2396603,0.0,0.0,nan,0.0,0.0,0.007091522,0.0,0.0,0.0,0.0,0.0,0.0,0.0,0.0,0.0
128167228,128065220,-0.08565378,0.008797884,0.07548836,0.015136719,0.001159668,0.0,0.0,0.0,0.0,0.0,0.0,0.0,0.0,-4.196003,0.0,0.0,nan,0.0,0.0,0.010576963,0.0,0.0,0.0,0.0,0.0,0.0,0.0,0.0,0.0
128671879,128570417,-0.16873074,0.051389694,0.07348661,-0.034118652,0.029510498,0.0,0.0,0.0,0.0,0.0,0.0,0.0,0.0,-4.2084103,0.0,0.0,nan,0.0,0.0,0.007351637,0.0,0.0,0.0,0.0,0.0,0.0,0.0,0.0,0.0
129167103,129065510,-0.10869217,0.048159838,0.17448156,-0.013183594,0.015930176,0.0,0.0,0.0,0.0,0.0,0.0,0.0,0.0,-4.135391,0.0,0.0,nan,0.0,0.0,0.00621891,0.0,0.0,0.0,0.0,0.0,0.0,0.0,0.0,0.0
129672232,129570707,-0.11675644,0.047255993,0.24544363,-0.061828613,0.033294678,0.0,0.0,0.0,0.0,0.0,0.0,0.0,0.0,-3.594061,0.0,0.0,nan,0.0,0.0,0.0070648193,0.0,0.0,0.0,0.0,0.0,0.0,0.0,0.0,0.0
130167324,130065801,-0.09380674,0.049071074,0.21123633,-0.041381836,0.030548096,0.0,0.0,0.0,0.0,0.0,0.0,0.0,0.0,-2.9020061,0.0,0.0,nan,0.0,0.0,0.02031374,0.0,0.0,0.0,0.0,0.0,0.0,0.0,0.0,0.0
130672516,130570998,-0.12440586,0.03537035,0.25146168,-0.07501221,0.0491333,0.0,0.0,0.0,0.0,0.0,0.0,0.0,0.0,-3.107891,0.0,0.0,nan,0.0,0.0,0.01669693,0.0,0.0,0.0,0.0,0.0,0.0,0.0,0.0,0.0
131167551,131066091,-0.090312004,0.053694963,0.2714407,-0.04901123,0.038726807,0.0,0.0,0.0,0.0,0.0,0.0,0.0,0.0,-3.3748531,0.0,0.0,nan,0.0,0.0,0.020157576,0.0,0.0,0.0,0.0,0.0,0.0,0.0,0.0,0.0
131672779,131571288,-0.10615444,0.029077053,0.31885502,-0.03527832,0.029693604,0.0,0.0,0.0,0.0,0.0,0.0,0.0,0.0,-3.22328,0.0,0.0,nan,0.0,0.0,0.014477491,0.0,0.0,0.0,0.0,0.0,0.0,0.0,0.0,0.0
132167894,132066383,-0.066795826,0.028397799,0.31349754,-0.05529785,0.042236328,0.0,0.0,0.0,0.0,0.0,0.0,0.0,0.0,-2.733408,0.0,0.0,nan,0.0,0.0,0.020290852,0.0,0.0,0.0,0.0,0.0,0.0,0.0,0.0,0.0
132673148,132571579,-0.043002605,0.007035017,0.2757451,-0.01574707,0.034179688,0.0,0.0,0.0,0.0,0.0,0.0,0.0,0.0,-2.504387,0.0,0.0,nan,0.0,0.0,0.02334261,0.0,0.0,0.0,0.0,0.0,0.0,0.0,0.0,0.0
133168362,133066672,-0.0026006699,0.026916504,0.27546966,-0.042053223,0.050598145,0.0,0.0,0.0,0.0,0.0,0.0,0.0,0.0,-2.0418377,0.0,0.0,nan,0.0,0.0,0.024719,0.0,0.0,0.0,0.0,0.0,0.0,0.0,0.0,0.0
133673636,133571870,-0.04030037,-0.036647797,0.27339122,-0.011230469,0.03805542,0.0,0.0,0.0,0.0,0.0,0.0,0.0,0.0,-2.025837,0.0,0.0,nan,0.0,0.0,0.023999453,0.0,0.0,0.0,0.0,0.0,0.0,0.0,0.0,0.0
134168503,134066964,-0.0187881,-0.014245987,0.31977022,-0.033935547,0.045074463,0.0,0.0,0.0,0.0,0.0,0.0,0.0,0.0,-1.4273453,0.0,0.0,nan,0.0,0.0,0.02363205,0.0,0.0,0.0,0.0,0.0,0.0,0.0,0.0,0.0
134673709,134572161,-0.01991415,0.0026667118,0.23540534,-0.04260254,0.053619385,0.0,0.0,0.0,0.0,0.0,0.0,0.0,0.0,-1.8345032,0.0,0.0,nan,0.0,0.0,0.024552584,0.0,0.0,0.0,0.0,0.0,0.0,0.0,0.0,0.0
135168716,135067254,0.030705452,-0.023558617,0.27305898,-0.018737793,0.04385376,0.0,0.0,0.0,0.0,0.0,0.0,0.0,0.0,-1.2342567,0.0,0.0,nan,0.0,0.0,0.025359154,0.0,0.0,0.0,0.0,0.0,0.0,0.0,0.0,0.0
135673964,135572452,0.028760433,-0.0048975945,0.17106655,0.0031738281,0.027130127,0.0,0.0,0.0,0.0,0.0,0.0,0.0,0.0,-1.3165436,0.0,0.0,nan,0.0,0.0,0.02046895,0.0,0.0,0.0,0.0,0.0,0.0,0.0,0.0,0.0
136169068,136067546,0.022509336,-0.006673217,0.16608502,-0.016052246,0.043182373,0.0,0.0,0.0,0.0,0.0,0.0,0.0,0.0,-1.0467358,0.0,0.0,nan,0.0,0.0,0.0090510845,0.0,0.0,0.0,0.0,0.0,0.0,0.0,0.0,0.0
136674243,136572743,0.064525366,-0.031060576,0.19133762,0.00592041,0.0340271,0.0,0.0,0.0,0.0,0.0,0.0,0.0,0.0,-0.9173107,0.0,0.0,nan,0.0,0.0,0.015095472,0.0,0.0,0.0,0.0,0.0,0.0,0.0,0.0,0.0
137169323,137067837,0.047395945,-0.05529082,0.2013979,-0.008483887,0.03265381,0.0,0.0,0.0,0.0,0.0,0.0,0.0,0.0,-0.8437176,0.0,0.0,nan,0.0,0.0,0.011847496,0.0,0.0,0.0,0.0,0.0,0.0,0.0,0.0,0.0
137664399,137562930,-0.0050201416,0.020202756,0.13123542,0.0057373047,0.025177002,0.0,0.0,0.0,0.0,0.0,0.0,0.0,0.0,-0.82281303,0.0,0.0,nan,0.0,0.0,0.010790348,0.0,0.0,0.0,0.0,0.0,0.0,0.0,0.0,0.0
138169611,138068128,0.056672096,-0.08138776,0.15158209,-0.0032348633,0.020812988,0.0,0.0,0.0,0.0,0.0,0.0,0.0,0.0,-0.76822853,0.0,0.0,nan,0.0,0.0,0.009994268,0.0,0.0,0.0,0.0,0.0,0.0,0.0,0.0,0.0
138674950,138573326,0.08718777,0.051582694,0.018664151,0.019714355,0.019012451,0.0,0.0,0.0,0.0,0.0,0.0,0.0,0.0,-0.8623829,0.0,0.0,nan,0.0,0.0,0.014094353,0.0,0.0,0.0,0.0,0.0,0.0,0.0,0.0,0.0
139170073,139068419,0.06818533,-0.06244552,-0.048259094,0.012634277,0.016662598,0.0,0.0,0.0,0.0,0.0,0.0,0.0,0.0,-0.57003593,0.0,0.0,nan,0.0,0.0,0.021233082,0.0,0.0,0.0,0.0,0.0,0.0,0.0,0.0,0.0
139675142,139573617,0.049610138,-0.04397893,0.07641715,0.003967285,0.03366089,0.0,0.0,0.0,0.0,0.0,0.0,0.0,0.0,-0.5623894,0.0,0.0,nan,0.0,0.0,0.016064882,0.0,0.0,0.0,0.0,0.0,0.0,0.0,0.0,0.0
140170284,140068711,0.056571007,-0.037744045,0.020999381,0.021118164,0.021087646,0.0,0.0,0.0,0.0,0.0,0.0,0.0,0.0,-0.40763092,0.0,0.0,nan,0.0,0.0,0.019695997,0.0,0.0,0.0,0.0,0.0,0.0,0.0,0.0,0.0
140665361,140563804,0.069901705,-0.015854716,0.036180835,0.032165527,0.022827148,0.0,0.0,0.0,0.0,0.0,0.0,0.0,0.0,-0.60868645,0.0,0.0,nan,0.0,0.0,0.017898798,0.0,0.0,0.0,0.0,0.0,0.0,0.0,0.0,0.0
141170533,141069002,0.04562378,-0.059425235,-0.018517016,0.01940918,0.027160645,0.0,0.0,0.0,0.0,0.0,0.0,0.0,0.0,-0.49429703,0.0,0.0,nan,0.0,0.0,0.024265528,0.0,0.0,0.0,0.0,0.0,0.0,0.0,0.0,0.0
141665613,141564096,0.05265975,-0.07564521,0.024684312,0.03845215,0.0132751465,0.0,0.0,0.0,0.0,0.0,0.0,0.0,0.0,-0.21732521,0.0,0.0,nan,0.0,0.0,0.022617579,0.0,0.0,0.0,0.0,0.0,0.0,0.0,0.0,0.0
142170773,142069294,0.012102604,0.018782496,-0.022254936,0.014831543,0.024841309,0.0,0.0,0.0,0.0,0.0,0.0,0.0,0.0,-0.4365101,0.0,0.0,nan,0.0,0.0,0.024042606,0.0,0.0,0.0,0.0,0.0,0.0,0.0,0.0,0.0
142675979,142574492,0.038253546,-0.044139147,-0.0254188,0.026733398,0.01171875,0.0,0.0,0.0,0.0,0.0,0.0,0.0,0.0,-0.07906532,0.0,0.0,nan,0.0,0.0,0.02290392,0.0,0.0,0.0,0.0,0.0,0.0,0.0,0.0,0.0
143171290,143069586,0.056933165,-0.06137061,-0.009212175,0.011474609,0.012023926,0.0,0.0,0.0,0.0,0.0,0.0,0.0,0.0,-0.043539047,0.0,0.0,nan,0.0,0.0,0.025963306,0.0,0.0,0.0,0.0,0.0,0.0,0.0,0.0,0.0
143677370,143574783,0.07607007,-0.053219557,-0.04655581,0.0289917,0.00018310547,0.0,0.0,0.0,0.0,0.0,0.0,0.0,0.0,0.3035946,0.0,0.0,nan,0.0,0.0,0.02570033,0.0,0.0,0.0,0.0,0.0,0.0,0.0,0.0,0.0
144171424,144069877,-0.010845423,-0.036167502,-0.015350619,0.00079345703,0.011871338,0.0,0.0,0.0,0.0,0.0,0.0,0.0,0.0,0.23282242,0.0,0.0,nan,0.0,0.0,0.02211237,0.0,0.0,0.0,0.0,0.0,0.0,0.0,0.0,0.0
144666453,144564971,0.044378996,-0.015596867,-0.022173885,0.015075684,0.0032653809,0.0,0.0,0.0,0.0,0.0,0.0,0.0,0.0,-0.17341614,0.0,0.0,nan,0.0,0.0,0.027559519,0.0,0.0,0.0,0.0,0.0,0.0,0.0,0.0,0.0
145171688,145070169,0.027525663,-0.03764844,-0.025437627,-0.0018310547,0.015563965,0.0,0.0,0.0,0.0,0.0,0.0,0.0,0.0,-0.13021278,0.0,0.0,nan,0.0,0.0,0.027570724,0.0,0.0,0.0,0.0,0.0,0.0,0.0,0.0,0.0
145666759,145565264,0.062429905,-0.04282081,-0.03166099,-0.004638672,0.024505615,0.0,0.0,0.0,0.0,0.0,0.0,0.0,0.0,-0.07402611,0.0,0.0,nan,0.0,0.0,0.020669937,0.0,0.0,0.0,0.0,0.0,0.0,0.0,0.0,0.0
146171983,146070461,0.021371841,-0.04645008,0.0115186535,0.020263672,0.027862549,0.0,0.0,0.0,0.0,0.0,0.0,0.0,0.0,0.014719009,0.0,0.0,nan,0.0,0.0,0.018379688,0.0,0.0,0.0,0.0,0.0,0.0,0.0,0.0,0.0
146677475,146575659,0.042349458,-0.015145719,-0.05041592,0.047729492,0.027648926,0.0,0.0,0.0,0.0,0.0,0.0,0.0,0.0,-0.09391594,0.0,0.0,nan,0.0,0.0,0.014225006,0.0,0.0,0.0,0.0,0.0,0.0,0.0,0.0,0.0
147172215,147070758,0.04853499,-0.075811505,0.007976677,0.026367188,0.037994385,0.0,0.0,0.0,0.0,0.0,0.0,0.0,0.0,-0.055250168,0.0,0.0,nan,0.0,0.0,0.014320135,0.0,0.0,0.0,0.0,0.0,0.0,0.0,0.0,0.0
147667320,147565848,0.028990865,-0.062330723,-0.028312834,0.034362793,0.027557373,0.0,0.0,0.0,0.0,0.0,0.0,0.0,0.0,-0.1571064,0.0,0.0,nan,0.0,0.0,0.0153102875,0.0,0.0,0.0,0.0,0.0,0.0,0.0,0.0,0.0
148172585,148071046,0.0511446,-0.068784595,0.028251827,0.043762207,0.025238037,0.0,0.0,0.0,0.0,0.0,0.0,0.0,0.0,-0.17903519,0.0,0.0,nan,0.0,0.0,0.018890858,0.0,0.0,0.0,0.0,0.0,0.0,0.0,0.0,0.0
148667882,148566140,-0.017822146,-0.028280258,-0.06416508,0.03253174,0.027404785,0.0,0.0,0.0,0.0,0.0,0.0,0.0,0.0,-0.18554497,0.0,0.0,nan,0.0,0.0,0.0126748085,0.0,0.0,0.0,0.0,0.0,0.0,0.0,0.0,0.0
149173260,149071338,0.07972872,-0.04223019,-0.03851783,0.053894043,0.018493652,0.0,0.0,0.0,0.0,0.0,0.0,0.0,0.0,0.008529663,0.0,0.0,nan,0.0,0.0,0.017188787,0.0,0.0,0.0,0.0,0.0,0.0,0.0,0.0,0.0
149667949,149566432,-0.012661338,-0.046823382,-0.034953423,0.028076172,0.023803711,0.0,0.0,0.0,0.0,0.0,0.0,0.0,0.0,-0.5723572,0.0,0.0,nan,0.0,0.0,0.018254757,0.0,0.0,0.0,0.0,0.0,0.0,0.0,0.0,0.0
150173122,150071631,0.0095796585,-0.024003088,-0.07216279,0.04309082,0.013946533,0.0,0.0,0.0,0.0,0.0,0.0,0.0,0.0,-0.06951332,0.0,0.0,nan,0.0,0.0,0.014297485,0.0,0.0,0.0,0.0,0.0,0.0,0.0,0.0,0.0
150668199,150566725,0.039776087,-0.07366645,-0.00632317,0.02355957,0.016571045,0.0,0.0,0.0,0.0,0.0,0.0,0.0,0.0,-0.31166267,0.0,0.0,nan,0.0,0.0,0.0106630325,0.0,0.0,0.0,0.0,0.0,0.0,0.0,0.0,0.0
151173410,151071924,-0.009661198,-0.021607518,-0.091854155,0.030273438,0.007873535,0.0,0.0,0.0,0.0,0.0,0.0,0.0,0.0,0.031736374,0.0,0.0,nan,0.0,0.0,0.012150526,0.0,0.0,0.0,0.0,0.0,0.0,0.0,0.0,0.0
151668539,151567017,0.017964363,-0.025845349,0.0017969459,0.012512207,0.006439209,0.0,0.0,0.0,0.0,0.0,0.0,0.0,0.0,0.20614433,0.0,0.0,nan,0.0,0.0,0.0109221935,0.0,0.0,0.0,0.0,0.0,0.0,0.0,0.0,0.0
152173761,152072216,0.0066746473,-0.068838656,0.02233099,-0.005065918,0.0012207031,0.0,0.0,0.0,0.0,0.0,0.0,0.0,0.0,-0.122299194,0.0,0.0,nan,0.0,0.0,0.013255119,0.0,0.0,0.0,0.0,0.0,0.0,0.0,0.0,0.0
152668780,152567310,-0.0025857687,-0.050174475,-0.025766538,0.0008544922,-0.0079956055,0.0,0.0,0.0,0.0,0.0,0.0,0.0,0.0,-0.109313965,0.0,0.0,nan,0.0,0.0,0.0102620125,0.0,0.0,0.0,0.0,0.0,0.0,0.0,0.0,0.0
153173975,153072509,0.06860614,-0.04923296,-0.052610934,0.007385254,-0.016052246,0.0,0.0,0.0,0.0,0.0,0.0,0.0,0.0,0.054138184,0.0,0.0,nan,0.0,0.0,0.006837845,0.0,0.0,0.0,0.0,0.0,0.0,0.0,0.0,0.0
153669185,153567603,0.038487077,-0.034414053,0.034314044,-0.0017700195,-0.012054443,0.0,0.0,0.0,0.0,0.0,0.0,0.0,0.0,-0.3736019,0.0,0.0,nan,0.0,0.0,0.0026872158,0.0,0.0,0.0,0.0,0.0,0.0,0.0,0.0,0.0
154174628,154072801,-0.013191104,0.015318394,-0.06684023,-0.00018310547,-0.014434814,0.0,0.0,0.0,0.0,0.0,0.0,0.0,0.0,0.056619644,0.0,0.0,nan,0.0,0.0,0.0033085346,0.0,0.0,0.0,0.0,0.0,0.0,0.0,0.0,0.0
154669555,154567895,0.045126915,0.011387289,-0.036204606,0.005554199,-0.0030822754,0.0,0.0,0.0,0.0,0.0,0.0,0.0,0.0,0.039958954,0.0,0.0,nan,0.0,0.0,0.008916855,0.0,0.0,0.0,0.0,0.0,0.0,0.0,0.0,0.0
155164514,155062991,0.058427453,-0.018801808,0.01586937,0.020690918,0.002166748,0.0,0.0,0.0,0.0,0.0,0.0,0.0,0.0,-0.030168533,0.0,0.0,nan,0.0,0.0,-0.0043611526,0.0,0.0,0.0,0.0,0.0,0.0,0.0,0.0,0.0
155669713,155568190,0.7059703,-0.3675083,0.01566538,0.80133057,-0.41238403,0.0,0.0,0.0,0.0,0.0,0.0,0.0,0.0,0.14714432,0.0,0.0,nan,0.0,0.0,0.013322592,0.0,0.0,0.0,0.0,0.0,0.0,0.0,0.0,0.0
156174926,156073387,0.5839871,-0.30252883,0.0014405511,1.0710449,-0.5132446,0.0,0.0,0.0,0.0,0.0,0.0,0.0,0.0,0.055747986,0.0,0.0,nan,0.0,0.0,0.008763075,0.0,0.0,0.0,0.0,0.0,0.0,0.0,0.0,0.0
156670191,156568482,0.5221866,-0.25449544,-0.03886894,1.2653809,-0.56973267,0.0,0.0,0.0,0.0,0.0,0.0,0.0,0.0,0.0027256012,0.0,0.0,nan,0.0,0.0,0.011153221,0.0,0.0,0.0,0.0,0.0,0.0,0.0,0.0,0.0
157175457,157073680,0.356836,-0.13635828,0.011119272,1.4021606,-0.61053467,0.0,0.0,0.0,0.0,0.0,0.0,0.0,0.0,0.053159714,0.0,0.0,nan,0.0,0.0,0.017344713,0.0,0.0,0.0,0.0,0.0,0.0,0.0,0.0,0.0
157670296,157568775,0.32763323,-0.14459693,-0.04859426,1.4371948,-0.603302,0.0,0.0,0.0,0.0,0.0,0.0,0.0,0.0,-0.07983017,0.0,0.0,nan,0.0,0.0,0.014266729,0.0,0.0,0.0,0.0,0.0,0.0,0.0,0.0,0.0
158165397,158063869,0.21336754,-0.10086866,0.012942841,1.4628296,-0.58740234,0.0,0.0,0.0,0.0,0.0,0.0,0.0,0.0,0.0061397552,0.0,0.0,nan,0.0,0.0,0.020110846,0.0,0.0,0.0,0.0,0.0,0.0,0.0,0.0,0.0
158670652,158569068,0.16281609,-0.057060376,-0.00071318774,1.4517822,-0.5599365,0.0,0.0,0.0,0.0,0.0,0.0,0.0,0.0,0.06519127,0.0,0.0,nan,0.0,0.0,0.016847134,0.0,0.0,0.0,0.0,0.0,0.0,0.0,0.0,0.0
159166216,159064162,0.098000035,-0.022392126,-0.0516428,1.404419,-0.5307007,0.0,0.0,0.0,0.0,0.0,0.0,0.0,0.0,0.01763916,0.0,0.0,nan,0.0,0.0,0.015733957,0.0,0.0,0.0,0.0,0.0,0.0,0.0,0.0,0.0
159670897,159569361,-0.07283419,0.021265084,-0.040693767,1.3214722,-0.47854614,0.0,0.0,0.0,0.0,0.0,0.0,0.0,0.0,0.0974884,0.0,0.0,nan,0.0,0.0,0.019815445,0.0,0.0,0.0,0.0,0.0,0.0,0.0,0.0,0.0
160165923,160064456,-0.015303556,0.005025157,-0.0014338283,1.2353516,-0.43096924,0.0,0.0,0.0,0.0,0.0,0.0,0.0,0.0,-0.15298843,0.0,0.0,nan,0.0,0.0,0.013306141,0.0,0.0,0.0,0.0,0.0,0.0,0.0,0.0,0.0
160671152,160569655,0.022924066,0.013721177,-0.028595507,1.1589966,-0.38775635,0.0,0.0,0.0,0.0,0.0,0.0,0.0,0.0,-0.0741272,0.0,0.0,nan,0.0,0.0,0.011075735,0.0,0.0,0.0,0.0,0.0,0.0,0.0,0.0,0.0
161176807,161074853,-0.004477953,0.0050063515,-0.059544425,1.0895996,-0.35220337,0.0,0.0,0.0,0.0,0.0,0.0,0.0,0.0,-0.24107933,0.0,0.0,nan,0.0,0.0,0.0047495365,0.0,0.0,0.0,0.0,0.0,0.0,0.0,0.0,0.0
161671519,161569948,0.019838952,-3.3079647e-05,0.016875807,1.0576172,-0.32128906,0.0,0.0,0.0,0.0,0.0,0.0,0.0,0.0,0.09296417,0.0,0.0,nan,0.0,0.0,0.0055003166,0.0,0.0,0.0,0.0,0.0,0.0,0.0,0.0,0.0
162166537,162065043,-0.041352548,0.0056911255,-0.0015414483,1.0140381,-0.2962036,0.0,0.0,0.0,0.0,0.0,0.0,0.0,0.0,0.17909431,0.0,0.0,nan,0.0,0.0,0.0066268444,0.0,0.0,0.0,0.0,0.0,0.0,0.0,0.0,0.0
162671708,162570242,0.0022284896,-0.0034488346,-0.02421234,0.9655762,-0.27304077,0.0,0.0,0.0,0.0,0.0,0.0,0.0,0.0,-0.07235718,0.0,0.0,nan,0.0,0.0,-0.004569769,0.0,0.0,0.0,0.0,0.0,0.0,0.0,0.0,0.0
163166887,163065336,0.0052282987,-0.014040705,0.055788454,0.94226074,-0.24353027,0.0,0.0,0.0,0.0,0.0,0.0,0.0,0.0,0.09479332,0.0,0.0,nan,0.0,0.0,0.0008738041,0.0,0.0,0.0,0.0,0.0,0.0,0.0,0.0,0.0
163672291,163570535,-0.02476496,-0.0076898113,-0.002980598,0.90075684,-0.22436523,0.0,0.0,0.0,0.0,0.0,0.0,0.0,0.0,0.26096535,0.0,0.0,nan,0.0,0.0,0.000538826,0.0,0.0,0.0,0.0,0.0,0.0,0.0,0.0,0.0
164167136,164065630,-0.011117709,-0.010757876,0.0038747063,0.87371826,-0.20632935,0.0,0.0,0.0,0.0,0.0,0.0,0.0,0.0,0.06338692,0.0,0.0,nan,0.0,0.0,0.0059762,0.0,0.0,0.0,0.0,0.0,0.0,0.0,0.0,0.0
164672765,164570829,0.044269603,0.005241162,-0.025927797,0.83862305,-0.18093872,0.0,0.0,0.0,0.0,0.0,0.0,0.0,0.0,-0.0879364,0.0,0.0,nan,0.0,0.0,0.00053691864,0.0,0.0,0.0,0.0,0.0,0.0,0.0,0.0,0.0
165167440,165065924,0.0055580656,0.02853415,0.021089617,0.81677246,-0.1560669,0.0,0.0,0.0,0.0,0.0,0.0,0.0,0.0,0.020317078,0.0,0.0,nan,0.0,0.0,0.0009469986,0.0,0.0,0.0,0.0,0.0,0.0,0.0,0.0,0.0
165672644,165571123,0.013870217,0.014429942,0.04648437,0.8087158,-0.13296509,0.0,0.0,0.0,0.0,0.0,0.0,0.0,0.0,0.056947708,0.0,0.0,nan,0.0,0.0,-1.4543533e-05,0.0,0.0,0.0,0.0,0.0,0.0,0.0,0.0,0.0
166168076,166066218,0.017679967,-0.015929082,-0.045345217,0.789917,-0.11151123,0.0,0.0,0.0,0.0,0.0,0.0,0.0,0.0,-0.023824692,0.0,0.0,nan,0.0,0.0,-0.0021774769,0.0,0.0,0.0,0.0,0.0,0.0,0.0,0.0,0.0
166673256,166571417,0.011309295,0.022320831,0.06902189,0.7666626,-0.0975647,0.0,0.0,0.0,0.0,0.0,0.0,0.0,0.0,0.0048656464,0.0,0.0,nan,0.0,0.0,0.0048236847,0.0,0.0,0.0,0.0,0.0,0.0,0.0,0.0,0.0
167168066,167066512,-0.026508853,0.02872576,-0.03291986,0.7462158,-0.087768555,0.0,0.0,0.0,0.0,0.0,0.0,0.0,0.0,-0.19253159,0.0,0.0,nan,0.0,0.0,0.006934881,0.0,0.0,0.0,0.0,0.0,0.0,0.0,0.0,0.0
167673179,167571711,0.0030636129,0.027330628,-0.0025183745,0.72198486,-0.065826416,0.0,0.0,0.0,0.0,0.0,0.0,0.0,0.0,-0.058851242,0.0,0.0,nan,0.0,0.0,0.0012965202,0.0,0.0,0.0,0.0,0.0,0.0,0.0,0.0,0.0
168168383,168066806,-0.0006827889,0.014030217,-0.04795271,0.7097168,-0.06338501,0.0,0.0,0.0,0.0,0.0,0.0,0.0,0.0,-0.10810661,0.0,0.0,nan,0.0,0.0,-0.00033473969,0.0,0.0,0.0,0.0,0.0,0.0,0.0,0.0,0.0
168673921,168572005,0.013562006,-0.0073655155,-0.004930152,0.68292236,-0.044006348,0.0,0.0,0.0,0.0,0.0,0.0,0.0,0.0,0.13298416,0.0,0.0,nan,0.0,0.0,-0.0018482208,0.0,0.0,0.0,0.0,0.0,0.0,0.0,0.0,0.0
169168638,169067100,-0.02096982,-0.0065894616,0.030665843,0.6781616,-0.0345459,0.0,0.0,0.0,0.0,0.0,0.0,0.0,0.0,0.0034389496,0.0,0.0,nan,0.0,0.0,-0.0021412373,0.0,0.0,0.0,0.0,0.0,0.0,0.0,0.0,0.0
169674387,169572299,-0.014544484,-0.018873302,-0.013562274,0.6535034,-0.033477783,0.0,0.0,0.0,0.0,0.0,0.0,0.0,0.0,0.0012588501,0.0,0.0,nan,0.0,0.0,0.00016999245,0.0,0.0,0.0,0.0,0.0,0.0,0.0,0.0,0.0
170169113,170067394,0.03978343,-0.0045992727,-0.0011970114,0.6397095,-0.04232788,0.0,0.0,0.0,0.0,0.0,0.0,0.0,0.0,-0.3358631,0.0,0.0,nan,0.0,0.0,-0.005363703,0.0,0.0,0.0,0.0,0.0,0.0,0.0,0.0,0.0
170674066,170572594,-0.017452933,-0.0008674237,0.04759271,0.6220093,-0.040649414,0.0,0.0,0.0,0.0,0.0,0.0,0.0,0.0,-0.08559227,0.0,0.0,nan,0.0,0.0,-0.002743721,0.0,0.0,0.0,0.0,0.0,0.0,0.0,0.0,0.0
171169178,171067689,0.03340542,0.014311358,0.003411237,0.60528564,-0.047546387,0.0,0.0,0.0,0.0,0.0,0.0,0.0,0.0,-0.00023078918,0.0,0.0,nan,0.0,0.0,-0.0103907585,0.0,0.0,0.0,0.0,0.0,0.0,0.0,0.0,0.0
171674441,171572888,-0.036782347,-0.0044320915,-0.018099176,0.5775757,-0.05618286,0.0,0.0,0.0,0.0,0.0,0.0,0.0,0.0,-0.33597946,0.0,0.0,nan,0.0,0.0,-0.005140066,0.0,0.0,0.0,0.0,0.0,0.0,0.0,0.0,0.0
172169490,172067983,0.027399125,0.0020611808,0.021033643,0.5631714,-0.06304932,0.0,0.0,0.0,0.0,0.0,0.0,0.0,0.0,-0.0022621155,0.0,0.0,nan,0.0,0.0,-0.002064228,0.0,0.0,0.0,0.0,0.0,0.0,0.0,0.0,0.0
172664615,172563078,0.0030653682,-0.019315694,0.022738704,0.5378418,-0.07052612,0.0,0.0,0.0,0.0,0.0,0.0,0.0,0.0,0.079257965,0.0,0.0,nan,0.0,0.0,-0.0047109127,0.0,0.0,0.0,0.0,0.0,0.0,0.0,0.0,0.0
173169802,173068278,-0.008013593,-0.012153184,0.0016525758,0.524292,-0.06915283,0.0,0.0,0.0,0.0,0.0,0.0,0.0,0.0,-0.0027446747,0.0,0.0,nan,0.0,0.0,-0.003746748,0.0,0.0,0.0,0.0,0.0,0.0,0.0,0.0,0.0
173675028,173573477,-0.030017488,-0.00733973,-0.028234446,0.51190186,-0.06732178,0.0,0.0,0.0,0.0,0.0,0.0,0.0,0.0,-0.088064194,0.0,0.0,nan,0.0,0.0,-0.0033812523,0.0,0.0,0.0,0.0,0.0,0.0,0.0,0.0,0.0
174170055,174068572,0.00913954,-0.017572736,0.0141379265,0.48901367,-0.06564331,0.0,0.0,0.0,0.0,0.0,0.0,0.0,0.0,0.020431519,0.0,0.0,nan,0.0,0.0,0.0025393963,0.0,0.0,0.0,0.0,0.0,0.0,0.0,0.0,0.0
174676340,174573772,0.02804046,0.0031838412,0.061483625,0.4751587,-0.054870605,0.0,0.0,0.0,0.0,0.0,0.0,0.0,0.0,0.13266182,0.0,0.0,nan,0.0,0.0,-0.0031321049,0.0,0.0,0.0,0.0,0.0,0.0,0.0,0.0,0.0
175170334,175068867,0.0029535794,-0.022257406,0.0444404,0.47857666,-0.0546875,0.0,0.0,0.0,0.0,0.0,0.0,0.0,0.0,0.029727936,0.0,0.0,nan,0.0,0.0,-0.0033590794,0.0,0.0,0.0,0.0,0.0,0.0,0.0,0.0,0.0
175665598,175563962,0.006922694,-0.013543081,0.00848057,0.456604,-0.06222534,0.0,0.0,0.0,0.0,0.0,0.0,0.0,0.0,-0.07509804,0.0,0.0,nan,0.0,0.0,0.0010516644,0.0,0.0,0.0,0.0,0.0,0.0,0.0,0.0,0.0
176170661,176069162,-0.004387656,-0.003391725,-0.02207219,0.4468994,-0.051696777,0.0,0.0,0.0,0.0,0.0,0.0,0.0,0.0,0.1002903,0.0,0.0,nan,0.0,0.0,0.0015585423,0.0,0.0,0.0,0.0,0.0,0.0,0.0,0.0,0.0
