timestamp,accel_device_id,gyro_device_id,accel_clipping[0],accel_clipping[1],accel_clipping[2],accel_error_count,gyro_error_count,accel_rate_hz,gyro_rate_hz,accel_raw_rate_hz,gyro_raw_rate_hz,accel_vibration_metric,gyro_vibration_metric,delta_angle_coning_metric,mean_accel[0],mean_accel[1],mean_accel[2],mean_gyro[0],mean_gyro[1],mean_gyro[2],var_accel[0],var_accel[1],var_accel[2],var_gyro[0],var_gyro[1],var_gyro[2],temperature_accel,temperature_gyro
17491686,3932170,3932170,0,0,0,0,0,400.27222,400.27222,4002.722,8005.444,0.0252525,0.0025836676,1.4468538e-11,-0.4230832,0.34772062,-9.983812,0.007671097,0.00340946,0.006300058,0.00033658027,0.0007721641,0.00030060692,2.5599352e-06,4.0166074e-06,1.4149978e-06,28.231327,28.231327
18540973,3932170,3932170,0,0,0,0,0,400.27222,400.27222,4002.722,8005.444,0.024467226,0.0026002931,1.6054533e-11,-0.42119393,0.33299527,-9.977122,0.010469628,0.00402379,0.0062048705,0.00033360787,0.0003256644,0.0005267774,1.7401451e-06,4.3413124e-06,1.6654117e-06,28.280285,28.280285
19485324,3932170,3932170,0,0,0,0,0,400.27222,400.27222,4002.722,8005.444,0.024840806,0.0025210346,1.5254187e-11,-0.42219836,0.32828796,-9.980454,0.008299754,0.0032112522,0.0068869223,0.00030156964,0.00024625234,0.0005160626,2.1673889e-06,3.3470978e-06,1.5689131e-06,28.084461,28.084461
20534604,3932170,3932170,0,0,0,0,0,400.27222,400.27222,4002.722,8005.444,0.026328728,0.00251807,1.5383996e-11,-0.4235187,0.33152226,-9.977946,0.008914776,0.0033492232,0.006931278,0.00024963738,0.000831394,0.0005509608,2.5233887e-06,4.0571285e-06,1.2194616e-06,28.231327,28.231327
21478956,3932170,3932170,0,0,0,0,0,400.27222,400.27222,4002.722,8005.444,0.025020987,0.0024326337,1.5414982e-11,-0.42942715,0.33178416,-9.977206,0.009742884,0.00331695,0.00630597,0.0003660907,0.000472701,0.00027636747,2.7445465e-06,4.567272e-06,1.3851505e-06,28.084461,28.084461
22528240,3932170,3932170,0,0,0,0,0,400.27222,400.27222,4002.722,8005.444,0.023432193,0.0024983077,1.6215867e-11,-0.42353287,0.32451352,-9.97817,0.010780422,0.0036618293,0.0066234106,0.00026602214,0.0003505089,0.000415007,1.8325023e-06,3.4848022e-06,2.1686342e-06,28.280285,28.280285
23472599,3932170,3932170,0,0,0,0,0,400.27222,400.27222,4002.722,8005.444,0.024895519,0.0023422164,1.1171095e-11,-0.41986027,0.31487572,-9.985504,0.010524452,0.003204436,0.006383181,0.00041792114,0.000616223,0.00040828207,1.8538634e-06,2.6489404e-06,1.764788e-06,28.084461,28.084461
24521875,3932170,3932170,0,0,0,0,0,400.27222,400.27222,4002.722,8005.444,0.17947626,0.0031461795,2.8368169e-11,-0.42803487,0.31889313,-9.978502,0.010593621,0.0028781195,0.008091542,0.003415256,0.0077936887,0.121835366,1.9455376e-05,1.1094567e-05,1.7253485e-06,28.084461,28.084461
25466228,3932170,3932170,0,0,0,0,0,400.27222,400.27222,4002.722,8005.444,0.08335027,0.0027794768,1.9071883e-11,-0.44681442,0.35977104,-10.000843,0.0071719955,0.0041197347,0.00893112,0.016494699,0.0019179407,0.007143221,2.4995315e-06,8.586692e-06,1.387294e-06,28.084461,28.084461
26515511,3932170,3932170,0,0,0,0,0,400.27222,400.27222,4002.722,8005.444,0.060391888,0.0024795409,1.279946e-11,-0.32402185,0.36602333,-9.99383,0.0060093896,0.0031336849,0.007465455,0.0028882509,0.00067828805,0.014620546,4.0614746e-06,5.6913636e-06,2.3937903e-06,28.084461,28.084461
27454894,3932170,3932170,0,0,0,0,0,400.27222,400.27222,4002.722,8005.444,0.06975796,0.002540344,2.0549333e-11,-0.44042817,0.34890556,-9.987748,0.0113233235,0.0063724853,0.005493778,0.0012768166,0.0031271486,0.024077449,3.98139e-06,4.8389334e-06,1.4974632e-06,28.084461,28.084461
28504258,3932170,3932170,0,0,0,0,0,400.27222,400.27222,4002.722,8005.444,0.06985844,0.0026583758,1.7972394e-11,-0.43312094,0.32615513,-9.972533,0.010569715,0.00479413,0.0049563795,0.001900603,0.0023753082,0.027311375,6.2321938e-06,6.5026957e-06,2.7078786e-06,28.231327,28.231327
29548561,3932170,3932170,0,0,0,0,0,400.27222,400.27222,4002.722,8005.444,0.0882317,0.0026012454,1.5911912e-11,-0.41735277,0.3403491,-9.983256,0.008767745,0.004610235,0.0061638104,0.0015120667,0.004245684,0.030278474,4.461632e-06,5.8950664e-06,2.1427948e-06,28.084461,28.084461
30492916,3932170,3932170,0,0,0,0,0,400.27222,400.27222,4002.722,8005.444,0.09381923,0.0027806652,1.60606e-11,-0.4321591,0.298443,-9.990769,0.007968628,0.0044102417,0.0062582493,0.0010165954,0.0059359064,0.013218659,6.6201897e-06,5.134481e-06,1.7034968e-06,27.692764,27.692764
31542192,3932170,3932170,0,0,0,0,0,400.27222,400.27222,4002.722,8005.444,0.070934884,0.0023905418,1.4405269e-11,-0.42540172,0.35654137,-9.972514,0.013447456,0.004576672,0.0047015743,0.0010759854,0.0063329474,0.013819091,5.272131e-06,3.6139286e-06,2.2035922e-06,28.084461,28.084461
32486547,3932170,3932170,0,0,0,0,0,400.27222,400.27222,4002.722,8005.444,0.07394475,0.0026580847,1.0659947e-11,-0.43521032,0.3759261,-9.97369,0.0038580813,0.002988314,0.006457407,0.0013789899,0.005052518,0.026537389,4.316229e-06,4.2299603e-06,2.3263876e-06,28.231327,28.231327
33535939,3932170,3932170,0,0,0,0,0,400.27222,400.27222,4002.722,8005.444,0.086368926,0.0026252521,1.881375e-11,-0.42730433,0.36220682,-9.979826,0.010465012,0.003288863,0.0059839324,0.0029456366,0.00085855,0.023452587,3.8459048e-06,5.1949264e-06,2.346983e-06,28.084461,28.084461
34480184,3932170,3932170,0,0,0,0,0,400.27222,400.27222,4002.722,8005.444,0.12833464,0.0028732133,2.6842336e-11,-0.4255624,0.3172124,-9.9869995,0.015213865,0.0039437925,0.00550464,0.0013840743,0.0014543245,0.030316327,4.63565e-06,5.0593694e-06,1.4866368e-06,28.084461,28.084461
35529463,3932170,3932170,0,0,0,0,0,400.27222,400.27222,4002.722,8005.444,0.09602329,0.0028560238,3.2666946e-11,-0.39856848,0.33850682,-10.045496,-0.00035443483,0.010233702,0.020251395,0.026164962,0.006332858,0.020606847,5.5499772e-06,1.232964e-05,2.8896222e-06,28.329239,28.329239
36468821,3932170,3932170,0,0,0,0,0,400.27222,400.27222,4002.722,8005.444,0.31958103,0.006459318,5.035961e-11,0.6314209,0.40963948,-10.05569,0.00067326735,-0.0026315046,0.010108879,0.17960863,0.062255796,0.7369072,0.00021043945,2.2397955e-05,9.050487e-06,28.133419,28.133419
37513230,3932170,3932170,0,0,0,0,0,400.27222,400.27222,4002.722,8005.444,2.3892698,0.012634693,2.2609041e-10,1.4920862,0.33736157,-9.929457,0.02528184,0.0006209876,0.0055424864,5.085555,0.7704811,7.5782127,0.000645486,0.0005065898,4.047147e-05,28.329239,28.329239
38557611,3932170,3932170,0,0,0,0,0,400.27222,400.27222,4002.722,8005.444,7.229788,0.0454545,1.4112257e-09,1.1759542,0.55445045,-9.589992,0.0050224033,0.0009961666,0.0039023017,26.346771,1.9331456,95.20047,0.0075219823,0.0041845343,4.14839e-05,28.133419,28.133419
39496870,3932170,3932170,0,0,0,0,0,400.27222,400.27222,4002.722,8005.444,6.0712,0.043554433,2.2498798e-09,1.0485982,0.31943792,-9.414753,0.009960091,-0.0065667355,0.00752106,230.61111,7.340281,222.71806,0.012873976,0.03192327,0.0008586827,28.133419,28.133419
40541157,3932170,3932170,0,0,0,0,0,400.27222,400.27222,4002.722,8005.444,5.536723,0.03694863,4.691243e-10,0.92657363,0.23360223,-10.483878,-0.001868123,0.0060645468,-0.0047492143,23.790836,-0.58072126,337.54446,0.034899697,0.012754083,-3.9767797e-06,28.280285,28.280285
41480525,3932170,3932170,0,0,0,0,0,400.27222,400.27222,4002.722,8005.444,2.0978596,0.01859904,1.254499e-10,0.6280676,0.12308724,-10.170941,0.023854649,-0.010890999,0.002411517,0.22690499,0.512157,0.55113244,0.00064450887,8.190501e-05,1.8807701e-05,28.231327,28.231327
42524998,3932170,3932170,0,0,0,0,0,400.27222,400.27222,4002.722,8005.444,0.45424426,0.0055688857,5.3696842e-11,-0.9653763,0.16907,-10.896101,0.01233689,0.026807887,0.009832548,0.0054900474,0.04173082,0.071243405,1.7397113e-05,0.000101941,5.2386627e-06,28.084461,28.084461
43469153,3932170,3932170,0,0,0,0,0,400.27222,400.27222,4002.722,8005.444,0.24390168,0.0038862375,4.3472264e-11,-0.7166914,0.31179821,-9.62578,0.020076446,-0.016402943,0.002615611,0.008091936,0.058339126,0.04674245,2.8841734e-05,4.6326722e-06,2.8353372e-05,28.133419,28.133419
44518434,3932170,3932170,0,0,0,0,0,400.27222,400.27222,4002.722,8005.444,0.16520324,0.0032928337,3.269229e-11,-0.4472327,0.1648389,-9.824567,0.019579532,-0.011489125,0.007645911,0.0078021614,0.03733061,0.02111344,2.3229679e-05,5.390184e-06,1.801773e-05,28.231327,28.231327
45462787,3932170,3932170,0,0,0,0,0,400.27222,400.27222,4002.722,8005.444,0.17505042,0.0033326535,6.874691e-11,-0.27587903,-0.01150243,-9.804483,0.010617495,-0.0008743411,0.037928466,0.0029384943,0.04399207,0.024709452,1.9728104e-05,1.2570445e-05,4.4221497e-06,27.88862,27.88862
46512072,3932170,3932170,0,0,0,0,0,400.27222,400.27222,4002.722,8005.444,0.13569804,0.003274415,1.9268918e-11,-0.4052763,0.46110794,-9.978451,0.0097616175,0.010533018,-0.0007940197,0.002344101,0.009813038,0.033049308,2.207183e-05,5.6499953e-06,2.42515e-06,28.329239,28.329239
47456455,3932170,3932170,0,0,0,0,0,400.27222,400.27222,4002.722,8005.444,0.12460905,0.0030079575,4.280704e-11,-0.19085863,0.37753326,-10.02158,0.011349859,0.006246992,-0.019926896,0.0043504555,0.016048966,0.022198603,1.3212284e-05,5.248644e-06,4.4044727e-06,28.231327,28.231327
48505703,3932170,3932170,0,0,0,0,0,400.27222,400.27222,4002.722,8005.444,0.1453307,0.0030380327,3.003835e-11,-0.07610417,0.08028421,-9.8993845,-0.010065244,-0.015567727,-0.013658354,0.001978269,0.015242745,0.054369457,1.2710707e-05,4.034373e-06,7.448884e-06,28.280285,28.280285
49450089,3932170,3932170,0,0,0,0,0,400.27222,400.27222,4002.722,8005.444,0.2527561,0.0034086972,2.6604656e-11,-0.37563553,-0.10180541,-10.007566,0.011101928,0.0073574795,0.007863073,0.0016521385,0.049178578,0.04147681,2.0466483e-05,4.740078e-06,2.1074723e-06,28.280285,28.280285
50499343,3932170,3932170,0,0,0,0,0,400.27222,400.27222,4002.722,8005.444,0.21059446,0.003556135,5.745941e-11,-0.41296238,0.34508792,-10.019882,0.01173436,0.006987857,0.028591992,0.008084254,0.044061877,0.031881087,1.4648171e-05,4.233079e-06,3.649794e-06,28.231327,28.231327
51548652,3932170,3932170,0,0,0,0,0,400.27222,400.27222,4002.722,8005.444,0.15709029,0.0033655565,4.2859494e-11,-0.41976842,0.6792781,-9.922769,0.0017757355,0.0052462653,-0.02416009,0.0015832667,0.014760566,0.023033204,2.7067073e-05,5.750018e-06,7.685713e-06,28.133419,28.133419
52493009,3932170,3932170,0,0,0,0,0,400.27222,400.27222,4002.722,8005.444,0.16769935,0.0033451926,3.710149e-11,-0.2868277,-0.3264665,-9.924061,0.0024032835,-0.001086605,0.01817472,0.0026574524,0.024329308,0.027222829,8.07863e-05,6.2797085e-06,1.2765436e-05,28.133419,28.133419
53542293,3932170,3932170,0,0,0,0,0,400.27222,400.27222,4002.722,8005.444,0.18663943,0.0038121638,8.873493e-11,-0.42979997,0.064059034,-9.86827,0.032901816,0.0030779436,0.039341908,0.004347897,0.020095486,0.016899966,6.710901e-05,3.798295e-06,5.045125e-05,28.084461,28.084461
54486648,3932170,3932170,0,0,0,0,0,400.27222,400.27222,4002.722,8005.444,0.15239541,0.0035012683,6.18341e-11,-0.39302748,0.50129706,-9.931751,0.00785877,-0.005292104,0.039509922,0.0014610395,0.01830556,0.016344445,1.2325177e-05,4.5824113e-06,5.1190386e-06,28.329239,28.329239
55535938,3932170,3932170,0,0,0,0,0,400.27222,400.27222,4002.722,8005.444,0.11698147,0.0029834104,5.478144e-11,-0.16394086,0.5365421,-10.061206,-0.011429133,0.013610165,-0.034618396,0.0017978807,0.039902326,0.016423015,1.3465993e-05,3.5734658e-06,5.3452943e-05,27.986532,27.986532
56480284,3932170,3932170,0,0,0,0,0,400.27222,400.27222,4002.722,8005.444,0.12002441,0.0032680964,2.4097472e-11,-0.32940632,-0.12299029,-10.079964,-0.01157033,0.008592591,0.0055330484,0.002242138,0.049528793,0.017614726,2.0927848e-05,5.146659e-06,8.100909e-06,28.084461,28.084461
57529593,3932170,3932170,0,0,0,0,0,400.27222,400.27222,4002.722,8005.444,0.13095365,0.0035678577,6.577611e-11,-0.29923886,0.03210699,-9.979343,0.02199074,-0.0015918624,0.026982805,0.0018605582,0.015743526,0.018398907,6.6623725e-05,4.503845e-06,2.1074477e-05,28.231327,28.231327
58473923,3932170,3932170,0,0,0,0,0,400.27222,400.27222,4002.722,8005.444,0.12508456,0.0033088743,5.4506514e-11,-0.29931083,0.28944138,-10.081324,0.030756611,0.012152885,0.008717347,0.0010923258,0.03093945,0.017329345,2.3634431e-05,5.664653e-06,2.8447299e-05,28.329239,28.329239
59523173,3932170,3932170,0,0,0,0,0,400.27222,400.27222,4002.722,8005.444,0.11621012,0.0032849133,2.1171506e-11,-0.44928783,0.5071714,-9.897232,-0.008329344,0.003771906,-0.005061705,0.001507697,0.011731397,0.0066936263,2.7512515e-05,5.0177264e-06,1.1405969e-05,28.084461,28.084461
60467526,3932170,3932170,0,0,0,0,0,400.27222,400.27222,4002.722,8005.444,0.10309716,0.002978834,5.7072274e-11,-0.20477954,0.21639004,-9.97973,-0.0047594924,0.0041323183,-0.03427133,0.0019150436,0.00900399,0.009543788,5.33866e-06,4.1742655e-06,3.887052e-06,27.937572,27.937572
61516824,3932170,3932170,0,0,0,0,0,400.27222,400.27222,4002.722,8005.444,0.114703864,0.0030010967,4.889236e-11,-0.27178323,-0.10944813,-9.951475,0.011481489,0.0021058153,0.027881071,0.0017141044,0.020894319,0.014898433,1.08338245e-05,4.0121377e-06,2.2573959e-05,28.231327,28.231327
62461166,3932170,3932170,0,0,0,0,0,400.27222,400.27222,4002.722,8005.444,0.13415925,0.0031471166,8.2281966e-11,-0.35775045,0.4023015,-9.929445,0.017837768,0.0014819608,0.04325081,0.0009703701,0.010798462,0.012658452,5.228801e-06,4.6672085e-06,2.5169825e-06,28.084461,28.084461
63510467,3932170,3932170,0,0,0,0,0,400.27222,400.27222,4002.722,8005.444,0.116093256,0.0030324797,4.066139e-11,-0.35100275,0.50993884,-10.029464,0.017815858,0.00763748,-0.01736617,0.00091743615,0.0025276674,0.008518221,8.617967e-06,4.259105e-06,2.1118492e-05,28.329239,28.329239
64554858,3932170,3932170,0,0,0,0,0,400.27222,400.27222,4002.722,8005.444,0.1092441,0.003150213,2.2399988e-11,-0.33828726,0.14143398,-9.959932,-0.008476374,0.0027083773,-0.0068518836,0.0010723051,0.024081334,0.0154917175,2.5167854e-05,2.700524e-06,4.0662915e-05,28.133419,28.133419
65499094,3932170,3932170,0,0,0,0,0,400.27222,400.27222,4002.722,8005.444,0.092231326,0.0031120514,4.1370997e-11,-0.351473,0.038518902,-9.94982,0.014750088,0.00033053756,0.022531535,0.00082378206,0.0059586284,0.0066098743,8.443805e-06,4.037082e-06,1.6831747e-05,28.133419,28.133419
66543380,3932170,3932170,0,0,0,0,0,400.27222,400.27222,4002.722,8005.444,0.0848867,0.0030153291,4.305305e-11,-0.24293233,0.44272542,-9.962273,0.018762408,0.0048866007,0.02078808,0.0017079349,0.011992078,0.006731472,9.248422e-06,4.75223e-06,5.2935284e-06,28.084461,28.084461
67487734,3932170,3932170,0,0,0,0,0,400.27222,400.27222,4002.722,8005.444,0.10174346,0.0029841436,2.0280866e-11,-0.23891853,0.3270262,-9.995209,-0.0086761,0.0013483524,-0.009855685,0.0013159333,0.0088177025,0.009957581,4.47738e-06,5.6116373e-06,2.790566e-06,28.427174,28.427174
68537017,3932170,3932170,0,0,0,0,0,400.27222,400.27222,4002.722,8005.444,0.1189645,0.0030689626,3.3340063e-11,-0.25160193,-0.117245786,-9.932433,-0.005850612,-0.0037173242,0.01569461,0.0009121848,0.017007943,0.0089825485,1.9702398e-05,4.1780245e-06,4.560428e-05,28.427174,28.427174
69481408,3932170,3932170,0,0,0,0,0,400.27222,400.27222,4002.722,8005.444,0.11423767,0.0029596693,8.2023575e-11,-0.28275523,-0.03787688,-10.002837,0.024805197,0.0011462739,0.05349416,0.000979945,0.0068655433,0.011974076,2.1288508e-05,2.6910898e-06,3.2703517e-06,28.280285,28.280285
70530690,3932170,3932170,0,0,0,0,0,400.27222,400.27222,4002.722,8005.444,0.11595112,0.0032172378,3.374574e-11,-0.31854886,0.50896525,-10.003109,0.012134391,0.005315642,-0.020382972,0.00088287314,0.005417786,0.011839206,5.7517547e-05,2.6663433e-06,0.00011907648,28.133419,28.133419
71475049,3932170,3932170,0,0,0,0,0,400.27222,400.27222,4002.722,8005.444,0.10177958,0.0030939218,3.9058323e-11,-0.3354987,0.13684711,-10.004124,0.0048349197,0.0055533764,-0.022445548,0.0009596567,0.0042281374,0.008407475,1.0116489e-05,3.7528846e-06,1.0858165e-05,28.084461,28.084461
72524332,3932170,3932170,0,0,0,0,0,400.27222,400.27222,4002.722,8005.444,0.11005955,0.0031411278,2.9909335e-11,-0.31859776,0.14897548,-10.0163765,0.0032791672,0.0036377388,0.016637012,0.0009937385,0.0047034635,0.014121517,9.063868e-06,4.3275054e-06,2.6356772e-06,28.133419,28.133419
73468688,3932170,3932170,0,0,0,0,0,400.27222,400.27222,4002.722,8005.444,0.09361566,0.003018946,2.1150862e-11,-0.388275,0.2086399,-9.989968,0.008607559,0.0066211284,0.013002132,0.0009768968,0.009969868,0.009825906,6.2763374e-06,3.241923e-06,5.6648746e-06,27.986532,27.986532
74518057,3932170,3932170,0,0,0,0,0,400.27222,400.27222,4002.722,8005.444,0.09480686,0.002883954,4.4230713e-11,-0.31294963,-0.068682194,-10.009531,-0.006059502,0.0041172844,0.023576219,0.00086413504,0.009410887,0.012255803,1.5013551e-05,3.2831829e-06,2.7278822e-05,28.329239,28.329239
75462349,3932170,3932170,0,0,0,0,0,400.27222,400.27222,4002.722,8005.444,0.09600199,0.0029978717,8.113013e-11,-0.41607463,0.35403937,-9.934866,0.01534401,0.0013193985,0.045701955,0.0006615041,0.009955745,0.013377681,1.4437813e-05,6.009638e-06,1.5518875e-05,28.231327,28.231327
76511612,3932170,3932170,0,0,0,0,0,400.27222,400.27222,4002.722,8005.444,0.08336198,0.002908762,2.5401615e-11,-0.3961424,0.4304919,-9.918471,0.007800187,0.002276729,-0.013505125,0.0011135277,0.00438484,0.012157325,1.2552003e-05,4.7922117e-06,2.206164e-05,28.133419,28.133419
77456084,3932170,3932170,0,0,0,0,0,400.27222,400.27222,4002.722,8005.444,0.08465169,0.002935844,1.6128607e-11,-0.35712948,0.17671497,-9.92716,0.002298289,-0.002333325,-0.0077841873,0.0008134678,0.0022292342,0.010081323,9.034822e-06,4.2091024e-06,1.2867242e-05,28.133419,28.133419
78505256,3932170,3932170,0,0,0,0,0,400.27222,400.27222,4002.722,8005.444,0.10335178,0.0030219625,2.6284136e-11,-0.41652632,0.20116849,-9.889932,0.004713819,-0.0032618348,0.014693905,0.0012409023,0.015680708,0.02133782,1.366412e-05,4.599834e-06,3.5258022e-06,28.476124,28.476124
79554544,3932170,3932170,0,0,0,0,0,400.27222,400.27222,4002.722,8005.444,0.12045733,0.0031178584,1.5849872e-11,-0.3037745,0.47599086,-10.136575,0.0081726685,0.01285878,0.0014425743,0.0021659064,0.04151442,0.013311643,1.9797306e-05,3.6719464e-06,1.4143841e-05,28.231327,28.231327
80498899,3932170,3932170,0,0,0,0,0,400.27222,400.27222,4002.722,8005.444,0.1264087,0.0029793857,2.3266576e-11,-0.28985226,0.37792212,-9.987463,0.004303465,0.003226951,-0.016458038,0.0011534588,0.014010439,0.017241057,4.6271152e-06,3.5141322e-06,1.032577e-05,28.329239,28.329239
81548187,3932170,3932170,0,0,0,0,0,400.27222,400.27222,4002.722,8005.444,0.110020414,0.002881243,2.0413863e-11,-0.17028375,-0.15649442,-9.89107,-0.0006135079,-0.009921047,0.010460953,0.0011047146,0.078434795,0.013832717,1.3840283e-05,3.536225e-06,2.0201778e-05,28.133419,28.133419
82492541,3932170,3932170,0,0,0,0,0,400.27222,400.27222,4002.722,8005.444,0.11105273,0.0028477444,5.426313e-11,-0.32205826,0.31330916,-10.0795355,0.020990243,0.013015663,0.028700775,0.001184314,0.0060901823,0.008556469,4.740179e-06,4.5107245e-06,2.3284576e-06,28.427174,28.427174
83536828,3932170,3932170,0,0,0,0,0,400.27222,400.27222,4002.722,8005.444,0.11285521,0.0030058345,2.9913724e-11,-0.29252118,0.33438352,-9.97175,0.00080119056,-0.0014349639,-0.016557543,0.001082632,0.008655543,0.013713996,3.6799367e-05,3.3841852e-06,5.5069854e-06,28.084461,28.084461
84481155,3932170,3932170,0,0,0,0,0,400.27222,400.27222,4002.722,8005.444,0.1036344,0.0029839566,2.3648476e-11,-0.41489673,0.13847186,-9.812461,0.016724167,0.007324754,-0.004119318,0.0010037527,0.027239043,0.007885238,7.6179776e-06,3.8368244e-06,1.6758185e-06,28.231327,28.231327
85530515,3932170,3932170,0,0,0,0,0,400.27222,400.27222,4002.722,8005.444,0.119090214,0.0032846385,4.7746574e-11,-0.40532365,0.18621053,-9.982315,0.016457785,0.0008634162,0.020308405,0.0015665042,0.02591393,0.01137813,1.544614e-05,5.138895e-06,1.1430851e-05,28.133419,28.133419
86474795,3932170,3932170,0,0,0,0,0,400.27222,400.27222,4002.722,8005.444,0.12843676,0.0032819558,2.5981167e-11,-0.37534225,0.28368166,-10.009214,0.011863538,0.007228873,0.008277658,0.001060104,0.0095833475,0.013323406,1.2463987e-05,5.8265787e-06,1.719486e-06,28.231327,28.231327
87524082,3932170,3932170,0,0,0,0,0,400.27222,400.27222,4002.722,8005.444,0.11048771,0.0029721945,4.613378e-11,-0.34848574,0.13764247,-9.920098,0.013572388,-0.0016399199,0.023555174,0.00093607994,0.006741993,0.012662527,1.0554438e-05,4.9966857e-06,1.5085011e-06,28.476124,28.476124
88463461,3932170,3932170,0,0,0,0,0,400.27222,400.27222,4002.722,8005.444,0.100712664,0.0029452061,2.940405e-11,-0.2959959,0.3658603,-9.919972,0.008147128,-0.004052046,0.01583905,0.0013037394,0.007621005,0.008778881,9.87032e-06,3.941082e-06,1.4962648e-05,28.231327,28.231327
89507733,3932170,3932170,0,0,0,0,0,400.27222,400.27222,4002.722,8005.444,0.12257329,0.0031031016,4.5464504e-11,-0.2575831,0.2232841,-10.022126,0.02771697,0.00036857848,-0.0067458674,0.0011602393,0.005345164,0.01638148,5.017803e-06,4.323368e-06,5.5068763e-06,28.231327,28.231327
90552095,3932170,3932170,0,0,0,0,0,400.27222,400.27222,4002.722,8005.444,0.11793164,0.003006461,1.6909647e-11,-0.28702214,0.20607792,-9.986149,-0.002440673,0.0023138016,-0.0084905885,0.0006172428,0.011458148,0.008086079,5.468112e-06,4.0831524e-06,2.6032824e-06,28.280285,28.280285
91496378,3932170,3932170,0,0,0,0,0,400.27222,400.27222,4002.722,8005.444,0.09469661,0.003123356,3.1109507e-11,-0.38238636,0.09650007,-9.984891,0.017389424,0.004997558,0.0054920833,0.0009719404,0.0031073033,0.010179293,2.4538653e-05,4.624399e-06,1.197683e-05,28.329239,28.329239
92545668,3932170,3932170,0,0,0,0,0,400.27222,400.27222,4002.722,8005.444,0.08387665,0.0029166064,4.2051314e-11,-0.4735952,0.1253417,-9.766176,0.002834773,-0.01044266,0.024240756,0.0006147187,0.008092696,0.00599815,8.131307e-06,4.526362e-06,7.909745e-06,28.231327,28.231327
93490026,3932170,3932170,0,0,0,0,0,400.27222,400.27222,4002.722,8005.444,0.0997655,0.0030598878,3.4567328e-11,-0.3184007,0.16097255,-10.052333,0.014332653,0.0066543166,0.015544201,0.0012178137,0.07687448,0.01577199,3.089459e-05,4.0972636e-06,8.613653e-06,28.231327,28.231327
94539313,3932170,3932170,0,0,0,0,0,400.27222,400.27222,4002.722,8005.444,0.0863345,0.0028154412,2.3600169e-11,-0.51125556,0.35953245,-9.874381,0.008349967,0.006098772,-0.009942207,0.0009999904,0.0049398555,0.014501601,4.3248256e-06,5.5153732e-06,2.4526912e-06,28.427174,28.427174
95483671,3932170,3932170,0,0,0,0,0,400.27222,400.27222,4002.722,8005.444,0.093145736,0.0033198572,4.723532e-11,-0.4345148,0.34850827,-9.951402,-0.02228207,-0.0017834709,-0.009029121,0.0012448189,0.0191493,0.013169219,1.5763644e-05,4.3919817e-06,7.040554e-06,28.231327,28.231327
96532959,3932170,3932170,0,0,0,0,0,400.27222,400.27222,4002.722,8005.444,0.10658656,0.003019214,2.5088811e-11,-0.35842973,-0.13924925,-10.053501,0.006309108,-0.0011255898,0.012715447,0.0020357394,0.0128593035,0.009928417,1.9519393e-05,5.4439365e-06,7.867202e-06,28.280285,28.280285
97477317,3932170,3932170,0,0,0,0,0,400.27222,400.27222,4002.722,8005.444,0.09237376,0.0030972413,6.2405185e-11,-0.41301137,0.23941731,-9.950964,0.028455544,0.004787739,0.026812408,0.0007099511,0.004587865,0.007112117,1.2130467e-05,5.5066216e-06,3.2586056e-06,28.329239,28.329239
98526602,3932170,3932170,0,0,0,0,0,400.27222,400.27222,4002.722,8005.444,0.09667216,0.0029298658,2.772167e-11,-0.49271667,0.5627265,-10.072244,0.0009799456,0.009698791,-0.013360839,0.0011496358,0.009957731,0.015527119,2.3902992e-05,4.673286e-06,2.3513137e-06,28.427174,28.427174
99470965,3932170,3932170,0,0,0,0,0,400.27222,400.27222,4002.722,8005.444,0.09116122,0.0028850634,6.4895324e-12,-0.45849392,-0.1480824,-9.965884,0.0011479585,-0.00087928487,-0.00014059823,0.0011027775,0.0040047127,0.031173008,8.713649e-06,5.8828423e-06,1.6150476e-05,28.329239,28.329239
100520248,3932170,3932170,0,0,0,0,0,400.27222,400.27222,4002.722,8005.444,0.08495877,0.00282441,5.5103165e-11,-0.4399872,0.1727014,-9.991761,0.014212336,-0.00019208904,0.028832551,0.0011589637,0.004972131,0.012267792,5.3528547e-06,4.6351197e-06,1.8909368e-06,28.329239,28.329239
101459610,3932170,3932170,0,0,0,0,0,400.27222,400.27222,4002.722,8005.444,0.09092035,0.0029657802,1.8125775e-11,-0.40545517,0.39070037,-10.013922,-0.005532958,-0.0010258809,0.011558609,0.0010095056,0.00289284,0.023374232,8.754331e-06,4.569775e-06,8.235576e-06,28.280285,28.280285
102508900,3932170,3932170,0,0,0,0,0,400.27222,400.27222,4002.722,8005.444,0.08076856,0.0027513152,1.7033715e-11,-0.4547249,0.2082517,-9.921254,0.0072051706,-0.001554647,-0.00949238,0.00064512383,0.0038066918,0.0118211955,1.4743696e-05,3.6523893e-06,3.9455635e-06,28.476124,28.476124
103453258,3932170,3932170,0,0,0,0,0,400.27222,400.27222,4002.722,8005.444,0.08208987,0.0025958996,3.1410038e-11,-0.45648986,0.33475357,-9.950315,0.02207454,0.002272111,0.0041605053,0.00070974056,0.005504161,0.011901521,7.794248e-06,4.6978657e-06,9.443424e-07,28.231327,28.231327
104502590,3932170,3932170,0,0,0,0,0,400.27222,400.27222,4002.722,8005.444,0.09364274,0.0028935552,4.616037e-11,-0.4462564,0.24115321,-9.95911,0.012536742,0.004026238,0.021067506,0.0011636234,0.013288873,0.021730037,4.949484e-06,6.179804e-06,1.976336e-06,28.476124,28.476124
105551839,3932170,3932170,0,0,0,0,0,400.27222,400.27222,4002.722,8005.444,0.08696098,0.0028942642,2.2175243e-11,-0.49022615,0.30065006,-10.067658,0.011068346,0.009893188,0.006987318,0.001172809,0.0047044693,0.0157845,2.0078034e-05,4.3119076e-06,1.1647909e-05,28.231327,28.231327
106496199,3932170,3932170,0,0,0,0,0,400.27222,400.27222,4002.722,8005.444,0.08665701,0.0028832923,8.686656e-12,-0.5949404,0.31563735,-10.076946,0.0032758517,0.005631741,0.0022142695,0.0012046073,0.005800327,0.015100304,6.7223973e-06,7.5518956e-06,2.5593374e-06,28.476124,28.476124
107545484,3932170,3932170,0,0,0,0,0,400.27222,400.27222,4002.722,8005.444,0.095000416,0.0030519832,2.9262745e-11,-0.5099337,0.15609393,-9.874913,0.01968327,-0.0016679206,0.007056841,0.0013577539,0.002921995,0.020506449,2.0646858e-05,5.4133766e-06,1.2515232e-05,28.427174,28.427174
108489844,3932170,3932170,0,0,0,0,0,400.27222,400.27222,4002.722,8005.444,0.092674814,0.0028669927,5.337896e-11,-0.45155853,0.17284864,-9.938237,0.02603105,-0.0017773018,0.020081492,0.00093879545,0.0051413234,0.014858361,1.0901749e-05,4.275871e-06,1.8896313e-06,28.476124,28.476124
109539136,3932170,3932170,0,0,0,0,0,400.27222,400.27222,4002.722,8005.444,0.08560324,0.0029768858,4.9551568e-11,-0.5151339,0.6171575,-10.088134,0.00035409088,0.013468317,-0.02255215,0.001273035,0.0044503645,0.018126674,2.8327526e-05,5.2603023e-06,2.5262457e-06,28.329239,28.329239
110483491,3932170,3932170,0,0,0,0,0,400.27222,400.27222,4002.722,8005.444,0.0921173,0.0031004916,3.5717804e-11,-0.49025202,0.0074470947,-10.027976,0.004857578,0.0063759726,-0.020651657,0.00095831096,0.01303249,0.0122960005,1.12439275e-05,5.026612e-06,4.597189e-06,28.476124,28.476124
111532785,3932170,3932170,0,0,0,0,0,400.27222,400.27222,4002.722,8005.444,0.082714416,0.0029834148,5.291757e-11,-0.5461106,0.21051367,-9.959801,0.015467896,0.0044273897,0.028417261,0.0014479018,0.0076137357,0.014505972,8.927045e-06,5.2258183e-06,1.9306024e-06,28.329239,28.329239
112477142,3932170,3932170,0,0,0,0,0,400.27222,400.27222,4002.722,8005.444,0.093337014,0.0028387224,4.4954297e-11,-0.4736414,0.22734898,-9.967754,0.013015388,0.0009465454,0.020024233,0.00080424047,0.015272148,0.010438275,3.2751326e-05,6.02996e-06,1.3995522e-05,28.329239,28.329239
113526434,3932170,3932170,0,0,0,0,0,400.27222,400.27222,4002.722,8005.444,0.08896009,0.0028984218,9.9721325e-12,-0.44926497,0.27329,-10.003569,0.0028764016,0.0039462107,0.0027868813,0.0008140038,0.0058218334,0.010796975,1.8777635e-05,3.8477992e-06,1.276986e-05,28.329239,28.329239
114470788,3932170,3932170,0,0,0,0,0,400.27222,400.27222,4002.722,8005.444,0.091774195,0.0028344684,4.5655302e-11,-0.4312537,0.14720234,-9.923532,-0.00047260028,0.000699442,0.026432022,0.000793917,0.008647571,0.01481969,7.845868e-06,4.7005024e-06,2.3873124e-06,28.427174,28.427174
115520081,3932170,3932170,0,0,0,0,0,400.27222,400.27222,4002.722,8005.444,0.09301229,0.003011652,4.500398e-11,-0.54987895,0.41107523,-9.947732,0.024303114,0.0038620627,0.011823361,0.0013134674,0.006294055,0.014222612,3.201774e-05,3.655681e-06,4.319491e-05,28.280285,28.280285
116464438,3932170,3932170,0,0,0,0,0,400.27222,400.27222,4002.722,8005.444,0.08031664,0.003051304,5.6339333e-11,-0.5136094,0.44941974,-10.01782,0.0017797662,0.0083272,-0.034265555,0.0009007989,0.011435866,0.014700878,1.3057143e-05,4.915342e-06,1.0334548e-05,28.329239,28.329239
117513727,3932170,3932170,0,0,0,0,0,400.27222,400.27222,4002.722,8005.444,0.10325979,0.003109175,9.813647e-12,-0.5234241,-0.08001497,-9.964698,0.0019976604,0.0015116854,0.00300714,0.0017783602,0.09740344,0.03431021,1.2603599e-05,7.297971e-06,2.164195e-05,28.476124,28.476124
118458089,3932170,3932170,0,0,0,0,0,400.27222,400.27222,4002.722,8005.444,0.10505826,0.003203563,6.145521e-11,-0.4705209,0.21358971,-9.936015,0.003957392,0.00084739673,0.03391619,0.0019019031,0.014272711,0.07239265,2.2039396e-05,1.4771477e-05,2.68621e-06,28.427174,28.427174
119507395,3932170,3932170,0,0,0,0,0,400.27222,400.27222,4002.722,8005.444,0.087197475,0.0028586022,3.4080624e-11,-0.5932333,0.30514222,-10.070243,0.022638218,0.0050531025,0.0128840245,0.0017430963,0.008465275,0.013849067,2.4035471e-05,4.6157215e-06,1.2970999e-05,28.427174,28.427174
120451738,3932170,3932170,0,0,0,0,0,400.27222,400.27222,4002.722,8005.444,0.0781918,0.0029901506,2.5258773e-11,-0.637619,0.38885972,-10.000457,0.0072216727,0.0032295606,-0.011608958,0.0010612602,0.013092296,0.0119591355,2.4484361e-05,1.1045757e-05,4.7976446e-06,28.427174,28.427174
121501046,3932170,3932170,0,0,0,0,0,400.27222,400.27222,4002.722,8005.444,0.092684925,0.0028199502,3.3472055e-11,-0.31625324,0.19431312,-9.7956915,-0.01032448,-0.0047668125,-0.017831925,0.0069047655,0.012642477,0.012280028,1.1616565e-05,1.0415522e-05,2.721746e-06,28.231327,28.231327
122550321,3932170,3932170,0,0,0,0,0,400.27222,400.27222,4002.722,8005.444,0.08622293,0.0029749149,5.1170474e-11,-0.45250785,-0.055343498,-10.040641,0.010076056,-0.000102890546,0.024869584,0.017445525,0.015334618,0.011180984,2.9509798e-05,6.455528e-06,5.6600716e-06,28.280285,28.280285
123494682,3932170,3932170,0,0,0,0,0,400.27222,400.27222,4002.722,8005.444,0.079374894,0.0029632903,5.0918568e-11,-0.33802488,0.2351076,-9.851403,0.030578015,0.0020456258,-0.00061266735,0.0019285281,0.022419147,0.00981955,1.3908984e-05,3.7868954e-06,3.6445188e-05,28.671986,28.671986
124543972,3932170,3932170,0,0,0,0,0,400.27222,400.27222,4002.722,8005.444,0.07207901,0.003066544,2.7051453e-11,-0.30045316,0.42751405,-9.905973,0.00030331968,0.0070754443,0.014995769,0.0006443667,0.03528518,0.005240414,3.4668818e-05,6.024588e-06,1.9872037e-05,28.476124,28.476124
125488335,3932170,3932170,0,0,0,0,0,400.27222,400.27222,4002.722,8005.444,1.8371673,0.016104383,7.931959e-10,-0.45866778,0.23060533,-10.243341,0.0041424227,0.034202613,-0.008449686,6.797792,1.2255976,221.43614,0.025363768,0.0067868517,-5.9586382e-05,28.525097,28.525097
126537626,3932170,3932170,0,0,0,0,0,400.27222,400.27222,4002.722,8005.444,3.41974,0.024333693,1.4400856e-09,-0.251071,0.31792748,-10.122757,0.014426314,-0.004731565,0.017181432,13.666056,0.67339915,397.61945,0.023878505,0.008334658,5.2786007e-05,28.427174,28.427174
127482045,3932170,3932170,0,0,0,0,0,400.27222,400.27222,4002.722,8005.444,4.876115,0.030336201,2.5962528e-09,-0.4431813,0.36483172,-9.944533,0.014345075,-0.03246385,0.029262343,13.447784,-5.2612,558.4713,0.026961276,0.0072904574,4.9766604e-05,28.476124,28.476124
128526316,3932170,3932170,0,0,0,0,0,400.27222,400.27222,4002.722,8005.444,4.8017483,0.030427929,1.0873182e-09,-0.67465824,0.29614952,-10.404941,0.009537832,0.010082332,0.016307931,10.217673,-2.8320715,274.438,0.01743768,0.004112136,-5.9708364e-05,28.427174,28.427174
129470703,3932170,3932170,0,0,0,0,0,400.27222,400.27222,4002.722,8005.444,5.240739,0.031490043,1.1664482e-09,-0.74868834,0.29917195,-10.255727,0.011073056,0.0092311455,-0.01613078,8.501448,3.2755015,300.2162,0.010899601,0.0028076943,-5.4203672e-05,28.476124,28.476124
130519968,3932170,3932170,0,0,0,0,0,400.27222,400.27222,4002.722,8005.444,5.193191,0.03469291,1.5481403e-09,-0.6346909,0.23191267,-9.529302,-0.005557462,-0.0031646346,0.011215476,5.423328,4.0983815,157.3129,0.010270709,0.0048251976,4.0805392e-07,28.329239,28.329239
131464330,3932170,3932170,0,0,0,0,0,400.27222,400.27222,4002.722,8005.444,5.368703,0.0380174,1.7096792e-09,-0.50557774,0.33328596,-10.277935,0.0025772317,0.008695095,0.003934779,18.842281,12.160341,222.20879,0.016535604,0.0046527027,-4.7836493e-05,28.525097,28.525097
132513622,3932170,3932170,0,0,0,0,0,400.27222,400.27222,4002.722,8005.444,6.2581773,0.03749634,2.2418634e-09,-0.7018712,0.254136,-9.899457,0.011501789,0.0072219153,-0.0013532838,37.41368,32.54974,100.709076,0.013696473,0.0063275667,3.7139778e-06,28.476124,28.476124
133457987,3932170,3932170,0,0,0,0,0,400.27222,400.27222,4002.722,8005.444,6.0651298,0.03500139,9.013902e-10,-0.8772027,0.3561386,-9.8794985,0.005502795,0.0005444002,0.0047343075,14.539085,9.526932,60.17205,0.01950801,0.004447636,-7.453058e-05,28.329239,28.329239
134507277,3932170,3932170,0,0,0,0,0,400.27222,400.27222,4002.722,8005.444,5.2427835,0.032669388,9.674627e-10,-0.6479395,0.43082935,-10.276434,0.01011295,0.005413643,0.012120719,15.074644,5.095542,49.19925,0.013105619,0.0015962064,-5.8675505e-05,28.623007,28.623007
135556569,3932170,3932170,0,0,0,0,0,400.27222,400.27222,4002.722,8005.444,4.77677,0.029789349,7.044653e-10,-0.7757937,0.4829946,-9.796748,0.013515296,-0.0037038566,0.020660972,17.750845,3.4194605,50.575275,0.012324523,0.0031579467,-1.7832152e-05,28.525097,28.525097
136500929,3932170,3932170,0,0,0,0,0,400.27222,400.27222,4002.722,8005.444,5.454154,0.035836603,8.8079216e-10,-0.56745297,0.43417495,-9.720512,0.012168896,-0.0008243434,0.019617135,12.503556,1.9501642,50.676605,0.013392506,0.0030573285,-3.5259345e-05,28.525097,28.525097
137550221,3932170,3932170,0,0,0,0,0,400.27222,400.27222,4002.722,8005.444,6.6200366,0.03774887,1.2174716e-09,-0.78849924,0.5553386,-10.440662,0.016867548,0.021200033,0.02377817,9.964448,3.921807,51.167797,0.0076549784,0.0026393917,2.630824e-05,28.427174,28.427174
138494583,3932170,3932170,0,0,0,0,0,400.27222,400.27222,4002.722,8005.444,5.2492094,0.033397716,8.0851764e-10,-0.46132118,0.5815287,-9.681205,0.03420274,0.015970865,0.021030659,11.061095,1.5955137,32.61867,0.0035620094,0.0027389722,6.531074e-05,28.623007,28.623007
139544069,3932170,3932170,0,0,0,0,0,400.27222,400.27222,4002.722,8005.444,5.3490567,0.028302925,4.3989304e-10,-0.80629164,0.2885146,-10.019012,0.018581085,0.0065411786,-0.006170897,9.110683,2.2109852,35.548126,0.0034839096,0.001181549,4.216303e-05,28.427174,28.427174
140488271,3932170,3932170,0,0,0,0,0,400.27222,400.27222,4002.722,8005.444,5.557125,0.029556002,6.2018585e-10,-0.6677943,0.26010317,-10.284669,0.02166094,0.0031364642,-0.031853087,7.425383,3.6578271,22.007202,0.0013696753,0.0009186145,2.3736862e-05,28.525097,28.525097
141537530,3932170,3932170,0,0,0,0,0,400.27222,400.27222,4002.722,8005.444,7.4069963,0.026493357,9.786983e-10,-0.61976814,0.06615536,-9.843862,-0.0135584595,-0.0050910306,-0.026087992,13.3473835,11.399296,31.526749,0.003665704,0.00064796914,2.4443116e-05,28.476124,28.476124
142482085,3932170,3932170,0,0,0,0,0,400.27222,400.27222,4002.722,8005.444,7.660494,0.037296962,6.1590016e-10,-0.6788964,0.15337068,-9.803788,0.0060550803,0.0006858043,-0.005444969,12.7308035,10.8026,36.60329,0.0040612826,0.0008422958,1.4926823e-05,28.671986,28.671986
143531207,3932170,3932170,0,0,0,0,0,400.27222,400.27222,4002.722,8005.444,8.1161995,0.042094823,8.035288e-10,-0.53761303,0.36559433,-9.366088,5.3216932e-05,0.0051164906,-0.006357352,17.491142,10.963624,59.511066,0.0029067812,0.0018406061,6.565685e-05,28.476124,28.476124
144470554,3932170,3932170,0,0,0,0,0,400.27222,400.27222,4002.722,8005.444,7.6707706,0.041060314,5.3432336e-10,-0.41391855,0.36121714,-9.840512,0.00051638763,-0.0035480973,0.015873764,13.550194,9.971365,19.487513,0.0027228678,0.0015728718,3.1615622e-05,28.476124,28.476124
145519855,3932170,3932170,0,0,0,0,0,400.27222,400.27222,4002.722,8005.444,5.5634704,0.025548587,3.259715e-10,-0.3164543,0.3876323,-9.916081,0.015036712,-0.0034711896,0.01101241,11.734973,2.7046537,7.1556454,0.0021316756,0.0013285276,4.0539384e-05,28.329239,28.329239
146464206,3932170,3932170,0,0,0,0,0,400.27222,400.27222,4002.722,8005.444,4.5013814,0.019641083,2.4350041e-10,-0.43092462,0.33567792,-10.102892,0.017732551,-0.00964706,0.007718211,13.143827,1.9924263,13.286353,0.0016247203,0.0009893624,2.5519517e-05,28.623007,28.623007
147513499,3932170,3932170,0,0,0,0,0,400.27222,400.27222,4002.722,8005.444,3.0286663,0.013991479,9.796928e-11,-0.5304502,0.2839141,-9.689545,0.017820183,-0.0026947889,-0.00017499531,3.280259,0.46893546,5.915682,0.0007288351,0.00029274516,4.6904306e-06,28.427174,28.427174
148457865,3932170,3932170,0,0,0,0,0,400.27222,400.27222,4002.722,8005.444,2.1700814,0.011156535,1.4704521e-10,-0.44210494,0.34512815,-10.144297,0.017586935,0.019674577,9.2532e-05,1.6432797,0.23769514,5.7955756,0.00049269473,0.00020076503,2.9993325e-06,28.329239,28.329239
149507160,3932170,3932170,0,0,0,0,0,400.27222,400.27222,4002.722,8005.444,1.8426584,0.009892086,9.919401e-11,-0.29945856,0.39109248,-9.9243355,0.0025706699,0.014447939,-0.0061037457,2.1528704,0.35482886,2.3849254,0.00028209694,0.00010504381,1.1516093e-05,28.525097,28.525097
150556449,3932170,3932170,0,0,0,0,0,400.27222,400.27222,4002.722,8005.444,1.8194066,0.008547319,3.3876596e-11,-0.5210447,0.3704306,-9.808493,-0.0036378568,0.0018751882,-0.0008127151,1.482401,0.4106874,3.0300443,0.00027107913,0.000103568775,7.2309977e-06,28.427174,28.427174
151500816,3932170,3932170,0,0,0,0,0,400.27222,400.27222,4002.722,8005.444,1.9766384,0.010386295,4.6427372e-11,-0.5408985,0.23810683,-10.001473,0.003992231,0.0024379564,-0.0016752974,1.3792636,0.5018183,1.8317819,0.00022240862,0.00014270925,1.1599305e-05,28.427174,28.427174
152550106,3932170,3932170,0,0,0,0,0,400.27222,400.27222,4002.722,8005.444,2.0763476,0.011188684,1.472582e-10,-0.51798475,0.13821505,-10.117886,0.014861888,0.010094076,0.0008017484,2.5082736,0.3217309,1.5204669,0.00063088094,7.9232916e-05,1.6531854e-05,28.525097,28.525097
153494473,3932170,3932170,0,0,0,0,0,400.27222,400.27222,4002.722,8005.444,2.1349525,0.011678072,2.3289362e-10,-0.7770321,0.42535803,-9.948225,0.00076389074,-0.0016012008,0.034639027,1.1887828,1.1105275,2.3476682,0.00029448303,8.080107e-05,1.07712485e-05,28.329239,28.329239
154543765,3932170,3932170,0,0,0,0,0,400.27222,400.27222,4002.722,8005.444,1.1859537,0.007636208,1.2961733e-10,-0.60540026,0.43271598,-9.906881,0.030325923,0.0053448193,0.019296942,0.44977784,0.1488789,0.55920196,0.000112740796,2.0734928e-05,8.579674e-06,28.427174,28.427174
155488152,3932170,3932170,0,0,0,0,0,400.27222,400.27222,4002.722,8005.444,0.7981877,0.007325263,1.2227037e-10,-0.8895573,0.4755744,-10.056007,-0.00019272028,0.0015754708,0.023144767,0.22797053,0.14052512,0.34371996,0.00029086688,2.1323462e-05,2.7735594e-05,28.671986,28.671986
156537426,3932170,3932170,0,0,0,0,0,400.27222,400.27222,4002.722,8005.444,0.48561642,0.006542394,5.9756734e-11,-0.51272005,0.37316415,-9.973244,-0.019093828,-0.00075442845,0.017763339,0.097979866,0.077798195,0.3064369,5.1281906e-05,1.47703195e-05,1.3360235e-05,28.525097,28.525097
157481784,3932170,3932170,0,0,0,0,0,400.27222,400.27222,4002.722,8005.444,0.25172347,0.0038900042,3.481804e-11,-0.8861774,0.24441147,-10.090897,0.025071127,0.008575375,0.00408208,0.19776106,0.028042348,0.058015287,1.5315944e-05,2.9020577e-05,7.0439796e-06,28.623007,28.623007
158531099,3932170,3932170,0,0,0,0,0,400.27222,400.27222,4002.722,8005.444,0.13998508,0.0033958897,2.3511776e-11,-0.34576046,0.2045957,-9.949336,0.0154248765,-0.00401513,6.8319e-05,0.048627283,0.0048358953,0.015042049,1.8057923e-05,1.0661702e-05,3.1759969e-06,28.769894,28.769894
159475447,3932170,3932170,0,0,0,0,0,400.27222,400.27222,4002.722,8005.444,0.07283438,0.0028766291,1.2672176e-11,-0.2597202,0.21605635,-9.931052,0.003309768,0.010839335,0.001981008,0.03026103,0.007910759,0.003231542,6.1723204e-06,1.7863938e-05,3.8348953e-06,28.525097,28.525097
160524746,3932170,3932170,0,0,0,0,0,400.27222,400.27222,4002.722,8005.444,0.050577153,0.00285258,2.7065523e-11,-0.42080688,0.17707658,-10.000849,0.013490002,-0.00050213217,0.008993354,0.0068534478,0.007623934,0.002083915,7.074387e-06,5.016669e-06,2.471036e-06,28.525097,28.525097
161469132,3932170,3932170,0,0,0,0,0,400.27222,400.27222,4002.722,8005.444,0.038558073,0.0026817836,2.4595003e-11,-0.25342706,0.18429203,-9.98822,0.020999756,0.0024230438,0.006438671,0.00029168557,0.010245687,0.0008451866,9.994662e-06,2.4325805e-06,7.3121128e-06,28.671986,28.671986
162518401,3932170,3932170,0,0,0,0,0,400.27222,400.27222,4002.722,8005.444,0.032227505,0.0025821165,1.9657094e-11,-0.3174255,0.18743789,-9.974756,0.00907407,0.00056759134,0.0075100334,0.000715084,0.004575703,0.0010331008,4.044059e-06,5.5438095e-06,3.1718498e-06,28.427174,28.427174
163462765,3932170,3932170,0,0,0,0,0,400.27222,400.27222,4002.722,8005.444,0.029387934,0.0025960722,2.2731528e-11,-0.3485696,0.10574752,-9.992406,0.013170509,0.003006796,0.0037855443,0.00062718696,0.010078088,0.00051127834,1.8082048e-05,6.339676e-06,2.3738746e-06,28.427174,28.427174
164512061,3932170,3932170,0,0,0,0,0,400.27222,400.27222,4002.722,8005.444,0.044438124,0.0026359109,1.721992e-11,-0.37160954,0.20366557,-9.974505,0.01279456,0.0045458497,0.0016755114,0.0005675943,0.022662548,0.0013052358,9.864511e-06,3.2217201e-06,5.630835e-06,28.329239,28.329239
165456425,3932170,3932170,0,0,0,0,0,400.27222,400.27222,4002.722,8005.444,0.039647773,0.002502488,7.1708945e-12,-0.39515322,0.10347207,-9.986952,0.0015368683,0.0021165344,0.0051430734,0.00036445638,0.0019745692,0.00078777265,8.0943155e-06,3.0364665e-06,2.3942532e-06,28.487793,28.487793
166505718,3932170,3932170,0,0,0,0,0,400.27222,400.27222,4002.722,8005.444,0.04630287,0.0027221346,1.6474516e-11,-0.37537277,0.15399383,-9.96759,0.010873129,0.0037555194,0.0054455204,0.0005705468,0.0035516615,0.0018926905,3.88686e-06,4.419313e-06,3.6577874e-06,28.329239,28.329239
167555014,3932170,3932170,0,0,0,0,0,400.27222,400.27222,4002.722,8005.444,0.04629245,0.0028675452,2.831406e-11,-0.2938391,0.12514916,-9.988545,0.02029208,0.002544281,0.00396077,0.00057042146,0.0023922161,0.0017688103,5.217466e-06,4.0200816e-06,1.3762938e-06,28.623007,28.623007
168499387,3932170,3932170,0,0,0,0,0,400.27222,400.27222,4002.722,8005.444,0.036637217,0.002666033,1.538912e-11,-0.3088391,0.019006215,-10.00255,0.007760005,0.002323347,0.008118443,0.00039305387,0.005445948,0.0009197615,4.9730415e-06,4.3681002e-06,2.624478e-06,28.476124,28.476124
169548678,3932170,3932170,0,0,0,0,0,400.27222,400.27222,4002.722,8005.444,0.04053652,0.0026213827,2.525811e-11,-0.35117522,-0.11292704,-10.021217,0.0056099514,0.0014779413,0.012532764,0.00067967945,0.024601314,0.0058460785,3.4360935e-05,7.051645e-06,1.2523667e-05,28.476124,28.476124
170493041,3932170,3932170,0,0,0,0,0,400.27222,400.27222,4002.722,8005.444,0.042759586,0.0026331309,2.3150856e-11,-0.3115071,0.053838495,-9.974226,0.015379219,0.006780336,0.0062668035,0.0009869338,0.00399744,0.0006591011,8.258416e-06,4.309878e-06,1.5135796e-06,28.427174,28.427174
171542338,3932170,3932170,0,0,0,0,0,400.27222,400.27222,4002.722,8005.444,0.056866724,0.002832366,2.2099428e-11,-0.3147039,0.04559143,-9.990827,0.01126417,0.006458136,0.00599579,0.00091949414,0.010295079,0.0017659408,1.07712385e-05,5.3539584e-06,3.5217565e-06,28.476124,28.476124
172486702,3932170,3932170,0,0,0,0,0,400.27222,400.27222,4002.722,8005.444,0.06688657,0.0025887869,1.2428295e-11,-0.35896352,0.02381124,-9.96696,0.005503893,0.002307154,0.008129365,0.0012223019,0.017246144,0.0054130983,3.9535876e-06,4.114137e-06,1.6350541e-06,28.523932,28.523932
173536001,3932170,3932170,0,0,0,0,0,400.27222,400.27222,4002.722,8005.444,0.033651672,0.0025086366,1.5302228e-11,-0.32804832,0.033411033,-9.9763155,0.009657512,0.0035214422,0.0075131305,0.0003549843,0.0043168836,0.0006788466,2.983406e-06,3.2096411e-06,1.8311155e-06,28.476124,28.476124
174480379,3932170,3932170,0,0,0,0,0,400.27222,400.27222,4002.722,8005.444,0.03471518,0.0025130783,1.419782e-11,-0.316915,-0.036198325,-9.987039,0.008475627,0.0031991673,0.0064913267,0.0005778304,0.0013102582,0.0013798509,2.3515963e-06,4.092382e-06,1.8142576e-06,28.64867,28.64867
175529661,3932170,3932170,0,0,0,0,0,400.27222,400.27222,4002.722,8005.444,0.0376156,0.0026894563,1.6878748e-11,-0.34094417,0.077703685,-9.97867,0.009480818,0.0033085037,0.0031930543,0.000524933,0.0047279056,0.0013415167,5.3023355e-06,4.3100085e-06,2.7317233e-06,28.671986,28.671986
176469030,3932170,3932170,0,0,0,0,0,400.27222,400.27222,4002.722,8005.444,0.04046105,0.0025496255,1.0108782e-11,-0.31674376,-0.048078112,-9.98424,0.006732986,0.0023384513,0.0057649976,0.00054098316,0.013370693,0.0014927902,6.8603026e-06,2.7719257e-06,3.3017816e-06,28.671986,28.671986
177518327,3932170,3932170,0,0,0,0,0,400.27222,400.27222,4002.722,8005.444,0.03253815,0.0025105358,9.85932e-12,-0.3375725,0.025854386,-9.978004,0.004828608,0.0019511334,0.0065337433,0.00050350017,0.003345303,0.00037673686,5.8076184e-06,3.3043398e-06,1.2016927e-06,28.525097,28.525097
178462692,3932170,3932170,0,0,0,0,0,400.27222,400.27222,4002.722,8005.444,0.029800834,0.0026745272,2.1328373e-11,-0.3428407,0.029722942,-9.980374,0.012040387,0.0027442442,0.0057406113,0.00031949353,0.008666809,0.0006114327,3.599268e-06,4.93049e-06,2.879681e-06,28.713934,28.713934
179511990,3932170,3932170,0,0,0,0,0,400.27222,400.27222,4002.722,8005.444,0.031524673,0.002484438,2.7478776e-11,-0.34225103,0.030832857,-9.981568,0.018085284,0.0023814903,0.006025949,0.00035668584,0.0012489782,0.00059531425,3.5980415e-06,3.9415268e-06,1.1401686e-06,28.671986,28.671986
180456358,3932170,3932170,0,0,0,0,0,400.27222,400.27222,4002.722,8005.444,0.039290734,0.0026486078,1.36873134e-11,-0.3195015,-0.0590569,-9.979473,0.008238797,0.0022495338,0.008378275,0.0004955761,0.008660299,0.001376328,3.566068e-06,3.3733447e-06,2.304517e-06,28.671986,28.671986
181505659,3932170,3932170,0,0,0,0,0,400.27222,400.27222,4002.722,8005.444,0.038457844,0.0026744774,1.862848e-11,-0.37516809,-0.059919897,-9.984814,0.012570656,0.0027929358,0.0067846156,0.00031518322,0.0018257342,0.0006141932,8.848408e-06,3.8287685e-06,1.9165402e-06,28.671986,28.671986
182450050,3932170,3932170,0,0,0,0,0,400.27222,400.27222,4002.722,8005.444,0.031530753,0.0026223443,1.4982833e-11,-0.34607163,0.009933526,-9.978396,0.0066467957,0.0028750105,0.0075253677,0.00037645013,0.0016843133,0.0004018499,3.657045e-06,3.145076e-06,1.922095e-06,28.605536,28.605536
183499338,3932170,3932170,0,0,0,0,0,400.27222,400.27222,4002.722,8005.444,0.029643139,0.0025517172,1.7563147e-11,-0.34435174,-0.003734125,-9.983182,0.013100477,0.0027793015,0.004279628,0.00024952428,0.0014734074,0.000364962,3.039566e-06,3.3249416e-06,1.7937354e-06,28.746582,28.746582
184548614,3932170,3932170,0,0,0,0,0,400.27222,400.27222,4002.722,8005.444,0.030704083,0.0026744662,8.249392e-12,-0.3469455,-0.06598943,-9.975279,0.002818145,0.0022384257,0.0054795914,0.00048387822,0.0014982927,0.00081311824,3.1913007e-06,3.0133497e-06,2.8501347e-06,28.671986,28.671986
185492983,3932170,3932170,0,0,0,0,0,400.27222,400.27222,4002.722,8005.444,0.040448785,0.0027942674,1.6948946e-11,-0.3682438,-0.021128967,-9.970611,0.0071756924,0.0014962472,0.0064429916,0.00036345058,0.001589773,0.00048121854,2.662576e-06,5.617667e-06,2.2178979e-06,28.513428,28.513428
186537285,3932170,3932170,0,0,0,0,0,400.27222,400.27222,4002.722,8005.444,0.024983488,0.002612256,1.4130166e-11,-0.3472135,-0.014252917,-9.979928,0.0049744775,0.0017518313,0.007619949,0.00046620052,0.00025874015,0.0004754599,2.71383e-06,3.7111813e-06,1.718902e-06,28.671986,28.671986
187476656,3932170,3932170,0,0,0,0,0,400.27222,400.27222,4002.722,8005.444,0.024467284,0.002574256,1.5329436e-11,-0.34437925,-0.04368393,-9.985425,0.010402324,0.0024232473,0.006197753,0.0003368071,0.00039533945,0.00031021616,4.3743976e-06,3.5889473e-06,2.6540686e-06,28.58105,28.58105
188525953,3932170,3932170,0,0,0,0,0,400.27222,400.27222,4002.722,8005.444,0.02539059,0.002518619,1.3189369e-11,-0.35420674,-0.026283484,-9.975603,0.008527484,0.0027937114,0.005963466,0.00044759145,0.0003624377,0.0005686621,2.528189e-06,3.931993e-06,1.830837e-06,28.525097,28.525097
189470318,3932170,3932170,0,0,0,0,0,400.27222,400.27222,4002.722,8005.444,0.024989292,0.0025684857,2.0071307e-11,-0.34893024,-0.029629808,-9.978598,0.011570831,0.002838086,0.006646105,0.00039409922,0.00062793616,0.0004598342,2.6462076e-06,4.1902467e-06,1.8593482e-06,28.678965,28.678965
