timestamp,timestamp_sample,states[0],states[1],states[2],states[3],states[4],states[5],states[6],states[7],states[8],states[9],states[10],states[11],states[12],states[13],states[14],states[15],states[16],states[17],states[18],states[19],states[20],states[21],states[22],states[23],covariances[0],covariances[1],covariances[2],covariances[3],covariances[4],covariances[5],covariances[6],covariances[7],covariances[8],covariances[9],covariances[10],covariances[11],covariances[12],covariances[13],covariances[14],covariances[15],covariances[16],covariances[17],covariances[18],covariances[19],covariances[20],covariances[21],covariances[22],covariances[23],n_states
17650493,17548831,0.24730957,0.010519827,-0.017301312,0.9687249,0.0016343773,-0.0019535585,-0.00049728825,-0.0641916,-0.006442785,-0.52718675,1.6581493e-05,6.231544e-05,1.1200654e-05,-6.075595e-05,9.9246645e-05,1.5967353e-05,0.24370772,-0.043942887,0.22638792,0.0,0.0,0.0,0.0,0.0,0.00045212056,4.7109595e-05,4.694062e-05,2.9546127e-05,0.00019013329,0.00019014168,0.00018537299,0.008660398,0.008660395,0.041974057,3.4628106e-11,3.45587e-11,3.0613134e-09,1.757325e-06,1.7569505e-06,5.000103e-08,0.0,0.0,0.0,0.0,0.0,0.0,0.0,0.0,24
18650784,18549115,0.24706395,0.010678707,-0.016918365,0.9687927,0.0012895495,-0.0009985784,-0.0001343854,-0.08109465,-0.0068595554,-0.525641,1.6665801e-05,6.2468884e-05,1.0347469e-05,-5.9781443e-05,9.8730634e-05,1.5382691e-05,0.24370772,-0.043942887,0.22638792,0.0,0.0,0.0,0.0,0.0,0.0004253622,4.7013848e-05,4.6854497e-05,2.7833936e-05,0.00017540093,0.00017540953,0.00017159907,0.0067847115,0.006784708,0.039286043,3.1675492e-11,3.1615013e-11,2.504963e-09,1.7571816e-06,1.7568002e-06,5.0001038e-08,0.0,0.0,0.0,0.0,0.0,0.0,0.0,0.0,24
19651137,19549398,0.24664177,0.010654972,-0.017144276,0.96889645,0.00046997698,-0.00022510684,0.00011772501,-0.09605762,-0.007852911,-0.5253745,1.6664933e-05,6.259505e-05,9.711975e-06,-5.9012476e-05,9.8873046e-05,1.611776e-05,0.24370772,-0.043942887,0.22638792,0.0,0.0,0.0,0.0,0.0,0.00039414514,4.6943165e-05,4.678359e-05,2.5762132e-05,0.00016096939,0.00016097247,0.00015791808,0.005578107,0.0055781044,0.036922064,2.9331253e-11,2.9271956e-11,2.0474675e-09,1.7570537e-06,1.7566686e-06,5.0001024e-08,0.0,0.0,0.0,0.0,0.0,0.0,0.0,0.0,24
20651401,20549682,0.24633326,0.010638137,-0.017573657,0.96896744,0.001327535,3.659542e-05,0.00013163447,-0.10915788,-0.010751622,-0.53083646,1.6723778e-05,6.2732186e-05,9.295879e-06,-5.804789e-05,9.8938406e-05,1.5767182e-05,0.24370772,-0.043942887,0.22638792,0.0,0.0,0.0,0.0,0.0,0.00037374662,4.6886267e-05,4.672449e-05,2.440261e-05,0.00014676992,0.00014677444,0.00014432451,0.0047369637,0.0047369627,0.034826886,2.7484834e-11,2.742848e-11,1.7180267e-09,1.7569268e-06,1.7565427e-06,5.000099e-08,0.0,0.0,0.0,0.0,0.0,0.0,0.0,0.0,24
21651627,21549965,0.24628325,0.010657424,-0.017300315,0.96898484,0.0011045486,-0.00042541887,7.8380835e-05,-0.12088381,-0.014342171,-0.5327443,1.6795972e-05,6.278211e-05,9.186204e-06,-5.7478406e-05,9.8660494e-05,1.6288912e-05,0.24370772,-0.043942887,0.22638792,0.0,0.0,0.0,0.0,0.0,0.00035534278,4.6829242e-05,4.6675723e-05,2.3191344e-05,0.00013276857,0.00013277213,0.00013082648,0.0041172425,0.0041172425,0.033046078,2.5980603e-11,2.5935752e-11,1.4561423e-09,1.7568204e-06,1.756435e-06,5.000094e-08,0.0,0.0,0.0,0.0,0.0,0.0,0.0,0.0,24
22651913,22550248,0.24601342,0.010657268,-0.017341495,0.96905273,0.00076384755,-0.000122909,3.6733774e-05,-0.13100818,-0.019897837,-0.5347883,1.677325e-05,6.288611e-05,8.562271e-06,-5.6942223e-05,9.898798e-05,1.478473e-05,0.24370772,-0.043942887,0.22638792,0.0,0.0,0.0,0.0,0.0,0.00033331278,4.6779594e-05,4.6629822e-05,2.1760527e-05,0.00011893577,0.000118939104,0.00011742038,0.0036418056,0.003641806,0.031358484,2.4736858e-11,2.4695712e-11,1.2308604e-09,1.7567265e-06,1.7563469e-06,5.0000843e-08,0.0,0.0,0.0,0.0,0.0,0.0,0.0,0.0,24
23652197,23550531,0.24600115,0.010674551,-0.01714833,0.96905905,0.00038789184,-0.00042244332,-0.00037220793,-0.13841777,-0.027067114,-0.5364942,1.6745813e-05,6.295879e-05,8.240465e-06,-5.661601e-05,9.924716e-05,1.4049194e-05,0.24370772,-0.043942887,0.22638792,0.0,0.0,0.0,0.0,0.0,0.00031863432,4.673663e-05,4.6591984e-05,2.0822119e-05,0.00010527294,0.00010527538,0.00010410953,0.0032656225,0.0032656223,0.029835343,2.371864e-11,2.3680693e-11,1.0620871e-09,1.7566651e-06,1.7562896e-06,5.000075e-08,0.0,0.0,0.0,0.0,0.0,0.0,0.0,0.0,24
24652500,24550814,0.24578823,0.010941108,-0.017399205,0.9691056,0.001318975,0.00043695455,4.9404644e-06,-0.1442656,-0.0342866,-0.53627187,1.6827918e-05,6.288249e-05,8.20542e-06,-5.683663e-05,9.86034e-05,1.3687815e-05,0.24370772,-0.043942887,0.22638792,0.0,0.0,0.0,0.0,0.0,0.00030523416,4.6704892e-05,4.6559322e-05,1.99007e-05,9.175524e-05,9.1759386e-05,9.0892485e-05,0.002960631,0.0029606305,0.028453715,2.2862613e-11,2.2838108e-11,9.2320845e-10,1.7565852e-06,1.7562099e-06,5.0000658e-08,0.0,0.0,0.0,0.0,0.0,0.0,0.0,0.0,24
25652808,25551097,0.24507077,0.010359875,-0.017735418,0.9692876,0.007890124,-0.00076367013,-0.0004538372,-0.15140224,-0.04079013,-0.5357823,1.6821767e-05,6.1931925e-05,7.984333e-06,-6.126715e-05,9.49251e-05,9.882298e-06,0.24370772,-0.043942887,0.22638792,0.0,0.0,0.0,0.0,0.0,0.00028859495,4.6656623e-05,4.651276e-05,1.8708368e-05,7.83928e-05,7.847597e-05,7.778261e-05,0.002708439,0.0027084413,0.027194768,2.2097301e-11,2.2116716e-11,7.990692e-10,1.7561841e-06,1.7560346e-06,5.0000555e-08,0.0,0.0,0.0,0.0,0.0,0.0,0.0,0.0,24
26653150,26551380,0.24498703,0.011023788,-0.018367523,0.9692897,-0.0027172903,0.0010501496,-0.00037150012,-0.15579292,-0.046566408,-0.53715897,1.6784137e-05,6.330246e-05,8.08079e-06,-5.398667e-05,0.00010637938,1.8693561e-05,0.24370772,-0.043942887,0.22638792,0.0,0.0,0.0,0.0,0.0,0.0002757491,4.658364e-05,4.649306e-05,1.7849528e-05,6.516492e-05,6.517311e-05,6.473657e-05,0.0024964872,0.002496488,0.026098358,2.1551165e-11,2.1511553e-11,7.0068346e-10,1.7535898e-06,1.7558763e-06,5.000047e-08,0.0,0.0,0.0,0.0,0.0,0.0,0.0,0.0,24
27653577,27551663,0.24501917,0.011492248,-0.018003501,0.96928304,-0.0009566053,-0.00027524217,6.07295e-06,-0.159372,-0.052858308,-0.53770775,1.6903834e-05,6.353844e-05,8.178044e-06,-5.2160598e-05,0.00010714408,2.2294245e-05,0.24370772,-0.043942887,0.22638792,0.0,0.0,0.0,0.0,0.0,0.00026248413,4.6548357e-05,4.6472855e-05,1.697641e-05,5.20697e-05,5.2071035e-05,5.1798765e-05,0.0023159091,0.0023159094,0.025036016,2.104188e-11,2.1002824e-11,6.156134e-10,1.7531763e-06,1.7557755e-06,5.0000374e-08,0.0,0.0,0.0,0.0,0.0,0.0,0.0,0.0,24
28653612,28551945,0.24509881,0.011636336,-0.017786413,0.9692651,-0.0008533584,-0.0011870542,-4.4576092e-05,-0.16163097,-0.059540678,-0.5357323,1.6867069e-05,6.3500025e-05,8.214102e-06,-5.2265328e-05,0.00010726527,2.4654913e-05,0.24370772,-0.043942887,0.22638792,0.0,0.0,0.0,0.0,0.0,0.000253566,4.652231e-05,4.6451536e-05,1.6399425e-05,3.911182e-05,3.9111255e-05,3.8958966e-05,0.0021602588,0.0021602581,0.024057116,2.060116e-11,2.0567152e-11,5.490762e-10,1.7530602e-06,1.7557165e-06,5.000028e-08,0.0,0.0,0.0,0.0,0.0,0.0,0.0,0.0,24
29654178,29552229,0.24532335,0.0117671685,-0.017335555,0.9692149,-0.0012764756,-0.0010201298,0.00030601502,-0.16163804,-0.06615203,-0.5361313,1.6895541e-05,6.354693e-05,8.256077e-06,-5.1960764e-05,0.0001072181,2.5485775e-05,0.24370772,-0.043942887,0.22638792,0.0,0.0,0.0,0.0,0.0,0.0002452703,4.6495214e-05,4.6430236e-05,1.5881471e-05,2.6280495e-05,2.6281205e-05,2.6212805e-05,0.0020247456,0.002024745,0.023152206,2.0226598e-11,2.0194795e-11,4.921405e-10,1.7530058e-06,1.7556741e-06,5.000019e-08,0.0,0.0,0.0,0.0,0.0,0.0,0.0,0.0,24
30654246,30552512,0.24525037,0.011728026,-0.017695678,0.9692274,-0.00071394694,-0.0010352004,-0.00033415173,-0.1612742,-0.07275198,-0.53684956,1.6810138e-05,6.366307e-05,8.3492705e-06,-5.1486193e-05,0.00010760437,2.586434e-05,0.24370772,-0.043942887,0.22638792,0.0,0.0,0.0,0.0,0.0,0.00023486064,4.6474976e-05,4.6406447e-05,1.518395e-05,1.357901e-05,1.3578504e-05,1.3559807e-05,0.0019057302,0.0019057303,0.022313222,1.9903057e-11,1.9867183e-11,4.3947726e-10,1.7529278e-06,1.7556107e-06,5.0000097e-08,0.0,0.0,0.0,0.0,0.0,0.0,0.0,0.0,24
31654547,31552793,0.24503836,0.011478113,-0.017986216,0.9692786,-6.665356e-06,-3.7631983e-06,-1.5051223e-06,-0.16017205,-0.07851439,-0.5371001,1.6973641e-05,6.364919e-05,8.154886e-06,-5.1308092e-05,0.000107113396,2.5123381e-05,0.24370772,-0.043942887,0.22638792,0.0,0.0,0.0,0.0,0.0,0.00022772184,4.645696e-05,4.638156e-05,1.4711297e-05,1e-06,1e-06,1e-06,0.0018004029,0.0018004018,0.021571133,1.9621887e-11,1.9594257e-11,3.9741535e-10,1.7528713e-06,1.7554992e-06,5e-08,0.0,0.0,0.0,0.0,0.0,0.0,0.0,0.0,24
32654797,32553075,0.24495259,0.011171626,-0.019569788,0.96927315,0.0010315554,-0.0011485105,0.00017631872,-0.15799288,-0.0829807,-0.5374603,1.691801e-05,6.364024e-05,8.024434e-06,-5.1340125e-05,0.00010726997,2.4907065e-05,0.24370772,-0.043942887,0.22638792,0.0,0.0,0.0,0.0,0.0,0.00022102366,4.661453e-05,4.6522877e-05,1.4280577e-05,0.000261702,0.00026171064,0.00025553477,0.0017085504,0.0017085496,0.020843593,1.9624162e-11,1.959778e-11,3.6085657e-10,1.7528434e-06,1.755388e-06,5.0000924e-08,0.0,0.0,0.0,0.0,0.0,0.0,0.0,0.0,24
33655001,33553358,0.24552515,0.011121924,-0.019393377,0.9691324,-0.0021640672,-0.00017138972,0.0010409884,-0.15637818,-0.08704031,-0.5364827,1.6882113e-05,6.376701e-05,8.221625e-06,-5.0886916e-05,0.00010784133,2.3612432e-05,0.24370772,-0.043942887,0.22638792,0.0,0.0,0.0,0.0,0.0,0.00021251093,4.658282e-05,4.6503843e-05,1.3775331e-05,0.0002467673,0.00024677644,0.00024126998,0.0016239779,0.0016239778,0.020161621,1.9408844e-11,1.9380652e-11,3.2650793e-10,1.7527426e-06,1.7550907e-06,5.0000956e-08,0.0,0.0,0.0,0.0,0.0,0.0,0.0,0.0,24
34655379,34553640,0.24560295,0.0115857525,-0.017268363,0.9691475,6.2861436e-05,0.0044090203,-0.00031060653,-0.15425478,-0.09117376,-0.5378774,1.6990416e-05,6.389844e-05,8.294455e-06,-5.0904073e-05,0.000107129126,2.700164e-05,0.24370772,-0.043942887,0.22638792,0.0,0.0,0.0,0.0,0.0,0.00020672861,4.6550133e-05,4.64965e-05,1.3394731e-05,0.00023201025,0.00023199593,0.00022713072,0.0015477606,0.0015477606,0.019523127,1.9223107e-11,1.9198594e-11,2.9873198e-10,1.7526979e-06,1.7550029e-06,5.000089e-08,0.0,0.0,0.0,0.0,0.0,0.0,0.0,0.0,24
35655676,35553923,0.24288349,0.008505133,-0.017303385,0.9698639,-0.018170862,0.012766147,-0.0053472873,-0.15382016,-0.094606645,-0.53826296,1.6934e-05,6.082632e-05,8.283423e-06,-6.0395992e-05,9.199264e-05,3.563439e-05,0.24370772,-0.043942887,0.22638792,0.0,0.0,0.0,0.0,0.0,0.00019707793,4.640652e-05,4.6453995e-05,1.2456158e-05,0.00021760417,0.00021770524,0.00021334841,0.0014787471,0.0014787473,0.018924108,1.8989626e-11,1.9031467e-11,2.7002905e-10,1.7473511e-06,1.7547666e-06,5.000103e-08,0.0,0.0,0.0,0.0,0.0,0.0,0.0,0.0,24
36655853,36554205,0.23556405,0.0075995857,-0.021620609,0.97158855,-0.56405324,0.25842366,0.010275089,-0.34353453,-0.010293918,-0.53322214,1.7064323e-05,5.8855898e-05,9.221187e-06,-6.0758917e-05,5.1403982e-05,3.7963883e-07,0.24370772,-0.043942887,0.22638792,0.0,0.0,0.0,0.0,0.0,0.0001912242,4.671313e-05,4.6853263e-05,1.1229227e-05,0.0013435327,0.0015152916,0.0012625383,0.0016323756,0.0016499368,0.018599698,1.948575e-11,1.9558839e-11,2.4745553e-10,1.7416862e-06,1.7541902e-06,5.000072e-08,0.0,0.0,0.0,0.0,0.0,0.0,0.0,0.0,24
37656143,37554487,0.24796371,-0.015811604,-0.02737396,0.9682535,-0.572645,0.4774544,-0.105047174,-0.28724915,0.1559882,-0.58446914,2.1508602e-05,3.2413467e-05,2.2405164e-05,0.00014148366,-0.0016512678,-8.17636e-05,0.24370772,-0.043942887,0.22638792,0.0,0.0,0.0,0.0,0.0,0.00013688106,4.143719e-05,4.6768833e-05,7.858367e-06,0.0009147314,0.0010853857,0.0009180829,0.0015891193,0.0016427635,0.018101571,1.9288448e-11,1.9245702e-11,1.8775133e-10,1.5553863e-06,1.7449509e-06,5.0000875e-08,0.0,0.0,0.0,0.0,0.0,0.0,0.0,0.0,24
38656394,38554770,0.2445741,-0.015531543,-0.026151076,0.9691535,-1.7668376,1.0890499,-0.15687342,-1.5231338,0.9791016,-0.6736174,2.1540693e-05,3.2904747e-05,2.1269814e-05,0.000250894,-0.0016393572,-0.000105589475,0.24370772,-0.043942887,0.22638792,0.0,0.0,0.0,0.0,0.0,0.00013724605,4.173959e-05,4.7640773e-05,7.776507e-06,0.0039810715,0.005124854,0.0035691638,0.0040086145,0.0047431607,0.019845665,2.0306604e-11,2.0262424e-11,1.7824679e-10,1.5366804e-06,1.7441077e-06,5.0000178e-08,0.0,0.0,0.0,0.0,0.0,0.0,0.0,0.0,24
39657113,39555053,0.24317388,-0.016533433,-0.028541956,0.96942174,-2.7227254,1.6637142,-0.1492066,-3.813054,2.3787234,-0.7695327,2.1569713e-05,3.303121e-05,2.0107685e-05,0.0005486578,-0.0015787667,-0.00016797385,0.24370772,-0.043942887,0.22638792,0.0,0.0,0.0,0.0,0.0,0.00013805169,4.1071507e-05,4.8628805e-05,7.85959e-06,0.009508198,0.011950472,0.0064213905,0.016992632,0.021478355,0.027955998,2.1328815e-11,2.1278585e-11,1.6988706e-10,1.4808533e-06,1.7417689e-06,5.0000097e-08,0.0,0.0,0.0,0.0,0.0,0.0,0.0,0.0,24
40657010,40555335,0.24390052,-0.01674631,-0.03003844,0.96919036,-3.414277,2.2044356,-0.12905507,-6.924533,4.316173,-0.77374864,2.1591955e-05,3.320586e-05,1.922398e-05,0.0009740475,-0.0014930428,-0.00026717485,0.24370772,-0.043942887,0.22638792,0.0,0.0,0.0,0.0,0.0,0.0001384447,3.9990242e-05,4.9720224e-05,8.0471755e-06,0.018343404,0.021726893,0.008250113,0.056048397,0.06996309,0.04270895,2.2352209e-11,2.229138e-11,1.6189003e-10,1.4091653e-06,1.7388692e-06,5e-08,0.0,0.0,0.0,0.0,0.0,0.0,0.0,0.0,24
41657250,41555618,0.2453153,-0.013645585,-0.02587935,0.96900177,-3.8105395,2.701739,-0.11691083,-10.585599,6.7892237,-0.7302556,2.1627917e-05,3.3358694e-05,1.8310197e-05,0.0012933768,-0.0014362516,-0.00035302146,0.24370772,-0.043942887,0.22638792,0.0,0.0,0.0,0.0,0.0,0.00013768602,3.9340637e-05,5.0874623e-05,8.217257e-06,0.031430945,0.034986358,0.0089051705,0.14686027,0.17641091,0.06036565,2.3376027e-11,2.3302991e-11,1.5362404e-10,1.3501462e-06,1.737108e-06,5.000036e-08,0.0,0.0,0.0,0.0,0.0,0.0,0.0,0.0,24
42647446,42545796,0.24444243,-0.032608114,-0.018587727,0.96893716,-3.3508482,2.675504,-0.61292833,-14.286738,9.500752,-0.9164032,2.1658263e-05,3.3445685e-05,1.7215903e-05,0.00143408,-0.0014093728,-0.0003862324,0.24370772,-0.043942887,0.22638792,0.0,0.0,0.0,0.0,0.0,0.00013734358,3.9607377e-05,5.2417803e-05,8.270125e-06,0.04996447,0.052333474,0.008650197,0.32572737,0.37430364,0.076125205,2.4390715e-11,2.4309985e-11,1.4641995e-10,1.3188337e-06,1.7363296e-06,5.0000185e-08,0.0,0.0,0.0,0.0,0.0,0.0,0.0,0.0,24
43647575,43546079,0.2556609,-0.04803173,0.0016505677,0.9655712,0.0383811,-0.0620084,0.020936936,-9.087854,4.9094496,-0.29673308,1.2319261e-05,1.4124851e-05,2.5810448e-05,0.0015675077,-0.0010678191,-0.00082461856,0.24370772,-0.043942887,0.22638792,0.0,0.0,0.0,0.0,0.0,0.000105526175,3.378756e-05,4.633937e-05,6.3402967e-06,3.9402188e-05,4.4876648e-05,3.906146e-05,0.04585512,0.06619144,0.038049627,1.8901302e-11,1.8936916e-11,1.2033355e-10,1.2645626e-06,1.722066e-06,5.0000093e-08,0.0,0.0,0.0,0.0,0.0,0.0,0.0,0.0,24
44657943,44556466,0.24764983,-0.016187929,-0.0083779935,0.9686781,0.0128990915,-0.01209429,0.008578696,-7.584325,3.7174733,-0.22036889,1.6296184e-05,5.540299e-05,2.421013e-05,0.0009239873,-0.0014616841,-0.0002734604,0.24370772,-0.043942887,0.22638792,0.0,0.0,0.0,0.0,0.0,7.915564e-05,3.1369385e-05,4.6151326e-05,4.785883e-06,3.9152517e-05,3.9167993e-05,3.898294e-05,0.040622223,0.05067531,0.035215642,1.867077e-11,1.849306e-11,1.0143127e-10,1.1561127e-06,1.7091738e-06,5.0000093e-08,0.0,0.0,0.0,0.0,0.0,0.0,0.0,0.0,24
45658510,45556748,0.23916234,0.0002504417,-0.006935019,0.97095484,0.004879562,-0.004936979,0.00094104244,-7.1106987,3.4277306,-0.22006314,1.621376e-05,7.291087e-05,2.3450988e-05,0.0009677483,-0.0011177104,5.697138e-05,0.24370772,-0.043942887,0.22638792,0.0,0.0,0.0,0.0,0.0,8.054376e-05,3.0470906e-05,4.5930512e-05,4.6206783e-06,2.6290334e-05,2.6289763e-05,2.6223906e-05,0.039216418,0.04793376,0.03310975,1.8583078e-11,1.8281357e-11,9.8901394e-11,1.1217948e-06,1.7010129e-06,5e-08,0.0,0.0,0.0,0.0,0.0,0.0,0.0,0.0,24
46648615,46546927,0.24588512,0.004959216,-0.010179998,0.96923286,5.1416082e-05,-0.00032072503,-0.0003428187,-7.014274,3.2107902,-0.25907633,2.7144304e-05,8.187341e-05,3.1617317e-05,0.0011504061,-0.0010772875,-6.649645e-06,0.24370772,-0.043942887,0.22638792,0.0,0.0,0.0,0.0,0.0,8.1329585e-05,2.9982382e-05,4.5172983e-05,4.656652e-06,1e-06,1e-06,1.0002113e-06,0.03848031,0.047002,0.031431552,1.8440305e-11,1.8269828e-11,9.575661e-11,1.1057915e-06,1.6890638e-06,5e-08,0.0,0.0,0.0,0.0,0.0,0.0,0.0,0.0,24
47648706,47547211,0.25397468,0.005520075,-0.016399948,0.96705616,-0.02125598,-0.022302236,-0.011283855,-6.986338,3.1104116,-0.32095426,3.0557276e-05,8.66677e-05,3.0512705e-05,0.0010411789,-0.0012824085,-2.3391613e-05,0.24370772,-0.043942887,0.22638792,0.0,0.0,0.0,0.0,0.0,8.3186234e-05,2.9871546e-05,4.5170145e-05,5.231663e-06,0.0002623646,0.00026318993,0.00025563993,0.038248576,0.046482474,0.029878631,1.8544853e-11,1.8425947e-11,9.3727276e-11,1.0981305e-06,1.6871284e-06,5.000078e-08,0.0,0.0,0.0,0.0,0.0,0.0,0.0,0.0,24
48648962,48547493,0.26395342,0.0073959013,-0.02519226,0.9641781,-0.017976433,0.045973618,0.018545479,-7.0039864,3.0885558,-0.38787374,3.192655e-05,8.6284585e-05,2.9033954e-05,0.000868345,-0.0013142931,5.0057333e-06,0.24370772,-0.043942887,0.22638792,0.0,0.0,0.0,0.0,0.0,8.412167e-05,2.9607636e-05,4.4835215e-05,5.865284e-06,0.0002486699,0.00024722618,0.00024156926,0.03815743,0.046098523,0.028483028,1.8358193e-11,1.8340895e-11,9.128967e-11,1.0895982e-06,1.6761402e-06,5.0000786e-08,0.0,0.0,0.0,0.0,0.0,0.0,0.0,0.0,24
49649676,49547776,0.26353037,0.0086630685,-0.019772042,0.96440965,0.050829332,0.044859316,-0.002594522,-7.0129957,3.115607,-0.42878026,2.3902925e-05,8.093798e-05,2.5571399e-05,0.0012665305,-0.00057112175,9.224363e-05,0.24370772,-0.043942887,0.22638792,0.0,0.0,0.0,0.0,0.0,8.130414e-05,2.9197949e-05,4.3862183e-05,5.8737533e-06,0.00023314139,0.00023294188,0.00022824782,0.038129427,0.045395263,0.027204186,1.8190945e-11,1.8176098e-11,8.664936e-11,1.0768541e-06,1.6424773e-06,5.0000548e-08,0.0,0.0,0.0,0.0,0.0,0.0,0.0,0.0,24
50650134,50548059,0.25303775,0.01066904,-0.01476522,0.9672849,0.01842115,-0.031677768,-0.01100619,-7.0055904,3.0999784,-0.48593184,1.8336345e-05,8.2597166e-05,2.3572273e-05,0.0013561836,-0.0006562952,-2.2433567e-05,0.24370772,-0.043942887,0.22638792,0.0,0.0,0.0,0.0,0.0,8.3051294e-05,2.8899953e-05,4.336208e-05,5.649911e-06,0.00021794882,0.00021761909,0.00021381394,0.038095824,0.04502703,0.026096988,1.8160074e-11,1.81096e-11,8.457979e-11,1.0706409e-06,1.6307771e-06,5.0000892e-08,0.0,0.0,0.0,0.0,0.0,0.0,0.0,0.0,24
51649990,51548342,0.2568905,0.013680416,-0.020820517,0.9661194,-0.0172417,-0.04464322,0.004759402,-7.006827,3.0825486,-0.54562706,2.3174542e-05,8.5774016e-05,2.2921808e-05,0.001324269,-0.00063170784,0.0001679552,0.24370772,-0.043942887,0.22638792,0.0,0.0,0.0,0.0,0.0,8.402331e-05,2.888994e-05,4.3268687e-05,5.941919e-06,0.00020334026,0.0002029764,0.00019982884,0.038057957,0.044740576,0.02502902,1.8156508e-11,1.8129066e-11,8.2386105e-11,1.0629133e-06,1.6216242e-06,5.0000878e-08,0.0,0.0,0.0,0.0,0.0,0.0,0.0,0.0,24
52650158,52548626,0.26636228,0.010902352,-0.034364253,0.9631985,-6.675506,3.549884,-0.09132411,-99.480125,56.627113,-0.67697424,2.4762307e-05,8.602055e-05,2.1553036e-05,0.0012046451,-0.0006806664,0.00019401273,0.24370772,-0.043942887,0.22638792,0.0,0.0,0.0,0.0,0.0,8.4894455e-05,2.9507673e-05,4.381577e-05,6.59145e-06,0.018033272,0.018014032,0.03271281,0.030597867,0.030597724,0.03490155,1.89676e-11,1.8957304e-11,8.049925e-11,1.060107e-06,1.6167102e-06,5.000058e-08,0.0,0.0,0.0,0.0,0.0,0.0,0.0,0.0,24
53650387,53548909,0.24879712,0.012673187,-0.027562,0.96808046,-6.405278,3.9206228,-0.085339144,-106.004036,60.28323,-0.85564595,2.4306568e-05,8.578836e-05,2.0609565e-05,0.0011314566,-0.0006967697,0.00019135281,0.24370772,-0.043942887,0.22638792,0.0,0.0,0.0,0.0,0.0,8.7220295e-05,3.029102e-05,4.454864e-05,5.9209583e-06,0.007582668,0.0075233663,0.014953019,0.020989673,0.020984508,0.05583753,1.9900748e-11,1.9882285e-11,7.87684e-11,1.0578915e-06,1.6151197e-06,5.0000377e-08,0.0,0.0,0.0,0.0,0.0,0.0,0.0,0.0,24
54650836,54549192,0.23267926,0.016138384,-0.023025574,0.972147,-6.3982725,3.7909434,-0.024627067,-112.395,63.960873,-0.9839822,2.306542e-05,8.500558e-05,1.95874e-05,0.0010559072,-0.00073886197,0.00017877616,0.24370772,-0.043942887,0.22638792,0.0,0.0,0.0,0.0,0.0,8.937643e-05,3.0928426e-05,4.5139837e-05,5.342604e-06,0.006185063,0.006164655,0.010465391,0.018258378,0.0182474,0.07351326,2.0522332e-11,2.049288e-11,7.7114495e-11,1.055921e-06,1.6140804e-06,5e-08,0.0,0.0,0.0,0.0,0.0,0.0,0.0,0.0,24
55651161,55549475,0.25946778,-0.06578172,-0.028709961,0.963081,0.17142257,-0.07699527,0.003037153,-108.58445,61.813976,-1.0719919,2.2024999e-05,-5.613696e-06,2.737295e-05,0.002692864,-0.0023856717,-0.00043026183,0.24370772,-0.043942887,0.22638792,0.0,0.0,0.0,0.0,0.0,8.4535655e-05,2.8850329e-05,4.319601e-05,5.611799e-06,0.0001792354,0.00017959821,0.00017196611,0.011158878,0.011187025,0.03354563,1.885216e-11,1.8689246e-11,7.254867e-11,1.0478142e-06,1.5850427e-06,5.0000352e-08,0.0,0.0,0.0,0.0,0.0,0.0,0.0,0.0,24
56651257,56549759,0.26898304,-0.07258854,-0.037886396,0.95965815,1.865673,-0.28748807,0.1601906,-107.5945,61.588345,-1.0569481,2.1916247e-05,-5.5485084e-06,2.5604806e-05,0.002624036,-0.0024132147,-0.00045021807,0.24370772,-0.043942887,0.22638792,0.0,0.0,0.0,0.0,0.0,8.56275e-05,2.9673987e-05,4.40982e-05,6.393942e-06,0.0026796751,0.0028859586,0.0019544414,0.011183569,0.01132565,0.031187918,1.9874734e-11,1.9717106e-11,7.1379125e-11,1.0459569e-06,1.5846786e-06,5.000028e-08,0.0,0.0,0.0,0.0,0.0,0.0,0.0,0.0,24
57651646,57550043,0.22631647,-0.0081668515,-0.033091046,0.9734573,0.05150685,0.0065666893,0.006561247,-107.81787,61.73697,-1.3056065,-1.0858196e-05,5.507843e-05,4.77887e-06,0.0030116898,-0.003604513,-0.0008269963,0.24370772,-0.043942887,0.22638792,0.0,0.0,0.0,0.0,0.0,7.96154e-05,2.7943155e-05,4.292478e-05,5.5755995e-06,0.00011900321,0.00011913209,0.00011732819,0.010988664,0.011055233,0.029344007,1.8408955e-11,1.8000646e-11,6.665318e-11,1.0328367e-06,1.5722803e-06,5.000018e-08,0.0,0.0,0.0,0.0,0.0,0.0,0.0,0.0,24
58651815,58550326,0.22250782,0.0014281864,-0.018723337,0.97475004,0.021003105,-0.01984914,-0.005610439,-107.75277,61.708,-1.3393923,-1.2013981e-05,6.567849e-05,1.051818e-05,0.0028112265,-0.0023083831,-0.00080571003,0.24370772,-0.043942887,0.22638792,0.0,0.0,0.0,0.0,0.0,7.93345e-05,2.7651886e-05,4.1958257e-05,4.948006e-06,0.00010536444,0.00010546546,0.000104008825,0.010949652,0.0109961135,0.02784791,1.8166028e-11,1.7958067e-11,6.4634846e-11,1.0220873e-06,1.5515714e-06,5.0000093e-08,0.0,0.0,0.0,0.0,0.0,0.0,0.0,0.0,24
59652271,59550610,0.240684,0.00933291,-0.020283176,0.97034675,0.01469025,-0.028949615,0.008373379,-107.731705,61.65025,-1.3568051,-3.4757084e-06,7.5647484e-05,2.1935677e-05,0.0029264244,-0.0015952331,-0.00064665213,0.24370772,-0.043942887,0.22638792,0.0,0.0,0.0,0.0,0.0,7.809612e-05,2.768945e-05,4.1559906e-05,4.8862644e-06,9.169431e-05,9.163374e-05,9.078693e-05,0.0109386435,0.0109745,0.026558593,1.8106829e-11,1.803432e-11,6.253684e-11,1.0145111e-06,1.5359899e-06,5.000025e-08,0.0,0.0,0.0,0.0,0.0,0.0,0.0,0.0,24
60652904,60550896,0.26156726,0.011562028,-0.030460784,0.96463525,0.0052007874,0.007899991,-0.003430404,-107.72517,61.633945,-1.3730737,-2.5822317e-07,8.0149905e-05,2.359738e-05,0.0027914373,-0.0017954996,-0.0004000519,0.24370772,-0.043942887,0.22638792,0.0,0.0,0.0,0.0,0.0,7.732298e-05,2.7679222e-05,4.130633e-05,5.6650592e-06,7.850455e-05,7.844892e-05,7.765847e-05,0.010937758,0.010968351,0.025473742,1.8018118e-11,1.8040907e-11,6.122305e-11,1.0085781e-06,1.5238786e-06,5.0000494e-08,0.0,0.0,0.0,0.0,0.0,0.0,0.0,0.0,24
61652790,61551178,0.25620618,0.018575735,-0.023636384,0.9661546,0.012273272,0.01580892,0.0040518143,-107.71729,61.653786,-1.3730466,-1.11261625e-05,7.9808044e-05,1.8262343e-05,0.0035967336,-0.00151654,-0.00040731367,0.24370772,-0.043942887,0.22638792,0.0,0.0,0.0,0.0,0.0,7.537752e-05,2.7285017e-05,4.0031842e-05,5.7086963e-06,6.51839e-05,6.511627e-05,6.476862e-05,0.010939792,0.01096796,0.024438726,1.7936324e-11,1.793009e-11,5.934808e-11,9.993826e-07,1.4840206e-06,5.000042e-08,0.0,0.0,0.0,0.0,0.0,0.0,0.0,0.0,24
62653061,62551462,0.23862843,0.022626894,-0.011225239,0.9707824,0.019381212,-0.14347772,0.03403797,-107.683426,61.647503,-1.3789028,-1.3294101e-05,8.013294e-05,1.7281971e-05,0.0036559866,-0.0015017194,-0.00037465128,0.24370772,-0.043942887,0.22638792,0.0,0.0,0.0,0.0,0.0,7.737688e-05,2.7917335e-05,4.0508294e-05,5.1034576e-06,0.0015570113,0.0015521757,0.0013581113,0.011248347,0.011271713,0.023695441,1.8756947e-11,1.8746709e-11,5.871972e-11,9.981621e-07,1.4777672e-06,5.000059e-08,0.0,0.0,0.0,0.0,0.0,0.0,0.0,0.0,24
63653353,63551746,0.24151774,0.025521003,-0.017023427,0.9699114,-0.021981517,-0.055647198,-0.0058575263,-107.663086,61.72962,-1.4034725,-2.8836293e-06,8.269684e-05,1.7920604e-05,0.0039199055,-0.0015315836,-0.0003162871,0.24370772,-0.043942887,0.22638792,0.0,0.0,0.0,0.0,0.0,7.657596e-05,2.7343138e-05,3.9728344e-05,5.0559156e-06,0.00020377133,0.00020327121,0.00019896483,0.011171121,0.011205593,0.022812901,1.8039315e-11,1.8128997e-11,5.72163e-11,9.947363e-07,1.4734662e-06,5.0000963e-08,0.0,0.0,0.0,0.0,0.0,0.0,0.0,0.0,24
64653684,64552030,0.25091833,0.024439616,-0.025251476,0.9673703,0.0059031206,0.0072369813,0.005495876,-107.66364,61.7274,-1.418561,2.3149935e-06,8.394972e-05,1.6764827e-05,0.0039406065,-0.0015764178,-0.0003762815,0.24370772,-0.043942887,0.22638792,0.0,0.0,0.0,0.0,0.0,7.707106e-05,2.725994e-05,3.9519193e-05,5.5555156e-06,0.00018855649,0.000188468,0.00018484578,0.011174934,0.011207644,0.02199448,1.8014243e-11,1.8137028e-11,5.651866e-11,9.927192e-07,1.4700533e-06,5.0000875e-08,0.0,0.0,0.0,0.0,0.0,0.0,0.0,0.0,24
65654148,65552315,0.24834369,0.02875317,-0.021974448,0.9679958,0.0048468634,0.013174023,0.0042296285,-107.66235,61.73076,-1.4265771,-1.8515949e-06,8.4494895e-05,1.5897589e-05,0.004040423,-0.0015327282,-0.00016983738,0.24370772,-0.043942887,0.22638792,0.0,0.0,0.0,0.0,0.0,7.752887e-05,2.7271923e-05,3.9491148e-05,5.5528035e-06,0.00017433376,0.00017426712,0.0001712548,0.011179154,0.0112102665,0.02127016,1.8008118e-11,1.805948e-11,5.570191e-11,9.906712e-07,1.462241e-06,5.0000974e-08,0.0,0.0,0.0,0.0,0.0,0.0,0.0,0.0,24
66654190,66552599,0.23721428,0.030735709,-0.01580573,0.97084236,-0.038583614,-0.03547822,0.0014270477,-107.66465,61.730495,-1.4356537,-3.8305186e-07,8.3203166e-05,1.4824738e-05,0.004040804,-0.0015626609,-8.573112e-05,0.24370772,-0.043942887,0.22638792,0.0,0.0,0.0,0.0,0.0,7.8754056e-05,2.7214419e-05,3.9322407e-05,5.175307e-06,0.00016055975,0.00016062272,0.00015770279,0.011183372,0.011212761,0.020559834,1.798127e-11,1.8045905e-11,5.5054183e-11,9.893278e-07,1.4578256e-06,5.000089e-08,0.0,0.0,0.0,0.0,0.0,0.0,0.0,0.0,24
67654630,67552883,0.24007301,0.026087988,-0.026525278,0.9700417,-0.011063956,0.010299185,-0.0004263462,-107.665886,61.73097,-1.4421877,9.350748e-06,8.069949e-05,1.2604383e-05,0.0040402752,-0.0017870046,-0.00031713935,0.24370772,-0.043942887,0.22638792,0.0,0.0,0.0,0.0,0.0,7.787474e-05,2.7012311e-05,3.8736016e-05,5.3173762e-06,0.00014628106,0.00014619208,0.00014394824,0.011187657,0.011215337,0.019895654,1.794564e-11,1.8113603e-11,5.3899957e-11,9.872034e-07,1.445259e-06,5.0000843e-08,0.0,0.0,0.0,0.0,0.0,0.0,0.0,0.0,24
68654720,68553168,0.2455722,0.025933225,-0.029177662,0.968592,0.009766735,0.03915387,0.0063410136,-107.66555,61.732296,-1.4483994,8.0432355e-06,7.7795e-05,1.2260722e-05,0.004041058,-0.0017434016,-0.00022157612,0.24370772,-0.043942887,0.22638792,0.0,0.0,0.0,0.0,0.0,7.819024e-05,2.7031163e-05,3.880272e-05,5.6045046e-06,0.00013285805,0.00013242084,0.00013073928,0.011191974,0.011218463,0.019273827,1.7936886e-11,1.805188e-11,5.331635e-11,9.862334e-07,1.4434946e-06,5.0000747e-08,0.0,0.0,0.0,0.0,0.0,0.0,0.0,0.0,24
69655013,69553453,0.23422979,0.028923098,-0.020196501,0.9715411,0.00042041566,0.06101825,0.0007499104,-204.20125,118.71726,-1.4540308,2.7374501e-06,7.5644544e-05,1.2972176e-05,0.004016938,-0.001686114,-0.00014779078,0.24370772,-0.043942887,0.22638792,0.0,0.0,0.0,0.0,0.0,7.8593344e-05,2.7276452e-05,3.8876235e-05,5.077207e-06,0.00042361708,0.0004227776,0.0004018909,0.035969153,0.035969127,0.018698204,1.8305024e-11,1.8351305e-11,5.2532e-11,9.85542e-07,1.4349603e-06,5.0000683e-08,0.0,0.0,0.0,0.0,0.0,0.0,0.0,0.0,24
70655238,70553737,0.22859037,0.031052206,-0.014514615,0.97291905,-0.28290418,-0.3365266,0.008506552,-204.336,118.59386,-1.4452698,2.7152341e-06,7.569284e-05,1.1988897e-05,0.00401361,-0.0016715669,-0.00015808626,0.24370772,-0.043942887,0.22638792,0.0,0.0,0.0,0.0,0.0,7.997147e-05,2.8094852e-05,3.9694904e-05,4.97029e-06,0.0029944982,0.002963009,0.0022651083,0.03734733,0.03734353,0.01925789,1.9336211e-11,1.938013e-11,5.220541e-11,9.850894e-07,1.4346393e-06,5.0000374e-08,0.0,0.0,0.0,0.0,0.0,0.0,0.0,0.0,24
71655657,71554022,0.23517936,0.026452025,-0.029694756,0.97113806,0.009423285,0.030304147,0.00089073763,-204.16257,118.80243,-1.4475582,1.405984e-05,7.316242e-05,8.687947e-06,0.004028793,-0.0018499163,-0.0003180872,0.24370772,-0.043942887,0.22638792,0.0,0.0,0.0,0.0,0.0,7.8509845e-05,2.6871461e-05,3.81868e-05,5.31386e-06,0.00020345274,0.00020325267,0.0001986071,0.036215495,0.036213264,0.017863257,1.8014656e-11,1.814872e-11,5.110866e-11,9.80958e-07,1.4208832e-06,5.00009e-08,0.0,0.0,0.0,0.0,0.0,0.0,0.0,0.0,24
72655786,72554307,0.23712136,0.026768334,-0.028031565,0.9707065,0.0032025396,0.018273512,-0.003405071,-204.16153,118.80515,-1.4481506,9.395605e-06,7.256821e-05,8.979712e-06,0.004041548,-0.0018489806,-0.0003155001,0.24370772,-0.043942887,0.22638792,0.0,0.0,0.0,0.0,0.0,7.8628145e-05,2.6791859e-05,3.8125334e-05,5.3969698e-06,0.00018873092,0.00018869163,0.00018480937,0.036219392,0.036217235,0.017361058,1.7991865e-11,1.8036937e-11,5.055711e-11,9.80075e-07,1.4178416e-06,5.000091e-08,0.0,0.0,0.0,0.0,0.0,0.0,0.0,0.0,24
73656126,73554592,0.23338103,0.026744861,-0.026016079,0.9716694,0.0071065123,0.0068763047,0.0004160188,-204.16057,118.80542,-1.4489998,7.734933e-06,7.36387e-05,8.628871e-06,0.004039498,-0.0018504282,-0.00033765618,0.24370772,-0.043942887,0.22638792,0.0,0.0,0.0,0.0,0.0,7.954215e-05,2.6742606e-05,3.8098115e-05,5.307654e-06,0.00017428122,0.00017432489,0.00017106293,0.036223393,0.036221355,0.01688645,1.7989272e-11,1.7997319e-11,5.0188628e-11,9.790336e-07,1.4170984e-06,5.0000917e-08,0.0,0.0,0.0,0.0,0.0,0.0,0.0,0.0,24
74656408,74554877,0.22972836,0.026673283,-0.027060296,0.97251284,0.01201465,0.03670427,-0.00085456413,-204.1607,118.80616,-1.450013,7.779791e-06,7.443932e-05,7.877319e-06,0.004033383,-0.0018293493,-0.0003333618,0.24370772,-0.043942887,0.22638792,0.0,0.0,0.0,0.0,0.0,8.009355e-05,2.6741389e-05,3.806793e-05,5.217444e-06,0.00016062726,0.00016027561,0.00015761047,0.0362275,0.036225546,0.016437585,1.7988307e-11,1.7982612e-11,4.9740056e-11,9.783778e-07,1.4155355e-06,5.0000786e-08,0.0,0.0,0.0,0.0,0.0,0.0,0.0,0.0,24
75656635,75555163,0.21730201,0.02890448,-0.017431673,0.9755206,-0.01440767,-0.035438947,0.0046812305,-204.16095,118.8056,-1.4519522,4.29224e-06,7.426639e-05,7.767415e-06,0.003972219,-0.0017722329,-0.00022454618,0.24370772,-0.043942887,0.22638792,0.0,0.0,0.0,0.0,0.0,8.045035e-05,2.670703e-05,3.7889797e-05,4.6960567e-06,0.00014669515,0.00014630097,0.00014409675,0.036231577,0.036229763,0.016032724,1.7989383e-11,1.7956296e-11,4.916805e-11,9.762095e-07,1.4058451e-06,5.000088e-08,0.0,0.0,0.0,0.0,0.0,0.0,0.0,0.0,24
76657026,76555448,0.21554233,0.031068241,-0.023838079,0.97570896,-0.010716757,-0.013477411,0.0014338591,-204.16208,118.80411,-1.4433821,1.2361836e-05,7.465187e-05,6.159297e-06,0.0040415186,-0.0017382368,-0.00014576661,0.24370772,-0.043942887,0.22638792,0.0,0.0,0.0,0.0,0.0,7.9473684e-05,2.671008e-05,3.7677393e-05,4.613247e-06,0.00013242979,0.00013240162,0.00013046898,0.036235727,0.03623402,0.015627163,1.7996897e-11,1.8031894e-11,4.832707e-11,9.723474e-07,1.3926475e-06,5.0000747e-08,0.0,0.0,0.0,0.0,0.0,0.0,0.0,0.0,24
77647151,77545629,0.21996619,0.031487323,-0.02798399,0.9745975,-0.0039395597,0.012785387,0.00054227636,-204.16254,118.80421,-1.4421066,1.2972802e-05,7.291379e-05,5.4850666e-06,0.004041413,-0.0017827511,-4.5872974e-05,0.24370772,-0.043942887,0.22638792,0.0,0.0,0.0,0.0,0.0,8.000808e-05,2.6702883e-05,3.7693888e-05,4.851965e-06,0.000105168794,0.00010509833,0.0001038778,0.036239848,0.03623822,0.015242367,1.7975642e-11,1.8007934e-11,4.8127113e-11,9.71398e-07,1.3908623e-06,5.0000597e-08,0.0,0.0,0.0,0.0,0.0,0.0,0.0,0.0,24
78657555,78556019,0.22039019,0.033046145,-0.027566694,0.9744621,-0.006062121,0.0046657925,0.0077986056,-204.16287,118.8054,-1.4393463,1.0089556e-05,7.121e-05,5.427461e-06,0.00404155,-0.0017462668,6.140421e-05,0.24370772,-0.043942887,0.22638792,0.0,0.0,0.0,0.0,0.0,8.051903e-05,2.6682834e-05,3.770459e-05,4.8949732e-06,0.00010503245,0.00010503285,0.000103871855,0.036244206,0.036242645,0.01487664,1.7970285e-11,1.7967123e-11,4.7885126e-11,9.709252e-07,1.3897845e-06,5.0000608e-08,0.0,0.0,0.0,0.0,0.0,0.0,0.0,0.0,24
79657854,79556304,0.218628,0.026225995,-0.025073107,0.9751335,-0.012063335,-0.016132103,-0.011267894,-204.16394,118.80555,-1.4355274,9.69022e-06,6.582049e-05,4.8710967e-06,0.003966864,-0.0016675795,-0.00024376991,0.24370772,-0.043942887,0.22638792,0.0,0.0,0.0,0.0,0.0,8.047959e-05,2.62534e-05,3.7108905e-05,4.809929e-06,9.1829796e-05,9.1756534e-05,9.079916e-05,0.036248446,0.036247,0.0145274205,1.7913034e-11,1.7924376e-11,4.748381e-11,9.672522e-07,1.3856906e-06,5.0000537e-08,0.0,0.0,0.0,0.0,0.0,0.0,0.0,0.0,24
80658074,80556590,0.22326294,0.021979826,-0.02906237,0.974077,0.0015780525,0.0060619903,0.0020514063,-204.1648,118.80465,-1.4301353,1.2218663e-05,6.518729e-05,3.978118e-06,0.0039610723,-0.001609679,-0.00044969056,0.24370772,-0.043942887,0.22638792,0.0,0.0,0.0,0.0,0.0,8.079818e-05,2.6152706e-05,3.6920617e-05,5.0568538e-06,7.8304445e-05,7.829881e-05,7.765088e-05,0.03625269,0.03625137,0.014211415,1.7908789e-11,1.7927429e-11,4.7236548e-11,9.662363e-07,1.382346e-06,5.000049e-08,0.0,0.0,0.0,0.0,0.0,0.0,0.0,0.0,24
81648747,81546772,0.23044452,0.0243676,-0.029685954,0.97232723,0.009020599,0.03177569,0.005232216,-204.16412,118.80579,-1.4219167,6.2671106e-06,6.3405896e-05,4.8657434e-06,0.0040415497,-0.0016265339,-0.0002803328,0.24370772,-0.043942887,0.22638792,0.0,0.0,0.0,0.0,0.0,8.00248e-05,2.6221898e-05,3.6932077e-05,5.259434e-06,5.2325402e-05,5.2071024e-05,5.188855e-05,0.03625698,0.036255747,0.0138928555,1.7894056e-11,1.7864663e-11,4.6781683e-11,9.627299e-07,1.3731207e-06,5.0000338e-08,0.0,0.0,0.0,0.0,0.0,0.0,0.0,0.0,24
82648556,82547058,0.22182183,0.022386875,-0.018035132,0.9746634,0.00070184947,-0.008950972,-0.0025088333,-204.16357,118.80882,-1.4130698,2.3106238e-06,6.13783e-05,5.362786e-06,0.0040415516,-0.0015053023,-0.0005438049,0.24370772,-0.043942887,0.22638792,0.0,0.0,0.0,0.0,0.0,7.946507e-05,2.5922418e-05,3.632364e-05,4.7816307e-06,3.9143466e-05,3.9105613e-05,3.895116e-05,0.036261424,0.036260176,0.013588694,1.7863676e-11,1.7821945e-11,4.6194666e-11,9.595851e-07,1.3626609e-06,5.000024e-08,0.0,0.0,0.0,0.0,0.0,0.0,0.0,0.0,24
83658953,83557448,0.22419079,0.019359024,-0.024209667,0.97405213,0.0023912934,-0.002240254,0.0032829202,-204.16429,118.806915,-1.4073862,9.80312e-06,6.2995496e-05,4.1425924e-06,0.0040271007,-0.0013860324,-0.00073065975,0.24370772,-0.043942887,0.22638792,0.0,0.0,0.0,0.0,0.0,7.804672e-05,2.5910767e-05,3.607818e-05,4.834677e-06,3.9085873e-05,3.90895e-05,3.8938622e-05,0.03626573,0.03626457,0.013297996,1.788142e-11,1.7865202e-11,4.549044e-11,9.588401e-07,1.3541647e-06,5.0000253e-08,0.0,0.0,0.0,0.0,0.0,0.0,0.0,0.0,24
84649370,84547630,0.23128223,0.021140154,-0.024097754,0.97235847,0.0037156076,0.0016116833,0.0027632795,-299.7238,169.61914,-1.4049181,5.2901246e-06,6.5152904e-05,4.457171e-06,0.004041552,-0.0015587622,-0.00044259155,0.24370772,-0.043942887,0.22638792,0.0,0.0,0.0,0.0,0.0,7.745353e-05,2.6156586e-05,3.635422e-05,5.0816975e-06,1.3577764e-05,1.3581749e-05,1.3558896e-05,0.03748484,0.037484832,0.013034099,1.7994644e-11,1.7921114e-11,4.5164466e-11,9.563711e-07,1.3461614e-06,5.0000097e-08,0.0,0.0,0.0,0.0,0.0,0.0,0.0,0.0,24
85649697,85547916,0.22603285,0.027949719,-0.021518335,0.97348094,3.5794194e-05,-2.8250346e-05,-3.0891886e-05,-299.72186,169.62021,-1.4031298,3.5582877e-06,6.793189e-05,4.7264025e-06,0.0040459293,-0.0016673366,-2.282046e-05,0.24370772,-0.043942887,0.22638792,0.0,0.0,0.0,0.0,0.0,7.7617195e-05,2.6261632e-05,3.6566988e-05,4.83339e-06,1e-06,1e-06,1e-06,0.037489295,0.037489276,0.012766215,1.7952702e-11,1.7853389e-11,4.4917185e-11,9.532052e-07,1.3421744e-06,5e-08,0.0,0.0,0.0,0.0,0.0,0.0,0.0,0.0,24
86649886,86548202,0.222842,0.026196638,-0.021394225,0.97426766,0.0020647985,-0.02022982,-0.005205228,-299.72247,169.61792,-1.4042221,6.442839e-06,6.733912e-05,4.51244e-06,0.0040415213,-0.0017369151,-0.00018842079,0.24370772,-0.043942887,0.22638792,0.0,0.0,0.0,0.0,0.0,7.8151694e-05,2.6196814e-05,3.6343776e-05,4.704102e-06,0.00026209705,0.00026197688,0.0002546945,0.037495695,0.037495673,0.012511593,1.8097794e-11,1.8029234e-11,4.4803904e-11,9.523849e-07,1.3399236e-06,5.0000768e-08,0.0,0.0,0.0,0.0,0.0,0.0,0.0,0.0,24
87650308,87548489,0.21780594,0.028983597,-0.020107387,0.97535443,0.0009135121,0.0030290917,0.013157439,-299.7223,169.61946,-1.4050515,7.0945684e-06,6.951515e-05,4.296818e-06,0.0040392154,-0.0016846053,-0.00017256604,0.24370772,-0.043942887,0.22638792,0.0,0.0,0.0,0.0,0.0,7.860358e-05,2.6142865e-05,3.6300535e-05,4.5188885e-06,0.0002465574,0.00024655223,0.00024049738,0.03749966,0.03749964,0.012265114,1.809826e-11,1.8014031e-11,4.4662184e-11,9.513345e-07,1.3388517e-06,5.000076e-08,0.0,0.0,0.0,0.0,0.0,0.0,0.0,0.0,24
88650482,88548775,0.2123335,0.03168928,-0.01936804,0.97649133,-0.0374495,-0.030763471,0.0077977926,-299.72516,169.61647,-1.4067365,1.1163124e-05,6.9511996e-05,3.867002e-06,0.0040409807,-0.0016593512,2.7262246e-05,0.24370772,-0.043942887,0.22638792,0.0,0.0,0.0,0.0,0.0,7.898143e-05,2.6213107e-05,3.634847e-05,4.305248e-06,0.00023213992,0.0002323609,0.00022645,0.037503682,0.037503667,0.01202844,1.808992e-11,1.804185e-11,4.4509722e-11,9.497101e-07,1.3348922e-06,5.000083e-08,0.0,0.0,0.0,0.0,0.0,0.0,0.0,0.0,24
89650734,89549062,0.2142437,0.031953268,-0.020785978,0.9760362,-0.03431277,-0.00488909,-0.007797635,-299.72546,169.61777,-1.4083087,1.5146841e-05,6.608605e-05,3.4553964e-06,0.004030551,-0.0018181724,6.829393e-05,0.24370772,-0.043942887,0.22638792,0.0,0.0,0.0,0.0,0.0,7.8987076e-05,2.612613e-05,3.621154e-05,4.3593755e-06,0.00021757736,0.00021780595,0.00021244025,0.037507758,0.03750773,0.011812076,1.8047059e-11,1.8055507e-11,4.437768e-11,9.485041e-07,1.3314948e-06,5.000091e-08,0.0,0.0,0.0,0.0,0.0,0.0,0.0,0.0,24
90651156,90549348,0.21977563,0.02635435,-0.026295869,0.97483987,-0.007748939,0.0041654953,-0.0018028965,-299.72516,169.61717,-1.4081008,2.035555e-05,6.28693e-05,2.4644364e-06,0.0040119067,-0.0018869282,-0.000109331515,0.24370772,-0.043942887,0.22638792,0.0,0.0,0.0,0.0,0.0,7.837881e-05,2.5961626e-05,3.5891982e-05,4.56242e-06,0.00020291007,0.00020286268,0.00019851186,0.037511863,0.03751183,0.011592466,1.8008773e-11,1.8069943e-11,4.413105e-11,9.4765915e-07,1.3278113e-06,5.0000956e-08,0.0,0.0,0.0,0.0,0.0,0.0,0.0,0.0,24
91651574,91549635,0.22207353,0.026232544,-0.025000956,0.97435635,0.015188817,0.017431578,-0.002121403,-299.72375,169.61804,-1.4041688,1.7347076e-05,6.2437844e-05,2.4510625e-06,0.0040415567,-0.0018708633,-0.00010560097,0.24370772,-0.043942887,0.22638792,0.0,0.0,0.0,0.0,0.0,7.835505e-05,2.5891839e-05,3.5803452e-05,4.6531845e-06,0.00018864569,0.00018868769,0.00018488106,0.037516017,0.037515983,0.011380983,1.8003361e-11,1.800246e-11,4.4028597e-11,9.4670145e-07,1.3243717e-06,5.0000963e-08,0.0,0.0,0.0,0.0,0.0,0.0,0.0,0.0,24
92651521,92549922,0.21522966,0.028874775,-0.023202587,0.9758607,0.019064281,-0.0012311374,0.024670765,-299.72327,169.6167,-1.3990008,1.7195303e-05,6.474157e-05,2.0351222e-06,0.004032783,-0.0018625082,-0.00012223926,0.24370772,-0.043942887,0.22638792,0.0,0.0,0.0,0.0,0.0,7.873104e-05,2.5853422e-05,3.5765606e-05,4.4157323e-06,0.00017391714,0.00017409278,0.00017111975,0.037520207,0.037520174,0.01117733,1.8020644e-11,1.7985594e-11,4.3914008e-11,9.453461e-07,1.3222933e-06,5.000097e-08,0.0,0.0,0.0,0.0,0.0,0.0,0.0,0.0,24
93651901,93550209,0.20824347,0.031195361,-0.0217851,0.97733665,-0.0071508205,0.0072043994,-0.0120086605,-299.7234,169.61852,-1.3951428,1.7329516e-05,6.441671e-05,1.5133828e-06,0.0040316964,-0.0018733955,3.4468758e-05,0.24370772,-0.043942887,0.22638792,0.0,0.0,0.0,0.0,0.0,7.912331e-05,2.5840593e-05,3.5749697e-05,4.177219e-06,0.00016044106,0.00016041433,0.00015747226,0.037524443,0.037524406,0.010981056,1.8011521e-11,1.79777e-11,4.3840046e-11,9.430005e-07,1.318604e-06,5.000094e-08,0.0,0.0,0.0,0.0,0.0,0.0,0.0,0.0,24
94652121,94550496,0.2060155,0.030313553,-0.024644427,0.9777686,0.0047310805,-0.019920696,0.008334824,-299.7235,169.61661,-1.3848094,2.1966607e-05,6.508653e-05,5.841621e-07,0.004041557,-0.001839573,-9.125285e-05,0.24370772,-0.043942887,0.22638792,0.0,0.0,0.0,0.0,0.0,7.91712e-05,2.5752766e-05,3.5494726e-05,4.114423e-06,0.00014617898,0.00014611997,0.00014390226,0.037528686,0.03752866,0.010801162,1.8012444e-11,1.801032e-11,4.369875e-11,9.410994e-07,1.3128442e-06,5.0000935e-08,0.0,0.0,0.0,0.0,0.0,0.0,0.0,0.0,24
95652507,95550783,0.2169869,0.031051762,-0.03502332,0.97505176,-0.012211011,-0.005456147,0.010044546,-299.72607,169.6135,-1.3703172,2.5391879e-05,6.632189e-05,-2.949057e-07,0.0040415633,-0.0017731849,1.5722702e-05,0.24370772,-0.043942887,0.22638792,0.0,0.0,0.0,0.0,0.0,7.834713e-05,2.6222191e-05,3.5815207e-05,4.5335155e-06,0.00079378067,0.00079346506,0.0007301325,0.037592143,0.037592117,0.010673175,1.8437276e-11,1.845128e-11,4.35049e-11,9.400001e-07,1.3074757e-06,5.0000647e-08,0.0,0.0,0.0,0.0,0.0,0.0,0.0,0.0,24
96652755,96551070,0.22371276,0.03260503,-0.03166935,0.97359467,0.00058349303,0.0029878388,-0.0006987892,-299.72406,169.54858,-1.3520782,1.5760652e-05,6.287764e-05,7.2225123e-07,0.0040415586,-0.0014938284,-0.00012446537,0.24370772,-0.043942887,0.22638792,0.0,0.0,0.0,0.0,0.0,7.629133e-05,2.5519832e-05,3.4952354e-05,4.6328787e-06,1.3579635e-05,1.3577841e-05,1.3556085e-05,0.037671704,0.037670158,0.010563471,1.7887749e-11,1.7822343e-11,4.3061808e-11,9.366256e-07,1.296485e-06,5.0000093e-08,0.0,0.0,0.0,0.0,0.0,0.0,0.0,0.0,24
97653182,97551357,0.21303612,0.032930914,-0.021685291,0.9762484,-1.591942e-05,-2.8420769e-05,1.6461783e-05,-299.72345,169.55775,-1.3357054,1.0098732e-05,5.961181e-05,1.3956651e-06,0.0040478013,-0.0013574689,-0.00019667885,0.24370772,-0.043942887,0.22638792,0.0,0.0,0.0,0.0,0.0,7.6352415e-05,2.5416664e-05,3.4692457e-05,4.1545063e-06,1e-06,1e-06,1e-06,0.037675515,0.037674367,0.010388629,1.785963e-11,1.7791277e-11,4.2945907e-11,9.352611e-07,1.2894807e-06,5e-08,0.0,0.0,0.0,0.0,0.0,0.0,0.0,0.0,24
98653285,98551645,0.20979273,0.031952754,-0.02177536,0.97698104,-0.021674452,-0.06926611,-0.018469991,-390.9768,221.59052,-1.3183191,1.413988e-05,6.014451e-05,5.6961784e-07,0.004042246,-0.0013092653,-0.00023395976,0.24370772,-0.043942887,0.22638792,0.0,0.0,0.0,0.0,0.0,7.585982e-05,2.5691326e-05,3.485068e-05,4.0176474e-06,0.000265665,0.0002640526,0.00025482354,0.044365805,0.0443658,0.010221837,1.8240631e-11,1.8177251e-11,4.2703542e-11,9.342022e-07,1.2852751e-06,5.0000768e-08,0.0,0.0,0.0,0.0,0.0,0.0,0.0,0.0,24
99653486,99551933,0.21845888,0.032084264,-0.030515524,0.97484106,0.037209444,0.084844746,0.0014544922,-391.32666,221.7864,-1.2981507,1.4003244e-05,6.196772e-05,4.658936e-07,0.0040415633,-0.0013172384,-0.00017725946,0.24370772,-0.043942887,0.22638792,0.0,0.0,0.0,0.0,0.0,7.454411e-05,2.571311e-05,3.4703622e-05,4.271013e-06,0.00024948028,0.00024797683,0.00024089358,0.037683822,0.037683822,0.010066023,1.8151945e-11,1.8059616e-11,4.2405968e-11,9.329386e-07,1.2768941e-06,5.0000793e-08,0.0,0.0,0.0,0.0,0.0,0.0,0.0,0.0,24
100653687,100552220,0.20971958,0.03475188,-0.02132311,0.9769111,-0.0041733533,0.0049216105,-0.0007051991,-391.32925,221.78192,-1.2775711,7.82622e-06,6.106769e-05,1.2279467e-06,0.004041565,-0.0012834232,-0.00016150584,0.24370772,-0.043942887,0.22638792,0.0,0.0,0.0,0.0,0.0,7.4304306e-05,2.5620648e-05,3.4457084e-05,3.880518e-06,0.00023227706,0.00023227873,0.00022624653,0.03768786,0.037687864,0.00990745,1.8095362e-11,1.7990776e-11,4.227038e-11,9.325506e-07,1.2687599e-06,5.000103e-08,0.0,0.0,0.0,0.0,0.0,0.0,0.0,0.0,24
101653976,101552508,0.20710383,0.035265423,-0.023539824,0.9773998,-0.027136654,-0.027297072,-0.008442148,-391.33118,221.7795,-1.2542814,1.3083422e-05,6.0370265e-05,5.8849713e-07,0.0040415684,-0.0012933037,-0.00012709014,0.24370772,-0.043942887,0.22638792,0.0,0.0,0.0,0.0,0.0,7.3987525e-05,2.5633693e-05,3.4363562e-05,3.7568768e-06,0.00021788335,0.000217809,0.00021229657,0.03769193,0.03769191,0.0097538885,1.8073095e-11,1.7991348e-11,4.2132638e-11,9.317113e-07,1.2640508e-06,5.0001063e-08,0.0,0.0,0.0,0.0,0.0,0.0,0.0,0.0,24
102654453,102552795,0.21426366,0.034155138,-0.027620194,0.97578776,0.002188168,0.016554065,0.0067407098,-391.32993,221.78133,-1.227562,1.4472815e-05,5.959173e-05,4.404324e-07,0.0040415726,-0.0013164155,-0.00017307766,0.24370772,-0.043942887,0.22638792,0.0,0.0,0.0,0.0,0.0,7.426874e-05,2.5590307e-05,3.427803e-05,4.0152104e-06,0.00020285569,0.00020278052,0.00019830196,0.03769601,0.037695993,0.009604938,1.8058234e-11,1.7979574e-11,4.225288e-11,9.312651e-07,1.2623606e-06,5.0001052e-08,0.0,0.0,0.0,0.0,0.0,0.0,0.0,0.0,24
103654611,103553083,0.21474518,0.03544643,-0.023257181,0.9757496,-0.011312472,-0.004532118,0.0020473034,-391.3304,221.78091,-1.1987925,1.1225267e-05,5.860966e-05,9.411756e-07,0.004041103,-0.001288317,-0.00014465017,0.24370772,-0.043942887,0.22638792,0.0,0.0,0.0,0.0,0.0,7.470693e-05,2.5541807e-05,3.422197e-05,4.019166e-06,0.00018849799,0.00018850455,0.0001845869,0.037700146,0.037700124,0.009460774,1.8043398e-11,1.7949496e-11,4.236294e-11,9.308027e-07,1.2600442e-06,5.0001074e-08,0.0,0.0,0.0,0.0,0.0,0.0,0.0,0.0,24
104654998,104553371,0.20847546,0.034900714,-0.020139797,0.97719723,-0.0033805696,-0.001805709,0.0015805347,-391.33044,221.78125,-1.1708742,1.0320474e-05,5.7065306e-05,1.0685862e-06,0.0040415768,-0.0012726624,-0.00017587391,0.24370772,-0.043942887,0.22638792,0.0,0.0,0.0,0.0,0.0,7.51931e-05,2.54857e-05,3.410143e-05,3.7870461e-06,0.00017425459,0.0001742452,0.00017095421,0.037704334,0.03770431,0.009328079,1.8024984e-11,1.7935544e-11,4.2417694e-11,9.3058327e-07,1.2581514e-06,5.0001e-08,0.0,0.0,0.0,0.0,0.0,0.0,0.0,0.0,24
105655151,105553659,0.20280938,0.03246607,-0.018557204,0.978504,-0.0012772657,-0.021172196,-0.012622865,-391.3308,221.78009,-1.1376889,1.3662846e-05,5.6305194e-05,6.312838e-07,0.0040415805,-0.0013218796,-0.0003247184,0.24370772,-0.043942887,0.22638792,0.0,0.0,0.0,0.0,0.0,7.5532014e-05,2.535005e-05,3.3852128e-05,3.5889877e-06,0.0001604971,0.00016035244,0.00015737468,0.037708554,0.037708532,0.00919226,1.8013814e-11,1.7940907e-11,4.2416164e-11,9.2940394e-07,1.2542903e-06,5.0001034e-08,0.0,0.0,0.0,0.0,0.0,0.0,0.0,0.0,24
106655584,106553948,0.2041893,0.031989645,-0.021330822,0.9781761,0.012541744,-0.021291267,-0.0077784285,-391.33032,221.7792,-1.1026179,1.7708368e-05,5.8880974e-05,-6.531601e-08,0.0040415875,-0.0012184372,-0.00044513366,0.24370772,-0.043942887,0.22638792,0.0,0.0,0.0,0.0,0.0,7.5428004e-05,2.5320922e-05,3.378668e-05,3.6467238e-06,0.00014637625,0.00014635012,0.00014382634,0.037712812,0.037712798,0.009060489,1.8044628e-11,1.7959792e-11,4.235396e-11,9.282724e-07,1.252069e-06,5.0000956e-08,0.0,0.0,0.0,0.0,0.0,0.0,0.0,0.0,24
107655760,107554238,0.20613405,0.035332218,-0.021722022,0.9776444,0.0053702253,0.0025653846,0.007312953,-391.3303,221.77963,-1.0661784,1.6675807e-05,6.0332015e-05,-2.3032652e-07,0.0040415837,-0.0011790337,-0.0002835797,0.24370772,-0.043942887,0.22638792,0.0,0.0,0.0,0.0,0.0,7.5623815e-05,2.5453794e-05,3.3949294e-05,3.732841e-06,0.00013230625,0.0001323116,0.00013040492,0.03771711,0.0377171,0.008932648,1.8063192e-11,1.7946672e-11,4.2413944e-11,9.2745205e-07,1.2491647e-06,5.000088e-08,0.0,0.0,0.0,0.0,0.0,0.0,0.0,0.0,24
108656288,108554524,0.19885994,0.039622214,-0.017508406,0.9790702,-0.010485378,-0.0040327557,-0.0007926633,-391.33063,221.78001,-1.0298259,1.5355712e-05,5.9383234e-05,-1.9592848e-07,0.0040431465,-0.0011369456,-8.842981e-06,0.24370772,-0.043942887,0.22638792,0.0,0.0,0.0,0.0,0.0,7.6409815e-05,2.556821e-05,3.4099823e-05,3.5033243e-06,0.00011872444,0.00011874792,0.0001170902,0.037721436,0.037721436,0.008808522,1.8050067e-11,1.7936503e-11,4.2554665e-11,9.268942e-07,1.2468249e-06,5.000079e-08,0.0,0.0,0.0,0.0,0.0,0.0,0.0,0.0,24
109656369,109554813,0.20119205,0.03568029,-0.023595633,0.9786174,-0.013042195,-0.032156877,-0.008828624,-391.33115,221.779,-0.99186695,2.4302637e-05,5.7920428e-05,-1.2782968e-06,0.004041584,-0.0012593354,-0.00022226817,0.24370772,-0.043942887,0.22638792,0.0,0.0,0.0,0.0,0.0,7.5147545e-05,2.5404852e-05,3.3587847e-05,3.5165403e-06,0.00010540762,0.00010519524,0.00010392851,0.037725758,0.03772575,0.008694023,1.80112e-11,1.797488e-11,4.223629e-11,9.2594746e-07,1.2378455e-06,5.000072e-08,0.0,0.0,0.0,0.0,0.0,0.0,0.0,0.0,24
110656610,110555101,0.21432608,0.0331244,-0.030540058,0.97572255,0.0079944385,0.01550827,-0.004890985,-391.3313,221.77864,-0.9508468,2.1974627e-05,5.8848666e-05,-1.2755884e-06,0.004041582,-0.0012818534,-0.00041158206,0.24370772,-0.043942887,0.22638792,0.0,0.0,0.0,0.0,0.0,7.4175776e-05,2.5279289e-05,3.3299104e-05,3.939351e-06,9.178134e-05,9.1725e-05,9.0669935e-05,0.0377301,0.037730094,0.008576614,1.8004183e-11,1.7910342e-11,4.2125574e-11,9.2438086e-07,1.2317497e-06,5.0000622e-08,0.0,0.0,0.0,0.0,0.0,0.0,0.0,0.0,24
111656870,111555390,0.21197398,0.035186905,-0.024626791,0.9763311,0.0033946442,-0.0017440326,0.001013749,-391.33044,221.78029,-0.90704834,1.4565681e-05,5.960163e-05,-3.048978e-07,0.0040415823,-0.0013782448,-0.00043710446,0.24370772,-0.043942887,0.22638792,0.0,0.0,0.0,0.0,0.0,7.3809155e-05,2.5201653e-05,3.3151544e-05,3.797567e-06,7.831534e-05,7.831267e-05,7.7609766e-05,0.037734464,0.03773446,0.008462343,1.8006392e-11,1.7857767e-11,4.2037252e-11,9.2202987e-07,1.2236541e-06,5.000054e-08,0.0,0.0,0.0,0.0,0.0,0.0,0.0,0.0,24
112647720,112545575,0.20562609,0.03586122,-0.0223968,0.9777169,0.00067671615,0.006493022,0.00084367057,-391.33044,221.78024,-0.8647997,1.4568576e-05,5.9213406e-05,-3.1423272e-07,0.0040433137,-0.0013808857,-0.00030382394,0.24370772,-0.043942887,0.22638792,0.0,0.0,0.0,0.0,0.0,7.443904e-05,2.5283272e-05,3.3250293e-05,3.5870241e-06,5.2052932e-05,5.2044248e-05,5.173823e-05,0.037738826,0.03773883,0.008351323,1.7991574e-11,1.784586e-11,4.2142866e-11,9.2157677e-07,1.22258e-06,5.0000352e-08,0.0,0.0,0.0,0.0,0.0,0.0,0.0,0.0,24
113657665,113555968,0.20286857,0.035324704,-0.023765126,0.97828,-0.0015839029,0.0009387231,-0.0030292699,-482.8216,273.4817,-0.8200025,1.7876673e-05,5.795614e-05,-7.4572216e-07,0.004043456,-0.0014034169,-0.00028364436,0.24370772,-0.043942887,0.22638792,0.0,0.0,0.0,0.0,0.0,7.4958036e-05,2.5367428e-05,3.3285305e-05,3.5051469e-06,5.2115014e-05,5.2114407e-05,5.1729807e-05,0.03767988,0.03767988,0.008243503,1.8073931e-11,1.7954567e-11,4.224537e-11,9.211997e-07,1.2205846e-06,5.000036e-08,0.0,0.0,0.0,0.0,0.0,0.0,0.0,0.0,24
114657813,114556257,0.2013703,0.03460466,-0.023125842,0.9786306,-0.0032060393,0.0003760676,-0.0012898368,-482.822,273.4821,-0.7773291,1.5632055e-05,5.6994744e-05,-5.4160284e-07,0.004034318,-0.0014022167,-0.00026742593,0.24370772,-0.043942887,0.22638792,0.0,0.0,0.0,0.0,0.0,7.530808e-05,2.5284819e-05,3.3173314e-05,3.4541622e-06,3.911691e-05,3.911949e-05,3.8924176e-05,0.03768428,0.037684277,0.008143795,1.7998625e-11,1.7873354e-11,4.2336943e-11,9.2084684e-07,1.2190898e-06,5.0000278e-08,0.0,0.0,0.0,0.0,0.0,0.0,0.0,0.0,24
115658088,115556546,0.19468132,0.03533011,-0.019111821,0.98004377,-0.0008221069,-0.0026531755,-0.00015079157,-482.8216,273.48392,-0.731151,1.5708843e-05,5.734211e-05,-4.8141624e-07,0.0040415833,-0.0013641178,-0.0002802704,0.24370772,-0.043942887,0.22638792,0.0,0.0,0.0,0.0,0.0,7.588782e-05,2.5193825e-05,3.3036347e-05,3.2361486e-06,2.6281266e-05,2.627893e-05,2.6196694e-05,0.03768869,0.037688673,0.008041294,1.7978828e-11,1.7848282e-11,4.2410346e-11,9.19839e-07,1.216136e-06,5.000019e-08,0.0,0.0,0.0,0.0,0.0,0.0,0.0,0.0,24
116648376,116546731,0.19977708,0.034543898,-0.02570518,0.9788949,-3.5705907e-05,-0.0001352537,-0.00013565563,-482.82202,273.4825,-0.683392,2.3561355e-05,5.86331e-05,-1.2845318e-06,0.004041854,-0.0012897697,-0.0003304072,0.24370772,-0.043942887,0.22638792,0.0,0.0,0.0,0.0,0.0,7.498567e-05,2.5192281e-05,3.2780215e-05,3.3602464e-06,1e-06,1e-06,1e-06,0.037693094,0.037693076,0.007941454,1.796918e-11,1.7875005e-11,4.219596e-11,9.1886466e-07,1.2076592e-06,5e-08,0.0,0.0,0.0,0.0,0.0,0.0,0.0,0.0,24
117648762,117547020,0.20888127,0.034937188,-0.029893665,0.9768595,0.03633782,0.06910182,0.008392621,-482.81882,273.48727,-0.63412935,1.9166244e-05,5.9457157e-05,-1.0634823e-06,0.0040435307,-0.0013247975,-0.000352975,0.24370772,-0.043942887,0.22638792,0.0,0.0,0.0,0.0,0.0,7.40672e-05,2.5316373e-05,3.2827847e-05,3.6359493e-06,0.00026303716,0.00026196777,0.00025437205,0.037699502,0.037699483,0.007845918,1.8169195e-11,1.802479e-11,4.208448e-11,9.17976e-07,1.2034008e-06,5.000077e-08,0.0,0.0,0.0,0.0,0.0,0.0,0.0,0.0,24
118658957,118557414,0.20139314,0.03835476,-0.02295204,0.9784902,-0.011479358,-0.002466245,0.003887049,-482.82245,273.48196,-0.5852377,1.313414e-05,5.9434464e-05,-4.5390198e-07,0.0040435684,-0.0013426549,-0.00021130225,0.24370772,-0.043942887,0.22638792,0.0,0.0,0.0,0.0,0.0,7.407957e-05,2.534344e-05,3.281327e-05,3.359958e-06,0.00026162932,0.00026165953,0.00025401905,0.037703905,0.03770391,0.0077512916,1.8171159e-11,1.8004109e-11,4.206725e-11,9.1692476e-07,1.197191e-06,5.0000935e-08,0.0,0.0,0.0,0.0,0.0,0.0,0.0,0.0,24
119649131,119547599,0.19476196,0.03383761,-0.018437263,0.9800933,0.010838284,-0.030609872,-0.011380873,-482.82068,273.48022,-0.53911865,1.344766e-05,5.9047437e-05,-4.849843e-07,0.004041582,-0.0013263164,-0.00044033965,0.24370772,-0.043942887,0.22638792,0.0,0.0,0.0,0.0,0.0,7.4711286e-05,2.5047135e-05,3.2431042e-05,3.152011e-06,0.00023252028,0.00023218889,0.00022602081,0.03770748,0.037707478,0.0076625827,1.8135233e-11,1.7972016e-11,4.2166316e-11,9.144005e-07,1.1944061e-06,5.000097e-08,0.0,0.0,0.0,0.0,0.0,0.0,0.0,0.0,24
120649373,120547889,0.19537829,0.032535113,-0.02075095,0.97996855,0.016140947,-0.028850472,0.0035437502,-482.82053,273.48007,-0.48652712,1.8602077e-05,6.211668e-05,-8.436618e-07,0.004041585,-0.0011775217,-0.0004865717,0.24370772,-0.043942887,0.22638792,0.0,0.0,0.0,0.0,0.0,7.4233765e-05,2.5067839e-05,3.236093e-05,3.1396175e-06,0.00021737642,0.00021728985,0.00021197593,0.037711542,0.037711546,0.0075719566,1.817517e-11,1.7998995e-11,4.2015228e-11,9.1291423e-07,1.1903038e-06,5.0001006e-08,0.0,0.0,0.0,0.0,0.0,0.0,0.0,0.0,24
121649672,121548178,0.20790057,0.034974262,-0.030175364,0.97705865,-0.018336756,0.036450766,0.033077292,-482.8227,273.48373,-0.43415496,2.1907563e-05,6.357954e-05,-1.0777243e-06,0.004034702,-0.001123797,-0.00029375995,0.24370772,-0.043942887,0.22638792,0.0,0.0,0.0,0.0,0.0,7.4131094e-05,2.5256712e-05,3.250754e-05,3.545268e-06,0.00020303209,0.00020252692,0.00019822709,0.037715655,0.037715673,0.0074838297,1.818304e-11,1.8011311e-11,4.211151e-11,9.1185086e-07,1.1863738e-06,5.0000956e-08,0.0,0.0,0.0,0.0,0.0,0.0,0.0,0.0,24
122650029,122548468,0.20939021,0.028705042,-0.023745114,0.97712225,0.034750585,0.028138323,-0.008988587,-482.8197,273.48495,-0.38159156,1.3245981e-05,6.2258325e-05,-1.9879846e-07,0.0040436536,-0.00093591766,-0.0005792417,0.24370772,-0.043942887,0.22638792,0.0,0.0,0.0,0.0,0.0,7.2733186e-05,2.4757996e-05,3.1722408e-05,3.5091014e-06,0.00018876298,0.00018894549,0.00018474241,0.03771982,0.03771982,0.007397103,1.8114883e-11,1.7924936e-11,4.184181e-11,9.0505023e-07,1.1716314e-06,5.000101e-08,0.0,0.0,0.0,0.0,0.0,0.0,0.0,0.0,24
123650275,123548758,0.20151386,0.032304257,-0.018020164,0.97878695,-0.016221952,-0.0024121986,0.017106995,-482.82172,273.4843,-0.33296058,1.1785965e-05,6.307826e-05,2.3292397e-07,0.0040250975,-0.0009771452,-0.0002905226,0.24370772,-0.043942887,0.22638792,0.0,0.0,0.0,0.0,0.0,7.301786e-05,2.4943887e-05,3.1941327e-05,3.226152e-06,0.00017405488,0.00017415425,0.00017105024,0.037724026,0.037724026,0.0073174406,1.8135443e-11,1.7936765e-11,4.1873713e-11,9.0339694e-07,1.1666726e-06,5.000099e-08,0.0,0.0,0.0,0.0,0.0,0.0,0.0,0.0,24
124650524,124549048,0.19944,0.029024685,-0.019349325,0.979289,-0.014350107,-0.017795954,0.008838895,-482.8217,273.48364,-0.28144944,1.4347591e-05,6.33966e-05,1.671353e-07,0.0040415837,-0.00095569127,-0.00024408654,0.24370772,-0.043942887,0.22638792,0.0,0.0,0.0,0.0,0.0,7.350192e-05,2.4880539e-05,3.1852473e-05,3.1620277e-06,0.00016014947,0.0001601363,0.000157501,0.03772824,0.037728257,0.0072351736,1.8121098e-11,1.7931408e-11,4.1982088e-11,9.0165236e-07,1.1643701e-06,5.0000978e-08,0.0,0.0,0.0,0.0,0.0,0.0,0.0,0.0,24
125650899,125549338,0.20564239,0.020110318,-0.021645365,0.9781811,0.057149764,-0.124192804,-0.14251234,-482.8081,273.42322,-0.34301344,1.5580263e-05,6.325513e-05,1.7848481e-07,0.0040415996,-0.00094730285,-0.00022009427,0.24370772,-0.043942887,0.22638792,0.0,0.0,0.0,0.0,0.0,7.3771575e-05,2.5533858e-05,3.2429063e-05,3.3701099e-06,0.0017572019,0.0017547788,0.0014787416,0.038167477,0.038167007,0.007533594,1.8935194e-11,1.8760757e-11,4.2106735e-11,9.014435e-07,1.1633462e-06,5.0000278e-08,0.0,0.0,0.0,0.0,0.0,0.0,0.0,0.0,24
126651101,126549628,0.20529518,0.024278581,-0.024127964,0.97810143,0.2589822,-0.043531917,-0.10742934,-482.6261,273.3245,-0.38224402,1.5595571e-05,6.3254396e-05,3.1746916e-07,0.0040415823,-0.00093156827,-0.00028655803,0.24370772,-0.043942887,0.22638792,0.0,0.0,0.0,0.0,0.0,7.452895e-05,2.6434253e-05,3.3343058e-05,3.3764702e-06,0.005448946,0.0054659117,0.003614664,0.04316176,0.04316761,0.010921883,1.9959034e-11,1.9792027e-11,4.232122e-11,9.013878e-07,1.1631304e-06,5.0000097e-08,0.0,0.0,0.0,0.0,0.0,0.0,0.0,0.0,24
127651529,127549918,0.19549832,0.034482438,-0.023533972,0.979815,-5.1692944,2.9003768,0.00792599,-573.3287,322.50793,-0.31805703,1.5617272e-05,6.3257285e-05,4.4306015e-07,0.0040437,-0.0009168527,-0.00038533498,0.24370772,-0.043942887,0.22638792,0.0,0.0,0.0,0.0,0.0,7.552766e-05,2.7419315e-05,3.4396882e-05,3.079828e-06,0.030136697,0.030136589,0.04786713,0.05748726,0.05748726,0.021489924,2.0980632e-11,2.0821024e-11,4.25212e-11,9.013153e-07,1.1629479e-06,5e-08,0.0,0.0,0.0,0.0,0.0,0.0,0.0,0.0,24
128651750,128550209,0.19135989,0.04064558,-0.021250872,0.9804477,-5.1292,2.7388554,0.13599382,-578.46063,325.2931,-0.08716287,1.564537e-05,6.2871855e-05,4.958843e-07,0.004041594,-0.0009121785,-0.0004576452,0.24370772,-0.043942887,0.22638792,0.0,0.0,0.0,0.0,0.0,7.60797e-05,2.8345801e-05,3.537098e-05,2.9614512e-06,0.0090882,0.009087063,0.01709528,0.024851628,0.024851635,0.044008777,2.1835053e-11,2.1685365e-11,4.2638875e-11,9.012246e-07,1.1626972e-06,5.000036e-08,0.0,0.0,0.0,0.0,0.0,0.0,0.0,0.0,24
129651969,129550499,0.19813661,0.038474694,-0.019065179,0.97923344,-4.988504,2.5454454,0.2093431,-583.4478,327.8828,0.26471433,1.5694952e-05,6.189756e-05,4.777381e-07,0.004041582,-0.000921944,-0.00050905603,0.24370772,-0.043942887,0.22638792,0.0,0.0,0.0,0.0,0.0,7.657762e-05,2.8777733e-05,3.5786412e-05,3.1919797e-06,0.0072896136,0.0072848974,0.011040291,0.019313006,0.019312374,0.06424806,2.2097177e-11,2.1953625e-11,4.2796492e-11,9.008839e-07,1.1622839e-06,5.000028e-08,0.0,0.0,0.0,0.0,0.0,0.0,0.0,0.0,24
130652562,130550790,0.20280078,0.03577875,-0.025348805,0.97823787,-4.732593,2.5516682,0.2610014,-588.2181,330.39716,0.70324206,1.5847649e-05,6.039067e-05,5.7455173e-07,0.004041585,-0.000924497,-0.0005259866,0.24370772,-0.043942887,0.22638792,0.0,0.0,0.0,0.0,0.0,7.707178e-05,2.8524208e-05,3.5493973e-05,3.3578897e-06,0.0074845413,0.0074877343,0.008866321,0.017944971,0.017944442,0.08063702,2.1659298e-11,2.150756e-11,4.2936668e-11,9.003773e-07,1.1620091e-06,5.000019e-08,0.0,0.0,0.0,0.0,0.0,0.0,0.0,0.0,24
