timestamp,timestamp_sample,gyro_device_id,gyro_bias[0],gyro_bias[1],gyro_bias[2],gyro_bias_limit,gyro_bias_variance[0],gyro_bias_variance[1],gyro_bias_variance[2],accel_device_id,accel_bias[0],accel_bias[1],accel_bias[2],accel_bias_limit,accel_bias_variance[0],accel_bias_variance[1],accel_bias_variance[2],mag_device_id,mag_bias[0],mag_bias[1],mag_bias[2],mag_bias_limit,mag_bias_variance[0],mag_bias_variance[1],mag_bias_variance[2],gyro_bias_valid,gyro_bias_stable,accel_bias_valid,accel_bias_stable,mag_bias_valid,mag_bias_stable
16592426,16491985,3932170,-0.0034575528,0.0015959117,-0.0011807707,0.34906584,3.8915837e-07,3.6907662e-07,3.7694943e-05,3932170,-0.004365732,0.0002750174,0.009233318,0.4,0.013027471,0.013033752,0.00050068455,458770,0.0,0.0,0.0,0.5,0.0025000002,0.0025000002,0.0025000002,1,0,1,0,1,0
17601736,17501295,3932170,-0.0034677878,0.0016004203,-0.0011575321,0.34906584,3.4671336e-07,3.3044037e-07,3.0002602e-05,3932170,-0.004328181,0.0003953993,0.009187087,0.4,0.013022781,0.013029069,0.00050068705,458770,0.0,0.0,0.0,0.5,0.0025000002,0.0025000002,0.0025000002,1,0,1,0,1,0
18611046,18510606,3932170,-0.0034594955,0.0015924036,-0.0011424879,0.34906584,3.145203e-07,3.0139438e-07,2.4293142e-05,3932170,-0.0043916404,0.00030714972,0.009422696,0.4,0.013019224,0.013025446,0.0005006892,458770,0.0,0.0,0.0,0.5,0.0025000002,0.0025000002,0.0025000002,1,0,1,0,1,0
19620406,19519915,3932170,-0.0034752658,0.0015779121,-0.0011252556,0.34906584,2.8941125e-07,2.7858158e-07,1.9954643e-05,3932170,-0.004550916,0.0004479571,0.008783021,0.4,0.013016178,0.013022389,0.00050069083,458770,0.0,0.0,0.0,0.5,0.0025000002,0.0025000002,0.0025000002,1,0,1,0,1,0
20629661,20529226,3932170,-0.0034850026,0.0015777296,-0.0011116437,0.34906584,2.6962124e-07,2.6051146e-07,1.6590304e-05,3932170,-0.0045708846,0.0005481197,0.008564451,0.4,0.013013796,0.013019983,0.0005006866,458770,0.0,0.0,0.0,0.5,0.0025000002,0.0025000002,0.0025000002,1,0,1,0,1,0
21639042,21538535,3932170,-0.0034903754,0.0015645211,-0.0010819003,0.34906584,2.579429e-07,2.503626e-07,1.3958636e-05,3932170,-0.0046933354,0.0005820795,0.008785765,0.4,0.013012394,0.013018573,0.00050069246,458770,0.0,0.0,0.0,0.5,0.0025000002,0.0025000002,0.0025000002,1,0,1,0,1,0
22648284,22547844,3932170,-0.0034925228,0.0015727365,-0.0010557196,0.34906584,2.4467457e-07,2.3812002e-07,1.1984582e-05,3932170,-0.0046196366,0.0006211987,0.00861993,0.4,0.013010805,0.013016946,0.00050069514,458770,0.0,0.0,0.0,0.5,0.0025000002,0.0025000002,0.0025000002,1,0,1,0,1,0
23657645,23557153,3932170,-0.0035083331,0.0015615898,-0.0011639133,0.34906584,2.3340294e-07,2.2786284e-07,1.025119e-05,3932170,-0.004729367,0.0007274242,0.008478046,0.4,0.013009528,0.013015695,0.00050069595,458770,0.0,0.0,0.0,0.5,0.0025000002,0.0025000002,0.0025000002,1,0,1,0,1,0
23757603,23657085,3932170,-0.003515056,0.0015622801,-0.0012866596,0.34906584,2.3062523e-07,2.251454e-07,1.01408905e-05,3932170,-0.0047423677,0.0007544995,0.00997161,0.4,0.013009496,0.013015655,0.00050068577,458770,0.0,0.0,0.0,0.5,0.0025000002,0.0025000002,0.0025000002,1,0,1,0,1,0
23967578,23866941,3932170,-0.003526999,0.0015608073,-0.0015014784,0.34906584,2.2868967e-07,2.2340919e-07,9.818439e-06,3932170,-0.004831553,0.0007583857,0.008487643,0.4,0.013008694,0.013014867,0.000500686,458770,0.0,0.0,0.0,0.5,0.0025000002,0.0025000002,0.0025000002,1,0,1,0,1,0
24976687,24876251,3932170,-0.0035554147,0.0015634134,-0.002173632,0.34906584,2.2333123e-07,2.1881543e-07,8.487707e-06,3932170,-0.005020201,0.0006888927,0.008176962,0.4,0.01300554,0.013011899,0.0005006897,458770,0.0,0.0,0.0,0.5,0.0025000002,0.0025000002,0.0025000002,1,0,1,0,1,0
25436631,25335936,3932170,-0.0035672972,0.0014464564,-0.0023741382,0.34906584,2.1681605e-07,2.1318824e-07,7.979605e-06,3932170,-0.0060534608,-0.0016958996,0.008609346,0.4,0.012998386,0.013007553,0.0005006855,458770,0.0,0.0,0.0,0.5,0.0025000002,0.0025000002,0.0025000002,1,0,1,0,1,0
25646359,25545792,3932170,-0.003571044,0.0014771157,-0.002410548,0.34906584,2.1563683e-07,2.1191478e-07,7.7458535e-06,3932170,-0.00589386,-0.0009902084,0.007413104,0.4,0.012995747,0.0130055165,0.0005006859,458770,0.0,0.0,0.0,0.5,0.0025000002,0.0025000002,0.0025000002,1,0,1,0,1,0
25856224,25755649,3932170,-0.003569205,0.001590899,-0.002399391,0.34906584,2.149285e-07,2.1070247e-07,7.4947443e-06,3932170,-0.0050792973,0.0015909332,0.007229275,0.4,0.012984958,0.013003603,0.00050068524,458770,0.0,0.0,0.0,0.5,0.0025000002,0.0025000002,0.0025000002,1,0,1,0,1,0
26066025,25965506,3932170,-0.003556069,0.0015927998,-0.0024301847,0.34906584,2.1365501e-07,2.0961289e-07,7.2835787e-06,3932170,-0.004603844,0.0014462596,0.009017577,0.4,0.012983163,0.013001738,0.0005006846,458770,0.0,0.0,0.0,0.5,0.0025000002,0.0025000002,0.0025000002,1,0,1,0,1,0
26275879,26175361,3932170,-0.0035641312,0.0016425594,-0.0024416565,0.34906584,2.127483e-07,2.0849664e-07,7.142834e-06,3932170,-0.004385749,0.0025230087,0.009434688,0.4,0.012979288,0.013000325,0.000500686,458770,0.0,0.0,0.0,0.5,0.0025000002,0.0025000002,0.0025000002,1,0,1,0,1,0
26485776,26385218,3932170,-0.0035730272,0.0016255861,-0.002466504,0.34906584,2.1140556e-07,2.073594e-07,6.9440534e-06,3932170,-0.0046907896,0.0022698138,0.008362787,0.4,0.012977683,0.012998763,0.00050068524,458770,0.0,0.0,0.0,0.5,0.0025000002,0.0025000002,0.0025000002,1,0,1,0,1,0
26695741,26595074,3932170,-0.0035725231,0.0015642608,-0.0024859284,0.34906584,2.098919e-07,2.0629706e-07,6.7462547e-06,3932170,-0.005085114,0.0011221542,0.007603722,0.4,0.012974369,0.012997375,0.0005006856,458770,0.0,0.0,0.0,0.5,0.0025000002,0.0025000002,0.0025000002,1,0,1,0,1,0
27325211,27224643,3932170,-0.0035744952,0.0016027406,-0.002502697,0.34906584,2.0687322e-07,2.0336418e-07,6.213784e-06,3932170,-0.0048054457,0.001743648,0.008897613,0.4,0.012969405,0.012994075,0.00050068554,458770,0.0,0.0,0.0,0.5,0.0025000002,0.0025000002,0.0025000002,1,0,1,0,1,0
27744869,27644355,3932170,-0.0035698845,0.0015937389,-0.0025298023,0.34906584,2.048189e-07,2.0156735e-07,5.893505e-06,3932170,-0.0047966135,0.0015731213,0.007843423,0.4,0.0129676815,0.01299222,0.0005006861,458770,0.0,0.0,0.0,0.5,0.0025000002,0.0025000002,0.0025000002,1,0,1,0,1,0
28584327,28483781,3932170,-0.0035764812,0.001585871,-0.0025496585,0.34906584,2.0126772e-07,1.9832082e-07,5.3632352e-06,3932170,-0.0049096155,0.0014886017,0.00893681,0.4,0.01296492,0.012989976,0.00050068536,458770,0.0,0.0,0.0,0.5,0.0025000002,0.0025000002,0.0025000002,1,0,1,0,1,0
29593680,29493089,3932170,-0.0035719199,0.001585574,-0.0025703276,0.34906584,1.9972691e-07,1.9710484e-07,4.780124e-06,3932170,-0.0048496653,0.0014460542,0.009541556,0.4,0.012963357,0.012988595,0.0005006888,458770,0.0,0.0,0.0,0.5,0.0025000002,0.0025000002,0.0025000002,1,0,1,0,1,0
30603012,30502398,3932170,-0.0035655976,0.0015825735,-0.0025680831,0.34906584,1.9597005e-07,1.9362271e-07,4.281683e-06,3932170,-0.0048291935,0.0013887337,0.009680235,0.4,0.012961933,0.012987186,0.0005006896,458770,0.0,0.0,0.0,0.5,0.0025000002,0.0025000002,0.0025000002,1,0,1,0,1,0
31612353,31511707,3932170,-0.0035643876,0.0015720103,-0.0025602593,0.34906584,1.9267043e-07,1.9056719e-07,3.851174e-06,3932170,-0.004888896,0.001303655,0.009299233,0.4,0.012960848,0.012985756,0.000500692,458770,0.0,0.0,0.0,0.5,0.0025000002,0.0025000002,0.0025000002,1,0,1,0,1,0
32621675,32521016,3932170,-0.0035634395,0.001551341,-0.0025392745,0.34906584,1.8978467e-07,1.8791032e-07,3.5035666e-06,3932170,-0.0049882187,0.0011817272,0.009746513,0.4,0.012960213,0.012984738,0.00050068996,458770,0.0,0.0,0.0,0.5,0.0025000002,0.0025000002,0.0025000002,1,0,1,0,1,0
33630891,33530324,3932170,-0.0035607866,0.0015434868,-0.00250488,0.34906584,1.8724205e-07,1.8555359e-07,3.1766897e-06,3932170,-0.0050040907,0.0012258006,0.009281954,0.4,0.012959659,0.0129831685,0.0005006871,458770,0.0,0.0,0.0,0.5,0.0025000002,0.0025000002,0.0025000002,1,0,1,0,1,0
34640212,34539633,3932170,-0.0035544694,0.0015597484,-0.0025128275,0.34906584,1.8745969e-07,1.8587586e-07,2.9100102e-06,3932170,-0.0049269544,0.0011934551,0.009633241,0.4,0.0129595185,0.012982708,0.00050069316,458770,0.0,0.0,0.0,0.5,0.0025000002,0.0025000002,0.0025000002,1,0,1,0,1,0
35299859,35199182,3932170,-0.0035696984,0.0014371136,-0.0028024074,0.34906584,1.8406435e-07,1.8289604e-07,2.7398623e-06,3932170,-0.0053724283,-0.00013049779,0.009674729,0.4,0.012954719,0.012980883,0.00050068524,458770,0.0,0.0,0.0,0.5,0.0025000002,0.0025000002,0.0025000002,1,0,1,0,1,0
35509729,35409038,3932170,-0.003567577,0.0012271273,-0.0028837402,0.34906584,1.8325898e-07,1.8261474e-07,2.6592613e-06,3932170,-0.0061951717,-0.0044789724,0.010615668,0.4,0.012919839,0.012979824,0.0005006856,458770,0.0,0.0,0.0,0.5,0.0025000002,0.0025000002,0.0025000002,1,0,1,0,1,0
35719537,35618894,3932170,-0.0035718929,0.0011498004,-0.0030236775,0.34906584,1.828384e-07,1.8234103e-07,2.6074676e-06,3932170,-0.0063925474,-0.007027207,0.0077037336,0.4,0.012910347,0.0129769035,0.0005006859,458770,0.0,0.0,0.0,0.5,0.0025000002,0.0025000002,0.0025000002,1,0,1,0,1,0
35929575,35828750,3932170,-0.0035607456,0.0009927612,-0.0031815243,0.34906584,1.8230968e-07,1.8212076e-07,2.5467828e-06,3932170,-0.006162697,-0.014606538,0.0059035276,0.4,0.012882859,0.01297107,0.0005006862,458770,0.0,0.0,0.0,0.5,0.0025000002,0.0025000002,0.0025000002,1,0,1,0,1,0
36559053,36458319,3932170,-0.003598647,0.0010403689,-0.004067458,0.34906584,1.8832041e-07,1.8816378e-07,2.4222943e-06,3932170,-0.006522897,-0.013631922,0.005981451,0.4,0.0128783155,0.012969789,0.000500686,458770,0.0,0.0,0.0,0.5,0.0025000002,0.0025000002,0.0025000002,1,0,1,0,1,0
36679027,36578237,3932170,-0.0036171582,0.0010585077,-0.004358537,0.34906584,1.8935287e-07,1.8922782e-07,2.3886691e-06,3932170,-0.0075127166,-0.012988897,0.006156729,0.4,0.012874356,0.0129688075,0.0005006859,458770,0.0,0.0,0.0,0.5,0.0025000002,0.0025000002,0.0025000002,1,0,1,0,1,0
36808876,36708148,3932170,-0.0036400815,0.001080124,-0.00468603,0.34906584,1.9042076e-07,1.9034249e-07,2.353293e-06,3932170,-0.008405821,-0.01204137,0.0061450433,0.4,0.012868249,0.012967284,0.000500686,458770,0.0,0.0,0.0,0.5,0.0025000002,0.0025000002,0.0025000002,1,0,1,0,1,0
36938825,36838059,3932170,-0.0036681197,0.0011050121,-0.005048526,0.34906584,1.914102e-07,1.9139551e-07,2.3151665e-06,3932170,-0.010115531,-0.010814703,0.0063176425,0.4,0.012859019,0.012965033,0.000500686,458770,0.0,0.0,0.0,0.5,0.0025000002,0.0025000002,0.0025000002,1,0,1,0,1,0
37058724,36957977,3932170,-0.0036987006,0.0011302374,-0.0053265183,0.34906584,1.9222661e-07,1.9229631e-07,2.2875195e-06,3932170,-0.012533183,-0.009175348,0.0065268176,0.4,0.012846231,0.012961849,0.000500686,458770,0.0,0.0,0.0,0.5,0.0025000002,0.0025000002,0.0025000002,1,0,1,0,1,0
37108613,37007943,3932170,-0.0031497465,-0.001378132,-0.0032670682,0.34906584,1.8205516e-07,1.815926e-07,1.8535058e-06,3932170,0.028690701,-0.26588956,-0.000766217,0.4,0.011759889,0.012815129,0.00050068577,458770,0.0,0.0,0.0,0.5,0.0025000002,0.0025000002,0.0025000002,1,0,1,0,1,0
37228602,37127861,3932170,-0.0031447415,-0.0013678131,-0.003465013,0.34906584,1.8323894e-07,1.8277692e-07,1.8402541e-06,3932170,0.030151065,-0.26580697,-0.000768708,0.4,0.011759127,0.012815115,0.00050069025,458770,0.0,0.0,0.0,0.5,0.0025000002,0.0025000002,0.0025000002,1,0,1,0,1,0
37318597,37218049,3932170,-0.0031407785,-0.0013648424,-0.0035615773,0.34906584,1.8404697e-07,1.8358553e-07,1.8331134e-06,3932170,0.031194894,-0.26593205,-0.0008326969,0.4,0.011752895,0.012809168,0.00050045474,458770,0.0,0.0,0.0,0.5,0.0025000002,0.0025000002,0.0025000002,1,0,1,0,1,0
37428615,37327974,3932170,-0.0031378276,-0.001361596,-0.0036595985,0.34906584,1.8514795e-07,1.8468684e-07,1.8271255e-06,3932170,0.032242917,-0.26610485,-0.0008879557,0.4,0.0117520215,0.012809666,0.00050047855,458770,0.0,0.0,0.0,0.5,0.0025000002,0.0025000002,0.0025000002,1,0,1,0,1,0
37528442,37427910,3932170,-0.0031316984,-0.0013555818,-0.0038635375,0.34906584,1.8613945e-07,1.8567891e-07,1.8138913e-06,3932170,0.03367162,-0.26617336,-0.00087114604,0.4,0.0117516825,0.012810057,0.00050050224,458770,0.0,0.0,0.0,0.5,0.0025000002,0.0025000002,0.0025000002,1,0,1,0,1,0
37598428,37497857,3932170,-0.0031293489,-0.0013510087,-0.003961265,0.34906584,1.8683845e-07,1.86378e-07,1.8075311e-06,3932170,0.034724027,-0.2662741,-0.00092821056,0.4,0.011749462,0.012810291,0.00050051464,458770,0.0,0.0,0.0,0.5,0.0025000002,0.0025000002,0.0025000002,1,0,1,0,1,0
37698358,37597789,3932170,-0.0031280525,-0.0013439904,-0.004062743,0.34906584,1.8783567e-07,1.8737506e-07,1.801474e-06,3932170,0.03599737,-0.26614395,-0.0010530127,0.4,0.011745763,0.01281027,0.00050052744,458770,0.0,0.0,0.0,0.5,0.0025000002,0.0025000002,0.0025000002,1,0,1,0,1,0
37808312,37707714,3932170,-0.0031251158,-0.0013309042,-0.004269559,0.34906584,1.8892517e-07,1.8846391e-07,1.788436e-06,3932170,0.03842142,-0.26575926,-0.0013084839,0.4,0.011739955,0.012810221,0.00050054357,458770,0.0,0.0,0.0,0.5,0.0025000002,0.0025000002,0.0025000002,1,0,1,0,1,0
37938186,37837625,3932170,-0.0031272294,-0.0013162853,-0.0043833037,0.34906584,1.9021834e-07,1.8975524e-07,1.7826251e-06,3932170,0.03990967,-0.26509053,-0.0015111363,0.4,0.011731904,0.012809935,0.0005005607,458770,0.0,0.0,0.0,0.5,0.0025000002,0.0025000002,0.0025000002,1,0,1,0,1,0
38028109,37927563,3932170,-0.0031214023,-0.0013104031,-0.0045817867,0.34906584,1.9110928e-07,1.9064603e-07,1.7695144e-06,3932170,0.041288994,-0.26514864,-0.0014998994,0.4,0.0117314765,0.012810221,0.0005005743,458770,0.0,0.0,0.0,0.5,0.0025000002,0.0025000002,0.0025000002,1,0,1,0,1,0
38058047,37957543,3932170,-0.0031216678,-0.0013101052,-0.004581882,0.34906584,1.9140947e-07,1.9094601e-07,1.7698242e-06,3932170,0.04236745,-0.2648153,-0.0018330268,0.4,0.01172182,0.012809363,0.00050057465,458770,0.0,0.0,0.0,0.5,0.0025000002,0.0025000002,0.0025000002,1,0,1,0,1,0
38167984,38067469,3932170,-0.0031159048,-0.0013042318,-0.0047796792,0.34906584,1.9250007e-07,1.9203628e-07,1.7569756e-06,3932170,0.04375121,-0.26487014,-0.0018280478,0.4,0.011721363,0.012809627,0.0005005884,458770,0.0,0.0,0.0,0.5,0.0025000002,0.0025000002,0.0025000002,1,0,1,0,1,0
38187976,38087454,3932170,-0.0031161576,-0.0013039482,-0.0047797537,0.34906584,1.9270028e-07,1.9223617e-07,1.7571869e-06,3932170,0.04473984,-0.2645592,-0.002125139,0.4,0.01170823,0.012808398,0.00050058815,458770,0.0,0.0,0.0,0.5,0.0025000002,0.0025000002,0.0025000002,1,0,1,0,1,0
38317918,38217365,3932170,-0.003110809,-0.0012976814,-0.0049766707,0.34906584,1.9399052e-07,1.9352534e-07,1.7446108e-06,3932170,0.047490463,-0.2641832,-0.0025324617,0.4,0.01169153,0.012807148,0.00050059985,458770,0.0,0.0,0.0,0.5,0.0025000002,0.0025000002,0.0025000002,1,0,1,0,1,0
38437776,38337283,3932170,-0.0031083266,-0.0012943672,-0.0050747404,0.34906584,1.9518578e-07,1.9471948e-07,1.7389094e-06,3932170,0.049475376,-0.26380426,-0.0029206208,0.4,0.011671528,0.012805508,0.0005006094,458770,0.0,0.0,0.0,0.5,0.0025000002,0.0025000002,0.0025000002,1,0,1,0,1,0
38537753,38437214,3932170,-0.0031028006,-0.0012885822,-0.0052685617,0.34906584,1.9617609e-07,1.9570894e-07,1.7261187e-06,3932170,0.050875664,-0.26382184,-0.0029353085,0.4,0.011670831,0.012805685,0.00050061697,458770,0.0,0.0,0.0,0.5,0.0025000002,0.0025000002,0.0025000002,1,0,1,0,1,0
38557779,38457200,3932170,-0.0031034432,-0.0012877415,-0.005268665,0.34906584,1.9637507e-07,1.9590686e-07,1.7263241e-06,3932170,0.053458564,-0.26303393,-0.0036914004,0.4,0.0116475485,0.012803557,0.0005006186,458770,0.0,0.0,0.0,0.5,0.0025000002,0.0025000002,0.0025000002,1,0,1,0,1,0
38687624,38587112,3932170,-0.0031011794,-0.0012843284,-0.0053641372,0.34906584,1.97669e-07,1.9719896e-07,1.720746e-06,3932170,0.055867337,-0.26250648,-0.004212706,0.4,0.011620469,0.012801185,0.00050062576,458770,0.0,0.0,0.0,0.5,0.0025000002,0.0025000002,0.0025000002,1,0,1,0,1,0
38777553,38677050,3932170,-0.0030958743,-0.0012787152,-0.0055522225,0.34906584,1.9855894e-07,1.9808776e-07,1.7079045e-06,3932170,0.05717704,-0.26252794,-0.004213614,0.4,0.011619762,0.012801312,0.0005006348,458770,0.0,0.0,0.0,0.5,0.0025000002,0.0025000002,0.0025000002,1,0,1,0,1,0
38807601,38707030,3932170,-0.0030965933,-0.0012777211,-0.005552292,0.34906584,1.9885705e-07,1.9838416e-07,1.7082072e-06,3932170,0.060071148,-0.2616426,-0.005068496,0.4,0.011589521,0.012798506,0.00050063216,458770,0.0,0.0,0.0,0.5,0.0025000002,0.0025000002,0.0025000002,1,0,1,0,1,0
38917450,38816954,3932170,-0.0030915113,-0.0012722495,-0.005734772,0.34906584,1.999473e-07,1.9947306e-07,1.6956523e-06,3932170,0.061418854,-0.2616283,-0.0050961487,0.4,0.011588456,0.012798615,0.00050064106,458770,0.0,0.0,0.0,0.5,0.0025000002,0.0025000002,0.0025000002,1,0,1,0,1,0
38937434,38836940,3932170,-0.003092202,-0.0012712743,-0.005734819,0.34906584,2.0014546e-07,1.9966909e-07,1.6958562e-06,3932170,0.06419022,-0.26077655,-0.0059180493,0.4,0.0115546025,0.012795448,0.0005006397,458770,0.0,0.0,0.0,0.5,0.0025000002,0.0025000002,0.0025000002,1,0,1,0,1,0
39057340,38956859,3932170,-0.0030901935,-0.0012678807,-0.0058247317,0.34906584,2.0133784e-07,2.0085803e-07,1.6902529e-06,3932170,0.066772334,-0.26017708,-0.006499579,0.4,0.011516673,0.012792063,0.00050064345,458770,0.0,0.0,0.0,0.5,0.0025000002,0.0025000002,0.0025000002,1,0,1,0,1,0
39137291,39036804,3932170,-0.0030853127,-0.0012625558,-0.0060023135,0.34906584,2.0212772e-07,2.0164627e-07,1.6774993e-06,3932170,0.06805967,-0.26013434,-0.006520847,0.4,0.01151569,0.01279211,0.0005006504,458770,0.0,0.0,0.0,0.5,0.0025000002,0.0025000002,0.0025000002,1,0,1,0,1,0
39187241,39086769,3932170,-0.0030860065,-0.0012615195,-0.006002342,0.34906584,2.0262574e-07,2.0214115e-07,1.6780075e-06,3932170,0.070863746,-0.2592769,-0.007361174,0.4,0.011475703,0.012788432,0.0005006495,458770,0.0,0.0,0.0,0.5,0.0025000002,0.0025000002,0.0025000002,1,0,1,0,1,0
39287198,39186701,3932170,-0.0030813054,-0.0012562585,-0.006176106,0.34906584,2.0361527e-07,2.0312885e-07,1.6655192e-06,3932170,0.07226238,-0.2591823,-0.0074277013,0.4,0.011473996,0.012788391,0.00050065573,458770,0.0,0.0,0.0,0.5,0.0025000002,0.0025000002,0.0025000002,1,0,1,0,1,0
39307161,39206687,3932170,-0.0030819825,-0.0012551981,-0.0061761234,0.34906584,2.0381309e-07,2.033231e-07,1.6657222e-06,3932170,0.07510055,-0.258323,-0.008298715,0.4,0.011432608,0.012784632,0.0005006532,458770,0.0,0.0,0.0,0.5,0.0025000002,0.0025000002,0.0025000002,1,0,1,0,1,0
39397096,39296626,3932170,-0.0030797455,-0.0012524748,-0.006262373,0.34906584,2.0470767e-07,2.0421666e-07,1.6599125e-06,3932170,0.07613359,-0.25817245,-0.008439049,0.4,0.011430861,0.012784547,0.0005006553,458770,0.0,0.0,0.0,0.5,0.0025000002,0.0025000002,0.0025000002,1,0,1,0,1,0
39427134,39326605,3932170,-0.0030782067,-0.0012487225,-0.006347153,0.34906584,2.0500042e-07,2.0450467e-07,1.6535226e-06,3932170,0.07987549,-0.2571741,-0.009423713,0.4,0.011388496,0.01278047,0.0005006567,458770,0.0,0.0,0.0,0.5,0.0025000002,0.0025000002,0.0025000002,1,0,1,0,1,0
39507043,39406550,3932170,-0.0030760788,-0.001246048,-0.0064306716,0.34906584,2.0579533e-07,2.0529848e-07,1.6476484e-06,3932170,0.08097096,-0.2570035,-0.009590447,0.4,0.011386564,0.012780374,0.00050066,458770,0.0,0.0,0.0,0.5,0.0025000002,0.0025000002,0.0025000002,1,0,1,0,1,0
39556991,39456516,3932170,-0.0030768337,-0.0012448323,-0.006430646,0.34906584,2.0629243e-07,2.057912e-07,1.6481508e-06,3932170,0.084097914,-0.25602278,-0.010568503,0.4,0.011341105,0.012775922,0.00050066004,458770,0.0,0.0,0.0,0.5,0.0025000002,0.0025000002,0.0025000002,1,0,1,0,1,0
39656942,39556448,3932170,-0.003072464,-0.0012398573,-0.006594549,0.34906584,2.0728194e-07,2.0677845e-07,1.6358497e-06,3932170,0.085373126,-0.25595775,-0.010622107,0.4,0.01133853,0.012775772,0.00050066254,458770,0.0,0.0,0.0,0.5,0.0025000002,0.0025000002,0.0025000002,1,0,1,0,1,0
39686898,39586427,3932170,-0.0030732458,-0.0012385377,-0.006594505,0.34906584,2.0757952e-07,2.0707134e-07,1.636153e-06,3932170,0.08867729,-0.2549147,-0.011682025,0.4,0.011293574,0.012771318,0.00050066283,458770,0.0,0.0,0.0,0.5,0.0025000002,0.0025000002,0.0025000002,1,0,1,0,1,0
39796818,39696352,3932170,-0.003071231,-0.0012358901,-0.0066755945,0.34906584,2.0867391e-07,2.081644e-07,1.6306343e-06,3932170,0.08985452,-0.25471368,-0.011881264,0.4,0.011289797,0.012771034,0.0005006649,458770,0.0,0.0,0.0,0.5,0.0025000002,0.0025000002,0.0025000002,1,0,1,0,1,0
39806865,39706345,3932170,-0.003069903,-0.0012320795,-0.0067555876,0.34906584,2.0876662e-07,2.0825073e-07,1.6241253e-06,3932170,0.09380781,-0.25361663,-0.012985935,0.4,0.011243367,0.012766333,0.0005006653,458770,0.0,0.0,0.0,0.5,0.0025000002,0.0025000002,0.0025000002,1,0,1,0,1,0
39896749,39796284,3932170,-0.0030679477,-0.0012295067,-0.0068345387,0.34906584,2.0966114e-07,2.0914386e-07,1.6184406e-06,3932170,0.09491913,-0.25343034,-0.013170192,0.4,0.011240468,0.012766116,0.0005006666,458770,0.0,0.0,0.0,0.5,0.0025000002,0.0025000002,0.0025000002,1,0,1,0,1,0
39936835,39836256,3932170,-0.0030667589,-0.0012255711,-0.006912414,0.34906584,2.10054e-07,2.0952969e-07,1.6122876e-06,3932170,0.09921456,-0.25221992,-0.014411357,0.4,0.011193401,0.012761389,0.0005006679,458770,0.0,0.0,0.0,0.5,0.0025000002,0.0025000002,0.0025000002,1,0,1,0,1,0
40056733,39956174,3932170,-0.0030655866,-0.0012216619,-0.006989734,0.34906584,2.1124585e-07,2.1071358e-07,1.606957e-06,3932170,0.103532396,-0.25101283,-0.015666556,0.4,0.0111417025,0.012756312,0.0005006694,458770,0.0,0.0,0.0,0.5,0.0025000002,0.0025000002,0.0025000002,1,0,1,0,1,0
40106615,40006141,3932170,-0.0030636888,-0.0012191597,-0.007066717,0.34906584,2.1174034e-07,2.1120664e-07,1.6009434e-06,3932170,0.104566656,-0.25083825,-0.015832607,0.4,0.011139834,0.012756146,0.00050066883,458770,0.0,0.0,0.0,0.5,0.0025000002,0.0025000002,0.0025000002,1,0,1,0,1,0
40186572,40086086,3932170,-0.0030625283,-0.0012152495,-0.007142632,0.34906584,2.1253297e-07,2.1199095e-07,1.5952489e-06,3932170,0.10880514,-0.249645,-0.017098686,0.4,0.011091266,0.0127513455,0.00050067005,458770,0.0,0.0,0.0,0.5,0.0025000002,0.0025000002,0.0025000002,1,0,1,0,1,0
40256504,40156037,3932170,-0.0030607348,-0.0012127334,-0.007218119,0.34906584,2.1322826e-07,2.126846e-07,1.5894798e-06,3932170,0.10999259,-0.2494164,-0.017317902,0.4,0.011087567,0.0127510615,0.00050067203,458770,0.0,0.0,0.0,0.5,0.0025000002,0.0025000002,0.0025000002,1,0,1,0,1,0
40306564,40206003,3932170,-0.0030596165,-0.0012088323,-0.007293004,0.34906584,2.1372111e-07,2.1316892e-07,1.58352e-06,3932170,0.114226304,-0.24819344,-0.01861111,0.4,0.01103997,0.012746123,0.0005006724,458770,0.0,0.0,0.0,0.5,0.0025000002,0.0025000002,0.0025000002,1,0,1,0,1,0
40436396,40335914,3932170,-0.0030583346,-0.0012052886,-0.0073668673,0.34906584,2.1501361e-07,2.1445202e-07,1.5783858e-06,3932170,0.11766767,-0.24724653,-0.019648094,0.4,0.010991086,0.012741323,0.00050067395,458770,0.0,0.0,0.0,0.5,0.0025000002,0.0025000002,0.0025000002,1,0,1,0,1,0
40506330,40405866,3932170,-0.0030566622,-0.0012027946,-0.0074396497,0.34906584,2.157086e-07,2.1514518e-07,1.5726733e-06,3932170,0.1189688,-0.24697335,-0.019912785,0.4,0.010986839,0.0127409585,0.0005006749,458770,0.0,0.0,0.0,0.5,0.0025000002,0.0025000002,0.0025000002,1,0,1,0,1,0
40556372,40455832,3932170,-0.003055661,-0.0011987758,-0.007511237,0.34906584,2.1620194e-07,2.156294e-07,1.5667819e-06,3932170,0.12348761,-0.24564096,-0.021389138,0.4,0.010941806,0.012736216,0.00050067523,458770,0.0,0.0,0.0,0.5,0.0025000002,0.0025000002,0.0025000002,1,0,1,0,1,0
40656230,40555764,3932170,-0.0030540128,-0.0011963064,-0.0075832605,0.34906584,2.1719651e-07,2.1662204e-07,1.5614141e-06,3932170,0.124756336,-0.24537657,-0.021647757,0.4,0.010937212,0.012735815,0.00050067605,458770,0.0,0.0,0.0,0.5,0.0025000002,0.0025000002,0.0025000002,1,0,1,0,1,0
40686219,40585743,3932170,-0.0030527909,-0.0011926945,-0.0076538045,0.34906584,2.1749081e-07,2.1690643e-07,1.5553617e-06,3932170,0.12826791,-0.24440093,-0.022792768,0.4,0.01089494,0.01273167,0.00050067675,458770,0.0,0.0,0.0,0.5,0.0025000002,0.0025000002,0.0025000002,1,0,1,0,1,0
40736197,40635709,3932170,-0.0030511548,-0.0011903873,-0.0077235135,0.34906584,2.1798597e-07,2.1739976e-07,1.5495301e-06,3932170,0.1292593,-0.24421601,-0.022967681,0.4,0.010892524,0.012731462,0.00050067937,458770,0.0,0.0,0.0,0.5,0.0025000002,0.0025000002,0.0025000002,1,0,1,0,1,0
40806224,40705661,3932170,-0.0030498873,-0.0011870073,-0.0077934284,0.34906584,2.1867969e-07,2.1808246e-07,1.5439223e-06,3932170,0.1323688,-0.24337767,-0.023952171,0.4,0.010846651,0.012727157,0.00050067727,458770,0.0,0.0,0.0,0.5,0.0025000002,0.0025000002,0.0025000002,1,0,1,0,1,0
40916058,40815586,3932170,-0.0030483801,-0.001184545,-0.007862789,0.34906584,2.1977404e-07,2.1917468e-07,1.5387368e-06,3932170,0.13378741,-0.24304736,-0.024269676,0.4,0.010841608,0.012726696,0.0005006774,458770,0.0,0.0,0.0,0.5,0.0025000002,0.0025000002,0.0025000002,1,0,1,0,1,0
40936050,40835572,3932170,-0.0030488258,-0.0011831911,-0.007862652,0.34906584,2.1997283e-07,2.1936422e-07,1.5389376e-06,3932170,0.1364398,-0.24223112,-0.02530234,0.4,0.010801933,0.0127229495,0.0005006778,458770,0.0,0.0,0.0,0.5,0.0025000002,0.0025000002,0.0025000002,1,0,1,0,1,0
41016044,40915517,3932170,-0.0030455424,-0.0011788206,-0.008000487,0.34906584,2.2076402e-07,2.2015139e-07,1.5272394e-06,3932170,0.13786076,-0.24199675,-0.025478836,0.4,0.010796587,0.012722488,0.0005006784,458770,0.0,0.0,0.0,0.5,0.0025000002,0.0025000002,0.0025000002,1,0,1,0,1,0
41056169,40955490,3932170,-0.0030459035,-0.0011776028,-0.008000363,0.34906584,2.211625e-07,2.205408e-07,1.527638e-06,3932170,0.14021482,-0.24127755,-0.02642888,0.4,0.010759362,0.01271901,0.00050067814,458770,0.0,0.0,0.0,0.5,0.0025000002,0.0025000002,0.0025000002,1,0,1,0,1,0
41115915,41015449,3932170,-0.003044418,-0.0011752538,-0.008068176,0.34906584,2.2175774e-07,2.2113375e-07,1.5220153e-06,3932170,0.14143084,-0.24099775,-0.026686337,0.4,0.010754177,0.012718534,0.0005006784,458770,0.0,0.0,0.0,0.5,0.0025000002,0.0025000002,0.0025000002,1,0,1,0,1,0
41186069,41085401,3932170,-0.0030433652,-0.0011722293,-0.008126602,0.34906584,2.2245237e-07,2.2181726e-07,1.5165068e-06,3932170,0.14430624,-0.24021553,-0.027696144,0.4,0.010716593,0.012715168,0.0005006786,458770,0.0,0.0,0.0,0.5,0.0025000002,0.0025000002,0.0025000002,1,0,1,0,1,0
41265814,41165346,3932170,-0.003042156,-0.001170278,-0.008182321,0.34906584,2.2324748e-07,2.2261001e-07,1.511122e-06,3932170,0.14534065,-0.2399816,-0.027922185,0.4,0.010711189,0.012714681,0.00050067913,458770,0.0,0.0,0.0,0.5,0.0025000002,0.0025000002,0.0025000002,1,0,1,0,1,0
41316176,41215312,3932170,-0.0030410367,-0.001167495,-0.00823903,0.34906584,2.2374245e-07,2.23094e-07,1.5054586e-06,3932170,0.14774114,-0.23935123,-0.02879024,0.4,0.010676039,0.012711551,0.000500679,458770,0.0,0.0,0.0,0.5,0.0025000002,0.0025000002,0.0025000002,1,0,1,0,1,0
41415712,41315244,3932170,-0.0030398734,-0.0011654142,-0.0082952855,0.34906584,2.2473701e-07,2.2408614e-07,1.5003171e-06,3932170,0.14904787,-0.23904039,-0.029108884,0.4,0.010670429,0.0127110295,0.00050067884,458770,0.0,0.0,0.0,0.5,0.0025000002,0.0025000002,0.0025000002,1,0,1,0,1,0
41435710,41335230,3932170,-0.0030400346,-0.001164601,-0.008295206,0.34906584,2.2493656e-07,2.2427717e-07,1.500518e-06,3932170,0.1505385,-0.23859319,-0.029788045,0.4,0.0106406715,0.012708359,0.0005006792,458770,0.0,0.0,0.0,0.5,0.0025000002,0.0025000002,0.0025000002,1,0,1,0,1,0
41515655,41415175,3932170,-0.0030389323,-0.0011625908,-0.008349091,0.34906584,2.2573172e-07,2.2506987e-07,1.4951937e-06,3932170,0.15182798,-0.23828758,-0.03010698,0.4,0.01063509,0.012707853,0.00050067966,458770,0.0,0.0,0.0,0.5,0.0025000002,0.0025000002,0.0025000002,1,0,1,0,1,0
41555640,41455148,3932170,-0.0030379065,-0.0011599776,-0.008398225,0.34906584,2.261272e-07,2.2545498e-07,1.4894906e-06,3932170,0.15411544,-0.23769899,-0.031048337,0.4,0.010607321,0.012705456,0.0005006794,458770,0.0,0.0,0.0,0.5,0.0025000002,0.0025000002,0.0025000002,1,0,1,0,1,0
41615580,41515107,3932170,-0.0030369775,-0.0011583408,-0.008442863,0.34906584,2.2672252e-07,2.260478e-07,1.4840114e-06,3932170,0.15510017,-0.23747562,-0.031285696,0.4,0.010601759,0.012704941,0.0005006794,458770,0.0,0.0,0.0,0.5,0.0025000002,0.0025000002,0.0025000002,1,0,1,0,1,0
41685526,41585061,3932170,-0.0030363488,-0.0011563123,-0.008476927,0.34906584,2.2741696e-07,2.2673179e-07,1.4786498e-06,3932170,0.15716578,-0.23691747,-0.032135334,0.4,0.010573561,0.012702437,0.0005006778,458770,0.0,0.0,0.0,0.5,0.0025000002,0.0025000002,0.0025000002,1,0,1,0,1,0
41765550,41665004,3932170,-0.003036036,-0.0011552789,-0.008498746,0.34906584,2.2821322e-07,2.2752542e-07,1.4734237e-06,3932170,0.1582408,-0.23662263,-0.032454584,0.4,0.010567943,0.012701976,0.0005006803,458770,0.0,0.0,0.0,0.5,0.0025000002,0.0025000002,0.0025000002,1,0,1,0,1,0
41805455,41704977,3932170,-0.0030360958,-0.0011546479,-0.008498675,0.34906584,2.2861249e-07,2.2791703e-07,1.4738223e-06,3932170,0.15931883,-0.23630351,-0.033019215,0.4,0.010545278,0.012699988,0.00050068006,458770,0.0,0.0,0.0,0.5,0.0025000002,0.0025000002,0.0025000002,1,0,1,0,1,0
41875420,41774929,3932170,-0.0030358986,-0.0011537161,-0.008516099,0.34906584,2.2930797e-07,2.2860984e-07,1.4685129e-06,3932170,0.16043697,-0.23598532,-0.033363856,0.4,0.010539633,0.012699472,0.0005006803,458770,0.0,0.0,0.0,0.5,0.0025000002,0.0025000002,0.0025000002,1,0,1,0,1,0
41975351,41874860,3932170,-0.0030354871,-0.0011524304,-0.008541663,0.34906584,2.3030012e-07,2.2959068e-07,1.4575509e-06,3932170,0.16173325,-0.2356234,-0.03382351,0.4,0.010514613,0.0126972245,0.0005006812,458770,0.0,0.0,0.0,0.5,0.0025000002,0.0025000002,0.0025000002,1,0,1,0,1,0
42075261,41974792,3932170,-0.0030352143,-0.0011514414,-0.008561887,0.34906584,2.312952e-07,2.3057807e-07,1.4526021e-06,3932170,0.16278888,-0.235322,-0.03414554,0.4,0.010493266,0.01269517,0.00050068105,458770,0.0,0.0,0.0,0.5,0.0025000002,0.0025000002,0.0025000002,1,0,1,0,1,0
42175262,42074724,3932170,-0.0030339707,-0.0011491923,-0.008624353,0.34906584,2.3228728e-07,2.3156498e-07,1.4417767e-06,3932170,0.16404325,-0.23499857,-0.034452192,0.4,0.010487376,0.012694634,0.0005006809,458770,0.0,0.0,0.0,0.5,0.0025000002,0.0025000002,0.0025000002,1,0,1,0,1,0
42225270,42124689,3932170,-0.0030340266,-0.0011487125,-0.008624318,0.34906584,2.3278689e-07,2.3206039e-07,1.4422786e-06,3932170,0.16502787,-0.23468997,-0.035000328,0.4,0.010471527,0.0126930885,0.0005006818,458770,0.0,0.0,0.0,0.5,0.0025000002,0.0025000002,0.0025000002,1,0,1,0,1,0
42375059,42274587,3932170,-0.0030328683,-0.0011464363,-0.008690009,0.34906584,2.342785e-07,2.3354333e-07,1.4320402e-06,3932170,0.16626264,-0.23434867,-0.03512818,0.4,0.010452062,0.012691112,0.0005006815,458770,0.0,0.0,0.0,0.5,0.0025000002,0.0025000002,0.0025000002,1,0,1,0,1,0
42525151,42424484,3932170,-0.0030332122,-0.0011460144,-0.008685291,0.34906584,2.3577105e-07,2.3502827e-07,1.4218721e-06,3932170,0.16761516,-0.23393092,-0.035666723,0.4,0.010435344,0.012689377,0.0005006823,458770,0.0,0.0,0.0,0.5,0.0025000002,0.0025000002,0.0025000002,1,0,1,0,1,0
42564948,42464457,3932170,-0.0030341246,-0.0011472397,-0.008649638,0.34906584,2.3616738e-07,2.3542202e-07,1.4164607e-06,3932170,0.16683808,-0.23421746,-0.03503529,0.4,0.01042961,0.012688639,0.0005006825,458770,0.0,0.0,0.0,0.5,0.0025000002,0.0025000002,0.0025000002,1,0,1,0,1,0
42674902,42574382,3932170,-0.003034829,-0.001147524,-0.008625606,0.34906584,2.3726314e-07,2.3651418e-07,1.4117649e-06,3932170,0.16777201,-0.2339406,-0.03542489,0.4,0.0104217,0.0126878675,0.000500682,458770,0.0,0.0,0.0,0.5,0.0025000002,0.0025000002,0.0025000002,1,0,1,0,1,0
42884780,42784238,3932170,-0.0030367505,-0.0011495383,-0.0085419435,0.34906584,2.3935095e-07,2.3859462e-07,1.3965675e-06,3932170,0.16874872,-0.23368219,-0.036044646,0.4,0.010406166,0.0126859825,0.0005006828,458770,0.0,0.0,0.0,0.5,0.0025000002,0.0025000002,0.0025000002,1,0,1,0,1,0
43184573,43084033,3932170,-0.003039653,-0.0011514567,-0.008436719,0.34906584,2.4233066e-07,2.4155966e-07,1.3767747e-06,3932170,0.16988543,-0.23346896,-0.035947382,0.4,0.010390213,0.0126840435,0.0005006833,458770,0.0,0.0,0.0,0.5,0.0025000002,0.0025000002,0.0025000002,1,0,1,0,1,0
43334473,43233930,3932170,-0.003040296,-0.0011503805,-0.0084362645,0.34906584,2.4382103e-07,2.430393e-07,1.3669953e-06,3932170,0.17098443,-0.2332075,-0.03566885,0.4,0.01038311,0.012683316,0.000500684,458770,0.0,0.0,0.0,0.5,0.0025000002,0.0025000002,0.0025000002,1,0,1,0,1,0
43414399,43313876,3932170,-0.0038225348,-0.004151312,-0.009048988,0.34906584,1.9063589e-07,1.8992243e-07,1.3547512e-06,3932170,0.114410274,-0.46275136,-0.13397908,0.4,0.010056683,0.01226704,0.00050068344,458770,0.0,0.0,0.0,0.5,0.0025000002,0.0025000002,0.0025000002,1,0,1,0,1,0
43424302,43323869,3932170,-0.0038225357,-0.004151313,-0.009048991,0.34906584,1.9073583e-07,1.9002238e-07,1.3548516e-06,3932170,0.1144103,-0.4000001,-0.13397911,0.4,0.010056688,0.012267047,0.00050068455,458770,0.0,0.0,0.0,0.5,0.0025000002,0.0025000002,0.0025000002,1,0,1,0,1,0
43544272,43443786,3932170,-0.003827725,-0.004155335,-0.008923744,0.34906584,1.9190846e-07,1.9120957e-07,1.3450267e-06,3932170,0.11334805,-0.39971364,-0.13403499,0.4,0.010048385,0.012266758,0.0005006857,458770,0.0,0.0,0.0,0.5,0.0025000002,0.0025000002,0.0025000002,1,0,1,0,1,0
43624305,43523732,3932170,-0.0039677904,-0.003035642,-0.00643831,0.34906584,1.878118e-07,1.8915063e-07,1.1535781e-06,3932170,0.09634872,-0.33807355,-0.09046035,0.4,0.009766901,0.01217274,0.0005006843,458770,0.0,0.0,0.0,0.5,0.0025000002,0.0025000002,0.0025000002,1,0,1,0,1,0
43834128,43733588,3932170,-0.00382001,-0.001893612,-0.0058846604,0.34906584,1.8646884e-07,1.880859e-07,1.0735135e-06,3932170,0.05308068,-0.35063145,-0.06591117,0.4,0.009560871,0.012131043,0.0005006852,458770,0.0,0.0,0.0,0.5,0.0025000002,0.0025000002,0.0025000002,1,0,1,0,1,0
44044079,43943444,3932170,-0.0036806655,-0.0010109341,-0.005407616,0.34906584,1.857516e-07,1.8717665e-07,1.0354793e-06,3932170,0.028145837,-0.37611938,-0.04621185,0.4,0.009429822,0.012110293,0.000500686,458770,0.0,0.0,0.0,0.5,0.0025000002,0.0025000002,0.0025000002,1,0,1,0,1,0
44254020,44153301,3932170,-0.003607701,-0.00017807928,-0.005017174,0.34906584,1.8529792e-07,1.8619367e-07,1.0070504e-06,3932170,0.02518743,-0.41273108,-0.04057024,0.4,0.009313535,0.012102024,0.00050068554,458770,0.0,0.0,0.0,0.5,0.0025000002,0.0025000002,0.0025000002,1,0,1,0,1,0
44263758,44163294,3932170,-0.0036077017,-0.00017807932,-0.0050171753,0.34906584,1.8539785e-07,1.862936e-07,1.0071507e-06,3932170,0.025187436,-0.4000001,-0.040570248,0.4,0.00931354,0.012102029,0.00050068664,458770,0.0,0.0,0.0,0.5,0.0025000002,0.0025000002,0.0025000002,1,0,1,0,1,0
44463676,44363157,3932170,-0.0035563111,0.0005777632,-0.004706223,0.34906584,1.8501629e-07,1.8526029e-07,9.870262e-07,3932170,0.02826534,-0.4356534,-0.043608718,0.4,0.009206664,0.012088561,0.000500686,458770,0.0,0.0,0.0,0.5,0.0025000002,0.0025000002,0.0025000002,1,0,1,0,1,0
44473607,44373150,3932170,-0.0035563118,0.0005777633,-0.004706224,0.34906584,1.8511619e-07,1.853602e-07,9.871262e-07,3932170,0.028265346,-0.40000004,-0.043608725,0.4,0.009206667,0.012088565,0.000500687,458770,0.0,0.0,0.0,0.5,0.0025000002,0.0025000002,0.0025000002,1,0,1,0,1,0
44673565,44573014,3932170,-0.0035494359,0.0010822461,-0.0045420327,0.34906584,1.8466083e-07,1.845711e-07,9.795986e-07,3932170,0.024311325,-0.4283563,-0.032401785,0.4,0.009146505,0.012077733,0.00050068524,458770,0.0,0.0,0.0,0.5,0.0025000002,0.0025000002,0.0025000002,1,0,1,0,1,0
44683473,44583007,3932170,-0.0035494415,0.0010822471,-0.0045420327,0.34906584,1.8476075e-07,1.8467102e-07,9.796987e-07,3932170,0.024316119,-0.3999981,-0.032395497,0.4,0.00914651,0.0120777385,0.00050068623,458770,0.0,0.0,0.0,0.5,0.0025000002,0.0025000002,0.0025000002,1,0,1,0,1,0
44853407,44752890,3932170,-0.0035503362,0.0010837294,-0.0045649884,0.34906584,1.8642197e-07,1.8634658e-07,9.75509e-07,3932170,0.023316968,-0.40012643,-0.032428633,0.4,0.009139038,0.012076926,0.0005006861,458770,0.0,0.0,0.0,0.5,0.0025000002,0.0025000002,0.0025000002,1,0,1,0,1,0
44883386,44782870,3932170,-0.0035447301,0.0014958443,-0.0044027525,0.34906584,1.8429495e-07,1.840046e-07,9.740443e-07,3932170,0.023028005,-0.42229897,-0.02107685,0.4,0.009099336,0.0120686,0.0005006856,458770,0.0,0.0,0.0,0.5,0.0025000002,0.0025000002,0.0025000002,1,0,1,0,1,0
44893299,44792863,3932170,-0.003544731,0.0014958447,-0.0044027534,0.34906584,1.8439489e-07,1.8410455e-07,9.741445e-07,3932170,0.02302801,-0.40000007,-0.021076856,0.4,0.009099341,0.012068605,0.0005006867,458770,0.0,0.0,0.0,0.5,0.0025000002,0.0025000002,0.0025000002,1,0,1,0,1,0
45053221,44952754,3932170,-0.0035444356,0.0014962554,-0.0044087423,0.34906584,1.8596444e-07,1.8568637e-07,9.7182e-07,3932170,0.021962665,-0.40008265,-0.021130754,0.4,0.009092224,0.0120679075,0.00050068524,458770,0.0,0.0,0.0,0.5,0.0025000002,0.0025000002,0.0025000002,1,0,1,0,1,0
45093243,44992726,3932170,-0.0036139567,0.0019609067,-0.0043200636,0.34906584,1.840442e-07,1.8329715e-07,9.675884e-07,3932170,0.030791186,-0.41948202,-0.02321117,0.4,0.009041988,0.012056426,0.000500686,458770,0.0,0.0,0.0,0.5,0.0025000002,0.0025000002,0.0025000002,1,0,1,0,1,0
45103191,45002719,3932170,-0.003613755,0.0019609174,-0.004320077,0.34906584,1.8414335e-07,1.8339705e-07,9.676885e-07,3932170,0.030492483,-0.40006623,-0.023229135,0.4,0.009040321,0.012056348,0.0005006861,458770,0.0,0.0,0.0,0.5,0.0025000002,0.0025000002,0.0025000002,1,0,1,0,1,0
45303136,45202583,3932170,-0.003649939,0.0023776018,-0.0042312373,0.34906584,1.83882e-07,1.8280653e-07,9.619276e-07,3932170,0.033788487,-0.41498813,-0.02054949,0.4,0.008988286,0.012050857,0.00050068536,458770,0.0,0.0,0.0,0.5,0.0025000002,0.0025000002,0.0025000002,1,0,1,0,1,0
45313058,45212576,3932170,-0.0036499428,0.0023776058,-0.004231237,0.34906584,1.8398194e-07,1.8290646e-07,9.620278e-07,3932170,0.033793878,-0.40000308,-0.020544365,0.4,0.008988291,0.0120508615,0.00050068635,458770,0.0,0.0,0.0,0.5,0.0025000002,0.0025000002,0.0025000002,1,0,1,0,1,0
45513046,45412439,3932170,-0.0037676422,0.0026484416,-0.0043058847,0.34906584,1.8354729e-07,1.8235328e-07,9.580721e-07,3932170,0.038016472,-0.4074014,-0.009961609,0.4,0.0089595765,0.0120431315,0.00050068577,458770,0.0,0.0,0.0,0.5,0.0025000002,0.0025000002,0.0025000002,1,0,1,0,1,0
45522892,45422432,3932170,-0.003767643,0.0026484418,-0.0043058856,0.34906584,1.8364722e-07,1.824532e-07,9.581723e-07,3932170,0.038016476,-0.4000001,-0.009961611,0.4,0.00895958,0.012043137,0.00050068693,458770,0.0,0.0,0.0,0.5,0.0025000002,0.0025000002,0.0025000002,1,0,1,0,1,0
45712838,45612302,3932170,-0.0037691009,0.0026500563,-0.004330865,0.34906584,1.854939e-07,1.8432712e-07,9.54145e-07,3932170,0.036965337,-0.40010685,-0.009955254,0.4,0.00895311,0.01204222,0.000500686,458770,0.0,0.0,0.0,0.5,0.0025000002,0.0025000002,0.0025000002,1,0,1,0,1,0
45723028,45622295,3932170,-0.0038314096,0.0028300886,-0.0043233256,0.34906584,1.8310551e-07,1.8204474e-07,9.540221e-07,3932170,0.039710846,-0.40115213,-0.0029778904,0.4,0.008942858,0.012041026,0.0005006861,458770,0.0,0.0,0.0,0.5,0.0025000002,0.0025000002,0.0025000002,1,0,1,0,1,0
45732732,45632289,3932170,-0.0038314064,0.0028300863,-0.004323322,0.34906584,1.8320505e-07,1.8214429e-07,9.541204e-07,3932170,0.039710812,-0.39999968,-0.0029778879,0.4,0.008942843,0.012041007,0.0005006862,458770,0.0,0.0,0.0,0.5,0.0025000002,0.0025000002,0.0025000002,1,0,1,0,1,0
45912635,45812165,3932170,-0.003832292,0.0028314574,-0.0043438855,0.34906584,1.8496874e-07,1.8392632e-07,9.519396e-07,3932170,0.038399745,-0.4000847,-0.0030137103,0.4,0.008936674,0.012040326,0.0005006894,458770,0.0,0.0,0.0,0.5,0.0025000002,0.0025000002,0.0025000002,1,0,1,0,1,0
45932764,45832152,3932170,-0.003676754,0.0030335987,-0.0041033872,0.34906584,1.8275422e-07,1.8205095e-07,9.468119e-07,3932170,0.038783006,-0.40318537,-0.0045944154,0.4,0.0089219855,0.012026623,0.0005006855,458770,0.0,0.0,0.0,0.5,0.0025000002,0.0025000002,0.0025000002,1,0,1,0,1,0
45942595,45842145,3932170,-0.0036767544,0.0030335991,-0.004103388,0.34906584,1.8285414e-07,1.8215087e-07,9.46912e-07,3932170,0.038783014,-0.40000007,-0.004594416,0.4,0.008921988,0.012026628,0.0005006865,458770,0.0,0.0,0.0,0.5,0.0025000002,0.0025000002,0.0025000002,1,0,1,0,1,0
46112508,46012029,3932170,-0.0036791833,0.0030362613,-0.0041409633,0.34906584,1.845176e-07,1.8383018e-07,9.44647e-07,3932170,0.037645835,-0.4000752,-0.0046246205,0.4,0.008915951,0.012025912,0.00050068717,458770,0.0,0.0,0.0,0.5,0.0025000002,0.0025000002,0.0025000002,1,0,1,0,1,0
46142591,46042008,3932170,-0.003435618,0.0032173826,-0.003849332,0.34906584,1.8241546e-07,1.8223626e-07,9.371288e-07,3932170,0.036565345,-0.403714,-0.007033331,0.4,0.008903591,0.011998581,0.0005006859,458770,0.0,0.0,0.0,0.5,0.0025000002,0.0025000002,0.0025000002,1,0,1,0,1,0
46152436,46052002,3932170,-0.003435615,0.0032173798,-0.0038493287,0.34906584,1.8251502e-07,1.8233582e-07,9.3722707e-07,3932170,0.036565315,-0.39999968,-0.007033325,0.4,0.008903578,0.011998562,0.00050068594,458770,0.0,0.0,0.0,0.5,0.0025000002,0.0025000002,0.0025000002,1,0,1,0,1,0
46312421,46211892,3932170,-0.0034364965,0.0032188897,-0.0038679335,0.34906584,1.8407935e-07,1.8391215e-07,9.349133e-07,3932170,0.035500586,-0.4001226,-0.0069995625,0.4,0.008897691,0.011997872,0.0005006856,458770,0.0,0.0,0.0,0.5,0.0025000002,0.0025000002,0.0025000002,1,0,1,0,1,0
46352383,46251865,3932170,-0.003260624,0.0033637283,-0.003657571,0.34906584,1.8206455e-07,1.8234783e-07,9.321711e-07,3932170,0.034255296,-0.40287867,-0.010164749,0.4,0.00889025,0.011983732,0.00050068524,458770,0.0,0.0,0.0,0.5,0.0025000002,0.0025000002,0.0025000002,1,0,1,0,1,0
46362377,46261858,3932170,-0.0032615133,0.0033647488,-0.003670113,0.34906584,1.8214853e-07,1.8243557e-07,9.3032963e-07,3932170,0.033996064,-0.4002119,-0.01018472,0.4,0.008888736,0.011983459,0.0005006855,458770,0.0,0.0,0.0,0.5,0.0025000002,0.0025000002,0.0025000002,1,0,1,0,1,0
46562331,46461721,3932170,-0.00307482,0.003525559,-0.003494891,0.34906584,1.8179591e-07,1.8250446e-07,9.253531e-07,3932170,0.030088868,-0.40353522,-0.008272811,0.4,0.008875207,0.011969066,0.0005006856,458770,0.0,0.0,0.0,0.5,0.0025000002,0.0025000002,0.0025000002,1,0,1,0,1,0
46572180,46471714,3932170,-0.0030745822,0.0035255894,-0.0034948934,0.34906584,1.8189532e-07,1.826044e-07,9.254534e-07,3932170,0.029708201,-0.40008938,-0.008282666,0.4,0.008873852,0.011968997,0.00050068577,458770,0.0,0.0,0.0,0.5,0.0025000002,0.0025000002,0.0025000002,1,0,1,0,1,0
46772205,46671577,3932170,-0.0029217796,0.0036748706,-0.0034004054,0.34906584,1.8148967e-07,1.8257124e-07,9.1960044e-07,3932170,0.025414268,-0.40505,-0.00922762,0.4,0.008860573,0.011956677,0.000500686,458770,0.0,0.0,0.0,0.5,0.0025000002,0.0025000002,0.0025000002,1,0,1,0,1,0
46782069,46681570,3932170,-0.00292178,0.003674871,-0.0034004059,0.34906584,1.8158957e-07,1.8267114e-07,9.197004e-07,3932170,0.025414271,-0.40000004,-0.009227621,0.4,0.008860576,0.011956681,0.000500687,458770,0.0,0.0,0.0,0.5,0.0025000002,0.0025000002,0.0025000002,1,0,1,0,1,0
46982014,46881434,3932170,-0.0028682477,0.0038033735,-0.003387238,0.34906584,1.8115055e-07,1.824243e-07,9.154356e-07,3932170,0.023303725,-0.40516242,-0.008724347,0.4,0.008848712,0.01195162,0.0005006855,458770,0.0,0.0,0.0,0.5,0.0025000002,0.0025000002,0.0025000002,1,1,1,0,1,0
46991860,46891427,3932170,-0.0028682481,0.003803374,-0.0033872384,0.34906584,1.8125047e-07,1.8252422e-07,9.1553574e-07,3932170,0.023303729,-0.40000007,-0.008724348,0.4,0.008848716,0.011951624,0.00050068647,458770,0.0,0.0,0.0,0.5,0.0025000002,0.0025000002,0.0025000002,1,1,1,0,1,0
47171793,47071304,3932170,-0.0028716505,0.0038078702,-0.0034366848,0.34906584,1.8300209e-07,1.8427598e-07,9.114761e-07,3932170,0.022243245,-0.40009132,-0.008765665,0.4,0.008843228,0.011950736,0.00050069165,458770,0.0,0.0,0.0,0.5,0.0025000002,0.0025000002,0.0025000002,1,1,1,0,1,0
47192009,47091290,3932170,-0.0028487798,0.0039450205,-0.0034093782,0.34906584,1.8085537e-07,1.8219811e-07,9.115625e-07,3932170,0.02217706,-0.4066548,-0.007488771,0.4,0.008835148,0.011945433,0.0005006859,458770,0.0,0.0,0.0,0.5,0.0025000002,0.0025000002,0.0025000002,1,1,1,0,1,0
47201716,47101285,3932170,-0.0028487747,0.0039450135,-0.003409372,0.34906584,1.8095454e-07,1.8229728e-07,9.116591e-07,3932170,0.022177018,-0.39999926,-0.007488757,0.4,0.0088351155,0.01194539,0.00050068495,458770,0.0,0.0,0.0,0.5,0.0025000002,0.0025000002,0.0025000002,1,1,1,0,1,0
47401665,47301147,3932170,-0.002833155,0.0040412825,-0.003469606,0.34906584,1.8045284e-07,1.8194643e-07,9.073778e-07,3932170,0.021203956,-0.40493673,-0.008622288,0.4,0.008823247,0.011936826,0.00050068524,458770,0.0,0.0,0.0,0.5,0.0025000002,0.0025000002,0.0025000002,1,1,1,0,1,0
47411573,47311140,3932170,-0.0028331554,0.004041283,-0.0034696064,0.34906584,1.8055277e-07,1.8204638e-07,9.07478e-07,3932170,0.02120396,-0.4000001,-0.00862229,0.4,0.00882325,0.011936832,0.00050068635,458770,0.0,0.0,0.0,0.5,0.0025000002,0.0025000002,0.0025000002,1,1,1,0,1,0
47611521,47511003,3932170,-0.0027970306,0.0040361583,-0.0035470438,0.34906584,1.7982575e-07,1.8170347e-07,9.015196e-07,3932170,0.018629339,-0.3991378,-0.012724362,0.4,0.008809929,0.011924356,0.00050068554,458770,0.0,0.0,0.0,0.5,0.0025000002,0.0025000002,0.0025000002,1,1,1,0,1,0
47731389,47630923,3932170,-0.0027985447,0.0040387018,-0.003574454,0.34906584,1.8100971e-07,1.8288523e-07,9.0073956e-07,3932170,0.017656483,-0.3997055,-0.012719401,0.4,0.008806177,0.011923896,0.00050068775,458770,0.0,0.0,0.0,0.5,0.0025000002,0.0025000002,0.0025000002,1,1,1,0,1,0
47821432,47720859,3932170,-0.0027711703,0.003993343,-0.0035952083,0.34906584,1.7920743e-07,1.8144496e-07,8.952453e-07,3932170,0.015573637,-0.39689144,-0.013064445,0.4,0.008794988,0.011911005,0.000500686,458770,0.0,0.0,0.0,0.5,0.0025000002,0.0025000002,0.0025000002,1,1,1,0,1,0
47931345,47830784,3932170,-0.0027719995,0.0039951745,-0.0036145167,0.34906584,1.802939e-07,1.825275e-07,8.9437145e-07,3932170,0.014588301,-0.3973578,-0.013062737,0.4,0.008791355,0.011910591,0.0005006859,458770,0.0,0.0,0.0,0.5,0.0025000002,0.0025000002,0.0025000002,1,1,1,0,1,0
48031264,47930716,3932170,-0.0028335217,0.0040006484,-0.0036741984,0.34906584,1.7877471e-07,1.8102999e-07,8.921633e-07,3932170,0.017266048,-0.3982242,-0.008773879,0.4,0.008779856,0.011894434,0.0005006855,458770,0.0,0.0,0.0,0.5,0.0025000002,0.0025000002,0.0025000002,1,1,1,0,1,0
48181215,48080616,3932170,-0.0028387678,0.004007932,-0.0037562617,0.34906584,1.8024095e-07,1.8248146e-07,8.8773965e-07,3932170,0.016736485,-0.39935353,-0.008756681,0.4,0.008776087,0.011893549,0.0005006828,458770,0.0,0.0,0.0,0.5,0.0025000002,0.0025000002,0.0025000002,1,1,1,0,1,0
48241161,48140572,3932170,-0.002829952,0.004019509,-0.0037505988,0.34906584,1.7836467e-07,1.8074432e-07,8.876574e-07,3932170,0.015861465,-0.40063038,-0.0077551445,0.4,0.008765461,0.011877269,0.00050068577,458770,0.0,0.0,0.0,0.5,0.0025000002,0.0025000002,0.0025000002,1,1,1,0,1,0
48390954,48290470,3932170,-0.0028333743,0.0040248763,-0.0038106197,0.34906584,1.7984325e-07,1.822118e-07,8.852016e-07,3932170,0.014972621,-0.4001057,-0.00779792,0.4,0.008761909,0.011876642,0.0005006905,458770,0.0,0.0,0.0,0.5,0.0025000002,0.0025000002,0.0025000002,1,1,1,0,1,0
48450970,48350429,3932170,-0.0028758321,0.004005248,-0.0038650418,0.34906584,1.7791817e-07,1.8034427e-07,8.8265057e-07,3932170,0.017316526,-0.39809898,-0.0060595437,0.4,0.008749552,0.011857636,0.00050068524,458770,0.0,0.0,0.0,0.5,0.0025000002,0.0025000002,0.0025000002,1,1,1,0,1,0
48590869,48490333,3932170,-0.0028796527,0.004011176,-0.003932876,0.34906584,1.7929918e-07,1.8171303e-07,8.8009426e-07,3932170,0.016624171,-0.39907986,-0.00607804,0.4,0.008746099,0.011857014,0.0005006882,458770,0.0,0.0,0.0,0.5,0.0025000002,0.0025000002,0.0025000002,1,1,1,0,1,0
48661028,48560285,3932170,-0.0030046846,0.003880786,-0.0040392852,0.34906584,1.7735745e-07,1.7978228e-07,8.742381e-07,3932170,0.02399652,-0.3880529,0.0013159005,0.4,0.008728653,0.011830026,0.00050068577,458770,0.0,0.0,0.0,0.5,0.0025000002,0.0025000002,0.0025000002,1,1,1,0,1,0
48790718,48690196,3932170,-0.003007894,0.0038861763,-0.0041034454,0.34906584,1.7864188e-07,1.8105384e-07,8.7163306e-07,3932170,0.023308652,-0.38897955,0.001265847,0.4,0.008725292,0.011829424,0.00050069497,458770,0.0,0.0,0.0,0.5,0.0025000002,0.0025000002,0.0025000002,1,1,1,0,1,0
48870687,48770142,3932170,-0.003206932,0.0036732354,-0.004230326,0.34906584,1.7675087e-07,1.7906521e-07,8.621014e-07,3932170,0.034026258,-0.36874717,0.008250515,0.4,0.008702891,0.0117927985,0.0005006852,458770,0.0,0.0,0.0,0.5,0.0025000002,0.0025000002,0.0025000002,1,1,1,0,1,0
48990554,48890059,3932170,-0.0032084812,0.0036766003,-0.0042727175,0.34906584,1.7793944e-07,1.8024133e-07,8.5951257e-07,3932170,0.033002466,-0.36946514,0.0082253935,0.4,0.008699645,0.011792269,0.0005006897,458770,0.0,0.0,0.0,0.5,0.0025000002,0.0025000002,0.0025000002,1,1,1,0,1,0
49080561,48979998,3932170,-0.0033471403,0.0035329112,-0.0043515163,0.34906584,1.7630782e-07,1.7852973e-07,8.5477126e-07,3932170,0.039817102,-0.35562366,0.010586532,0.4,0.008686033,0.0117676435,0.0005006855,458770,0.0,0.0,0.0,0.5,0.0025000002,0.0025000002,0.0025000002,1,1,1,0,1,0
49200457,49099916,3932170,-0.0033484495,0.0035359361,-0.0043918164,0.34906584,1.7749828e-07,1.7970797e-07,8.5221916e-07,3932170,0.038900666,-0.35626474,0.010590425,0.4,0.008682858,0.011767127,0.00050068664,458770,0.0,0.0,0.0,0.5,0.0025000002,0.0025000002,0.0025000002,1,1,1,0,1,0
49290523,49189854,3932170,-0.0035229258,0.0034399605,-0.004451357,0.34906584,1.7595102e-07,1.7795159e-07,8.4833323e-07,3932170,0.046578944,-0.34537655,0.008051778,0.4,0.008672362,0.011739405,0.000500686,458770,0.0,0.0,0.0,0.5,0.0025000002,0.0025000002,0.0025000002,1,1,1,0,1,0
49400272,49299779,3932170,-0.0035226236,0.003440382,-0.004456233,0.34906584,1.7704588e-07,1.790413e-07,8.475719e-07,3932170,0.04542387,-0.3456986,0.008043415,0.4,0.008669292,0.011739072,0.0005006944,458770,0.0,0.0,0.0,0.5,0.0025000002,0.0025000002,0.0025000002,1,1,1,0,1,0
49500352,49399711,3932170,-0.003822837,0.0034321125,-0.004504833,0.34906584,1.7572108e-07,1.7722698e-07,8.393875e-07,3932170,0.058132816,-0.3391998,0.0041459445,0.4,0.008659597,0.011685293,0.0005006855,458770,0.0,0.0,0.0,0.5,0.0025000002,0.0025000002,0.0025000002,1,1,1,0,1,0
49650086,49549608,3932170,-0.003822515,0.003432493,-0.0045095384,0.34906584,1.7721317e-07,1.787118e-07,8.372344e-07,3932170,0.056884762,-0.33952233,0.004161944,0.4,0.008656594,0.01168487,0.0005006909,458770,0.0,0.0,0.0,0.5,0.0025000002,0.0025000002,0.0025000002,1,1,1,0,1,0
49710098,49609567,3932170,-0.004005973,0.003498066,-0.004531147,0.34906584,1.7563487e-07,1.7683644e-07,8.3436845e-07,3932170,0.06454299,-0.34121257,0.0041404213,0.4,0.00864593,0.01166454,0.0005006859,458770,0.0,0.0,0.0,0.5,0.0025000002,0.0025000002,0.0025000002,1,1,1,0,1,0
49849937,49749471,3932170,-0.004007104,0.0035003994,-0.004571172,0.34906584,1.7702673e-07,1.782232e-07,8.32123e-07,3932170,0.06348968,-0.34182665,0.0041459356,0.4,0.008642986,0.011664139,0.0005006893,458770,0.0,0.0,0.0,0.5,0.0025000002,0.0025000002,0.0025000002,1,1,1,0,1,0
49919950,49819424,3932170,-0.0041003097,0.0035278178,-0.004590421,0.34906584,1.7551484e-07,1.7660595e-07,8.3083125e-07,3932170,0.06571752,-0.34177774,0.0010995992,0.4,0.008636344,0.011656175,0.00050068524,458770,0.0,0.0,0.0,0.5,0.0025000002,0.0025000002,0.0025000002,1,1,1,0,1,0
50059828,49959328,3932170,-0.0041009933,0.0035294562,-0.0046190056,0.34906584,1.7690678e-07,1.7799344e-07,8.285733e-07,3932170,0.06460712,-0.3422803,0.0011151577,0.4,0.008633462,0.011655786,0.0005006856,458770,0.0,0.0,0.0,0.5,0.0025000002,0.0025000002,0.0025000002,1,1,1,0,1,0
50130076,50029280,3932170,-0.0042669573,0.0035306516,-0.004644662,0.34906584,1.7540904e-07,1.7633447e-07,8.264071e-07,3932170,0.06682479,-0.3406163,-0.00029640054,0.4,0.008630562,0.011643029,0.00050068577,458770,0.0,0.0,0.0,0.5,0.0025000002,0.0025000002,0.0025000002,1,1,1,0,1,0
50259654,50159191,3932170,-0.004266937,0.0035312702,-0.004655151,0.34906584,1.767041e-07,1.7762812e-07,8.258776e-07,3932170,0.0657075,-0.34095657,-0.00028002003,0.4,0.008627751,0.011642771,0.00050069304,458770,0.0,0.0,0.0,0.5,0.0025000002,0.0025000002,0.0025000002,1,1,1,0,1,0
50339735,50239136,3932170,-0.004364188,0.0035434596,-0.0046872166,0.34906584,1.7533335e-07,1.7619196e-07,8.228701e-07,3932170,0.06565858,-0.3402762,-0.0026355227,0.4,0.008625123,0.011638537,0.0005006862,458770,0.0,0.0,0.0,0.5,0.0025000002,0.0025000002,0.0025000002,1,1,1,0,1,0
50459546,50359055,3932170,-0.004363782,0.0035436526,-0.0046890527,0.34906584,1.765282e-07,1.7738559e-07,8.2223306e-07,3932170,0.064409286,-0.34058765,-0.0025995648,0.4,0.008622341,0.011638258,0.00050068786,458770,0.0,0.0,0.0,0.5,0.0025000002,0.0025000002,0.0025000002,1,1,1,0,1,0
50549539,50448993,3932170,-0.0043432396,0.0035678684,-0.0046771835,0.34906584,1.7528717e-07,1.7622048e-07,8.2087837e-07,3932170,0.063599855,-0.34049138,-0.0056679393,0.4,0.008619381,0.011636521,0.0005006856,458770,0.0,0.0,0.0,0.5,0.0025000002,0.0025000002,0.0025000002,1,1,1,0,1,0
50659502,50558918,3932170,-0.004342492,0.0035676076,-0.0046698255,0.34906584,1.7637967e-07,1.7730967e-07,8.182985e-07,3932170,0.062362645,-0.34071788,-0.005659542,0.4,0.008616643,0.011636158,0.00050069456,458770,0.0,0.0,0.0,0.5,0.0025000002,0.0025000002,0.0025000002,1,1,1,0,1,0
50759420,50658849,3932170,-0.0043037524,0.003722942,-0.0046207313,0.34906584,1.7540312e-07,1.762918e-07,8.1525496e-07,3932170,0.06175689,-0.33774963,-0.0069737458,0.4,0.008599825,0.011632679,0.0005006861,458770,0.0,0.0,0.0,0.5,0.0025000002,0.0025000002,0.0025000002,1,1,1,0,1,0
50909247,50808747,3932170,-0.0043030996,0.0037228258,-0.0046163504,0.34906584,1.768939e-07,1.7777957e-07,8.130864e-07,3932170,0.060511723,-0.3380025,-0.006938983,0.4,0.008597153,0.011632313,0.0005006955,458770,0.0,0.0,0.0,0.5,0.0025000002,0.0025000002,0.0025000002,1,1,1,0,1,0
50969284,50868706,3932170,-0.0042332564,0.0038116921,-0.0045867027,0.34906584,1.7551137e-07,1.7648023e-07,8.1050746e-07,3932170,0.06252633,-0.33618647,0.0033747656,0.4,0.008586215,0.011624216,0.0005006856,458770,0.0,0.0,0.0,0.5,0.0025000002,0.0025000002,0.0025000002,1,1,1,0,1,0
51119191,51018603,3932170,-0.0042342,0.0038135669,-0.0046189073,0.34906584,1.7700205e-07,1.7796737e-07,8.083451e-07,3932170,0.06140442,-0.3367382,0.0033787042,0.4,0.00858361,0.011623857,0.00050069095,458770,0.0,0.0,0.0,0.5,0.0025000002,0.0025000002,0.0025000002,1,1,1,0,1,0
51179118,51078562,3932170,-0.0040583285,0.003843415,-0.0046124137,0.34906584,1.7552593e-07,1.7679017e-07,8.037486e-07,3932170,0.064534396,-0.3369554,0.012928877,0.4,0.008577848,0.011599858,0.0005006861,458770,0.0,0.0,0.0,0.5,0.0025000002,0.0025000002,0.0025000002,1,1,1,0,1,0
51318987,51218467,3932170,-0.0040591266,0.0038451962,-0.004640553,0.34906584,1.7691642e-07,1.7817486e-07,8.01516e-07,3932170,0.06352348,-0.3374574,0.012957342,0.4,0.008575267,0.011599476,0.00050068524,458770,0.0,0.0,0.0,0.5,0.0025000002,0.0025000002,0.0025000002,1,1,1,0,1,0
51388954,51288419,3932170,-0.0039415513,0.0038559914,-0.004635597,0.34906584,1.7546654e-07,1.769522e-07,7.9891623e-07,3932170,0.0642522,-0.33830935,0.013156806,0.4,0.008572639,0.011587509,0.00050068554,458770,0.0,0.0,0.0,0.5,0.0025000002,0.0025000002,0.0025000002,1,1,1,0,1,0
51568814,51468297,3932170,-0.0039414153,0.0038566764,-0.0046446444,0.34906584,1.7725645e-07,1.7873474e-07,7.9709315e-07,3932170,0.06294783,-0.33871907,0.013204294,0.4,0.0085692685,0.011587079,0.0005006852,458770,0.0,0.0,0.0,0.5,0.0025000002,0.0025000002,0.0025000002,1,1,1,0,1,0
51599049,51498275,3932170,-0.0038130516,0.0038636676,-0.0046388293,0.34906584,1.7540505e-07,1.7712215e-07,7.9401786e-07,3932170,0.0631506,-0.33969074,0.015703779,0.4,0.008567751,0.011572218,0.0005006859,458770,0.0,0.0,0.0,0.5,0.0025000002,0.0025000002,0.0025000002,1,1,1,0,1,0
51718659,51618193,3932170,-0.003812843,0.0038642243,-0.004645583,0.34906584,1.7659977e-07,1.7831239e-07,7.9341055e-07,3932170,0.061906528,-0.34004658,0.015716795,0.4,0.008565281,0.011571974,0.0005006901,458770,0.0,0.0,0.0,0.5,0.0025000002,0.0025000002,0.0025000002,1,1,1,0,1,0
51878602,51778084,3932170,-0.0038133978,0.0038658902,-0.0046690386,0.34906584,1.7818734e-07,1.7988572e-07,7.8957856e-07,3932170,0.060866803,-0.3405156,0.01574091,0.4,0.008562806,0.01157147,0.00050069107,458770,0.0,0.0,0.0,0.5,0.0025000002,0.0025000002,0.0025000002,1,1,1,0,1,0
52028562,51927981,3932170,-0.0038136311,0.003867146,-0.0046861316,0.34906584,1.7967865e-07,1.8136765e-07,7.874476e-07,3932170,0.0596724,-0.34098166,0.015792575,0.4,0.008560396,0.01157107,0.0005006928,458770,0.0,0.0,0.0,0.5,0.0025000002,0.0025000002,0.0025000002,1,1,1,0,1,0
52178667,52077879,3932170,-0.0038137422,0.0038682928,-0.0046998365,0.34906584,1.8116333e-07,1.8284194e-07,7.8530167e-07,3932170,0.058505945,-0.34137756,0.015822781,0.4,0.008557992,0.01157068,0.0005006856,458770,0.0,0.0,0.0,0.5,0.0025000002,0.0025000002,0.0025000002,1,1,1,0,1,0
52328434,52227776,3932170,-0.0038141552,0.0038692746,-0.004708737,0.34906584,1.8264258e-07,1.8430946e-07,7.8313747e-07,3932170,0.05734702,-0.34174147,0.015842406,0.4,0.008555623,0.011570249,0.00050068664,458770,0.0,0.0,0.0,0.5,0.0025000002,0.0025000002,0.0025000002,1,1,1,0,1,0
52478351,52377674,3932170,-0.0038142656,0.003870454,-0.0047234353,0.34906584,1.8411355e-07,1.8576634e-07,7.809289e-07,3932170,0.05615464,-0.3422285,0.015788991,0.4,0.008553261,0.011569671,0.0005006884,458770,0.0,0.0,0.0,0.5,0.0025000002,0.0025000002,0.0025000002,1,1,1,0,1,0
52628214,52527571,3932170,-0.0038155532,0.003871683,-0.0047368417,0.34906584,1.8557398e-07,1.872096e-07,7.786628e-07,3932170,0.055094182,-0.3426249,0.015794294,0.4,0.008550938,0.011568927,0.00050069107,458770,0.0,0.0,0.0,0.5,0.0025000002,0.0025000002,0.0025000002,1,1,1,0,1,0
52838068,52737428,3932170,-0.003820562,0.003872634,-0.0047644046,0.34906584,1.8754666e-07,1.891419e-07,7.749178e-07,3932170,0.05385684,-0.34308904,0.015830403,0.4,0.008547764,0.011567104,0.0005006873,458770,0.0,0.0,0.0,0.5,0.0025000002,0.0025000002,0.0025000002,1,1,1,0,1,0
53037939,52937291,3932170,-0.0038243935,0.003873134,-0.0047794534,0.34906584,1.8944449e-07,1.9100493e-07,7.711447e-07,3932170,0.05255603,-0.3434615,0.015878802,0.4,0.0085447505,0.01156561,0.00050069246,458770,0.0,0.0,0.0,0.5,0.0025000002,0.0025000002,0.0025000002,1,1,1,0,1,0
53287845,53187120,3932170,-0.0038336844,0.003872376,-0.0047749686,0.34906584,1.9166991e-07,1.931652e-07,7.6750734e-07,3932170,0.05131329,-0.3438602,0.015745442,0.4,0.008540982,0.011562803,0.0005006924,458770,0.0,0.0,0.0,0.5,0.0025000002,0.0025000002,0.0025000002,1,1,1,0,1,0
53537591,53436950,3932170,-0.00384698,0.0038687193,-0.004771573,0.34906584,1.937429e-07,1.9515825e-07,7.6378933e-07,3932170,0.050130006,-0.3441087,0.01564038,0.4,0.008537338,0.011559837,0.0005006913,458770,0.0,0.0,0.0,0.5,0.0025000002,0.0025000002,0.0025000002,1,1,1,0,1,0
53747463,53646806,3932170,-0.00386387,0.003863035,-0.0047704224,0.34906584,1.952406e-07,1.9657203e-07,7.5979426e-07,3932170,0.049185727,-0.34439933,0.015415611,0.4,0.0085345255,0.011557508,0.00050068926,458770,0.0,0.0,0.0,0.5,0.0025000002,0.0025000002,0.0025000002,1,1,1,0,1,0
53947325,53846670,3932170,-0.0038863516,0.0038513106,-0.004767225,0.34906584,1.9640804e-07,1.9765729e-07,7.558311e-07,3932170,0.048054624,-0.34473026,0.015203775,0.4,0.008531814,0.011555703,0.00050068524,458770,0.0,0.0,0.0,0.5,0.0025000002,0.0025000002,0.0025000002,1,1,1,0,1,0
54147386,54046533,3932170,-0.0038972513,0.00384395,-0.0047668046,0.34906584,1.9789678e-07,1.9910496e-07,7.521932e-07,3932170,0.046945408,-0.3450614,0.015105436,0.4,0.008529334,0.011554883,0.0005006886,458770,0.0,0.0,0.0,0.5,0.0025000002,0.0025000002,0.0025000002,1,1,1,0,1,0
54317242,54216417,3932170,-0.0039225877,0.0038276042,-0.0047650137,0.34906584,1.9836558e-07,1.9951598e-07,7.500073e-07,3932170,0.045918413,-0.34558225,0.014747177,0.4,0.008527184,0.011553747,0.0005006855,458770,0.0,0.0,0.0,0.5,0.0025000002,0.0025000002,0.0025000002,1,1,1,0,1,0
54496996,54396294,3932170,-0.0039353436,0.0038166607,-0.004762937,0.34906584,1.9944098e-07,2.0056238e-07,7.4625734e-07,3932170,0.04484079,-0.34604898,0.014567584,0.4,0.008524681,0.011552882,0.0005006867,458770,0.0,0.0,0.0,0.5,0.0025000002,0.0025000002,0.0025000002,1,1,1,0,1,0
