timestamp,timestamp_sample,gps_hvel[0],gps_hvel[1],gps_vvel,gps_hpos[0],gps_hpos[1],gps_vpos,ev_hvel[0],ev_hvel[1],ev_vvel,ev_hpos[0],ev_hpos[1],ev_vpos,rng_vpos,baro_vpos,aux_hvel[0],aux_hvel[1],aux_vvel,flow[0],flow[1],heading,mag_field[0],mag_field[1],mag_field[2],drag[0],drag[1],airspeed,beta,hagl,hagl_rate
17185662,17084053,0.016791314,0.0005066024,0.0070425663,0.067367636,0.002736115,0.0,0.0,0.0,0.0,0.0,0.0,0.0,0.0,-0.21990013,0.0,0.0,nan,0.0,0.0,-0.0006439686,0.0,0.0,0.0,0.0,0.0,0.0,0.0,0.0,0.0
17680800,17579143,0.0030751238,0.0108725075,0.014372335,0.05804746,0.002061178,0.0,0.0,0.0,0.0,0.0,0.0,0.0,0.0,-0.30623245,0.0,0.0,nan,0.0,0.0,-0.001021862,0.0,0.0,0.0,0.0,0.0,0.0,0.0,0.0,0.0
18176104,18074233,0.008909015,-0.0021475132,-0.044897817,0.07179253,0.0021184399,0.0,0.0,0.0,0.0,0.0,0.0,0.0,0.0,0.031406403,0.0,0.0,nan,0.0,0.0,0.00072073936,0.0,0.0,0.0,0.0,0.0,0.0,0.0,0.0,0.0
18681784,18579426,-0.007850658,-0.021584151,-0.041217014,0.074587725,0.0017090184,0.0,0.0,0.0,0.0,0.0,0.0,0.0,0.0,0.19564629,0.0,0.0,nan,0.0,0.0,-0.0007278919,0.0,0.0,0.0,0.0,0.0,0.0,0.0,0.0,0.0
19176124,19074516,0.026634512,0.00077094656,0.009115523,0.07817709,0.01029592,0.0,0.0,0.0,0.0,0.0,0.0,0.0,0.0,0.019937515,0.0,0.0,nan,0.0,0.0,0.0012991428,0.0,0.0,0.0,0.0,0.0,0.0,0.0,0.0,0.0
19681340,19579710,-0.0057463353,0.0041173124,0.007268781,0.08190469,0.009391888,0.0,0.0,0.0,0.0,0.0,0.0,0.0,0.0,0.004650116,0.0,0.0,nan,0.0,0.0,0.0011146069,0.0,0.0,0.0,0.0,0.0,0.0,0.0,0.0,0.0
20186529,20084904,0.003614679,0.007673485,0.025062585,0.0752301,0.016973175,0.0,0.0,0.0,0.0,0.0,0.0,0.0,0.0,-0.022663116,0.0,0.0,nan,0.0,0.0,-0.000197649,0.0,0.0,0.0,0.0,0.0,0.0,0.0,0.0,0.0
20681673,20579994,-0.010716378,-0.011739885,0.010161389,0.07990533,0.023915585,0.0,0.0,0.0,0.0,0.0,0.0,0.0,0.0,-0.035161972,0.0,0.0,nan,0.0,0.0,0.00014257431,0.0,0.0,0.0,0.0,0.0,0.0,0.0,0.0,0.0
21186691,21085187,-0.0018716957,0.018483507,0.013977435,0.08517376,0.03100507,0.0,0.0,0.0,0.0,0.0,0.0,0.0,0.0,0.044790268,0.0,0.0,nan,0.0,0.0,0.001364708,0.0,0.0,0.0,0.0,0.0,0.0,0.0,0.0,0.0
21681896,21580277,-0.006070761,-0.01169783,-0.029831983,0.09048696,0.03752985,0.0,0.0,0.0,0.0,0.0,0.0,0.0,0.0,-0.0656662,0.0,0.0,nan,0.0,0.0,-0.00024747849,0.0,0.0,0.0,0.0,0.0,0.0,0.0,0.0,0.0
22177021,22075366,-0.006588855,0.00066879997,-0.0029687018,0.084801495,0.043746,0.0,0.0,0.0,0.0,0.0,0.0,0.0,0.0,0.10009003,0.0,0.0,nan,0.0,0.0,3.5762787e-05,0.0,0.0,0.0,0.0,0.0,0.0,0.0,0.0,0.0
22682170,22580566,0.025818245,0.0043447632,0.10897642,0.06915733,0.05810768,0.0,0.0,0.0,0.0,0.0,0.0,0.0,0.0,0.026145935,0.0,0.0,nan,0.0,0.0,0.0020360947,0.0,0.0,0.0,0.0,0.0,0.0,0.0,0.0,0.0
23177312,23075650,-0.005182016,0.0020419029,-0.0037643898,0.06531112,0.06337041,0.0,0.0,0.0,0.0,0.0,0.0,0.0,0.0,0.14432716,0.0,0.0,nan,0.0,0.0,-0.0006020069,0.0,0.0,0.0,0.0,0.0,0.0,0.0,0.0,0.0
23682672,23580844,-0.0023568668,-0.0035542133,-0.023365688,0.061668932,0.06844793,0.0,0.0,0.0,0.0,0.0,0.0,0.0,0.0,0.106809616,0.0,0.0,nan,0.0,0.0,-0.09071636,0.0,0.0,0.0,0.0,0.0,0.0,0.0,0.0,0.0
24178280,24075933,0.0019574862,-0.00072781986,-0.020445134,0.058741853,0.073637195,0.0,0.0,0.0,0.0,0.0,0.0,0.0,0.0,0.09536743,0.0,0.0,nan,0.0,0.0,-0.07524538,0.0,0.0,0.0,0.0,0.0,0.0,0.0,0.0,0.0
24682789,24581126,0.01910705,0.009631457,0.012936823,0.06708427,0.07031731,0.0,0.0,0.0,0.0,0.0,0.0,0.0,0.0,0.09415817,0.0,0.0,nan,0.0,0.0,-0.06662583,0.0,0.0,0.0,0.0,0.0,0.0,0.0,0.0,0.0
25177823,25076215,0.008113615,-0.018634794,-0.01409682,0.064796746,0.076345176,0.0,0.0,0.0,0.0,0.0,0.0,0.0,0.0,-0.15950012,0.0,0.0,nan,0.0,0.0,-0.032468557,0.0,0.0,0.0,0.0,0.0,0.0,0.0,0.0,0.0
25683077,25581409,0.041345228,-0.051778134,-0.012649313,0.071661144,0.06406865,0.0,0.0,0.0,0.0,0.0,0.0,0.0,0.0,-0.0720768,0.0,0.0,nan,0.0,0.0,-0.006263733,0.0,0.0,0.0,0.0,0.0,0.0,0.0,0.0,0.0
26177980,26076498,-0.018928306,0.02668389,0.0012251985,0.06982319,0.061410278,0.0,0.0,0.0,0.0,0.0,0.0,0.0,0.0,-0.40634537,0.0,0.0,nan,0.0,0.0,-0.012020588,0.0,0.0,0.0,0.0,0.0,0.0,0.0,0.0,0.0
26683316,26581692,0.0041421726,0.003823297,0.012377699,0.055378973,0.07537809,0.0,0.0,0.0,0.0,0.0,0.0,0.0,0.0,0.010435104,0.0,0.0,nan,0.0,0.0,-0.006329298,0.0,0.0,0.0,0.0,0.0,0.0,0.0,0.0,0.0
27178416,27076781,0.0040284265,0.0151992235,-0.0066956095,0.042234942,0.080447,0.0,0.0,0.0,0.0,0.0,0.0,0.0,0.0,0.17642212,0.0,0.0,nan,0.0,0.0,-0.004925728,0.0,0.0,0.0,0.0,0.0,0.0,0.0,0.0,0.0
27683436,27581974,-0.025068251,-0.0011015304,-0.00346591,0.040971994,0.0871176,0.0,0.0,0.0,0.0,0.0,0.0,0.0,0.0,0.008054733,0.0,0.0,nan,0.0,0.0,-0.0026836395,0.0,0.0,0.0,0.0,0.0,0.0,0.0,0.0,0.0
28178707,28077064,0.009299547,-0.0018060845,-0.00095922034,0.027919099,0.09170416,0.0,0.0,0.0,0.0,0.0,0.0,0.0,0.0,-0.3235073,0.0,0.0,nan,0.0,0.0,-0.005089283,0.0,0.0,0.0,0.0,0.0,0.0,0.0,0.0,0.0
28684686,28582257,0.0019156035,0.0036416003,0.015557722,0.004914269,0.09704451,0.0,0.0,0.0,0.0,0.0,0.0,0.0,0.0,0.26154137,0.0,0.0,nan,0.0,0.0,0.0037982464,0.0,0.0,0.0,0.0,0.0,0.0,0.0,0.0,0.0
29179074,29077346,-0.0076912264,-0.007459021,0.004635938,0.0047608614,0.10229182,0.0,0.0,0.0,0.0,0.0,0.0,0.0,0.0,0.051412582,0.0,0.0,nan,0.0,0.0,-0.006265402,0.0,0.0,0.0,0.0,0.0,0.0,0.0,0.0,0.0
29684501,29582539,0.0012742886,0.007537555,-0.00433961,-0.0061583966,0.09900847,0.0,0.0,0.0,0.0,0.0,0.0,0.0,0.0,0.057617188,0.0,0.0,nan,0.0,0.0,0.0007560253,0.0,0.0,0.0,0.0,0.0,0.0,0.0,0.0,0.0
30179143,30077629,-0.01860845,-0.020419603,0.005588992,-0.01772517,0.105073206,0.0,0.0,0.0,0.0,0.0,0.0,0.0,0.0,0.021251678,0.0,0.0,nan,0.0,0.0,-0.0048208237,0.0,0.0,0.0,0.0,0.0,0.0,0.0,0.0,0.0
30684514,30582822,-0.008972102,-0.009289772,0.0014465129,-0.017159894,0.092464894,0.0,0.0,0.0,0.0,0.0,0.0,0.0,0.0,0.043003082,0.0,0.0,nan,0.0,0.0,-0.013665676,0.0,0.0,0.0,0.0,0.0,0.0,0.0,0.0,0.0
31179514,31077911,-0.0059467615,-0.01777645,0.0080791395,-0.027458355,0.089965686,0.0,0.0,0.0,0.0,0.0,0.0,0.0,0.0,0.019102097,0.0,0.0,nan,0.0,0.0,-0.0032589436,0.0,0.0,0.0,0.0,0.0,0.0,0.0,0.0,0.0
31684779,31583104,-0.0038091308,-0.008838952,-0.019123577,-0.027009875,0.08706388,0.0,0.0,0.0,0.0,0.0,0.0,0.0,0.0,0.01858139,0.0,0.0,nan,0.0,0.0,0.0074703693,0.0,0.0,0.0,0.0,0.0,0.0,0.0,0.0,0.0
32179806,32078194,0.004869067,-0.028994929,0.002825158,-0.037079416,0.08472121,0.0,0.0,0.0,0.0,0.0,0.0,0.0,0.0,0.12846375,0.0,0.0,nan,0.0,0.0,0.0014536381,0.0,0.0,0.0,0.0,0.0,0.0,0.0,0.0,0.0
32685030,32583387,0.0035445117,0.006230311,0.03752891,-0.035792194,0.0825591,0.0,0.0,0.0,0.0,0.0,0.0,0.0,0.0,-0.102500916,0.0,0.0,nan,0.0,0.0,0.0045177937,0.0,0.0,0.0,0.0,0.0,0.0,0.0,0.0,0.0
33180140,33078476,0.011099651,0.02933892,0.021982448,-0.03468039,0.08031193,0.0,0.0,0.0,0.0,0.0,0.0,0.0,0.0,0.16814232,0.0,0.0,nan,0.0,0.0,0.0023982525,0.0,0.0,0.0,0.0,0.0,0.0,0.0,0.0,0.0
33685473,33583669,0.011784927,0.008039974,-0.030518658,-0.045098394,0.07843185,0.0,0.0,0.0,0.0,0.0,0.0,0.0,0.0,0.1130085,0.0,0.0,nan,0.0,0.0,-0.008571148,0.0,0.0,0.0,0.0,0.0,0.0,0.0,0.0,0.0
34181009,34078759,0.007056064,0.011779768,-0.03505558,-0.03315089,0.08454813,0.0,0.0,0.0,0.0,0.0,0.0,0.0,0.0,0.08600998,0.0,0.0,nan,0.0,0.0,0.0055868626,0.0,0.0,0.0,0.0,0.0,0.0,0.0,0.0,0.0
34685582,34583952,0.010762022,-0.017837642,0.006134499,-0.04320234,0.08239418,0.0,0.0,0.0,0.0,0.0,0.0,0.0,0.0,-9.1552734e-05,0.0,0.0,nan,0.0,0.0,-0.05511594,0.0,0.0,0.0,0.0,0.0,0.0,0.0,0.0,0.0
35180610,35079041,0.038519353,0.013762087,0.012041128,-0.04319769,0.07249877,0.0,0.0,0.0,0.0,0.0,0.0,0.0,0.0,-0.16717911,0.0,0.0,nan,0.0,0.0,-0.07251859,0.0,0.0,0.0,0.0,0.0,0.0,0.0,0.0,0.0
35675581,35574130,0.0795048,-0.045298174,0.0041287304,-0.030917965,0.05288855,0.0,0.0,0.0,0.0,0.0,0.0,0.0,0.0,0.16353989,0.0,0.0,nan,0.0,0.0,-0.10507178,0.0,0.0,0.0,0.0,0.0,0.0,0.0,0.0,0.0
36181158,36079324,0.24395645,-0.10155162,-0.0031820878,0.081143275,-0.029792614,0.0,0.0,0.0,0.0,0.0,0.0,0.0,0.0,-0.25064468,0.0,0.0,nan,0.0,0.0,-0.23087144,0.0,0.0,0.0,0.0,0.0,0.0,0.0,0.0,0.0
36675893,36574413,0.36241585,-0.09525904,-0.010372842,0.1839172,-0.06467887,0.0,0.0,0.0,0.0,0.0,0.0,0.0,0.0,0.16727638,0.0,0.0,nan,0.0,0.0,-0.26639915,0.0,0.0,0.0,0.0,0.0,0.0,0.0,0.0,0.0
37181289,37079606,1.4767799,-0.66308427,-0.123578295,1.0110509,-0.529849,0.0,0.0,0.0,0.0,0.0,0.0,0.0,0.0,-0.20096588,0.0,0.0,nan,0.0,0.0,-0.34069085,0.0,0.0,0.0,0.0,0.0,0.0,0.0,0.0,0.0
37686257,37584801,1.7658448,-0.59042597,-0.049568698,1.6084197,-0.74888724,0.0,0.0,0.0,0.0,0.0,0.0,0.0,0.0,-0.40695572,0.0,0.0,nan,0.0,0.0,-0.3622563,0.0,0.0,0.0,0.0,0.0,0.0,0.0,0.0,0.0
38181441,38079888,2.2080095,-0.5471002,-0.13676079,2.7878485,-1.1048472,0.0,0.0,0.0,0.0,0.0,0.0,0.0,0.0,-0.37077522,0.0,0.0,nan,0.0,0.0,-0.3569758,0.0,0.0,0.0,0.0,0.0,0.0,0.0,0.0,0.0
38686599,38585082,2.5891633,-0.58298063,-0.14142452,3.977037,-1.3816555,0.0,0.0,0.0,0.0,0.0,0.0,0.0,0.0,-0.5127888,0.0,0.0,nan,0.0,0.0,-0.3466711,0.0,0.0,0.0,0.0,0.0,0.0,0.0,0.0,0.0
39181644,39080171,2.9020355,-0.5619252,-0.22224319,5.3349075,-1.6841731,0.0,0.0,0.0,0.0,0.0,0.0,0.0,0.0,-0.30692673,0.0,0.0,nan,0.0,0.0,-0.3236313,0.0,0.0,0.0,0.0,0.0,0.0,0.0,0.0,0.0
39676676,39575260,3.166782,-0.61987925,-0.20144947,6.44532,-1.9088368,0.0,0.0,0.0,0.0,0.0,0.0,0.0,0.0,-0.5323067,0.0,0.0,nan,0.0,0.0,-0.3014164,0.0,0.0,0.0,0.0,0.0,0.0,0.0,0.0,0.0
40181912,40080453,3.612319,-0.69876623,-0.245691,8.540089,-2.3672523,0.0,0.0,0.0,0.0,0.0,0.0,0.0,0.0,-0.88687515,0.0,0.0,nan,0.0,0.0,-0.28486085,0.0,0.0,0.0,0.0,0.0,0.0,0.0,0.0,0.0
40676974,40575543,3.7980154,-0.7874205,-0.2635919,9.91135,-2.6714025,0.0,0.0,0.0,0.0,0.0,0.0,0.0,0.0,-1.0349579,0.0,0.0,nan,0.0,0.0,-0.26788473,0.0,0.0,0.0,0.0,0.0,0.0,0.0,0.0,0.0
41182192,41080736,4.2882547,-0.9201238,-0.16580127,12.397888,-3.2179885,0.0,0.0,0.0,0.0,0.0,0.0,0.0,0.0,-1.0884609,0.0,0.0,nan,0.0,0.0,-0.22481132,0.0,0.0,0.0,0.0,0.0,0.0,0.0,0.0,0.0
41677321,41575825,4.544008,-0.9855995,-0.18066013,14.027648,-3.5938387,0.0,0.0,0.0,0.0,0.0,0.0,0.0,0.0,-1.0002003,0.0,0.0,nan,0.0,0.0,-0.1332252,0.0,0.0,0.0,0.0,0.0,0.0,0.0,0.0,0.0
42182544,42081019,4.813022,-1.0585122,-0.080171466,16.915562,-4.229003,0.0,0.0,0.0,0.0,0.0,0.0,0.0,0.0,-0.9357319,0.0,0.0,nan,0.0,0.0,-0.13817215,0.0,0.0,0.0,0.0,0.0,0.0,0.0,0.0,0.0
42677576,42576108,5.2513227,-1.2108266,0.10969925,18.761261,-4.657051,0.0,0.0,0.0,0.0,0.0,0.0,0.0,0.0,-0.73192215,0.0,0.0,nan,0.0,0.0,0.09644389,0.0,0.0,0.0,0.0,0.0,0.0,0.0,0.0,0.0
43182825,43081301,5.4019547,-1.5156827,0.0110244155,22.11964,-5.4929314,0.0,0.0,0.0,0.0,0.0,0.0,0.0,0.0,-0.7179699,0.0,0.0,nan,0.0,0.0,0.06262398,0.0,0.0,0.0,0.0,0.0,0.0,0.0,0.0,0.0
43677800,43576391,7.1791587,-4.7920113,0.41817623,30.452656,-15.597414,0.0,0.0,0.0,0.0,0.0,0.0,0.0,0.0,0.07925987,0.0,0.0,nan,0.0,0.0,0.24506617,0.0,0.0,0.0,0.0,0.0,0.0,0.0,0.0,0.0
44182956,44081584,7.1620092,-4.6878815,0.34919584,34.77615,-18.542841,0.0,0.0,0.0,0.0,0.0,0.0,0.0,0.0,0.79582024,0.0,0.0,nan,0.0,0.0,-0.004139185,0.0,0.0,0.0,0.0,0.0,0.0,0.0,0.0,0.0
44678082,44576673,6.9011993,-4.4521046,0.25757024,38.927677,-21.318188,0.0,0.0,0.0,0.0,0.0,0.0,0.0,0.0,0.49465752,0.0,0.0,nan,0.0,0.0,-0.049314022,0.0,0.0,0.0,0.0,0.0,0.0,0.0,0.0,0.0
45183527,45081867,6.84387,-4.4554553,0.24113691,42.56674,-23.679647,0.0,0.0,0.0,0.0,0.0,0.0,0.0,0.0,0.8325634,0.0,0.0,nan,0.0,0.0,-0.050195456,0.0,0.0,0.0,0.0,0.0,0.0,0.0,0.0,0.0
45678356,45576956,6.675075,-4.3708324,0.124393106,46.18355,-25.984928,0.0,0.0,0.0,0.0,0.0,0.0,0.0,0.0,1.0037899,0.0,0.0,nan,0.0,0.0,-0.05072117,0.0,0.0,0.0,0.0,0.0,0.0,0.0,0.0,0.0
46183531,46082150,6.7342863,-4.19799,0.12604807,49.59457,-28.183315,0.0,0.0,0.0,0.0,0.0,0.0,0.0,0.0,1.0655365,0.0,0.0,nan,0.0,0.0,-0.15450764,0.0,0.0,0.0,0.0,0.0,0.0,0.0,0.0,0.0
46678622,46577239,6.7805605,-3.9260743,0.21973386,52.997837,-30.28826,0.0,0.0,0.0,0.0,0.0,0.0,0.0,0.0,1.2068672,0.0,0.0,nan,0.0,0.0,-0.13898754,0.0,0.0,0.0,0.0,0.0,0.0,0.0,0.0,0.0
47183830,47082432,6.7840824,-3.764897,0.2089112,56.39161,-32.23498,0.0,0.0,0.0,0.0,0.0,0.0,0.0,0.0,1.1805954,0.0,0.0,nan,0.0,0.0,-0.13861322,0.0,0.0,0.0,0.0,0.0,0.0,0.0,0.0,0.0
47678915,47577522,6.7978525,-3.631976,0.20762888,58.918312,-33.646835,0.0,0.0,0.0,0.0,0.0,0.0,0.0,0.0,1.1531544,0.0,0.0,nan,0.0,0.0,-0.18662333,0.0,0.0,0.0,0.0,0.0,0.0,0.0,0.0,0.0
48184214,48082715,6.8828635,-3.4572237,0.23615429,63.179085,-35.883507,0.0,0.0,0.0,0.0,0.0,0.0,0.0,0.0,1.126421,0.0,0.0,nan,0.0,0.0,-0.20227551,0.0,0.0,0.0,0.0,0.0,0.0,0.0,0.0,0.0
48679146,48577805,6.913957,-3.4267797,0.1647699,65.736084,-37.189903,0.0,0.0,0.0,0.0,0.0,0.0,0.0,0.0,1.3285542,0.0,0.0,nan,0.0,0.0,-0.23315406,0.0,0.0,0.0,0.0,0.0,0.0,0.0,0.0,0.0
49184433,49082998,7.025164,-3.5039275,0.16633905,70.08452,-39.342182,0.0,0.0,0.0,0.0,0.0,0.0,0.0,0.0,1.4074326,0.0,0.0,nan,0.0,0.0,-0.14563608,0.0,0.0,0.0,0.0,0.0,0.0,0.0,0.0,0.0
49679635,49578088,7.011393,-3.5010026,0.106230415,73.5987,-41.101524,0.0,0.0,0.0,0.0,0.0,0.0,0.0,0.0,1.520359,0.0,0.0,nan,0.0,0.0,-0.029758692,0.0,0.0,0.0,0.0,0.0,0.0,0.0,0.0,0.0
50184855,50083283,6.907966,-3.598665,0.14888011,77.05605,-42.88813,0.0,0.0,0.0,0.0,0.0,0.0,0.0,0.0,1.4451313,0.0,0.0,nan,0.0,0.0,-0.0730412,0.0,0.0,0.0,0.0,0.0,0.0,0.0,0.0,0.0
50679913,50578371,6.877396,-3.6092517,0.150404,80.505005,-44.687656,0.0,0.0,0.0,0.0,0.0,0.0,0.0,0.0,1.343153,0.0,0.0,nan,0.0,0.0,0.017364979,0.0,0.0,0.0,0.0,0.0,0.0,0.0,0.0,0.0
51184998,51083564,6.8491025,-3.440748,0.12084247,83.9357,-46.416615,0.0,0.0,0.0,0.0,0.0,0.0,0.0,0.0,1.5081978,0.0,0.0,nan,0.0,0.0,-0.13441873,0.0,0.0,0.0,0.0,0.0,0.0,0.0,0.0,0.0
51680100,51578654,6.8523965,-3.2865558,0.025919572,87.36478,-48.08993,0.0,0.0,0.0,0.0,0.0,0.0,0.0,0.0,1.5272999,0.0,0.0,nan,0.0,0.0,-0.0453043,0.0,0.0,0.0,0.0,0.0,0.0,0.0,0.0,0.0
52185374,52083847,0.021644592,-0.021321058,0.033686318,-0.0021514893,0.007083893,0.0,0.0,0.0,0.0,0.0,0.0,0.0,0.0,1.5239277,0.0,0.0,nan,0.0,0.0,-0.04334712,0.0,0.0,0.0,0.0,0.0,0.0,0.0,0.0,0.0
52680369,52578937,0.06686735,0.043929577,-0.0137729645,0.014328003,0.0039901733,0.0,0.0,0.0,0.0,0.0,0.0,0.0,0.0,1.4416561,0.0,0.0,nan,0.0,0.0,-0.05517125,0.0,0.0,0.0,0.0,0.0,0.0,0.0,0.0,0.0
53175369,53074027,0.117957115,0.12905788,-0.03659465,0.07447815,0.0067710876,0.0,0.0,0.0,0.0,0.0,0.0,0.0,0.0,1.1380234,0.0,0.0,nan,0.0,0.0,-0.0052797794,0.0,0.0,0.0,0.0,0.0,0.0,0.0,0.0,0.0
53680712,53579220,0.085110664,0.15219665,-0.041070767,0.07350159,0.04876709,0.0,0.0,0.0,0.0,0.0,0.0,0.0,0.0,1.0582638,0.0,0.0,nan,0.0,0.0,-0.01074481,0.0,0.0,0.0,0.0,0.0,0.0,0.0,0.0,0.0
54175650,54074310,0.053775787,0.19363904,-0.04933932,0.09049988,0.07109451,0.0,0.0,0.0,0.0,0.0,0.0,0.0,0.0,1.2350597,0.0,0.0,nan,0.0,0.0,-0.013433695,0.0,0.0,0.0,0.0,0.0,0.0,0.0,0.0,0.0
54681022,54579504,-0.0017876625,0.22005558,-0.09208023,0.07814026,0.11101532,0.0,0.0,0.0,0.0,0.0,0.0,0.0,0.0,1.0232353,0.0,0.0,nan,0.0,0.0,-0.0043640137,0.0,0.0,0.0,0.0,0.0,0.0,0.0,0.0,0.0
55186084,55084697,6.6143436,-3.390161,-0.06541271,6.878845,-3.6336746,0.0,0.0,0.0,0.0,0.0,0.0,0.0,0.0,0.9252815,0.0,0.0,nan,0.0,0.0,-0.08485246,0.0,0.0,0.0,0.0,0.0,0.0,0.0,0.0,0.0
55681445,55579787,6.611108,-3.306842,-0.16892123,9.766769,-5.068218,0.0,0.0,0.0,0.0,0.0,0.0,0.0,0.0,0.8291321,0.0,0.0,nan,0.0,0.0,0.06256294,0.0,0.0,0.0,0.0,0.0,0.0,0.0,0.0,0.0
56186437,56084981,7.716856,-3.6334872,0.00013644248,14.235298,-7.2330704,0.0,0.0,0.0,0.0,0.0,0.0,0.0,0.0,1.072031,0.0,0.0,nan,0.0,0.0,0.08272529,0.0,0.0,0.0,0.0,0.0,0.0,0.0,0.0,0.0
56681442,56580071,8.560911,-3.8783443,0.100894734,18.290863,-9.082409,0.0,0.0,0.0,0.0,0.0,0.0,0.0,0.0,0.960165,0.0,0.0,nan,0.0,0.0,-0.020253181,0.0,0.0,0.0,0.0,0.0,0.0,0.0,0.0,0.0
57176529,57075161,6.454618,-3.6676753,-0.052939676,20.268578,-10.28112,0.0,0.0,0.0,0.0,0.0,0.0,0.0,0.0,0.41324997,0.0,0.0,nan,0.0,0.0,0.10077095,0.0,0.0,0.0,0.0,0.0,0.0,0.0,0.0,0.0
57681795,57580354,6.3608184,-3.8468986,-0.051676452,24.347572,-12.627834,0.0,0.0,0.0,0.0,0.0,0.0,0.0,0.0,0.742321,0.0,0.0,nan,0.0,0.0,0.026304722,0.0,0.0,0.0,0.0,0.0,0.0,0.0,0.0,0.0
58176781,58075444,6.333607,-3.9249687,-0.012081181,26.743896,-14.093475,0.0,0.0,0.0,0.0,0.0,0.0,0.0,0.0,0.63440895,0.0,0.0,nan,0.0,0.0,0.18148279,0.0,0.0,0.0,0.0,0.0,0.0,0.0,0.0,0.0
58682098,58580640,6.317099,-3.9966395,0.0041210675,30.706215,-16.59557,0.0,0.0,0.0,0.0,0.0,0.0,0.0,0.0,0.55742264,0.0,0.0,nan,0.0,0.0,0.07311225,0.0,0.0,0.0,0.0,0.0,0.0,0.0,0.0,0.0
59177249,59075728,6.316561,-3.9936533,0.099645495,33.87603,-18.57996,0.0,0.0,0.0,0.0,0.0,0.0,0.0,0.0,0.5539284,0.0,0.0,nan,0.0,0.0,0.1408279,0.0,0.0,0.0,0.0,0.0,0.0,0.0,0.0,0.0
59682354,59580922,6.2805,-3.8138347,-0.005729475,37.034966,-20.515785,0.0,0.0,0.0,0.0,0.0,0.0,0.0,0.0,0.5841255,0.0,0.0,nan,0.0,0.0,0.047086954,0.0,0.0,0.0,0.0,0.0,0.0,0.0,0.0,0.0
60177436,60076012,6.3225083,-3.6842978,0.014493026,39.40525,-21.909977,0.0,0.0,0.0,0.0,0.0,0.0,0.0,0.0,0.488842,0.0,0.0,nan,0.0,0.0,-0.026744366,0.0,0.0,0.0,0.0,0.0,0.0,0.0,0.0,0.0
60683088,60581206,6.3505793,-3.6639946,-0.031417225,43.376915,-24.168476,0.0,0.0,0.0,0.0,0.0,0.0,0.0,0.0,0.37732315,0.0,0.0,nan,0.0,0.0,-0.028887749,0.0,0.0,0.0,0.0,0.0,0.0,0.0,0.0,0.0
61177757,61076296,6.343246,-3.7419255,-0.008434311,46.56301,-26.005268,0.0,0.0,0.0,0.0,0.0,0.0,0.0,0.0,0.43852806,0.0,0.0,nan,0.0,0.0,-0.019787312,0.0,0.0,0.0,0.0,0.0,0.0,0.0,0.0,0.0
61682924,61581490,6.2337484,-4.0276923,0.017123915,49.714767,-27.948017,0.0,0.0,0.0,0.0,0.0,0.0,0.0,0.0,0.43297005,0.0,0.0,nan,0.0,0.0,0.056967735,0.0,0.0,0.0,0.0,0.0,0.0,0.0,0.0,0.0
62178078,62076580,6.1586566,-4.115038,0.002873661,52.03637,-29.468605,0.0,0.0,0.0,0.0,0.0,0.0,0.0,0.0,0.4785099,0.0,0.0,nan,0.0,0.0,0.08701253,0.0,0.0,0.0,0.0,0.0,0.0,0.0,0.0,0.0
62683273,62581774,6.1268854,-4.222366,0.0057432894,55.904472,-32.059677,0.0,0.0,0.0,0.0,0.0,0.0,0.0,0.0,0.5138359,0.0,0.0,nan,0.0,0.0,0.056039095,0.0,0.0,0.0,0.0,0.0,0.0,0.0,0.0,0.0
63178379,63076864,6.1423235,-4.039414,-0.038167555,59.04242,-34.00755,0.0,0.0,0.0,0.0,0.0,0.0,0.0,0.0,0.24782562,0.0,0.0,nan,0.0,0.0,0.0680933,0.0,0.0,0.0,0.0,0.0,0.0,0.0,0.0,0.0
63683524,63582058,6.1851068,-3.9550884,-0.06063794,62.138184,-35.995445,0.0,0.0,0.0,0.0,0.0,0.0,0.0,0.0,0.3229828,0.0,0.0,nan,0.0,0.0,0.037715673,0.0,0.0,0.0,0.0,0.0,0.0,0.0,0.0,0.0
64178546,64077148,6.2467947,-3.8810818,-0.01685079,64.46155,-37.44613,0.0,0.0,0.0,0.0,0.0,0.0,0.0,0.0,-0.017755508,0.0,0.0,nan,0.0,0.0,0.037991762,0.0,0.0,0.0,0.0,0.0,0.0,0.0,0.0,0.0
64683772,64582342,6.2524014,-3.8122733,-0.0093075195,68.36528,-39.822968,0.0,0.0,0.0,0.0,0.0,0.0,0.0,0.0,0.56199646,0.0,0.0,nan,0.0,0.0,0.037033558,0.0,0.0,0.0,0.0,0.0,0.0,0.0,0.0,0.0
65178855,65077432,6.218661,-3.847729,-0.06346462,70.690735,-41.25319,0.0,0.0,0.0,0.0,0.0,0.0,0.0,0.0,0.30799866,0.0,0.0,nan,0.0,0.0,0.058975935,0.0,0.0,0.0,0.0,0.0,0.0,0.0,0.0,0.0
65684147,65582626,6.091033,-3.8918388,-0.06596946,74.52717,-43.67344,0.0,0.0,0.0,0.0,0.0,0.0,0.0,0.0,0.38827896,0.0,0.0,nan,0.0,0.0,0.055689335,0.0,0.0,0.0,0.0,0.0,0.0,0.0,0.0,0.0
66179306,66077716,6.028053,-3.9385695,-0.064134344,77.56293,-45.634563,0.0,0.0,0.0,0.0,0.0,0.0,0.0,0.0,0.13084602,0.0,0.0,nan,0.0,0.0,0.08243227,0.0,0.0,0.0,0.0,0.0,0.0,0.0,0.0,0.0
66684408,66582911,6.060379,-3.8614116,-0.03461129,80.60535,-47.57977,0.0,0.0,0.0,0.0,0.0,0.0,0.0,0.0,0.12887383,0.0,0.0,nan,0.0,0.0,0.0016608238,0.0,0.0,0.0,0.0,0.0,0.0,0.0,0.0,0.0
67179501,67078001,6.2437177,-3.7385883,-0.051620033,83.69847,-49.46962,0.0,0.0,0.0,0.0,0.0,0.0,0.0,0.0,0.12620354,0.0,0.0,nan,0.0,0.0,0.025008678,0.0,0.0,0.0,0.0,0.0,0.0,0.0,0.0,0.0
67684662,67583195,6.2939506,-3.6455107,-0.0036380969,86.83276,-51.31756,0.0,0.0,0.0,0.0,0.0,0.0,0.0,0.0,-0.21331978,0.0,0.0,nan,0.0,0.0,-0.0068690777,0.0,0.0,0.0,0.0,0.0,0.0,0.0,0.0,0.0
68179748,68078285,6.3386197,-3.6440842,0.020823982,90.00277,-53.130836,0.0,0.0,0.0,0.0,0.0,0.0,0.0,0.0,0.23056221,0.0,0.0,nan,0.0,0.0,0.006319523,0.0,0.0,0.0,0.0,0.0,0.0,0.0,0.0,0.0
68684851,68583480,6.3565216,-3.6719818,0.038955003,93.19459,-54.96884,0.0,0.0,0.0,0.0,0.0,0.0,0.0,0.0,0.09277153,0.0,0.0,nan,0.0,0.0,0.017808437,0.0,0.0,0.0,0.0,0.0,0.0,0.0,0.0,0.0
69180077,69078570,6.3050027,-3.8277693,-0.056985807,0.7885437,-0.48664093,0.0,0.0,0.0,0.0,0.0,0.0,0.0,0.0,0.20304298,0.0,0.0,nan,0.0,0.0,0.021045685,0.0,0.0,0.0,0.0,0.0,0.0,0.0,0.0,0.0
69685181,69583764,6.3148837,-3.8354888,-0.056135744,2.8232574,-1.7159576,0.0,0.0,0.0,0.0,0.0,0.0,0.0,0.0,0.15935516,0.0,0.0,nan,0.0,0.0,0.0395658,0.0,0.0,0.0,0.0,0.0,0.0,0.0,0.0,0.0
70180240,70078855,6.2959094,-3.8622077,-0.060185656,5.9947815,-3.6359863,0.0,0.0,0.0,0.0,0.0,0.0,0.0,0.0,-0.06908417,0.0,0.0,nan,0.0,0.0,0.026113749,0.0,0.0,0.0,0.0,0.0,0.0,0.0,0.0,0.0
70675347,70573945,6.198023,-3.8764138,-0.028277326,9.128632,-5.5742645,0.0,0.0,0.0,0.0,0.0,0.0,0.0,0.0,0.07219887,0.0,0.0,nan,0.0,0.0,0.06725502,0.0,0.0,0.0,0.0,0.0,0.0,0.0,0.0,0.0
71180587,71079140,6.6211843,-3.5380147,-0.01827658,12.666229,-7.164192,0.0,0.0,0.0,0.0,0.0,0.0,0.0,0.0,0.17373466,0.0,0.0,nan,0.0,0.0,0.008827448,0.0,0.0,0.0,0.0,0.0,0.0,0.0,0.0,0.0
71675725,71574230,6.6275105,-3.467064,-0.0072186794,16.004059,-8.905556,0.0,0.0,0.0,0.0,0.0,0.0,0.0,0.0,0.056800842,0.0,0.0,nan,0.0,0.0,0.02348113,0.0,0.0,0.0,0.0,0.0,0.0,0.0,0.0,0.0
72180830,72079424,6.6468797,-3.5032856,0.0053931065,19.340103,-10.658104,0.0,0.0,0.0,0.0,0.0,0.0,0.0,0.0,0.14479065,0.0,0.0,nan,0.0,0.0,0.04736519,0.0,0.0,0.0,0.0,0.0,0.0,0.0,0.0,0.0
72686036,72584619,6.618329,-3.5091896,-0.006296794,22.666641,-12.408485,0.0,0.0,0.0,0.0,0.0,0.0,0.0,0.0,-0.070985794,0.0,0.0,nan,0.0,0.0,0.08267403,0.0,0.0,0.0,0.0,0.0,0.0,0.0,0.0,0.0
73181120,73079709,6.5662274,-3.5483634,-0.063989654,25.958221,-14.170303,0.0,0.0,0.0,0.0,0.0,0.0,0.0,0.0,-0.045532227,0.0,0.0,nan,0.0,0.0,0.059384108,0.0,0.0,0.0,0.0,0.0,0.0,0.0,0.0,0.0
73676186,73574800,6.509797,-3.5065513,-0.046039708,28.404785,-15.48938,0.0,0.0,0.0,0.0,0.0,0.0,0.0,0.0,0.03618622,0.0,0.0,nan,0.0,0.0,0.054637432,0.0,0.0,0.0,0.0,0.0,0.0,0.0,0.0,0.0
74181391,74079994,6.47264,-3.4723113,0.03419436,32.463562,-17.667183,0.0,0.0,0.0,0.0,0.0,0.0,0.0,0.0,0.12030792,0.0,0.0,nan,0.0,0.0,0.048591852,0.0,0.0,0.0,0.0,0.0,0.0,0.0,0.0,0.0
74676424,74575085,6.483333,-3.454625,0.04317077,34.898453,-18.960594,0.0,0.0,0.0,0.0,0.0,0.0,0.0,0.0,0.036460876,0.0,0.0,nan,0.0,0.0,0.0025610924,0.0,0.0,0.0,0.0,0.0,0.0,0.0,0.0,0.0
75181721,75080280,6.4003186,-3.594116,-0.030835746,38.935806,-21.17955,0.0,0.0,0.0,0.0,0.0,0.0,0.0,0.0,-0.045484543,0.0,0.0,nan,0.0,0.0,0.12353444,0.0,0.0,0.0,0.0,0.0,0.0,0.0,0.0,0.0
75676752,75575370,6.346719,-3.5620074,0.03209496,42.137634,-22.959541,0.0,0.0,0.0,0.0,0.0,0.0,0.0,0.0,-0.21413422,0.0,0.0,nan,0.0,0.0,0.05049181,0.0,0.0,0.0,0.0,0.0,0.0,0.0,0.0,0.0
76182793,76080565,6.42323,-3.4276745,-0.057834808,45.340454,-24.694084,0.0,0.0,0.0,0.0,0.0,0.0,0.0,0.0,-0.37519836,0.0,0.0,nan,0.0,0.0,0.08934188,0.0,0.0,0.0,0.0,0.0,0.0,0.0,0.0,0.0
76687135,76585760,6.4387913,-3.2714415,0.010901088,48.552734,-26.361488,0.0,0.0,0.0,0.0,0.0,0.0,0.0,0.0,-0.20450974,0.0,0.0,nan,0.0,0.0,0.025995016,0.0,0.0,0.0,0.0,0.0,0.0,0.0,0.0,0.0
77182267,77080850,6.4282074,-3.2494788,-0.024588585,51.777817,-27.99224,0.0,0.0,0.0,0.0,0.0,0.0,0.0,0.0,-0.36922646,0.0,0.0,nan,0.0,0.0,0.096859455,0.0,0.0,0.0,0.0,0.0,0.0,0.0,0.0,0.0
77677297,77575941,6.4338064,-3.2016356,-0.059367225,54.190323,-29.197517,0.0,0.0,0.0,0.0,0.0,0.0,0.0,0.0,-0.12918282,0.0,0.0,nan,0.0,0.0,0.06157279,0.0,0.0,0.0,0.0,0.0,0.0,0.0,0.0,0.0
78182546,78081136,6.396838,-3.2361445,-0.15978634,58.215866,-31.201752,0.0,0.0,0.0,0.0,0.0,0.0,0.0,0.0,-0.1384983,0.0,0.0,nan,0.0,0.0,0.09057474,0.0,0.0,0.0,0.0,0.0,0.0,0.0,0.0,0.0
78677707,78576227,6.395659,-3.2370772,-0.16204496,61.42949,-32.82328,0.0,0.0,0.0,0.0,0.0,0.0,0.0,0.0,-0.16687202,0.0,0.0,nan,0.0,0.0,-0.0063581467,0.0,0.0,0.0,0.0,0.0,0.0,0.0,0.0,0.0
79182875,79081421,6.4192324,-3.2676675,-0.20624131,64.6501,-34.442314,0.0,0.0,0.0,0.0,0.0,0.0,0.0,0.0,-0.31402016,0.0,0.0,nan,0.0,0.0,0.01224637,0.0,0.0,0.0,0.0,0.0,0.0,0.0,0.0,0.0
79677853,79576512,6.4841466,-3.312288,-0.0657917,67.08653,-35.6849,0.0,0.0,0.0,0.0,0.0,0.0,0.0,0.0,-0.34068108,0.0,0.0,nan,0.0,0.0,0.002496004,0.0,0.0,0.0,0.0,0.0,0.0,0.0,0.0,0.0
80183092,80081707,6.5821075,-3.28066,0.04969295,71.16812,-37.741425,0.0,0.0,0.0,0.0,0.0,0.0,0.0,0.0,-0.41197777,0.0,0.0,nan,0.0,0.0,0.0549078,0.0,0.0,0.0,0.0,0.0,0.0,0.0,0.0,0.0
80678169,80576798,6.580398,-3.269956,0.029304843,73.64784,-38.96691,0.0,0.0,0.0,0.0,0.0,0.0,0.0,0.0,-0.38932228,0.0,0.0,nan,0.0,0.0,0.0109016895,0.0,0.0,0.0,0.0,0.0,0.0,0.0,0.0,0.0
81183605,81081993,6.6390347,-3.336475,0.028601613,77.797134,-41.019287,0.0,0.0,0.0,0.0,0.0,0.0,0.0,0.0,-0.29645538,0.0,0.0,nan,0.0,0.0,0.0019023418,0.0,0.0,0.0,0.0,0.0,0.0,0.0,0.0,0.0
81678904,81577084,6.6324787,-3.5598998,0.026174862,81.09976,-42.76367,0.0,0.0,0.0,0.0,0.0,0.0,0.0,0.0,-0.24261665,0.0,0.0,nan,0.0,0.0,0.023879051,0.0,0.0,0.0,0.0,0.0,0.0,0.0,0.0,0.0
82183677,82082278,6.5719895,-3.7442155,-0.037674442,84.402374,-44.583694,0.0,0.0,0.0,0.0,0.0,0.0,0.0,0.0,-0.29040527,0.0,0.0,nan,0.0,0.0,0.021368504,0.0,0.0,0.0,0.0,0.0,0.0,0.0,0.0,0.0
82678717,82577369,6.558976,-3.7895732,0.059919834,86.87105,-45.990685,0.0,0.0,0.0,0.0,0.0,0.0,0.0,0.0,-0.41370392,0.0,0.0,nan,0.0,0.0,0.060112238,0.0,0.0,0.0,0.0,0.0,0.0,0.0,0.0,0.0
83183942,83082564,6.5885596,-3.700234,0.17236146,91.0045,-48.309128,0.0,0.0,0.0,0.0,0.0,0.0,0.0,0.0,-0.41057968,0.0,0.0,nan,0.0,0.0,-0.004910946,0.0,0.0,0.0,0.0,0.0,0.0,0.0,0.0,0.0
83679118,83577655,6.601548,-3.7384596,0.13778172,94.342285,-50.137787,0.0,0.0,0.0,0.0,0.0,0.0,0.0,0.0,-0.49098969,0.0,0.0,nan,0.0,0.0,0.03625202,0.0,0.0,0.0,0.0,0.0,0.0,0.0,0.0,0.0
84184423,84082850,6.5760794,-3.7333777,0.17103767,2.448059,-1.360672,0.0,0.0,0.0,0.0,0.0,0.0,0.0,0.0,-0.40392876,0.0,0.0,nan,0.0,0.0,0.039986372,0.0,0.0,0.0,0.0,0.0,0.0,0.0,0.0,0.0
84679472,84577942,6.4577255,-3.808903,0.08971386,5.349182,-3.030655,0.0,0.0,0.0,0.0,0.0,0.0,0.0,0.0,0.09860802,0.0,0.0,nan,0.0,0.0,0.099835396,0.0,0.0,0.0,0.0,0.0,0.0,0.0,0.0,0.0
85184640,85083136,6.34541,-3.8501601,0.09520451,8.57605,-4.938095,0.0,0.0,0.0,0.0,0.0,0.0,0.0,0.0,-0.14881706,0.0,0.0,nan,0.0,0.0,0.049469948,0.0,0.0,0.0,0.0,0.0,0.0,0.0,0.0,0.0
85679683,85578228,6.2564564,-3.8799856,-0.058021896,11.744812,-6.8731995,0.0,0.0,0.0,0.0,0.0,0.0,0.0,0.0,-0.06436348,0.0,0.0,nan,0.0,0.0,0.094569206,0.0,0.0,0.0,0.0,0.0,0.0,0.0,0.0,0.0
86184892,86083423,6.23692,-3.9158564,0.0063764146,14.879272,-8.808319,0.0,0.0,0.0,0.0,0.0,0.0,0.0,0.0,-0.06498146,0.0,0.0,nan,0.0,0.0,0.05314374,0.0,0.0,0.0,0.0,0.0,0.0,0.0,0.0,0.0
86680044,86578514,6.1864877,-3.9065409,0.007448308,17.981842,-10.7513275,0.0,0.0,0.0,0.0,0.0,0.0,0.0,0.0,0.02145958,0.0,0.0,nan,0.0,0.0,0.10069704,0.0,0.0,0.0,0.0,0.0,0.0,0.0,0.0,0.0
87185186,87083709,6.175578,-3.9200218,0.07798202,21.0737,-12.69487,0.0,0.0,0.0,0.0,0.0,0.0,0.0,0.0,-0.063892365,0.0,0.0,nan,0.0,0.0,0.11857104,0.0,0.0,0.0,0.0,0.0,0.0,0.0,0.0,0.0
87680216,87578800,6.0564017,-3.9221227,-0.059123803,23.385956,-14.161011,0.0,0.0,0.0,0.0,0.0,0.0,0.0,0.0,0.12708092,0.0,0.0,nan,0.0,0.0,0.07419777,0.0,0.0,0.0,0.0,0.0,0.0,0.0,0.0,0.0
88175303,88073892,6.0361404,-3.9096951,-0.003800814,26.420135,-16.123001,0.0,0.0,0.0,0.0,0.0,0.0,0.0,0.0,-0.07846451,0.0,0.0,nan,0.0,0.0,0.06920934,0.0,0.0,0.0,0.0,0.0,0.0,0.0,0.0,0.0
88680657,88579087,6.016827,-3.829648,-0.048895154,30.197174,-18.536224,0.0,0.0,0.0,0.0,0.0,0.0,0.0,0.0,0.08967018,0.0,0.0,nan,0.0,0.0,0.07698345,0.0,0.0,0.0,0.0,0.0,0.0,0.0,0.0,0.0
89175691,89074178,6.0577006,-3.7595437,-0.051537503,32.48871,-19.949844,0.0,0.0,0.0,0.0,0.0,0.0,0.0,0.0,-0.011911392,0.0,0.0,nan,0.0,0.0,0.04374385,0.0,0.0,0.0,0.0,0.0,0.0,0.0,0.0,0.0
89680825,89579373,6.140105,-3.73756,-0.111223035,36.346313,-22.29921,0.0,0.0,0.0,0.0,0.0,0.0,0.0,0.0,-0.007856369,0.0,0.0,nan,0.0,0.0,0.039507627,0.0,0.0,0.0,0.0,0.0,0.0,0.0,0.0,0.0
90186031,90084568,6.2599807,-3.658188,-0.049416684,39.473022,-24.156616,0.0,0.0,0.0,0.0,0.0,0.0,0.0,0.0,-0.18085861,0.0,0.0,nan,0.0,0.0,0.03770566,0.0,0.0,0.0,0.0,0.0,0.0,0.0,0.0,0.0
90681131,90579660,6.3504524,-3.5805454,-0.03652442,42.651947,-25.969513,0.0,0.0,0.0,0.0,0.0,0.0,0.0,0.0,-0.09341049,0.0,0.0,nan,0.0,0.0,0.03404689,0.0,0.0,0.0,0.0,0.0,0.0,0.0,0.0,0.0
91176309,91074751,6.3317018,-3.6050887,-0.06800742,45.043488,-27.32283,0.0,0.0,0.0,0.0,0.0,0.0,0.0,0.0,-0.1794815,0.0,0.0,nan,0.0,0.0,0.05838728,0.0,0.0,0.0,0.0,0.0,0.0,0.0,0.0,0.0
91681932,91579947,6.321283,-3.6372387,-0.12794288,48.22336,-29.145203,0.0,0.0,0.0,0.0,0.0,0.0,0.0,0.0,-0.256958,0.0,0.0,nan,0.0,0.0,0.06984377,0.0,0.0,0.0,0.0,0.0,0.0,0.0,0.0,0.0
92176493,92075038,6.294004,-3.6472607,-0.0934646,52.17102,-31.43541,0.0,0.0,0.0,0.0,0.0,0.0,0.0,0.0,-0.06424141,0.0,0.0,nan,0.0,0.0,0.06933069,0.0,0.0,0.0,0.0,0.0,0.0,0.0,0.0,0.0
92681693,92580233,6.28895,-3.5930693,-0.10272736,55.3302,-33.240707,0.0,0.0,0.0,0.0,0.0,0.0,0.0,0.0,-0.31419182,0.0,0.0,nan,0.0,0.0,0.10293174,0.0,0.0,0.0,0.0,0.0,0.0,0.0,0.0,0.0
93176805,93075325,6.245756,-3.5134983,-0.1590069,58.464996,-35.018814,0.0,0.0,0.0,0.0,0.0,0.0,0.0,0.0,-0.3129158,0.0,0.0,nan,0.0,0.0,0.043725014,0.0,0.0,0.0,0.0,0.0,0.0,0.0,0.0,0.0
93681959,93580520,6.253193,-3.5354333,-0.18385711,61.600983,-36.760666,0.0,0.0,0.0,0.0,0.0,0.0,0.0,0.0,-0.3936367,0.0,0.0,nan,0.0,0.0,0.10010934,0.0,0.0,0.0,0.0,0.0,0.0,0.0,0.0,0.0
94177096,94075612,6.299729,-3.4214137,-0.119002946,64.75888,-38.487762,0.0,0.0,0.0,0.0,0.0,0.0,0.0,0.0,-0.55830383,0.0,0.0,nan,0.0,0.0,0.09739113,0.0,0.0,0.0,0.0,0.0,0.0,0.0,0.0,0.0
94682256,94580807,6.3328004,-3.3190413,-0.1491968,67.9389,-40.155533,0.0,0.0,0.0,0.0,0.0,0.0,0.0,0.0,-0.3842125,0.0,0.0,nan,0.0,0.0,0.08781409,0.0,0.0,0.0,0.0,0.0,0.0,0.0,0.0,0.0
95177310,95075899,6.380087,-3.1365306,-0.186806,70.34015,-41.34407,0.0,0.0,0.0,0.0,0.0,0.0,0.0,0.0,-0.7161541,0.0,0.0,nan,0.0,0.0,0.077474594,0.0,0.0,0.0,0.0,0.0,0.0,0.0,0.0,0.0
95682561,95581095,6.446224,-3.0432682,-0.16660787,74.3736,-43.25447,0.0,0.0,0.0,0.0,0.0,0.0,0.0,0.0,-0.54096794,0.0,0.0,nan,0.0,0.0,0.03857684,0.0,0.0,0.0,0.0,0.0,0.0,0.0,0.0,0.0
96177672,96076186,6.482762,-2.9161992,-0.17842185,77.6207,-44.744766,0.0,0.0,0.0,0.0,0.0,0.0,0.0,0.0,-0.5322647,0.0,0.0,nan,0.0,0.0,0.007907629,0.0,0.0,0.0,0.0,0.0,0.0,0.0,0.0,0.0
96683138,96581382,6.403457,-3.2696428,-0.26344848,80.808716,-46.449127,0.0,0.0,0.0,0.0,0.0,0.0,0.0,0.0,-1.275013,0.0,0.0,nan,0.0,0.0,0.00821209,0.0,0.0,0.0,0.0,0.0,0.0,0.0,0.0,0.0
97178266,97076474,6.3241534,-3.4105897,-0.13051105,84.00357,-48.114517,0.0,0.0,0.0,0.0,0.0,0.0,0.0,0.0,-0.8611202,0.0,0.0,nan,0.0,0.0,0.10312867,0.0,0.0,0.0,0.0,0.0,0.0,0.0,0.0,0.0
97683113,97581670,6.377989,-3.5107725,-0.100635506,86.39334,-49.416626,0.0,0.0,0.0,0.0,0.0,0.0,0.0,0.0,-1.0650101,0.0,0.0,nan,0.0,0.0,0.13461351,0.0,0.0,0.0,0.0,0.0,0.0,0.0,0.0,0.0
98178363,98076761,6.3492074,-3.5053866,-0.12408767,89.582794,-51.15428,0.0,0.0,0.0,0.0,0.0,0.0,0.0,0.0,-0.9054947,0.0,0.0,nan,0.0,0.0,0.10417557,0.0,0.0,0.0,0.0,0.0,0.0,0.0,0.0,0.0
98683396,98581957,6.401656,-3.3112936,-0.10976958,2.351715,-1.2233734,0.0,0.0,0.0,0.0,0.0,0.0,0.0,0.0,-1.0227051,0.0,0.0,nan,0.0,0.0,0.094878435,0.0,0.0,0.0,0.0,0.0,0.0,0.0,0.0,0.0
99178447,99077048,6.423542,-3.261698,-0.15858346,4.3985596,-2.2645264,0.0,0.0,0.0,0.0,0.0,0.0,0.0,0.0,-1.1395035,0.0,0.0,nan,0.0,0.0,0.119500875,0.0,0.0,0.0,0.0,0.0,0.0,0.0,0.0,0.0
99683671,99582244,6.28758,-3.4240613,-0.16233699,8.389862,-4.3370514,0.0,0.0,0.0,0.0,0.0,0.0,0.0,0.0,-1.1691456,0.0,0.0,nan,0.0,0.0,0.07082939,0.0,0.0,0.0,0.0,0.0,0.0,0.0,0.0,0.0
100178709,100077336,6.2450237,-3.5030434,-0.26244962,10.738312,-5.6423645,0.0,0.0,0.0,0.0,0.0,0.0,0.0,0.0,-1.3929977,0.0,0.0,nan,0.0,0.0,0.12543416,0.0,0.0,0.0,0.0,0.0,0.0,0.0,0.0,0.0
100683986,100582532,6.19738,-3.5507858,-0.19177938,14.595367,-7.856537,0.0,0.0,0.0,0.0,0.0,0.0,0.0,0.0,-1.3440933,0.0,0.0,nan,0.0,0.0,0.12791967,0.0,0.0,0.0,0.0,0.0,0.0,0.0,0.0,0.0
101179036,101077624,6.182121,-3.5341804,-0.24843384,17.70877,-9.627258,0.0,0.0,0.0,0.0,0.0,0.0,0.0,0.0,-1.3737679,0.0,0.0,nan,0.0,0.0,0.09395695,0.0,0.0,0.0,0.0,0.0,0.0,0.0,0.0,0.0
101684242,101582819,6.2129397,-3.5250418,-0.21249624,20.818909,-11.372864,0.0,0.0,0.0,0.0,0.0,0.0,0.0,0.0,-1.6035576,0.0,0.0,nan,0.0,0.0,0.08861232,0.0,0.0,0.0,0.0,0.0,0.0,0.0,0.0,0.0
102179490,102077911,6.286176,-3.4705317,-0.19613805,23.94632,-13.115173,0.0,0.0,0.0,0.0,0.0,0.0,0.0,0.0,-1.6739235,0.0,0.0,nan,0.0,0.0,0.09738088,0.0,0.0,0.0,0.0,0.0,0.0,0.0,0.0,0.0
102684529,102583107,6.2007623,-3.52346,-0.30823502,27.082245,-14.866592,0.0,0.0,0.0,0.0,0.0,0.0,0.0,0.0,-1.6616669,0.0,0.0,nan,0.0,0.0,0.09744239,0.0,0.0,0.0,0.0,0.0,0.0,0.0,0.0,0.0
103179586,103078199,6.222596,-3.5846448,-0.23858015,30.184021,-16.637512,0.0,0.0,0.0,0.0,0.0,0.0,0.0,0.0,-2.151619,0.0,0.0,nan,0.0,0.0,0.10237265,0.0,0.0,0.0,0.0,0.0,0.0,0.0,0.0,0.0
103684771,103583395,6.18518,-3.6479723,-0.25949576,33.285645,-18.450272,0.0,0.0,0.0,0.0,0.0,0.0,0.0,0.0,-2.1376038,0.0,0.0,nan,0.0,0.0,0.081985235,0.0,0.0,0.0,0.0,0.0,0.0,0.0,0.0,0.0
104179919,104078487,6.2124553,-3.7386692,-0.23834018,36.388794,-20.298523,0.0,0.0,0.0,0.0,0.0,0.0,0.0,0.0,-1.8723621,0.0,0.0,nan,0.0,0.0,0.08885956,0.0,0.0,0.0,0.0,0.0,0.0,0.0,0.0,0.0
104685076,104583683,6.2448473,-3.7531748,-0.2013947,39.490906,-22.180557,0.0,0.0,0.0,0.0,0.0,0.0,0.0,0.0,-1.7747631,0.0,0.0,nan,0.0,0.0,0.10659289,0.0,0.0,0.0,0.0,0.0,0.0,0.0,0.0,0.0
105180115,105078775,6.1858635,-3.824055,-0.3010447,41.81436,-23.61287,0.0,0.0,0.0,0.0,0.0,0.0,0.0,0.0,-2.3437653,0.0,0.0,nan,0.0,0.0,0.07745266,0.0,0.0,0.0,0.0,0.0,0.0,0.0,0.0,0.0
105675242,105573867,6.298984,-3.8123307,-0.22595064,44.93933,-25.51181,0.0,0.0,0.0,0.0,0.0,0.0,0.0,0.0,-2.4136524,0.0,0.0,nan,0.0,0.0,0.11525512,0.0,0.0,0.0,0.0,0.0,0.0,0.0,0.0,0.0
106180504,106079063,6.283286,-3.714584,-0.10002938,48.875183,-27.863556,0.0,0.0,0.0,0.0,0.0,0.0,0.0,0.0,-2.482273,0.0,0.0,nan,0.0,0.0,0.10994339,0.0,0.0,0.0,0.0,0.0,0.0,0.0,0.0,0.0
106675548,106574156,6.291051,-3.680214,-0.12914094,51.23224,-29.243225,0.0,0.0,0.0,0.0,0.0,0.0,0.0,0.0,-2.4416752,0.0,0.0,nan,0.0,0.0,0.071499825,0.0,0.0,0.0,0.0,0.0,0.0,0.0,0.0,0.0
107181248,107079352,6.3116612,-3.602063,-0.06818643,55.15744,-31.51735,0.0,0.0,0.0,0.0,0.0,0.0,0.0,0.0,-2.4095154,0.0,0.0,nan,0.0,0.0,0.07342577,0.0,0.0,0.0,0.0,0.0,0.0,0.0,0.0,0.0
107685918,107584548,6.232778,-3.689562,-0.20012338,58.315887,-33.339005,0.0,0.0,0.0,0.0,0.0,0.0,0.0,0.0,-2.4228802,0.0,0.0,nan,0.0,0.0,0.08109522,0.0,0.0,0.0,0.0,0.0,0.0,0.0,0.0,0.0
108181023,108079640,6.261191,-3.6913779,-0.25202316,61.43988,-35.16989,0.0,0.0,0.0,0.0,0.0,0.0,0.0,0.0,-2.6834087,0.0,0.0,nan,0.0,0.0,0.08358264,0.0,0.0,0.0,0.0,0.0,0.0,0.0,0.0,0.0
108676071,108574732,6.294165,-3.6615198,-0.21501347,63.774048,-36.548065,0.0,0.0,0.0,0.0,0.0,0.0,0.0,0.0,-2.6420937,0.0,0.0,nan,0.0,0.0,0.091403484,0.0,0.0,0.0,0.0,0.0,0.0,0.0,0.0,0.0
109181384,109079928,6.360158,-3.5964663,-0.22852331,67.73413,-38.821365,0.0,0.0,0.0,0.0,0.0,0.0,0.0,0.0,-2.7889996,0.0,0.0,nan,0.0,0.0,0.073091984,0.0,0.0,0.0,0.0,0.0,0.0,0.0,0.0,0.0
109676425,109575021,6.5061793,-3.3838282,-0.25792408,70.95685,-40.57573,0.0,0.0,0.0,0.0,0.0,0.0,0.0,0.0,-2.940073,0.0,0.0,nan,0.0,0.0,0.0687511,0.0,0.0,0.0,0.0,0.0,0.0,0.0,0.0,0.0
110181685,110080217,6.599566,-3.3550024,-0.1904002,74.217316,-42.26599,0.0,0.0,0.0,0.0,0.0,0.0,0.0,0.0,-2.7540798,0.0,0.0,nan,0.0,0.0,0.052489996,0.0,0.0,0.0,0.0,0.0,0.0,0.0,0.0,0.0
110676713,110575309,6.5429287,-3.374968,-0.1752469,76.67502,-43.531036,0.0,0.0,0.0,0.0,0.0,0.0,0.0,0.0,-3.0131378,0.0,0.0,nan,0.0,0.0,0.071153164,0.0,0.0,0.0,0.0,0.0,0.0,0.0,0.0,0.0
111181908,111080506,6.4806614,-3.4569626,-0.10922833,80.73566,-45.689087,0.0,0.0,0.0,0.0,0.0,0.0,0.0,0.0,-2.900278,0.0,0.0,nan,0.0,0.0,0.06615424,0.0,0.0,0.0,0.0,0.0,0.0,0.0,0.0,0.0
111676989,111575598,6.3762083,-3.5459409,-0.20490903,83.91229,-47.47133,0.0,0.0,0.0,0.0,0.0,0.0,0.0,0.0,-3.466711,0.0,0.0,nan,0.0,0.0,0.0759418,0.0,0.0,0.0,0.0,0.0,0.0,0.0,0.0,0.0
112182174,112080794,6.372039,-3.5467122,-0.14719248,87.10312,-49.232437,0.0,0.0,0.0,0.0,0.0,0.0,0.0,0.0,-3.1955051,0.0,0.0,nan,0.0,0.0,0.0724895,0.0,0.0,0.0,0.0,0.0,0.0,0.0,0.0,0.0
112677441,112575887,6.3452864,-3.598587,-0.113426335,89.49344,-50.577637,0.0,0.0,0.0,0.0,0.0,0.0,0.0,0.0,-3.096136,0.0,0.0,nan,0.0,0.0,0.06610441,0.0,0.0,0.0,0.0,0.0,0.0,0.0,0.0,0.0
113182624,113081083,6.321306,-3.5784988,-0.15304068,2.3341675,-1.3128052,0.0,0.0,0.0,0.0,0.0,0.0,0.0,0.0,-3.2432938,0.0,0.0,nan,0.0,0.0,0.059914827,0.0,0.0,0.0,0.0,0.0,0.0,0.0,0.0,0.0
113677689,113576176,6.391942,-3.5160272,-0.1934667,5.174652,-2.8839417,0.0,0.0,0.0,0.0,0.0,0.0,0.0,0.0,-3.3899078,0.0,0.0,nan,0.0,0.0,0.054429054,0.0,0.0,0.0,0.0,0.0,0.0,0.0,0.0,0.0
114182898,114081372,6.434469,-3.5171134,-0.20528318,8.399597,-4.643921,0.0,0.0,0.0,0.0,0.0,0.0,0.0,0.0,-3.621481,0.0,0.0,nan,0.0,0.0,0.06216073,0.0,0.0,0.0,0.0,0.0,0.0,0.0,0.0,0.0
114677875,114576465,6.4289293,-3.543282,-0.11997251,11.6128235,-6.423279,0.0,0.0,0.0,0.0,0.0,0.0,0.0,0.0,-3.8492413,0.0,0.0,nan,0.0,0.0,0.038367987,0.0,0.0,0.0,0.0,0.0,0.0,0.0,0.0,0.0
115183098,115081661,6.438795,-3.610361,-0.13119413,14.838196,-8.244385,0.0,0.0,0.0,0.0,0.0,0.0,0.0,0.0,-3.5798378,0.0,0.0,nan,0.0,0.0,0.09556246,0.0,0.0,0.0,0.0,0.0,0.0,0.0,0.0,0.0
115678176,115576754,6.4241314,-3.568234,-0.20771544,18.051758,-10.048157,0.0,0.0,0.0,0.0,0.0,0.0,0.0,0.0,-3.3095608,0.0,0.0,nan,0.0,0.0,0.08505654,0.0,0.0,0.0,0.0,0.0,0.0,0.0,0.0,0.0
116183357,116081950,6.4830523,-3.486802,-0.113774635,21.296692,-11.821014,0.0,0.0,0.0,0.0,0.0,0.0,0.0,0.0,-3.204403,0.0,0.0,nan,0.0,0.0,0.054142475,0.0,0.0,0.0,0.0,0.0,0.0,0.0,0.0,0.0
116678450,116577043,6.5487785,-3.3066943,-0.19806206,24.566895,-13.510773,0.0,0.0,0.0,0.0,0.0,0.0,0.0,0.0,-3.65827,0.0,0.0,nan,0.0,0.0,0.04541135,0.0,0.0,0.0,0.0,0.0,0.0,0.0,0.0,0.0
117183638,117082240,6.557413,-3.2960424,-0.09959172,27.83728,-15.158356,0.0,0.0,0.0,0.0,0.0,0.0,0.0,0.0,-3.7127285,0.0,0.0,nan,0.0,0.0,0.05898118,0.0,0.0,0.0,0.0,0.0,0.0,0.0,0.0,0.0
117678870,117577332,6.455066,-3.4413207,-0.15192524,31.115692,-16.843292,0.0,0.0,0.0,0.0,0.0,0.0,0.0,0.0,-3.7111645,0.0,0.0,nan,0.0,0.0,0.06498361,0.0,0.0,0.0,0.0,0.0,0.0,0.0,0.0,0.0
118183925,118082529,6.4314036,-3.4568536,-0.15844332,34.330933,-18.576477,0.0,0.0,0.0,0.0,0.0,0.0,0.0,0.0,-3.9775715,0.0,0.0,nan,0.0,0.0,0.09168482,0.0,0.0,0.0,0.0,0.0,0.0,0.0,0.0,0.0
118679191,118577622,6.3797407,-3.5083225,-0.13798566,37.53238,-20.321442,0.0,0.0,0.0,0.0,0.0,0.0,0.0,0.0,-3.847208,0.0,0.0,nan,0.0,0.0,0.046010733,0.0,0.0,0.0,0.0,0.0,0.0,0.0,0.0,0.0
119184184,119082819,6.3760214,-3.4746203,-0.14693528,40.712677,-22.091095,0.0,0.0,0.0,0.0,0.0,0.0,0.0,0.0,-4.0054836,0.0,0.0,nan,0.0,0.0,0.08697343,0.0,0.0,0.0,0.0,0.0,0.0,0.0,0.0,0.0
119679410,119577911,6.3044896,-3.5354357,-0.15269354,43.89279,-23.846771,0.0,0.0,0.0,0.0,0.0,0.0,0.0,0.0,-4.041954,0.0,0.0,nan,0.0,0.0,0.092139244,0.0,0.0,0.0,0.0,0.0,0.0,0.0,0.0,0.0
120184501,120083108,6.268037,-3.4364426,-0.10219681,47.050568,-25.5708,0.0,0.0,0.0,0.0,0.0,0.0,0.0,0.0,-3.9828682,0.0,0.0,nan,0.0,0.0,0.07796216,0.0,0.0,0.0,0.0,0.0,0.0,0.0,0.0,0.0
120679656,120578201,6.3054886,-3.30525,-0.07873874,50.208893,-27.247925,0.0,0.0,0.0,0.0,0.0,0.0,0.0,0.0,-4.1061306,0.0,0.0,nan,0.0,0.0,0.06175661,0.0,0.0,0.0,0.0,0.0,0.0,0.0,0.0,0.0
121184797,121083397,6.294904,-3.1609814,-0.06319985,53.35492,-28.832794,0.0,0.0,0.0,0.0,0.0,0.0,0.0,0.0,-4.1755066,0.0,0.0,nan,0.0,0.0,0.04994178,0.0,0.0,0.0,0.0,0.0,0.0,0.0,0.0,0.0
121679935,121578490,6.2831736,-3.037714,-0.14624529,56.50107,-30.390778,0.0,0.0,0.0,0.0,0.0,0.0,0.0,0.0,-4.047632,0.0,0.0,nan,0.0,0.0,0.049241304,0.0,0.0,0.0,0.0,0.0,0.0,0.0,0.0,0.0
122185058,122083687,6.1842585,-3.1798048,-0.073366776,59.627106,-31.971619,0.0,0.0,0.0,0.0,0.0,0.0,0.0,0.0,-4.0228996,0.0,0.0,nan,0.0,0.0,0.059231758,0.0,0.0,0.0,0.0,0.0,0.0,0.0,0.0,0.0
122680122,122578780,6.0399013,-3.3391755,-0.07427989,61.91678,-33.186005,0.0,0.0,0.0,0.0,0.0,0.0,0.0,0.0,-4.249256,0.0,0.0,nan,0.0,0.0,0.06715965,0.0,0.0,0.0,0.0,0.0,0.0,0.0,0.0,0.0
123175211,123073873,5.9356217,-3.3314893,-0.062384833,64.90939,-34.84265,0.0,0.0,0.0,0.0,0.0,0.0,0.0,0.0,-4.143688,0.0,0.0,nan,0.0,0.0,0.06282711,0.0,0.0,0.0,0.0,0.0,0.0,0.0,0.0,0.0
123680455,123579070,5.877059,-3.28119,-0.07086619,68.61102,-36.90744,0.0,0.0,0.0,0.0,0.0,0.0,0.0,0.0,-4.035923,0.0,0.0,nan,0.0,0.0,0.079638004,0.0,0.0,0.0,0.0,0.0,0.0,0.0,0.0,0.0
124185642,124084267,5.830428,-3.2669282,-0.17970654,71.53604,-38.538147,0.0,0.0,0.0,0.0,0.0,0.0,0.0,0.0,-4.5142307,0.0,0.0,nan,0.0,0.0,0.090112925,0.0,0.0,0.0,0.0,0.0,0.0,0.0,0.0,0.0
124680814,124579360,5.706013,-3.211273,-0.1537503,74.426056,-40.14453,0.0,0.0,0.0,0.0,0.0,0.0,0.0,0.0,-4.5724297,0.0,0.0,nan,0.0,0.0,0.08367729,0.0,0.0,0.0,0.0,0.0,0.0,0.0,0.0,0.0
125185931,125084557,5.6503277,-3.1564124,-0.10671739,77.286804,-41.718567,0.0,0.0,0.0,0.0,0.0,0.0,0.0,0.0,-4.2684727,0.0,0.0,nan,0.0,0.0,0.078038216,0.0,0.0,0.0,0.0,0.0,0.0,0.0,0.0,0.0
125681088,125579650,5.583837,-3.1019487,-0.21661621,80.07965,-43.262817,0.0,0.0,0.0,0.0,0.0,0.0,0.0,0.0,-4.2248764,0.0,0.0,nan,0.0,0.0,0.077485085,0.0,0.0,0.0,0.0,0.0,0.0,0.0,0.0,0.0
126176085,126074743,5.560001,-3.1490517,-0.16836151,82.16266,-44.440186,0.0,0.0,0.0,0.0,0.0,0.0,0.0,0.0,-4.436384,0.0,0.0,nan,0.0,0.0,0.0819087,0.0,0.0,0.0,0.0,0.0,0.0,0.0,0.0,0.0
126681371,126579940,5.4926777,-3.0892575,-0.09436976,85.62695,-46.39865,0.0,0.0,0.0,0.0,0.0,0.0,0.0,0.0,-4.268318,0.0,0.0,nan,0.0,0.0,0.0763638,0.0,0.0,0.0,0.0,0.0,0.0,0.0,0.0,0.0
127176412,127075033,5.460851,-3.110345,-0.04758277,88.36215,-47.948517,0.0,0.0,0.0,0.0,0.0,0.0,0.0,0.0,-4.787607,0.0,0.0,nan,0.0,0.0,0.07564807,0.0,0.0,0.0,0.0,0.0,0.0,0.0,0.0,0.0
127681746,127580230,-0.052330494,0.024748087,-0.052813053,0.028625488,-0.003479004,0.0,0.0,0.0,0.0,0.0,0.0,0.0,0.0,-4.272587,0.0,0.0,nan,0.0,0.0,0.07539821,0.0,0.0,0.0,0.0,0.0,0.0,0.0,0.0,0.0
128177218,128075323,-0.10470772,0.022481203,0.07546269,0.012634277,0.0027770996,0.0,0.0,0.0,0.0,0.0,0.0,0.0,0.0,-4.227911,0.0,0.0,nan,0.0,0.0,0.079164505,0.0,0.0,0.0,0.0,0.0,0.0,0.0,0.0,0.0
128682016,128580527,-0.13504839,0.040964127,0.1160047,-0.014892578,0.024047852,0.0,0.0,0.0,0.0,0.0,0.0,0.0,0.0,-4.2389946,0.0,0.0,nan,0.0,0.0,0.07706332,0.0,0.0,0.0,0.0,0.0,0.0,0.0,0.0,0.0
129187203,129085718,-0.19807816,0.025770903,0.12066953,-0.06262207,0.042114258,0.0,0.0,0.0,0.0,0.0,0.0,0.0,0.0,-4.164421,0.0,0.0,nan,0.0,0.0,0.07316661,0.0,0.0,0.0,0.0,0.0,0.0,0.0,0.0,0.0
129682302,129580811,-0.20995426,0.015545607,0.14342889,-0.06262207,0.032073975,0.0,0.0,0.0,0.0,0.0,0.0,0.0,0.0,-3.6214428,0.0,0.0,nan,0.0,0.0,0.09004855,0.0,0.0,0.0,0.0,0.0,0.0,0.0,0.0,0.0
130177326,130075904,-0.12470579,0.033604145,0.21247223,-0.062683105,0.034454346,0.0,0.0,0.0,0.0,0.0,0.0,0.0,0.0,-3.3037567,0.0,0.0,nan,0.0,0.0,0.07546258,0.0,0.0,0.0,0.0,0.0,0.0,0.0,0.0,0.0
130682646,130581102,-0.093878746,0.009234905,0.2246089,-0.076171875,0.029327393,0.0,0.0,0.0,0.0,0.0,0.0,0.0,0.0,-3.4090729,0.0,0.0,nan,0.0,0.0,0.047420263,0.0,0.0,0.0,0.0,0.0,0.0,0.0,0.0,0.0
131177686,131076195,-0.10783291,0.046374798,0.28012264,-0.05291748,0.024871826,0.0,0.0,0.0,0.0,0.0,0.0,0.0,0.0,-3.3975239,0.0,0.0,nan,0.0,0.0,0.03868079,0.0,0.0,0.0,0.0,0.0,0.0,0.0,0.0,0.0
131682905,131581392,-0.051956654,0.014755487,0.28578162,-0.08026123,0.034454346,0.0,0.0,0.0,0.0,0.0,0.0,0.0,0.0,-3.2443943,0.0,0.0,nan,0.0,0.0,0.037113667,0.0,0.0,0.0,0.0,0.0,0.0,0.0,0.0,0.0
132178000,132076486,-0.11940575,0.023594618,0.32957214,-0.05316162,0.030670166,0.0,0.0,0.0,0.0,0.0,0.0,0.0,0.0,-2.7529945,0.0,0.0,nan,0.0,0.0,0.03765297,0.0,0.0,0.0,0.0,0.0,0.0,0.0,0.0,0.0
132683248,132581683,-0.04599142,-0.010906935,0.4037127,-0.056396484,0.041748047,0.0,0.0,0.0,0.0,0.0,0.0,0.0,0.0,-2.5225735,0.0,0.0,nan,0.0,0.0,0.046628952,0.0,0.0,0.0,0.0,0.0,0.0,0.0,0.0,0.0
133178545,133076776,-0.054565907,0.0030517578,0.345648,-0.034179688,0.03262329,0.0,0.0,0.0,0.0,0.0,0.0,0.0,0.0,-2.0587463,0.0,0.0,nan,0.0,0.0,0.05485034,0.0,0.0,0.0,0.0,0.0,0.0,0.0,0.0,0.0
133683806,133581974,-0.01197958,-0.023360252,0.3210823,-0.049987793,0.041412354,0.0,0.0,0.0,0.0,0.0,0.0,0.0,0.0,-2.0416107,0.0,0.0,nan,0.0,0.0,0.05484605,0.0,0.0,0.0,0.0,0.0,0.0,0.0,0.0,0.0
134178564,134077067,-0.03789687,-0.014012337,0.2275899,-0.017456055,0.027648926,0.0,0.0,0.0,0.0,0.0,0.0,0.0,0.0,-1.4421005,0.0,0.0,nan,0.0,0.0,0.058478117,0.0,0.0,0.0,0.0,0.0,0.0,0.0,0.0,0.0
134683786,134582265,0.03023982,-0.050014734,0.20588899,-0.033203125,0.036468506,0.0,0.0,0.0,0.0,0.0,0.0,0.0,0.0,-1.8483448,0.0,0.0,nan,0.0,0.0,0.05320549,0.0,0.0,0.0,0.0,0.0,0.0,0.0,0.0,0.0
135178737,135077358,0.020458937,-0.02747035,0.27083632,-0.024230957,0.03640747,0.0,0.0,0.0,0.0,0.0,0.0,0.0,0.0,-1.5220776,0.0,0.0,nan,0.0,0.0,0.052660465,0.0,0.0,0.0,0.0,0.0,0.0,0.0,0.0,0.0
135684116,135582556,0.07728338,-0.00499928,0.23632172,-0.020996094,0.04434204,0.0,0.0,0.0,0.0,0.0,0.0,0.0,0.0,-1.8165874,0.0,0.0,nan,0.0,0.0,0.05696392,0.0,0.0,0.0,0.0,0.0,0.0,0.0,0.0,0.0
136179192,136077649,0.021062136,-0.0203017,0.1480166,-0.0064697266,0.03366089,0.0,0.0,0.0,0.0,0.0,0.0,0.0,0.0,-1.0586853,0.0,0.0,nan,0.0,0.0,0.051709175,0.0,0.0,0.0,0.0,0.0,0.0,0.0,0.0,0.0
136684454,136582847,0.014034271,-0.032947183,0.17192508,-0.01739502,0.045654297,0.0,0.0,0.0,0.0,0.0,0.0,0.0,0.0,-0.9288521,0.0,0.0,nan,0.0,0.0,0.057338238,0.0,0.0,0.0,0.0,0.0,0.0,0.0,0.0,0.0
137179429,137077941,0.07164478,-0.06262374,0.18259074,-0.0041503906,0.02960205,0.0,0.0,0.0,0.0,0.0,0.0,0.0,0.0,-0.854929,0.0,0.0,nan,0.0,0.0,0.04761195,0.0,0.0,0.0,0.0,0.0,0.0,0.0,0.0,0.0
137684624,137583138,-0.017470837,0.025786519,0.17145796,-0.029296875,0.036590576,0.0,0.0,0.0,0.0,0.0,0.0,0.0,0.0,-0.83374596,0.0,0.0,nan,0.0,0.0,0.051295042,0.0,0.0,0.0,0.0,0.0,0.0,0.0,0.0,0.0
138180620,138078232,0.09400892,-0.030821085,0.115947105,-0.0068359375,0.02154541,0.0,0.0,0.0,0.0,0.0,0.0,0.0,0.0,-0.7789593,0.0,0.0,nan,0.0,0.0,0.04241705,0.0,0.0,0.0,0.0,0.0,0.0,0.0,0.0,0.0
138684988,138583429,0.019292831,-0.012775183,0.12516943,-0.020385742,0.039245605,0.0,0.0,0.0,0.0,0.0,0.0,0.0,0.0,-0.8729286,0.0,0.0,nan,0.0,0.0,0.045806408,0.0,0.0,0.0,0.0,0.0,0.0,0.0,0.0,0.0
139180372,139078523,0.0118198395,0.0035735369,0.05835742,0.0056762695,0.030639648,0.0,0.0,0.0,0.0,0.0,0.0,0.0,0.0,-0.58031464,0.0,0.0,nan,0.0,0.0,0.03909421,0.0,0.0,0.0,0.0,0.0,0.0,0.0,0.0,0.0
139685200,139583721,0.022928238,-0.057014942,0.06785666,0.00018310547,0.038391113,0.0,0.0,0.0,0.0,0.0,0.0,0.0,0.0,-0.57237816,0.0,0.0,nan,0.0,0.0,0.026127815,0.0,0.0,0.0,0.0,0.0,0.0,0.0,0.0,0.0
140180191,140078815,0.048670292,-0.043798685,0.017184453,0.0068359375,0.03036499,0.0,0.0,0.0,0.0,0.0,0.0,0.0,0.0,-0.32635117,0.0,0.0,nan,0.0,0.0,0.058734655,0.0,0.0,0.0,0.0,0.0,0.0,0.0,0.0,0.0
140675368,140573910,0.06650281,-0.034665942,0.032950085,0.02154541,0.026763916,0.0,0.0,0.0,0.0,0.0,0.0,0.0,0.0,-0.6177788,0.0,0.0,nan,0.0,0.0,0.045513153,0.0,0.0,0.0,0.0,0.0,0.0,0.0,0.0,0.0
141180618,141079106,0.04477048,-0.067891,0.037402164,0.024719238,0.010314941,0.0,0.0,0.0,0.0,0.0,0.0,0.0,0.0,-0.5029316,0.0,0.0,nan,0.0,0.0,0.042937517,0.0,0.0,0.0,0.0,0.0,0.0,0.0,0.0,0.0
141675685,141574200,0.11506605,-0.081900835,-0.033051055,0.0390625,-0.0030822754,0.0,0.0,0.0,0.0,0.0,0.0,0.0,0.0,-0.22545624,0.0,0.0,nan,0.0,0.0,0.032975435,0.0,0.0,0.0,0.0,0.0,0.0,0.0,0.0,0.0
142180761,142079398,0.076355696,-0.0032497644,-0.023079991,0.023254395,0.012512207,0.0,0.0,0.0,0.0,0.0,0.0,0.0,0.0,-0.44412613,0.0,0.0,nan,0.0,0.0,0.030180454,0.0,0.0,0.0,0.0,0.0,0.0,0.0,0.0,0.0
142686085,142584596,0.096891165,-0.025084734,-0.09386572,0.023925781,0.0055236816,0.0,0.0,0.0,0.0,0.0,0.0,0.0,0.0,-0.08624649,0.0,0.0,nan,0.0,0.0,0.040268183,0.0,0.0,0.0,0.0,0.0,0.0,0.0,0.0,0.0
143181228,143079690,0.12168026,-0.0141432285,-0.00040386245,0.03314209,0.0015563965,0.0,0.0,0.0,0.0,0.0,0.0,0.0,0.0,-0.050304413,0.0,0.0,nan,0.0,0.0,0.021163225,0.0,0.0,0.0,0.0,0.0,0.0,0.0,0.0,0.0
143686714,143584887,0.10910821,-0.047231555,-0.047995828,0.052001953,-0.0050964355,0.0,0.0,0.0,0.0,0.0,0.0,0.0,0.0,0.2972145,0.0,0.0,nan,0.0,0.0,0.021700382,0.0,0.0,0.0,0.0,0.0,0.0,0.0,0.0,0.0
144181467,144079981,0.101136446,-0.033073902,0.034786474,0.035339355,0.0010070801,0.0,0.0,0.0,0.0,0.0,0.0,0.0,0.0,0.22678185,0.0,0.0,nan,0.0,0.0,0.021547556,0.0,0.0,0.0,0.0,0.0,0.0,0.0,0.0,0.0
144676612,144575075,0.04639983,-0.019585013,-0.02863755,0.038391113,-6.1035156e-05,0.0,0.0,0.0,0.0,0.0,0.0,0.0,0.0,-0.1901455,0.0,0.0,nan,0.0,0.0,0.030061483,0.0,0.0,0.0,0.0,0.0,0.0,0.0,0.0,0.0
145181787,145080273,0.044942617,-0.052781343,-0.011474735,0.026977539,0.020812988,0.0,0.0,0.0,0.0,0.0,0.0,0.0,0.0,-0.42813683,0.0,0.0,nan,0.0,0.0,0.032691956,0.0,0.0,0.0,0.0,0.0,0.0,0.0,0.0,0.0
145676911,145575369,0.018998623,0.017275572,-0.01274039,0.035339355,0.025146484,0.0,0.0,0.0,0.0,0.0,0.0,0.0,0.0,-0.079055786,0.0,0.0,nan,0.0,0.0,0.033813715,0.0,0.0,0.0,0.0,0.0,0.0,0.0,0.0,0.0
146182093,146080566,0.02287507,-0.05143124,0.0338662,0.03112793,0.03857422,0.0,0.0,0.0,0.0,0.0,0.0,0.0,0.0,0.009786606,0.0,0.0,nan,0.0,0.0,0.026778221,0.0,0.0,0.0,0.0,0.0,0.0,0.0,0.0,0.0
146677151,146575659,0.012441754,0.0033742785,-0.052059058,0.046569824,0.042785645,0.0,0.0,0.0,0.0,0.0,0.0,0.0,0.0,-0.098501205,0.0,0.0,nan,0.0,0.0,0.036408424,0.0,0.0,0.0,0.0,0.0,0.0,0.0,0.0,0.0
147182341,147080858,-0.0018776655,-0.029075742,-0.018193562,0.031921387,0.049865723,0.0,0.0,0.0,0.0,0.0,0.0,0.0,0.0,-0.05947113,0.0,0.0,nan,0.0,0.0,0.046783686,0.0,0.0,0.0,0.0,0.0,0.0,0.0,0.0,0.0
147677295,147575952,0.0022809505,-0.044612586,-0.029201465,0.026367188,0.041229248,0.0,0.0,0.0,0.0,0.0,0.0,0.0,0.0,-0.16092873,0.0,0.0,nan,0.0,0.0,0.042467594,0.0,0.0,0.0,0.0,0.0,0.0,0.0,0.0,0.0
148182628,148081150,0.023888469,-0.045306206,-0.100170255,0.022155762,0.04220581,0.0,0.0,0.0,0.0,0.0,0.0,0.0,0.0,-0.18245888,0.0,0.0,nan,0.0,0.0,0.03917432,0.0,0.0,0.0,0.0,0.0,0.0,0.0,0.0,0.0
148678018,148576244,-0.0033169985,-0.013574779,0.009138893,0.03753662,0.038726807,0.0,0.0,0.0,0.0,0.0,0.0,0.0,0.0,-0.18850708,0.0,0.0,nan,0.0,0.0,0.009997606,0.0,0.0,0.0,0.0,0.0,0.0,0.0,0.0,0.0
149183461,149081442,0.03030467,-0.073700786,-0.004230242,0.02166748,0.032592773,0.0,0.0,0.0,0.0,0.0,0.0,0.0,0.0,0.005952835,0.0,0.0,nan,0.0,0.0,-0.007864237,0.0,0.0,0.0,0.0,0.0,0.0,0.0,0.0,0.0
149678053,149576536,0.03181827,-0.04201138,-0.06294974,0.027648926,0.029846191,0.0,0.0,0.0,0.0,0.0,0.0,0.0,0.0,-0.016239166,0.0,0.0,nan,0.0,0.0,-0.027970076,0.0,0.0,0.0,0.0,0.0,0.0,0.0,0.0,0.0
150183310,150081735,0.04729855,0.0034787059,-0.07706267,0.022888184,0.030700684,0.0,0.0,0.0,0.0,0.0,0.0,0.0,0.0,-0.121234894,0.0,0.0,nan,0.0,0.0,-0.04235387,0.0,0.0,0.0,0.0,0.0,0.0,0.0,0.0,0.0
150678177,150576829,0.04060757,-0.07102889,-0.0052692853,0.016052246,0.024780273,0.0,0.0,0.0,0.0,0.0,0.0,0.0,0.0,-0.3132248,0.0,0.0,nan,0.0,0.0,-0.044560194,0.0,0.0,0.0,0.0,0.0,0.0,0.0,0.0,0.0
151183554,151082027,0.043329716,-0.03866422,-0.025687583,0.008544922,0.01965332,0.0,0.0,0.0,0.0,0.0,0.0,0.0,0.0,0.030511856,0.0,0.0,nan,0.0,0.0,-0.038547993,0.0,0.0,0.0,0.0,0.0,0.0,0.0,0.0,0.0
151678620,151577121,0.03849125,-0.03395033,-0.017825112,0.012023926,0.009552002,0.0,0.0,0.0,0.0,0.0,0.0,0.0,0.0,0.20524216,0.0,0.0,nan,0.0,0.0,-0.029607058,0.0,0.0,0.0,0.0,0.0,0.0,0.0,0.0,0.0
152183843,152082320,0.0024912357,-0.054056585,-0.0043191314,0.001953125,0.005065918,0.0,0.0,0.0,0.0,0.0,0.0,0.0,0.0,-0.12292862,0.0,0.0,nan,0.0,0.0,-0.025074244,0.0,0.0,0.0,0.0,0.0,0.0,0.0,0.0,0.0
152678756,152577414,-0.0124105215,-0.030412018,-0.024790864,-0.0033569336,-0.001159668,0.0,0.0,0.0,0.0,0.0,0.0,0.0,0.0,-0.109659195,0.0,0.0,nan,0.0,0.0,-0.017233372,0.0,0.0,0.0,0.0,0.0,0.0,0.0,0.0,0.0
153184100,153082612,-0.036337852,-0.010253072,-0.025426406,-0.012268066,-0.002960205,0.0,0.0,0.0,0.0,0.0,0.0,0.0,0.0,0.05398941,0.0,0.0,nan,0.0,0.0,-0.008255959,0.0,0.0,0.0,0.0,0.0,0.0,0.0,0.0,0.0
153679215,153577707,-0.002364874,-0.02662152,-0.06691849,-0.004760742,-0.013366699,0.0,0.0,0.0,0.0,0.0,0.0,0.0,0.0,-0.3736,0.0,0.0,nan,0.0,0.0,-0.0062305927,0.0,0.0,0.0,0.0,0.0,0.0,0.0,0.0,0.0
154184472,154082905,0.030915737,-0.008931607,0.011060336,-0.010864258,-0.0023498535,0.0,0.0,0.0,0.0,0.0,0.0,0.0,0.0,0.05675125,0.0,0.0,nan,0.0,0.0,-0.0033419132,0.0,0.0,0.0,0.0,0.0,0.0,0.0,0.0,0.0
154679873,154577999,-0.0018008947,0.007236302,0.006695493,-0.0044555664,-0.009887695,0.0,0.0,0.0,0.0,0.0,0.0,0.0,0.0,0.051086426,0.0,0.0,nan,0.0,0.0,0.0015928745,0.0,0.0,0.0,0.0,0.0,0.0,0.0,0.0,0.0
155184714,155083198,-0.034365833,-0.044768035,-0.056866318,-0.0087890625,-0.010681152,0.0,0.0,0.0,0.0,0.0,0.0,0.0,0.0,0.12967873,0.0,0.0,nan,0.0,0.0,0.012441635,0.0,0.0,0.0,0.0,0.0,0.0,0.0,0.0,0.0
155679775,155578293,0.6728677,-0.31234485,0.048765264,0.93048096,-0.43292236,0.0,0.0,0.0,0.0,0.0,0.0,0.0,0.0,0.14548683,0.0,0.0,nan,0.0,0.0,0.0146102905,0.0,0.0,0.0,0.0,0.0,0.0,0.0,0.0,0.0
156185070,156083491,0.5364231,-0.25190365,0.016072856,1.1459961,-0.4982605,0.0,0.0,0.0,0.0,0.0,0.0,0.0,0.0,0.053150177,0.0,0.0,nan,0.0,0.0,0.011577129,0.0,0.0,0.0,0.0,0.0,0.0,0.0,0.0,0.0
156680116,156578585,0.49081808,-0.23245873,0.066284575,1.3117065,-0.5581665,0.0,0.0,0.0,0.0,0.0,0.0,0.0,0.0,0.00062561035,0.0,0.0,nan,0.0,0.0,0.011246204,0.0,0.0,0.0,0.0,0.0,0.0,0.0,0.0,0.0
157185291,157083784,0.3634817,-0.128327,0.011365007,1.4146729,-0.590271,0.0,0.0,0.0,0.0,0.0,0.0,0.0,0.0,0.051431656,0.0,0.0,nan,0.0,0.0,0.007765293,0.0,0.0,0.0,0.0,0.0,0.0,0.0,0.0,0.0
157680460,157578879,0.33691165,-0.14819725,-0.045777623,1.4564819,-0.58895874,0.0,0.0,0.0,0.0,0.0,0.0,0.0,0.0,-0.08094597,0.0,0.0,nan,0.0,0.0,0.0043520927,0.0,0.0,0.0,0.0,0.0,0.0,0.0,0.0,0.0
158175466,158073974,0.20757209,-0.092515215,-0.046377007,1.4684448,-0.56573486,0.0,0.0,0.0,0.0,0.0,0.0,0.0,0.0,0.0056934357,0.0,0.0,nan,0.0,0.0,0.009315968,0.0,0.0,0.0,0.0,0.0,0.0,0.0,0.0,0.0
158680705,158579172,0.13166834,-0.024050854,0.07908824,1.4584961,-0.5317688,0.0,0.0,0.0,0.0,0.0,0.0,0.0,0.0,0.0651207,0.0,0.0,nan,0.0,0.0,0.008225679,0.0,0.0,0.0,0.0,0.0,0.0,0.0,0.0,0.0
159176616,159074266,0.037811592,-0.0063667484,0.047123052,1.4003906,-0.49664307,0.0,0.0,0.0,0.0,0.0,0.0,0.0,0.0,0.07580376,0.0,0.0,nan,0.0,0.0,0.0060281754,0.0,0.0,0.0,0.0,0.0,0.0,0.0,0.0,0.0
159681204,159579465,-0.020878594,0.0372867,0.09798724,1.3092041,-0.44665527,0.0,0.0,0.0,0.0,0.0,0.0,0.0,0.0,0.0023174286,0.0,0.0,nan,0.0,0.0,0.006760597,0.0,0.0,0.0,0.0,0.0,0.0,0.0,0.0,0.0
160186206,160084664,-0.023650866,0.043420076,-9.556394e-05,1.2258911,-0.40118408,0.0,0.0,0.0,0.0,0.0,0.0,0.0,0.0,0.0014629364,0.0,0.0,nan,0.0,0.0,0.00941658,0.0,0.0,0.0,0.0,0.0,0.0,0.0,0.0,0.0
160681283,160579759,0.027768012,0.0047989623,-0.0058546704,1.1524658,-0.3583374,0.0,0.0,0.0,0.0,0.0,0.0,0.0,0.0,-0.07339859,0.0,0.0,nan,0.0,0.0,0.01262331,0.0,0.0,0.0,0.0,0.0,0.0,0.0,0.0,0.0
161176465,161074853,-0.0037842975,0.0031459322,-0.059437986,1.0991211,-0.33792114,0.0,0.0,0.0,0.0,0.0,0.0,0.0,0.0,-0.24027061,0.0,0.0,nan,0.0,0.0,0.013283014,0.0,0.0,0.0,0.0,0.0,0.0,0.0,0.0,0.0
161681595,161580052,0.01892778,0.024569474,-0.024760665,1.052063,-0.302063,0.0,0.0,0.0,0.0,0.0,0.0,0.0,0.0,0.0938015,0.0,0.0,nan,0.0,0.0,0.014666319,0.0,0.0,0.0,0.0,0.0,0.0,0.0,0.0,0.0
162176689,162075147,-0.0056989156,0.005936657,-0.04044312,1.0101929,-0.27911377,0.0,0.0,0.0,0.0,0.0,0.0,0.0,0.0,0.17995453,0.0,0.0,nan,0.0,0.0,0.0140452385,0.0,0.0,0.0,0.0,0.0,0.0,0.0,0.0,0.0
162681868,162580346,0.044499874,0.018717196,-0.034118522,0.97229004,-0.24822998,0.0,0.0,0.0,0.0,0.0,0.0,0.0,0.0,-0.071481705,0.0,0.0,nan,0.0,0.0,0.015158415,0.0,0.0,0.0,0.0,0.0,0.0,0.0,0.0,0.0
163176961,163075440,-0.01073581,0.010195359,-0.04394335,0.93896484,-0.22857666,0.0,0.0,0.0,0.0,0.0,0.0,0.0,0.0,0.095659256,0.0,0.0,nan,0.0,0.0,0.0151388645,0.0,0.0,0.0,0.0,0.0,0.0,0.0,0.0,0.0
163682131,163580639,-0.012446578,0.009324228,0.025626333,0.89819336,-0.20098877,0.0,0.0,0.0,0.0,0.0,0.0,0.0,0.0,0.26182938,0.0,0.0,nan,0.0,0.0,0.014829636,0.0,0.0,0.0,0.0,0.0,0.0,0.0,0.0,0.0
164177497,164075734,-0.0046737506,-0.018293733,0.008224137,0.87091064,-0.1845398,0.0,0.0,0.0,0.0,0.0,0.0,0.0,0.0,0.011054993,0.0,0.0,nan,0.0,0.0,0.02022791,0.0,0.0,0.0,0.0,0.0,0.0,0.0,0.0,0.0
164683141,164580933,-0.029043535,0.0135105485,0.014226022,0.8470459,-0.1595459,0.0,0.0,0.0,0.0,0.0,0.0,0.0,0.0,-0.15809631,0.0,0.0,nan,0.0,0.0,0.012619495,0.0,0.0,0.0,0.0,0.0,0.0,0.0,0.0,0.0
165177366,165076028,0.007097186,0.027610384,0.02115849,0.8226929,-0.1456604,0.0,0.0,0.0,0.0,0.0,0.0,0.0,0.0,0.02114296,0.0,0.0,nan,0.0,0.0,0.011605024,0.0,0.0,0.0,0.0,0.0,0.0,0.0,0.0,0.0
165682706,165581227,0.008405789,-0.009676645,-0.0042069945,0.8062744,-0.12164307,0.0,0.0,0.0,0.0,0.0,0.0,0.0,0.0,0.057754517,0.0,0.0,nan,0.0,0.0,0.012868643,0.0,0.0,0.0,0.0,0.0,0.0,0.0,0.0,0.0
166177814,166076322,-0.028656254,-0.020158581,0.012025616,0.78845215,-0.100494385,0.0,0.0,0.0,0.0,0.0,0.0,0.0,0.0,-0.023036957,0.0,0.0,nan,0.0,0.0,0.012243032,0.0,0.0,0.0,0.0,0.0,0.0,0.0,0.0,0.0
166682862,166581521,0.010945462,0.02093926,0.069051154,0.77233887,-0.088012695,0.0,0.0,0.0,0.0,0.0,0.0,0.0,0.0,0.0056324005,0.0,0.0,nan,0.0,0.0,0.012029648,0.0,0.0,0.0,0.0,0.0,0.0,0.0,0.0,0.0
167178210,167076616,-0.02714884,-0.012250645,0.06986466,0.74450684,-0.069122314,0.0,0.0,0.0,0.0,0.0,0.0,0.0,0.0,-0.19179726,0.0,0.0,nan,0.0,0.0,0.011105299,0.0,0.0,0.0,0.0,0.0,0.0,0.0,0.0,0.0
167683310,167581815,0.008873452,0.020110236,-0.016698109,0.7216797,-0.056610107,0.0,0.0,0.0,0.0,0.0,0.0,0.0,0.0,-0.058124542,0.0,0.0,nan,0.0,0.0,0.0035760403,0.0,0.0,0.0,0.0,0.0,0.0,0.0,0.0,0.0
168178395,168076910,-0.007759004,0.04554082,0.021526074,0.71069336,-0.045776367,0.0,0.0,0.0,0.0,0.0,0.0,0.0,0.0,-0.107385635,0.0,0.0,nan,0.0,0.0,0.0062110424,0.0,0.0,0.0,0.0,0.0,0.0,0.0,0.0,0.0
168683445,168582111,0.01402655,-0.0076885265,-0.0048741535,0.6883545,-0.035736084,0.0,0.0,0.0,0.0,0.0,0.0,0.0,0.0,0.13368225,0.0,0.0,nan,0.0,0.0,0.003525257,0.0,0.0,0.0,0.0,0.0,0.0,0.0,0.0,0.0
169178814,169077204,-0.0033630193,-0.0149748195,-0.07445993,0.67871094,-0.026885986,0.0,0.0,0.0,0.0,0.0,0.0,0.0,0.0,0.085954666,0.0,0.0,nan,0.0,0.0,0.004567623,0.0,0.0,0.0,0.0,0.0,0.0,0.0,0.0,0.0
169683937,169582403,-0.014404864,-0.019877851,-0.013511931,0.65875244,-0.025817871,0.0,0.0,0.0,0.0,0.0,0.0,0.0,0.0,0.09691429,0.0,0.0,nan,0.0,0.0,0.0024781227,0.0,0.0,0.0,0.0,0.0,0.0,0.0,0.0,0.0
170179414,170077498,0.0005969559,0.0040236427,0.0021837044,0.6395874,-0.034942627,0.0,0.0,0.0,0.0,0.0,0.0,0.0,0.0,-0.33522606,0.0,0.0,nan,0.0,0.0,0.004264593,0.0,0.0,0.0,0.0,0.0,0.0,0.0,0.0,0.0
170684176,170582697,0.0063839494,0.029989326,0.05370949,0.6230469,-0.033477783,0.0,0.0,0.0,0.0,0.0,0.0,0.0,0.0,-0.084970474,0.0,0.0,nan,0.0,0.0,0.0027318,0.0,0.0,0.0,0.0,0.0,0.0,0.0,0.0,0.0
171179284,171077793,-0.0047544707,-0.0061993115,0.015555016,0.6066284,-0.040039062,0.0,0.0,0.0,0.0,0.0,0.0,0.0,0.0,0.00037765503,0.0,0.0,nan,0.0,0.0,0.0039510727,0.0,0.0,0.0,0.0,0.0,0.0,0.0,0.0,0.0
171684500,171582992,0.016563969,0.0041114916,0.007797433,0.5796509,-0.048217773,0.0,0.0,0.0,0.0,0.0,0.0,0.0,0.0,-0.3353958,0.0,0.0,nan,0.0,0.0,-1.5258789e-05,0.0,0.0,0.0,0.0,0.0,0.0,0.0,0.0,0.0
172179628,172078087,0.008365146,-0.030145701,-0.06626951,0.56518555,-0.05545044,0.0,0.0,0.0,0.0,0.0,0.0,0.0,0.0,-0.0016956329,0.0,0.0,nan,0.0,0.0,0.0004067421,0.0,0.0,0.0,0.0,0.0,0.0,0.0,0.0,0.0
172684831,172583286,-0.037464146,0.023141643,-0.035018224,0.5397949,-0.06317139,0.0,0.0,0.0,0.0,0.0,0.0,0.0,0.0,0.07980728,0.0,0.0,nan,0.0,0.0,-0.00016617775,0.0,0.0,0.0,0.0,0.0,0.0,0.0,0.0,0.0
173179872,173078382,0.001090901,0.022722801,0.05811483,0.5148926,-0.06213379,0.0,0.0,0.0,0.0,0.0,0.0,0.0,0.0,-0.0022201538,0.0,0.0,nan,0.0,0.0,-0.0013077259,0.0,0.0,0.0,0.0,0.0,0.0,0.0,0.0,0.0
173685090,173583581,0.020580024,0.009062031,-0.0057940725,0.5028076,-0.06036377,0.0,0.0,0.0,0.0,0.0,0.0,0.0,0.0,-0.08755493,0.0,0.0,nan,0.0,0.0,-0.0014798641,0.0,0.0,0.0,0.0,0.0,0.0,0.0,0.0,0.0
174180234,174078676,-0.0029494644,0.035982404,-0.03209294,0.4909668,-0.058898926,0.0,0.0,0.0,0.0,0.0,0.0,0.0,0.0,-0.0029277802,0.0,0.0,nan,0.0,0.0,-0.004126787,0.0,0.0,0.0,0.0,0.0,0.0,0.0,0.0,0.0
174685775,174583875,0.027740926,0.0035803353,0.061478775,0.4798584,-0.048980713,0.0,0.0,0.0,0.0,0.0,0.0,0.0,0.0,0.07732773,0.0,0.0,nan,0.0,0.0,-0.0053691864,0.0,0.0,0.0,0.0,0.0,0.0,0.0,0.0,0.0
175180465,175078971,0.009600194,-0.009869192,-0.011527933,0.47973633,-0.04837036,0.0,0.0,0.0,0.0,0.0,0.0,0.0,0.0,0.030189514,0.0,0.0,nan,0.0,0.0,-0.0043661594,0.0,0.0,0.0,0.0,0.0,0.0,0.0,0.0,0.0
175675605,175574066,-0.017722268,-0.007825209,-0.01932367,0.45812988,-0.056152344,0.0,0.0,0.0,0.0,0.0,0.0,0.0,0.0,-0.07465935,0.0,0.0,nan,0.0,0.0,-0.0047063828,0.0,0.0,0.0,0.0,0.0,0.0,0.0,0.0,0.0
176180773,176079267,-0.0056392774,0.01452259,-0.014992264,0.4486084,-0.046051025,0.0,0.0,0.0,0.0,0.0,0.0,0.0,0.0,0.100717545,0.0,0.0,nan,0.0,0.0,-0.005888462,0.0,0.0,0.0,0.0,0.0,0.0,0.0,0.0,0.0
176675938,176574361,-0.02721915,0.011962172,0.023041287,0.44018555,-0.044158936,0.0,0.0,0.0,0.0,0.0,0.0,0.0,0.0,0.0071907043,0.0,0.0,nan,0.0,0.0,-0.00516963,0.0,0.0,0.0,0.0,0.0,0.0,0.0,0.0,0.0
