timestamp,timestamp_sample,states[0],states[1],states[2],states[3],states[4],states[5],states[6],states[7],states[8],states[9],states[10],states[11],states[12],states[13],states[14],states[15],states[16],states[17],states[18],states[19],states[20],states[21],states[22],states[23],covariances[0],covariances[1],covariances[2],covariances[3],covariances[4],covariances[5],covariances[6],covariances[7],covariances[8],covariances[9],covariances[10],covariances[11],covariances[12],covariances[13],covariances[14],covariances[15],covariances[16],covariances[17],covariances[18],covariances[19],covariances[20],covariances[21],covariances[22],covariances[23],n_states
17660424,17558935,0.46602952,0.00592823,-0.01963858,0.8845314,0.00042619868,-0.0028416943,-0.00047163593,-0.06427147,-0.0065529784,-0.9411318,1.620294e-05,6.2651074e-05,5.4353827e-06,-7.437322e-05,9.805291e-06,1.3936821e-05,0.180246,-0.03250009,0.37225235,0.0,0.0,0.0,0.0,0.0,0.0003687546,3.5373305e-05,3.5178044e-05,0.00010303058,0.00021947607,0.0002194714,0.00021339263,0.008660936,0.008660936,0.039286945,3.4439646e-11,3.4546817e-11,3.0173333e-09,1.2895838e-06,1.2894478e-06,5.0001088e-08,0.0,0.0,0.0,0.0,0.0,0.0,0.0,0.0,24
18660715,18559219,0.4660034,0.0061687487,-0.01929979,0.88455087,0.0008515149,-0.0016213516,-0.00018960165,-0.081105925,-0.0069334107,-0.94143474,1.6320526e-05,6.2775194e-05,5.5834735e-06,-7.287906e-05,8.783279e-06,1.34953025e-05,0.180246,-0.03250009,0.37225235,0.0,0.0,0.0,0.0,0.0,0.0003423644,3.5251393e-05,3.5070974e-05,9.56078e-05,0.00020435477,0.00020435936,0.00019941074,0.0067851706,0.0067851706,0.036922865,3.151042e-11,3.1596312e-11,2.4461202e-09,1.2892101e-06,1.2890711e-06,5.0001116e-08,0.0,0.0,0.0,0.0,0.0,0.0,0.0,0.0,24
19660972,19559502,0.465762,0.0060901064,-0.019526763,0.8846736,0.00029076845,-0.0006869857,0.0002197407,-0.096012816,-0.007942011,-0.94264233,1.6342396e-05,6.288304e-05,5.7058423e-06,-7.171546e-05,8.727908e-06,1.3847976e-05,0.180246,-0.03250009,0.37225235,0.0,0.0,0.0,0.0,0.0,0.00032550583,3.5164132e-05,3.4982582e-05,9.075523e-05,0.00018956557,0.00018957007,0.00018552292,0.005578492,0.0055784923,0.0348276,2.923598e-11,2.9298893e-11,2.0384525e-09,1.2889097e-06,1.2887668e-06,5.0001127e-08,0.0,0.0,0.0,0.0,0.0,0.0,0.0,0.0,24
20661267,20559786,0.46552825,0.005964688,-0.019954799,0.884788,0.0014641341,-0.000604693,0.00010809375,-0.10915345,-0.010769565,-0.94907916,1.6434551e-05,6.300795e-05,5.7455477e-06,-7.0355214e-05,8.093972e-06,1.4026879e-05,0.180246,-0.03250009,0.37225235,0.0,0.0,0.0,0.0,0.0,0.0003048038,3.508755e-05,3.4911453e-05,8.4877676e-05,0.00017504363,0.00017505078,0.00017172335,0.00473728,0.0047372803,0.03295777,2.7399888e-11,2.744471e-11,1.694841e-09,1.2886571e-06,1.2885145e-06,5.0001113e-08,0.0,0.0,0.0,0.0,0.0,0.0,0.0,0.0,24
21661594,21560069,0.4654652,0.0060522035,-0.01967604,0.8848267,0.00083804934,-0.0012852629,0.000101771315,-0.12080087,-0.014487906,-0.9516999,1.650207e-05,6.305017e-05,5.887691e-06,-6.981156e-05,7.604391e-06,1.3835308e-05,0.180246,-0.03250009,0.37225235,0.0,0.0,0.0,0.0,0.0,0.00028679532,3.5011046e-05,3.4852394e-05,7.981233e-05,0.00016073941,0.0001607419,0.00015802275,0.0041175005,0.0041175005,0.03127891,2.5906322e-11,2.5944275e-11,1.4259326e-09,1.2884498e-06,1.2883069e-06,5.0001113e-08,0.0,0.0,0.0,0.0,0.0,0.0,0.0,0.0,24
22661840,22560352,0.4655082,0.0060417755,-0.019727781,0.88480306,0.00080588425,-0.0004797185,4.7915415e-05,-0.13101014,-0.01995292,-0.95471203,1.650651e-05,6.3142266e-05,6.0378316e-06,-6.8968555e-05,7.771345e-06,1.2552236e-05,0.180246,-0.03250009,0.37225235,0.0,0.0,0.0,0.0,0.0,0.00027472014,3.4950725e-05,3.4799632e-05,7.644692e-05,0.00014660819,0.00014661148,0.0001444121,0.0036420089,0.0036420086,0.029835753,2.4696085e-11,2.4723784e-11,1.2241842e-09,1.2882766e-06,1.2881361e-06,5.0001017e-08,0.0,0.0,0.0,0.0,0.0,0.0,0.0,0.0,24
23662363,23560635,0.4648787,0.0061095967,-0.019546729,0.8851375,0.0010635841,-8.991928e-05,-4.123552e-05,-0.13850978,-0.026968185,-0.9570933,1.6460734e-05,6.323728e-05,4.834856e-06,-6.876824e-05,8.2214065e-06,1.2334142e-05,0.180246,-0.03250009,0.37225235,0.0,0.0,0.0,0.0,0.0,0.00025957255,3.4895187e-05,3.47541e-05,7.226866e-05,0.0001326558,0.0001326589,0.00013089963,0.0032657743,0.003265774,0.028454041,2.3679964e-11,2.3702176e-11,1.0471766e-09,1.2881414e-06,1.2880033e-06,5.000093e-08,0.0,0.0,0.0,0.0,0.0,0.0,0.0,0.0,24
24662414,24560919,0.45993328,0.0064258687,-0.019815419,0.88770914,0.0012295737,-0.00072552403,0.0003556359,-0.14420809,-0.033756185,-0.9578883,1.6314294e-05,6.338061e-05,-2.6134533e-06,-6.812793e-05,6.348488e-06,1.0288239e-05,0.180246,-0.03250009,0.37225235,0.0,0.0,0.0,0.0,0.0,0.00024973118,3.4848494e-05,3.4708693e-05,6.924088e-05,0.00011886004,0.00011886271,0.00011748043,0.0029607401,0.00296074,0.027195023,2.2835789e-11,2.2865e-11,9.125126e-10,1.2878661e-06,1.2877341e-06,5.0000843e-08,0.0,0.0,0.0,0.0,0.0,0.0,0.0,0.0,24
25662669,25561203,0.45526028,0.005797482,-0.0200742,0.89011323,0.00888172,-0.005755658,-0.00057822495,-0.15090452,-0.03989151,-0.9578414,1.6184473e-05,6.2536994e-05,-8.232437e-06,-7.633761e-05,-1.33282965e-05,7.965463e-06,0.180246,-0.03250009,0.37225235,0.0,0.0,0.0,0.0,0.0,0.0002374589,3.4786735e-05,3.4644578e-05,6.5230066e-05,0.000105281106,0.00010533056,0.0001041749,0.0027085126,0.0027085114,0.026043065,2.207985e-11,2.2154244e-11,7.9215556e-10,1.2870166e-06,1.2870156e-06,5.0000754e-08,0.0,0.0,0.0,0.0,0.0,0.0,0.0,0.0,24
26663129,26561484,0.45384687,0.0064510773,-0.020735227,0.89081514,-0.002552689,0.0031677382,-0.0004704158,-0.15583621,-0.04613733,-0.95952666,1.6091042e-05,6.402156e-05,-9.065149e-06,-6.62106e-05,2.1336808e-05,1.6939994e-05,0.180246,-0.03250009,0.37225235,0.0,0.0,0.0,0.0,0.0,0.0002251161,3.4721877e-05,3.459501e-05,6.1383216e-05,9.174284e-05,9.17396e-05,9.0924754e-05,0.0024965275,0.0024965263,0.02498508,2.1543139e-11,2.1551008e-11,6.898827e-10,1.2849131e-06,1.2862188e-06,5.0000654e-08,0.0,0.0,0.0,0.0,0.0,0.0,0.0,0.0,24
27663228,27561766,0.4527103,0.0070211776,-0.02040226,0.8913966,-0.0016818497,0.0001796459,3.1052386e-05,-0.15958576,-0.052490838,-0.960383,1.6161845e-05,6.425706e-05,-9.555081e-06,-6.315485e-05,2.4330886e-05,2.0166044e-05,0.180246,-0.03250009,0.37225235,0.0,0.0,0.0,0.0,0.0,0.00021544955,3.467318e-05,3.455729e-05,5.8319485e-05,7.836913e-05,7.837328e-05,7.778792e-05,0.0023159236,0.002315922,0.024057196,2.104385e-11,2.1047651e-11,6.078585e-10,1.284215e-06,1.285692e-06,5.0000562e-08,0.0,0.0,0.0,0.0,0.0,0.0,0.0,0.0,24
28663592,28562049,0.45172328,0.007212605,-0.020236863,0.8918995,-0.0017493205,-0.0008591188,0.00012851573,-0.16184726,-0.059086017,-0.95874727,1.6134903e-05,6.422427e-05,-9.893693e-06,-6.369378e-05,2.3844488e-05,2.2293372e-05,0.180246,-0.03250009,0.37225235,0.0,0.0,0.0,0.0,0.0,0.00020680694,3.4635726e-05,3.452357e-05,5.559157e-05,6.514944e-05,6.515269e-05,6.475232e-05,0.0021602523,0.0021602507,0.023152255,2.0607937e-11,2.061367e-11,5.3913524e-10,1.2838583e-06,1.2853725e-06,5.000047e-08,0.0,0.0,0.0,0.0,0.0,0.0,0.0,0.0,24
29664028,29562332,0.45087895,0.007470761,-0.019812522,0.89233404,-0.0029350624,-0.0007817134,-0.00014639064,-0.16177212,-0.065796636,-0.9594472,1.6140828e-05,6.428772e-05,-1.0178997e-05,-6.311836e-05,2.4334404e-05,2.4447903e-05,0.180246,-0.03250009,0.37225235,0.0,0.0,0.0,0.0,0.0,0.0002011566,3.460303e-05,3.449585e-05,5.3738124e-05,5.206454e-05,5.2073203e-05,5.18127e-05,0.0020247255,0.002024724,0.022313239,2.0241774e-11,2.0244716e-11,4.847569e-10,1.283661e-06,1.2851742e-06,5.0000377e-08,0.0,0.0,0.0,0.0,0.0,0.0,0.0,0.0,24
30664088,30562614,0.44992086,0.0073759244,-0.020147795,0.89281064,-0.0032495023,-0.0018045894,-0.00076543365,-0.16162938,-0.07231093,-0.9604003,1.6038768e-05,6.44032e-05,-1.0165878e-05,-6.321593e-05,2.5721354e-05,2.5171394e-05,0.180246,-0.03250009,0.37225235,0.0,0.0,0.0,0.0,0.0,0.00019374373,3.457749e-05,3.446723e-05,5.135563e-05,3.9113067e-05,3.9120972e-05,3.89682e-05,0.0019057005,0.0019056982,0.021533214,1.992492e-11,1.9919195e-11,4.3428805e-10,1.2835072e-06,1.2850232e-06,5.0000285e-08,0.0,0.0,0.0,0.0,0.0,0.0,0.0,0.0,24
31664419,31562897,0.44909477,0.0070772218,-0.020387318,0.8932236,8.2401224e-05,0.00031057376,-0.00014232808,-0.16044594,-0.07775989,-0.9609106,1.6248037e-05,6.438198e-05,-1.0136976e-05,-6.179495e-05,2.437495e-05,2.3744313e-05,0.180246,-0.03250009,0.37225235,0.0,0.0,0.0,0.0,0.0,0.00018873678,3.4553763e-05,3.4438075e-05,4.9673967e-05,2.6279395e-05,2.6279426e-05,2.621582e-05,0.0018003667,0.0018003666,0.020806186,1.9649185e-11,1.9649794e-11,3.936352e-10,1.2833883e-06,1.2848533e-06,5.000019e-08,0.0,0.0,0.0,0.0,0.0,0.0,0.0,0.0,24
32664655,32563179,0.4484977,0.006458386,-0.021911183,0.89349204,0.0004109514,3.412106e-05,1.6265347e-05,-0.15812765,-0.08226465,-0.96139944,1.6211008e-05,6.440186e-05,-9.916602e-06,-6.201107e-05,2.471265e-05,2.3415672e-05,0.180246,-0.03250009,0.37225235,0.0,0.0,0.0,0.0,0.0,0.00018206389,3.4542045e-05,3.441344e-05,4.7617028e-05,1.3577098e-05,1.3577289e-05,1.356032e-05,0.001706516,0.0017065157,0.020160059,1.9409052e-11,1.9406294e-11,3.5547806e-10,1.2833151e-06,1.284708e-06,5.0000093e-08,0.0,0.0,0.0,0.0,0.0,0.0,0.0,0.0,24
33665079,33563461,0.44829443,0.0064009707,-0.021684445,0.89360005,-9.358502e-06,7.38207e-07,2.2427002e-06,-0.15629165,-0.08637781,-0.96056825,1.619959e-05,6.4439024e-05,-9.6506255e-06,-6.19527e-05,2.535731e-05,2.4357989e-05,0.180246,-0.03250009,0.37225235,0.0,0.0,0.0,0.0,0.0,0.0001758065,3.4513734e-05,3.4396246e-05,4.5785695e-05,1e-06,1e-06,1e-06,0.00162239,0.0016223894,0.019521963,1.9199413e-11,1.919563e-11,3.2236563e-10,1.2832531e-06,1.2845416e-06,5e-08,0.0,0.0,0.0,0.0,0.0,0.0,0.0,0.0,24
34665336,34563744,0.44721746,0.0073877256,-0.01969007,0.894178,0.0019796456,0.0043811486,-0.0007492981,-0.15425569,-0.09070081,-0.96204185,1.6265098e-05,6.462806e-05,-9.969238e-06,-6.127272e-05,2.5504069e-05,2.5261132e-05,0.180246,-0.03250009,0.37225235,0.0,0.0,0.0,0.0,0.0,0.00017162775,3.464225e-05,3.454901e-05,4.44216e-05,0.00026166893,0.00026166096,0.0002557947,0.0015485657,0.0015485652,0.018925298,1.925708e-11,1.925219e-11,2.9537062e-10,1.2832278e-06,1.2845046e-06,5.000094e-08,0.0,0.0,0.0,0.0,0.0,0.0,0.0,0.0,24
35665494,35564026,0.43963996,0.004550683,-0.019273398,0.89795583,-0.016624423,0.026832651,-0.0047128517,-0.15501298,-0.09225701,-0.96238023,1.6103011e-05,6.191167e-05,-1.4420806e-05,-7.39644e-05,-1.6606731e-05,2.9473558e-05,0.180246,-0.03250009,0.37225235,0.0,0.0,0.0,0.0,0.0,0.00016635546,3.4561795e-05,3.4500663e-05,4.2108226e-05,0.00024738093,0.00024709676,0.00024183857,0.0014794552,0.0014794599,0.01836206,1.9034567e-11,1.9089381e-11,2.6950964e-10,1.2806853e-06,1.2842333e-06,5.000107e-08,0.0,0.0,0.0,0.0,0.0,0.0,0.0,0.0,24
36665832,36564309,0.41765887,0.0029220092,-0.023260873,0.9083015,-0.44719929,0.4652708,0.010455444,-0.30752268,0.05817773,-0.9559585,1.5727492e-05,6.0188027e-05,-2.794103e-05,-8.012024e-05,-9.460184e-05,-9.697732e-06,0.180246,-0.03250009,0.37225235,0.0,0.0,0.0,0.0,0.0,0.0001610843,3.4933273e-05,3.4903227e-05,3.861372e-05,0.0015076122,0.0014768974,0.0012918888,0.0016628472,0.0016610295,0.018058933,1.9531248e-11,1.9619084e-11,2.4545668e-10,1.2768633e-06,1.2833817e-06,5.0000637e-08,0.0,0.0,0.0,0.0,0.0,0.0,0.0,0.0,24
37666116,37564591,0.41726094,-0.021359557,-0.028473662,0.90808946,-0.4183582,0.676136,-0.12067634,-0.25642395,0.1941992,-1.0259002,2.079937e-05,3.557919e-05,-2.5506677e-05,0.00028113692,-0.0025236348,-7.028953e-05,0.180246,-0.03250009,0.37225235,0.0,0.0,0.0,0.0,0.0,0.000114194554,3.1865904e-05,3.4582055e-05,2.6485555e-05,0.00096942484,0.0010878518,0.00090070046,0.0015976918,0.0016922738,0.01760964,1.9362373e-11,1.9349166e-11,1.8468886e-10,1.1676874e-06,1.268784e-06,5.0000956e-08,0.0,0.0,0.0,0.0,0.0,0.0,0.0,0.0,24
38666366,38564874,0.39940056,-0.020518346,-0.027823815,0.91612446,-1.3454664,1.6261905,-0.17777987,-1.1884588,1.36974,-1.1327921,2.1128159e-05,3.627638e-05,-3.8733764e-05,0.00046177048,-0.002489591,-9.585084e-05,0.180246,-0.03250009,0.37225235,0.0,0.0,0.0,0.0,0.0,0.00011614784,3.242279e-05,3.543607e-05,2.6100739e-05,0.0044710576,0.004839122,0.0034222377,0.0042592008,0.0047999374,0.019316182,2.0382066e-11,2.0367836e-11,1.7635098e-10,1.1574257e-06,1.2679322e-06,5.000028e-08,0.0,0.0,0.0,0.0,0.0,0.0,0.0,0.0,24
39666620,39565156,0.38315073,-0.021697639,-0.030507661,0.9229269,-2.1007233,2.4407911,-0.17787935,-2.9790506,3.4018304,-1.2451274,2.147378e-05,3.6797137e-05,-5.126524e-05,0.00077761663,-0.0024146005,-0.00016422899,0.180246,-0.03250009,0.37225235,0.0,0.0,0.0,0.0,0.0,0.000116965086,3.2461034e-05,3.6393227e-05,2.5569305e-05,0.010694388,0.011312992,0.0061731082,0.01884088,0.020772861,0.027166214,2.1401974e-11,2.1383654e-11,1.6763714e-10,1.1267264e-06,1.2652932e-06,5.0000175e-08,0.0,0.0,0.0,0.0,0.0,0.0,0.0,0.0,24
40666913,40565439,0.3697361,-0.022095645,-0.032502644,0.9283052,-2.6337051,3.1124945,-0.15588583,-5.44732,6.1249576,-1.262107,2.1729047e-05,3.731834e-05,-6.205981e-05,0.0011833183,-0.002306762,-0.0002733236,0.180246,-0.03250009,0.37225235,0.0,0.0,0.0,0.0,0.0,0.00011742789,3.226241e-05,3.7438294e-05,2.5096435e-05,0.020275189,0.020934278,0.008037898,0.062403433,0.06712954,0.041638367,2.242299e-11,2.2396444e-11,1.5932906e-10,1.0865467e-06,1.2616175e-06,5.000007e-08,0.0,0.0,0.0,0.0,0.0,0.0,0.0,0.0,24
41667297,41565722,0.35923994,-0.018433206,-0.029078426,0.93261,-2.8982656,3.665541,-0.13187958,-8.327747,9.472693,-1.2187306,2.1919495e-05,3.7727765e-05,-7.010288e-05,0.001494851,-0.0022252437,-0.0003710076,0.180246,-0.03250009,0.37225235,0.0,0.0,0.0,0.0,0.0,0.00011849439,3.2323645e-05,3.8527076e-05,2.4736411e-05,0.034092348,0.034413468,0.008781397,0.162327,0.17050989,0.05897527,2.3446788e-11,2.3409283e-11,1.5206933e-10,1.0523612e-06,1.258774e-06,5e-08,0.0,0.0,0.0,0.0,0.0,0.0,0.0,0.0,24
42657357,42555900,0.3535288,-0.036441207,-0.019678425,0.9345065,-2.4072297,3.5399973,-0.6238395,-11.10687,13.119044,-1.4122266,2.1951866e-05,3.7846552e-05,-7.196652e-05,0.0016187126,-0.002191824,-0.00041107545,0.180246,-0.03250009,0.37225235,0.0,0.0,0.0,0.0,0.0,0.00011850466,3.298217e-05,4.0028277e-05,2.388908e-05,0.052740198,0.05289798,0.008687948,0.3547232,0.3664344,0.07523948,2.4461535e-11,2.4415714e-11,1.4458358e-10,1.0343371e-06,1.2572805e-06,5.000023e-08,0.0,0.0,0.0,0.0,0.0,0.0,0.0,0.0,24
43667635,43566287,0.37689304,-0.05504815,-0.0023740705,0.92461663,0.0519946,-0.08520272,0.034136675,-7.4987106,7.183287,-0.8264993,1.2775118e-05,1.876932e-05,-5.0540388e-05,0.0009534547,-0.003423089,-0.0009907035,0.180246,-0.03250009,0.37225235,0.0,0.0,0.0,0.0,0.0,9.1300004e-05,2.6663958e-05,3.2990007e-05,1.7662021e-05,6.678599e-05,7.158005e-05,6.490729e-05,0.054635637,0.058746126,0.036779936,1.9406985e-11,1.957631e-11,1.186292e-10,9.724557e-07,1.2092198e-06,5.0000285e-08,0.0,0.0,0.0,0.0,0.0,0.0,0.0,0.0,24
44667916,44566570,0.39301944,-0.027006345,-0.01934095,0.91893005,0.013823031,-0.017660059,0.012646713,-6.061902,5.990021,-0.7518367,1.7482334e-05,5.9867e-05,-3.1340674e-05,0.00015618437,-0.0040415493,-0.00047150685,0.180246,-0.03250009,0.37225235,0.0,0.0,0.0,0.0,0.0,6.924826e-05,2.570955e-05,3.2529995e-05,1.3075423e-05,5.215587e-05,5.214217e-05,5.1813888e-05,0.04453805,0.047993,0.03429591,1.904616e-11,1.9118988e-11,1.0049872e-10,9.128625e-07,1.2004568e-06,5.0000185e-08,0.0,0.0,0.0,0.0,0.0,0.0,0.0,0.0,24
45668195,45566852,0.38669947,-0.011637844,-0.023321005,0.92183745,0.007982906,-0.00645136,0.0021818585,-5.611072,5.6865716,-0.74821645,1.5394202e-05,7.753531e-05,-2.900019e-05,0.00025431265,-0.0040415465,-0.00015756785,0.180246,-0.03250009,0.37225235,0.0,0.0,0.0,0.0,0.0,7.084759e-05,2.5324991e-05,3.233221e-05,1.2677771e-05,3.9126087e-05,3.91257e-05,3.896727e-05,0.04261433,0.04583571,0.032343846,1.8878383e-11,1.885378e-11,9.794139e-11,8.9268343e-07,1.1967461e-06,5.0000093e-08,0.0,0.0,0.0,0.0,0.0,0.0,0.0,0.0,24
46658384,46557031,0.39247346,-0.008526371,-0.025882527,0.9193595,-0.0006036738,-0.004680608,-0.00043778794,-5.523977,5.503775,-0.79683703,2.419556e-05,8.6289096e-05,-1.9665446e-05,0.00013837704,-0.0040415474,-0.00020027111,0.180246,-0.03250009,0.37225235,0.0,0.0,0.0,0.0,0.0,7.132734e-05,2.507428e-05,3.1817246e-05,1.2522603e-05,1.3580452e-05,1.3580334e-05,1.3560909e-05,0.041497756,0.045200627,0.030759625,1.8701422e-11,1.8887053e-11,9.440733e-11,8.8439685e-07,1.1886187e-06,5.0000097e-08,0.0,0.0,0.0,0.0,0.0,0.0,0.0,0.0,24
47658774,47557314,0.39813644,-0.008593989,-0.031378545,0.9167491,-7.213094e-05,2.5860854e-05,-0.00010192642,-5.5129943,5.4227037,-0.853016,2.6637243e-05,9.078628e-05,-2.0394418e-05,2.64001e-05,-0.004020537,-0.00024414275,0.180246,-0.03250009,0.37225235,0.0,0.0,0.0,0.0,0.0,7.2880786e-05,2.480563e-05,3.1632528e-05,1.3346523e-05,1e-06,1e-06,1e-06,0.04115718,0.04482989,0.02927308,1.8495807e-11,1.8787121e-11,9.235631e-11,8.782133e-07,1.1846194e-06,5e-08,0.0,0.0,0.0,0.0,0.0,0.0,0.0,0.0,24
48669135,48567701,0.4012356,-0.006024514,-0.037400812,0.91519123,-9.467785e-06,0.00023694092,2.1267504e-05,-5.54491,5.3972726,-0.9052783,2.4554665e-05,8.939863e-05,-2.5392039e-05,8.219278e-05,-0.0039249705,-9.40873e-05,0.180246,-0.03250009,0.37225235,0.0,0.0,0.0,0.0,0.0,7.298629e-05,2.4636089e-05,3.1491403e-05,1.4030246e-05,1e-06,1e-06,1e-06,0.04099194,0.044471905,0.027931506,1.8268803e-11,1.8587708e-11,8.9526275e-11,8.705933e-07,1.1755028e-06,5e-08,0.0,0.0,0.0,0.0,0.0,0.0,0.0,0.0,24
49659295,49557880,0.39730677,-0.0040588016,-0.033508096,0.9170649,0.066998236,0.03579982,-0.00064384117,-5.551087,5.411798,-0.9454894,1.6769702e-05,8.494039e-05,-3.0125022e-05,0.0003806639,-0.0034604287,-5.2603515e-05,0.180246,-0.03250009,0.37225235,0.0,0.0,0.0,0.0,0.0,7.177269e-05,2.449271e-05,3.1180927e-05,1.381683e-05,0.0002473566,0.0002481203,0.00024162524,0.040822633,0.044000383,0.026708428,1.830367e-11,1.851086e-11,8.581307e-11,8.6385376e-07,1.1625211e-06,5.0000573e-08,0.0,0.0,0.0,0.0,0.0,0.0,0.0,0.0,24
50659890,50558163,0.38519743,-0.0011325941,-0.027782246,0.92241526,0.013530942,-0.035592876,-0.01003944,-5.5489187,5.401177,-1.0012791,1.0766124e-05,8.641185e-05,-3.1944586e-05,0.00045386265,-0.003464659,-0.00013876376,0.180246,-0.03250009,0.37225235,0.0,0.0,0.0,0.0,0.0,7.376141e-05,2.4256204e-05,3.085693e-05,1.3359531e-05,0.00023273095,0.0002322207,0.00022737675,0.040679462,0.043729555,0.025589844,1.8248725e-11,1.8378599e-11,8.3816135e-11,8.599059e-07,1.157233e-06,5.0001002e-08,0.0,0.0,0.0,0.0,0.0,0.0,0.0,0.0,24
51659856,51558446,0.38756657,0.0013262476,-0.03411665,0.9212093,-0.030275285,-0.03908716,0.002789878,-5.5488677,5.390796,-1.053027,1.5556861e-05,8.952878e-05,-3.1635744e-05,0.00045890262,-0.0034545497,4.6004283e-05,0.180246,-0.03250009,0.37225235,0.0,0.0,0.0,0.0,0.0,7.432346e-05,2.427849e-05,3.0825937e-05,1.3583255e-05,0.0002177393,0.00021778651,0.00021324068,0.040516034,0.043507785,0.024613753,1.824976e-11,1.8457381e-11,8.133724e-11,8.551334e-07,1.151854e-06,5.000102e-08,0.0,0.0,0.0,0.0,0.0,0.0,0.0,0.0,24
52660135,52558730,0.39452755,-0.002721699,-0.04684905,0.91768503,-6.607568,3.5194006,-0.0840121,-99.55847,56.670048,-1.1899077,1.7214406e-05,8.980245e-05,-3.247094e-05,0.00037189957,-0.003493624,6.542173e-05,0.180246,-0.03250009,0.37225235,0.0,0.0,0.0,0.0,0.0,7.537959e-05,2.4926814e-05,3.1473613e-05,1.4406401e-05,0.01505468,0.015046025,0.028295638,0.028649436,0.028649358,0.03797315,1.905734e-11,1.9285146e-11,7.96804e-11,8.533365e-07,1.1491057e-06,5.000087e-08,0.0,0.0,0.0,0.0,0.0,0.0,0.0,0.0,24
53660362,53559013,0.37572688,0.00019919244,-0.040008307,0.92586637,-6.3003616,3.8555562,-0.07291964,-106.045715,60.312637,-1.3651569,1.67758e-05,8.975974e-05,-3.292043e-05,0.00031976562,-0.0035101874,6.159401e-05,0.180246,-0.03250009,0.37225235,0.0,0.0,0.0,0.0,0.0,7.787159e-05,2.5705418e-05,3.2188946e-05,1.3293895e-05,0.007196472,0.0071733478,0.014087837,0.020602608,0.02060019,0.05869464,1.9973155e-11,2.0167597e-11,7.784418e-11,8.518653e-07,1.1480627e-06,5.000073e-08,0.0,0.0,0.0,0.0,0.0,0.0,0.0,0.0,24
54660648,54559296,0.3594642,0.004550769,-0.035822798,0.93245995,-6.3556895,3.7455754,-0.014972162,-112.42242,63.977283,-1.4859259,1.5742437e-05,8.9192465e-05,-3.2930526e-05,0.00026357255,-0.0035326402,4.941245e-05,0.180246,-0.03250009,0.37225235,0.0,0.0,0.0,0.0,0.0,8.016634e-05,2.630646e-05,3.2732874e-05,1.2336663e-05,0.006151861,0.0061398367,0.010155681,0.018196525,0.01819097,0.075886115,2.057231e-11,2.0730667e-11,7.611882e-11,8.5056803e-07,1.1473934e-06,5.00004e-08,0.0,0.0,0.0,0.0,0.0,0.0,0.0,0.0,24
55661159,55559579,0.37132877,-0.07978834,-0.041045807,0.92415583,0.20464575,-0.0751185,0.0079557765,-108.498314,61.809208,-1.5892229,3.7206843e-05,2.1903058e-06,-3.8524908e-05,0.0019521483,-0.0022810742,-0.0005231262,0.180246,-0.03250009,0.37225235,0.0,0.0,0.0,0.0,0.0,7.626744e-05,2.4239142e-05,3.1241867e-05,1.2408343e-05,0.00019351539,0.00019486896,0.000185184,0.011024354,0.011069587,0.03440574,1.8944854e-11,1.8978999e-11,7.199432e-11,8.45339e-07,1.1381741e-06,5e-08,0.0,0.0,0.0,0.0,0.0,0.0,0.0,0.0,24
56661243,56559863,0.3802013,-0.08736739,-0.05005077,0.9194069,2.107445,-0.32699385,0.21664709,-107.37984,61.571873,-1.5396158,3.7259833e-05,2.1742717e-06,-3.7996248e-05,0.001909902,-0.0022870682,-0.0005383442,0.180246,-0.03250009,0.37225235,0.0,0.0,0.0,0.0,0.0,7.695293e-05,2.5046718e-05,3.2175267e-05,1.325944e-05,0.002673913,0.0030080108,0.0019753403,0.011051356,0.011282101,0.031996395,1.9966388e-11,2.0003643e-11,7.069266e-11,8.442214e-07,1.1380919e-06,5.000037e-08,0.0,0.0,0.0,0.0,0.0,0.0,0.0,0.0,24
57661497,57560146,0.33675578,-0.017088762,-0.030004911,0.9409587,0.062486086,-0.004240486,0.009025922,-107.64185,61.70672,-1.8350742,-1.2284377e-05,6.1954386e-05,-5.842352e-05,0.0022363765,-0.003047308,-0.0008891119,0.180246,-0.03250009,0.37225235,0.0,0.0,0.0,0.0,0.0,6.935002e-05,2.3314145e-05,3.0868905e-05,1.1166748e-05,0.0001327237,0.0001329084,0.0001307994,0.010849977,0.010955626,0.030046131,1.8508304e-11,1.83098e-11,6.501524e-11,8.3617766e-07,1.1241743e-06,5.0000274e-08,0.0,0.0,0.0,0.0,0.0,0.0,0.0,0.0,24
58661783,58560430,0.33372253,-0.0055188937,-0.017490597,0.94249296,0.021913478,-0.024246443,-0.005037493,-107.575905,61.660645,-1.8669362,-1.4634816e-05,7.263865e-05,-4.9956787e-05,0.0019887793,-0.0020556052,-0.0008456656,0.180246,-0.03250009,0.37225235,0.0,0.0,0.0,0.0,0.0,6.961547e-05,2.3079077e-05,3.0264253e-05,1.0110474e-05,0.00011892713,0.00011917866,0.00011737851,0.010812151,0.010889163,0.028474592,1.8389656e-11,1.8355662e-11,6.3066614e-11,8.279097e-07,1.1142537e-06,5.000019e-08,0.0,0.0,0.0,0.0,0.0,0.0,0.0,0.0,24
59662128,59560714,0.35325933,0.0022689016,-0.020827087,0.9352908,0.010233631,-0.033863105,0.010339619,-107.56269,61.592213,-1.88211,-6.9185967e-06,8.259747e-05,-3.519668e-05,0.0020647473,-0.0015814342,-0.00066278654,0.180246,-0.03250009,0.37225235,0.0,0.0,0.0,0.0,0.0,6.8317226e-05,2.3126966e-05,3.0101917e-05,9.759241e-06,0.00010512367,0.00010512823,0.000104053244,0.010800881,0.01086109,0.027128145,1.8375594e-11,1.8467313e-11,6.087823e-11,8.2331707e-07,1.1085625e-06,5.0000285e-08,0.0,0.0,0.0,0.0,0.0,0.0,0.0,0.0,24
60662831,60560998,0.3729245,0.0038835853,-0.030825982,0.92734146,0.008773834,0.0091459965,-0.0034227455,-107.55883,61.57334,-1.8931905,-4.1842854e-06,8.712807e-05,-3.2027692e-05,0.0019631418,-0.0017673702,-0.00039528086,0.180246,-0.03250009,0.37225235,0.0,0.0,0.0,0.0,0.0,6.765772e-05,2.3111537e-05,2.9940657e-05,1.0632869e-05,9.189859e-05,9.179585e-05,9.083903e-05,0.010799672,0.010852365,0.025943654,1.8241103e-11,1.8403105e-11,5.970331e-11,8.189155e-07,1.1006681e-06,5.0000473e-08,0.0,0.0,0.0,0.0,0.0,0.0,0.0,0.0,24
61662693,61561282,0.36591172,0.011582414,-0.024516515,0.93025446,0.0195447,0.016958192,0.0053762654,-107.548164,61.593334,-1.8909795,-1.5731592e-05,8.648873e-05,-3.7041915e-05,0.002706233,-0.001526303,-0.00038901408,0.180246,-0.03250009,0.37225235,0.0,0.0,0.0,0.0,0.0,6.658294e-05,2.2806791e-05,2.9106692e-05,1.050234e-05,7.838984e-05,7.833096e-05,7.7856625e-05,0.010802016,0.010851273,0.024926715,1.8092505e-11,1.817334e-11,5.8137533e-11,8.1214586e-07,1.075411e-06,5.000054e-08,0.0,0.0,0.0,0.0,0.0,0.0,0.0,0.0,24
62663033,62561569,0.3491714,0.017427947,-0.01254409,0.9368128,-0.018464593,-0.14115433,0.036988165,-107.517746,61.579536,-1.8920866,-1.7929546e-05,8.672868e-05,-3.6351063e-05,0.0027763953,-0.0015189344,-0.00035398485,0.180246,-0.03250009,0.37225235,0.0,0.0,0.0,0.0,0.0,6.877961e-05,2.345614e-05,2.9641422e-05,9.65864e-06,0.0015800977,0.001580764,0.0013883442,0.011122835,0.011163939,0.02416777,1.8906505e-11,1.8976983e-11,5.7541246e-11,8.1125717e-07,1.0717154e-06,5.0000743e-08,0.0,0.0,0.0,0.0,0.0,0.0,0.0,0.0,24
63663379,63561850,0.35227123,0.019068763,-0.018385,0.9355231,-0.036547963,-0.049853474,-0.007027141,-107.477165,61.649773,-1.9166477,-7.70307e-06,8.896324e-05,-3.398363e-05,0.002930923,-0.0015703337,-0.0002781357,0.180246,-0.03250009,0.37225235,0.0,0.0,0.0,0.0,0.0,6.856863e-05,2.2884855e-05,2.8948623e-05,9.503867e-06,0.00021811169,0.00021803917,0.0002132639,0.011033941,0.011092425,0.023238981,1.8212922e-11,1.8390681e-11,5.626588e-11,8.0955294e-07,1.0702901e-06,5.0001095e-08,0.0,0.0,0.0,0.0,0.0,0.0,0.0,0.0,24
64663547,64562134,0.36119246,0.016818112,-0.02652964,0.9319621,0.008131638,0.008096349,0.0067690546,-107.47791,61.646683,-1.9290891,-2.4456542e-06,8.992474e-05,-3.3573484e-05,0.0029109183,-0.0016266262,-0.00033377498,0.180246,-0.03250009,0.37225235,0.0,0.0,0.0,0.0,0.0,6.895452e-05,2.280213e-05,2.881646e-05,1.0041778e-05,0.00020291873,0.00020284909,0.0001991071,0.011037784,0.011093446,0.022390982,1.8176108e-11,1.8387389e-11,5.557858e-11,8.082745e-07,1.0684864e-06,5.000106e-08,0.0,0.0,0.0,0.0,0.0,0.0,0.0,0.0,24
65663910,65562419,0.3591331,0.021605084,-0.023675814,0.93273586,0.007366005,0.012481581,0.004599163,-107.47614,61.647842,-1.9347835,-6.61824e-06,9.0086054e-05,-3.2682194e-05,0.003063566,-0.0015963074,-0.00011572947,0.180246,-0.03250009,0.37225235,0.0,0.0,0.0,0.0,0.0,6.976137e-05,2.2805918e-05,2.879242e-05,9.967577e-06,0.00018855682,0.00018851862,0.00018535668,0.011042001,0.011095278,0.02160359,1.813575e-11,1.8263294e-11,5.489026e-11,8.063922e-07,1.0632449e-06,5.0001116e-08,0.0,0.0,0.0,0.0,0.0,0.0,0.0,0.0,24
66664117,66562703,0.348654,0.024269182,-0.017594723,0.9367721,-0.05079244,-0.028343255,0.00247714,-107.479,61.646164,-1.9408666,-5.0410767e-06,8.8588524e-05,-3.225915e-05,0.003106214,-0.0016076891,-2.608342e-05,0.180246,-0.03250009,0.37225235,0.0,0.0,0.0,0.0,0.0,7.134825e-05,2.2764854e-05,2.8681698e-05,9.4529805e-06,0.00017449631,0.00017492923,0.0001716633,0.011046195,0.011096802,0.020907046,1.8111726e-11,1.8248833e-11,5.4343006e-11,8.0561875e-07,1.0610921e-06,5.0001052e-08,0.0,0.0,0.0,0.0,0.0,0.0,0.0,0.0,24
67664422,67562987,0.35085288,0.018350974,-0.027310569,0.93585235,-0.00858321,0.011433674,-0.00029849765,-107.47938,61.646484,-1.9464983,4.803893e-06,8.6414875e-05,-3.3549903e-05,0.0032134769,-0.001742203,-0.0002589526,0.180246,-0.03250009,0.37225235,0.0,0.0,0.0,0.0,0.0,7.0617796e-05,2.2586122e-05,2.8361612e-05,9.523456e-06,0.0001602346,0.00016015039,0.00015778691,0.011050491,0.011098511,0.020220766,1.8094328e-11,1.8334518e-11,5.3214794e-11,8.0447404e-07,1.0552639e-06,5.000099e-08,0.0,0.0,0.0,0.0,0.0,0.0,0.0,0.0,24
68664620,68563272,0.35566506,0.018400164,-0.030065006,0.9339485,0.02134647,0.038839415,0.0072174976,-107.478485,61.646847,-1.9499778,3.6001607e-06,8.370536e-05,-3.2789452e-05,0.0032476136,-0.0016870735,-0.00016257048,0.180246,-0.03250009,0.37225235,0.0,0.0,0.0,0.0,0.0,7.1379356e-05,2.2599366e-05,2.8411016e-05,9.864757e-06,0.00014664694,0.00014641158,0.00014443185,0.011054761,0.011101091,0.019578602,1.8072602e-11,1.8251303e-11,5.2808143e-11,8.036423e-07,1.05396e-06,5.000095e-08,0.0,0.0,0.0,0.0,0.0,0.0,0.0,0.0,24
69664925,69563557,0.34412476,0.02304882,-0.02138073,0.93839747,0.01367841,0.056209568,0.0001222275,-204.19868,118.71702,-1.952697,-1.5949905e-06,8.161776e-05,-3.1232485e-05,0.0033223825,-0.0016302423,-9.0379166e-05,0.180246,-0.03250009,0.37225235,0.0,0.0,0.0,0.0,0.0,7.197947e-05,2.285717e-05,2.8566239e-05,9.09588e-06,0.0004399903,0.0004396071,0.00041860726,0.035970304,0.035970293,0.018986136,1.8434048e-11,1.8535437e-11,5.2008998e-11,8.0310633e-07,1.0490902e-06,5.0000843e-08,0.0,0.0,0.0,0.0,0.0,0.0,0.0,0.0,24
70665243,70563841,0.33971244,0.026002746,-0.016144248,0.9400313,-0.3551938,-0.27436966,0.0070849485,-204.36105,118.61839,-1.942861,-1.5899654e-06,8.158737e-05,-3.0567277e-05,0.0033201857,-0.0016318235,-0.000102079066,0.180246,-0.03250009,0.37225235,0.0,0.0,0.0,0.0,0.0,7.326565e-05,2.3676155e-05,2.9389725e-05,8.930621e-06,0.0030124418,0.0030041088,0.0023162095,0.037381604,0.037381392,0.019532222,1.9465634e-11,1.9563993e-11,5.163949e-11,8.028019e-07,1.0489858e-06,5e-08,0.0,0.0,0.0,0.0,0.0,0.0,0.0,0.0,24
71665624,71564126,0.34587672,0.01982451,-0.030666787,0.93756914,0.0194753,0.025158068,0.0008800033,-204.13882,118.788826,-1.9442348,9.963104e-06,7.997821e-05,-3.2644555e-05,0.003605931,-0.0017268087,-0.00026227708,0.180246,-0.03250009,0.37225235,0.0,0.0,0.0,0.0,0.0,7.2063274e-05,2.2496784e-05,2.8138935e-05,9.278912e-06,0.00021785566,0.00021795758,0.00021301417,0.036214966,0.03621419,0.018122396,1.8179356e-11,1.8375695e-11,5.062262e-11,8.007078e-07,1.0431606e-06,5.0001074e-08,0.0,0.0,0.0,0.0,0.0,0.0,0.0,0.0,24
72665762,72564411,0.34748456,0.021191768,-0.029399531,0.9369851,0.009431157,0.015645282,-0.003656178,-204.13676,118.7906,-1.9422141,5.3699846e-06,7.992211e-05,-3.1344924e-05,0.0037146106,-0.0017470856,-0.00026761298,0.180246,-0.03250009,0.37225235,0.0,0.0,0.0,0.0,0.0,7.235648e-05,2.2418892e-05,2.8090617e-05,9.332994e-06,0.00020308353,0.0002031268,0.00019904424,0.036218878,0.036218185,0.01760555,1.8133994e-11,1.82355e-11,5.0120276e-11,7.9961745e-07,1.0408969e-06,5.000109e-08,0.0,0.0,0.0,0.0,0.0,0.0,0.0,0.0,24
73666150,73564696,0.34453857,0.021973358,-0.027769968,0.9381041,0.008865599,0.003734022,-5.515014e-05,-204.1353,118.79001,-1.9407102,3.8347757e-06,8.1307306e-05,-3.0204641e-05,0.003740663,-0.0017825331,-0.0002980398,0.180246,-0.03250009,0.37225235,0.0,0.0,0.0,0.0,0.0,7.317273e-05,2.2376991e-05,2.8057995e-05,9.169346e-06,0.00018850669,0.00018856689,0.00018514087,0.036222868,0.036222294,0.01711753,1.8114253e-11,1.8176516e-11,4.970344e-11,7.984838e-07,1.0401988e-06,5.0001074e-08,0.0,0.0,0.0,0.0,0.0,0.0,0.0,0.0,24
74666330,74564981,0.34138486,0.02207249,-0.029192539,0.93921083,0.021796953,0.03573026,-0.0014458143,-204.13483,118.79072,-1.939708,4.0300797e-06,8.215337e-05,-2.9623452e-05,0.0037386988,-0.0017880608,-0.00029970318,0.180246,-0.03250009,0.37225235,0.0,0.0,0.0,0.0,0.0,7.421551e-05,2.2382806e-05,2.804257e-05,9.063617e-06,0.00017470126,0.0001744707,0.00017151638,0.036227006,0.036226485,0.016656404,1.8107458e-11,1.8156776e-11,4.9403405e-11,7.9799315e-07,1.0394701e-06,5.0000963e-08,0.0,0.0,0.0,0.0,0.0,0.0,0.0,0.0,24
75666718,75565266,0.3302717,0.02592789,-0.020049129,0.9433167,-0.026451938,-0.03565892,0.004605886,-204.13535,118.78929,-1.9387653,7.014783e-07,8.18336e-05,-2.8300714e-05,0.003732326,-0.001762068,-0.00019634253,0.180246,-0.03250009,0.37225235,0.0,0.0,0.0,0.0,0.0,7.4678755e-05,2.2378586e-05,2.798155e-05,8.347402e-06,0.00016062947,0.00016037171,0.00015787798,0.03623104,0.03623066,0.016219355,1.811735e-11,1.8142777e-11,4.8798972e-11,7.970388e-07,1.0350802e-06,5.0000978e-08,0.0,0.0,0.0,0.0,0.0,0.0,0.0,0.0,24
76666901,76565552,0.3295004,0.0269378,-0.026719654,0.9433928,-0.01243262,-0.012486266,0.0017958514,-204.13615,118.78791,-1.9311363,8.852225e-06,8.233636e-05,-2.8504837e-05,0.0040364577,-0.0017297382,-0.00010855755,0.180246,-0.03250009,0.37225235,0.0,0.0,0.0,0.0,0.0,7.425016e-05,2.2406804e-05,2.7928403e-05,8.233269e-06,0.00014623483,0.00014622124,0.00014410744,0.036235202,0.036234893,0.015825132,1.8149003e-11,1.8240945e-11,4.8098466e-11,7.952063e-07,1.0289897e-06,5.000091e-08,0.0,0.0,0.0,0.0,0.0,0.0,0.0,0.0,24
77657085,77555733,0.33465123,0.027549542,-0.031117262,0.9414252,-0.00066113786,0.013709767,0.0008312546,-204.13603,118.78804,-1.9280896,9.614276e-06,8.102566e-05,-2.7681399e-05,0.0040415484,-0.0017465448,-1.3047785e-05,0.180246,-0.03250009,0.37225235,0.0,0.0,0.0,0.0,0.0,7.457797e-05,2.2401e-05,2.7969485e-05,8.508049e-06,0.00011875147,0.000118681935,0.000117263284,0.036239326,0.036239028,0.015430623,1.8129807e-11,1.8215736e-11,4.7837786e-11,7.947497e-07,1.0284731e-06,5.000074e-08,0.0,0.0,0.0,0.0,0.0,0.0,0.0,0.0,24
78667490,78566123,0.33606625,0.029717984,-0.031089757,0.94085586,-0.0060276883,0.006836245,0.008387604,-204.13585,118.78887,-1.923113,6.8509353e-06,7.9368096e-05,-2.628018e-05,0.00404155,-0.0017125439,8.666088e-05,0.180246,-0.03250009,0.37225235,0.0,0.0,0.0,0.0,0.0,7.5201635e-05,2.2377466e-05,2.7977496e-05,8.567558e-06,0.000118605014,0.000118601376,0.00011725221,0.036243726,0.036243394,0.015055768,1.8109464e-11,1.8157338e-11,4.7629057e-11,7.9410495e-07,1.0275382e-06,5.0000747e-08,0.0,0.0,0.0,0.0,0.0,0.0,0.0,0.0,24
79667758,79566408,0.33433688,0.023503464,-0.027709082,0.94175303,-0.015921148,-0.010220045,-0.013025089,-204.13669,118.78888,-1.9177128,6.57913e-06,7.378411e-05,-2.6068012e-05,0.003974613,-0.0015939827,-0.00023493629,0.180246,-0.03250009,0.37225235,0.0,0.0,0.0,0.0,0.0,7.5339194e-05,2.2039992e-05,2.7553006e-05,8.452301e-06,0.00010526044,0.00010524837,0.00010404089,0.036248,0.03624768,0.014698341,1.8044996e-11,1.8101343e-11,4.7259984e-11,7.9169143e-07,1.0251152e-06,5.000067e-08,0.0,0.0,0.0,0.0,0.0,0.0,0.0,0.0,24
80657946,80556590,0.33860812,0.018843805,-0.031182524,0.9402219,0.0024570017,0.0057358053,0.0020558767,-204.1374,118.788246,-1.911014,9.21625e-06,7.2889234e-05,-2.6277241e-05,0.00394456,-0.0015445929,-0.0004470456,0.180246,-0.03250009,0.37225235,0.0,0.0,0.0,0.0,0.0,7.566772e-05,2.194835e-05,2.7430136e-05,8.772376e-06,7.830167e-05,7.830305e-05,7.770547e-05,0.03625227,0.036251955,0.014374819,1.8018052e-11,1.807874e-11,4.7034526e-11,7.908468e-07,1.0230666e-06,5.000052e-08,0.0,0.0,0.0,0.0,0.0,0.0,0.0,0.0,24
81658666,81556876,0.34438083,0.02135086,-0.031946834,0.9380435,0.019735754,0.03645493,0.005987228,-204.13628,118.78959,-1.9012862,3.273854e-06,7.0815775e-05,-2.5198156e-05,0.0040415497,-0.0015241059,-0.00027116522,0.180246,-0.03250009,0.37225235,0.0,0.0,0.0,0.0,0.0,7.4794974e-05,2.2019503e-05,2.7469967e-05,8.977772e-06,6.547396e-05,6.522385e-05,6.486104e-05,0.03625663,0.036256306,0.014049028,1.7989416e-11,1.7997838e-11,4.654085e-11,7.8805556e-07,1.0171278e-06,5.000043e-08,0.0,0.0,0.0,0.0,0.0,0.0,0.0,0.0,24
82658540,82557162,0.33562037,0.020710452,-0.02008055,0.94155556,-0.002626652,-0.012192117,-0.0038120442,-204.1352,118.791985,-1.8913848,-6.2659717e-07,6.8470064e-05,-2.4187464e-05,0.00403852,-0.0014185909,-0.0005426141,0.180246,-0.03250009,0.37225235,0.0,0.0,0.0,0.0,0.0,7.457051e-05,2.1790238e-05,2.7048673e-05,8.349139e-06,5.212993e-05,5.2060237e-05,5.1802064e-05,0.036261033,0.036260653,0.013738078,1.794707e-11,1.79379e-11,4.5996804e-11,7.858733e-07,1.011063e-06,5.000034e-08,0.0,0.0,0.0,0.0,0.0,0.0,0.0,0.0,24
83668939,83567551,0.33642697,0.016959362,-0.02607984,0.94119567,0.0006895099,-0.004484828,0.003360933,-204.13647,118.79042,-1.8846612,6.9336097e-06,6.986354e-05,-2.5563537e-05,0.004029976,-0.0013284339,-0.0007324635,0.180246,-0.03250009,0.37225235,0.0,0.0,0.0,0.0,0.0,7.335596e-05,2.177375e-05,2.6929118e-05,8.391361e-06,5.2030482e-05,5.2027313e-05,5.1784627e-05,0.03626535,0.036264997,0.013440983,1.7964607e-11,1.797983e-11,4.533062e-11,7.8538955e-07,1.0064479e-06,5.000035e-08,0.0,0.0,0.0,0.0,0.0,0.0,0.0,0.0,24
84659272,84557734,0.34317574,0.018858027,-0.0259799,0.93872243,0.006629373,0.00026098677,0.004342626,-299.7235,169.61923,-1.880797,2.5690917e-06,7.178243e-05,-2.4445742e-05,0.0040414757,-0.0014534338,-0.0004345498,0.180246,-0.03250009,0.37225235,0.0,0.0,0.0,0.0,0.0,7.260637e-05,2.1986776e-05,2.7194768e-05,8.654616e-06,2.6280108e-05,2.6293334e-05,2.6212738e-05,0.03748485,0.037484836,0.013157271,1.8058763e-11,1.8019879e-11,4.4957753e-11,7.835521e-07,1.0018887e-06,5.000016e-08,0.0,0.0,0.0,0.0,0.0,0.0,0.0,0.0,24
85659442,85558020,0.33845958,0.025988696,-0.024159353,0.9403117,9.017339e-05,0.0005688512,-0.00072750374,-299.7213,169.61984,-1.8774912,9.05899e-07,7.4246556e-05,-2.3207771e-05,0.004041552,-0.0015410528,-7.3834844e-06,0.180246,-0.03250009,0.37225235,0.0,0.0,0.0,0.0,0.0,7.322705e-05,2.2078411e-05,2.7345084e-05,8.371938e-06,1.3579582e-05,1.3579631e-05,1.3558562e-05,0.037489302,0.03748928,0.012898083,1.800164e-11,1.793779e-11,4.4812043e-11,7.8129426e-07,9.995128e-07,5.0000097e-08,0.0,0.0,0.0,0.0,0.0,0.0,0.0,0.0,24
86660126,86558307,0.3359513,0.024264794,-0.024273505,0.9412539,-1.6607695e-05,-7.310795e-05,-6.325444e-05,-299.72226,169.6196,-1.8770263,4.3999994e-06,7.366003e-05,-2.2465547e-05,0.0040263524,-0.0016009159,-0.0001943804,0.180246,-0.03250009,0.37225235,0.0,0.0,0.0,0.0,0.0,7.383364e-05,2.1878233e-05,2.7047694e-05,8.220206e-06,1e-06,1e-06,1e-06,0.037493717,0.03749369,0.012636409,1.7942018e-11,1.7903448e-11,4.4697433e-11,7.807119e-07,9.983323e-07,5e-08,0.0,0.0,0.0,0.0,0.0,0.0,0.0,0.0,24
87660032,87558592,0.33224487,0.02704974,-0.02300621,0.9425245,-0.0013284201,0.0029191016,0.013086652,-299.72214,169.61945,-1.8771348,4.6609653e-06,7.5241194e-05,-2.135163e-05,0.004028644,-0.0015901267,-0.00016536785,0.180246,-0.03250009,0.37225235,0.0,0.0,0.0,0.0,0.0,7.445207e-05,2.2004515e-05,2.719378e-05,8.000667e-06,0.00026141078,0.00026141634,0.0002551012,0.037500117,0.037500095,0.012387169,1.8151616e-11,1.8099444e-11,4.458611e-11,7.802077e-07,9.980093e-07,5.0000875e-08,0.0,0.0,0.0,0.0,0.0,0.0,0.0,0.0,24
88660528,88558879,0.32802,0.029562717,-0.022617105,0.94393724,-0.04639542,-0.02120324,0.009090313,-299.72604,169.6169,-1.878477,8.824912e-06,7.4954725e-05,-2.0631807e-05,0.0040408727,-0.0015815642,4.0600637e-05,0.180246,-0.03250009,0.37225235,0.0,0.0,0.0,0.0,0.0,7.4678464e-05,2.2073544e-05,2.7261774e-05,7.719716e-06,0.0002467334,0.00024717874,0.00024091823,0.037504096,0.03750407,0.0121457055,1.8153187e-11,1.8134596e-11,4.436757e-11,7.7950574e-07,9.963903e-07,5.0000914e-08,0.0,0.0,0.0,0.0,0.0,0.0,0.0,0.0,24
89660622,89559165,0.3303926,0.029628875,-0.023708705,0.9430805,-0.03886392,0.0026519522,-0.00810745,-299.7261,169.61852,-1.8795228,1.2895281e-05,7.142176e-05,-2.012444e-05,0.004028758,-0.0016703624,8.460857e-05,0.180246,-0.03250009,0.37225235,0.0,0.0,0.0,0.0,0.0,7.473997e-05,2.2000124e-05,2.7194974e-05,7.809728e-06,0.00023221542,0.00023247923,0.00022679807,0.037508123,0.037508085,0.0119135585,1.8120757e-11,1.8153659e-11,4.424763e-11,7.789764e-07,9.950119e-07,5.0000967e-08,0.0,0.0,0.0,0.0,0.0,0.0,0.0,0.0,24
90660872,90559454,0.33620456,0.023370838,-0.028366951,0.9410715,-0.007637542,0.00659412,-0.0022201615,-299.72577,169.61781,-1.8784261,1.8205688e-05,6.8055066e-05,-2.0277432e-05,0.0039739213,-0.0016968396,-9.701735e-05,0.180246,-0.03250009,0.37225235,0.0,0.0,0.0,0.0,0.0,7.444631e-05,2.1852691e-05,2.6985255e-05,8.116229e-06,0.00021742185,0.00021738454,0.00021275575,0.037512187,0.03751215,0.011701314,1.8081793e-11,1.8161733e-11,4.409453e-11,7.783406e-07,9.930552e-07,5.000105e-08,0.0,0.0,0.0,0.0,0.0,0.0,0.0,0.0,24
91661179,91559739,0.33963278,0.023501886,-0.027047971,0.9398754,0.020226942,0.014824327,-0.0022728138,-299.724,169.6184,-1.8733778,1.5272837e-05,6.740845e-05,-1.9051937e-05,0.0040415567,-0.0016828731,-9.528458e-05,0.180246,-0.03250009,0.37225235,0.0,0.0,0.0,0.0,0.0,7.416303e-05,2.1785194e-05,2.6910266e-05,8.223794e-06,0.00020299136,0.0002031465,0.00019898335,0.037516296,0.03751626,0.011485782,1.8060707e-11,1.8078846e-11,4.3924572e-11,7.772496e-07,9.90349e-07,5.000107e-08,0.0,0.0,0.0,0.0,0.0,0.0,0.0,0.0,24
92661508,92560026,0.33462197,0.026359094,-0.025949849,0.94162625,0.018681172,-0.0059429985,0.027166238,-299.72412,169.6169,-1.8669163,1.5238073e-05,6.95183e-05,-1.803888e-05,0.004024627,-0.001710504,-0.000114256705,0.180246,-0.03250009,0.37225235,0.0,0.0,0.0,0.0,0.0,7.438554e-05,2.175938e-05,2.6870901e-05,7.914629e-06,0.00018806767,0.00018823238,0.00018508792,0.03752045,0.03752041,0.011278302,1.8067018e-11,1.805092e-11,4.374816e-11,7.761392e-07,9.888458e-07,5.000108e-08,0.0,0.0,0.0,0.0,0.0,0.0,0.0,0.0,24
93661787,93560313,0.32949698,0.028755581,-0.024807615,0.9433925,-0.0071961917,0.008454797,-0.012891888,-299.72406,169.6189,-1.8624635,1.5488733e-05,6.89636e-05,-1.7259401e-05,0.0040256917,-0.0017245614,4.4425655e-05,0.180246,-0.03250009,0.37225235,0.0,0.0,0.0,0.0,0.0,7.514642e-05,2.1764052e-05,2.6882582e-05,7.67246e-06,0.00017454378,0.0001745244,0.00017131049,0.03752465,0.037524603,0.0110785775,1.8058248e-11,1.8042975e-11,4.3756984e-11,7.7481565e-07,9.872244e-07,5.000105e-08,0.0,0.0,0.0,0.0,0.0,0.0,0.0,0.0,24
94662105,94560604,0.3296367,0.027118899,-0.027645966,0.9433133,-0.0005463203,-0.022099905,0.007857706,-299.72437,169.61679,-1.8514369,2.025739e-05,6.941521e-05,-1.6576456e-05,0.004041653,-0.0017174273,-8.149638e-05,0.180246,-0.03250009,0.37225235,0.0,0.0,0.0,0.0,0.0,7.497925e-05,2.1700744e-05,2.6742227e-05,7.607916e-06,0.00016014141,0.00016005819,0.00015762176,0.037528865,0.037528824,0.01088577,1.806241e-11,1.8073128e-11,4.355617e-11,7.7403354e-07,9.84784e-07,5.0001006e-08,0.0,0.0,0.0,0.0,0.0,0.0,0.0,0.0,24
95662332,95560887,0.34158292,0.026336981,-0.038388796,0.938698,-0.011754464,-2.8879149e-05,0.009418943,-299.72754,169.61447,-1.8368596,2.3787417e-05,7.0580965e-05,-1.631217e-05,0.0040353644,-0.0016908108,2.9509838e-05,0.180246,-0.03250009,0.37225235,0.0,0.0,0.0,0.0,0.0,7.4345095e-05,2.2136626e-05,2.7106911e-05,8.230222e-06,0.0008136947,0.00081346504,0.0007511115,0.037596196,0.03759615,0.010767945,1.8486131e-11,1.850822e-11,4.3447555e-11,7.7339547e-07,9.818713e-07,5.000078e-08,0.0,0.0,0.0,0.0,0.0,0.0,0.0,0.0,24
96662619,96561174,0.34780735,0.028610453,-0.035391506,0.9364609,0.0017987806,0.0052312566,-0.0010399588,-299.7419,169.5516,-1.817579,1.4161662e-05,6.7069464e-05,-1.483668e-05,0.004041559,-0.001431977,-0.0001224794,0.180246,-0.03250009,0.37225235,0.0,0.0,0.0,0.0,0.0,7.2143295e-05,2.1468657e-05,2.6361666e-05,8.320311e-06,2.62854e-05,2.628282e-05,2.6204985e-05,0.037671585,0.037670262,0.010650748,1.7914253e-11,1.7864267e-11,4.2956798e-11,7.698226e-07,9.737311e-07,5.0000175e-08,0.0,0.0,0.0,0.0,0.0,0.0,0.0,0.0,24
97662910,97561461,0.338277,0.030289697,-0.025577556,0.9402111,1.7863296e-05,-0.0007141709,-4.644619e-05,-299.7391,169.56027,-1.8001894,8.540828e-06,6.359546e-05,-1.3294452e-05,0.0040415595,-0.0013052945,-0.00019876714,0.180246,-0.03250009,0.37225235,0.0,0.0,0.0,0.0,0.0,7.240354e-05,2.1399543e-05,2.6178193e-05,7.728681e-06,1.3577187e-05,1.35766e-05,1.3557955e-05,0.037675433,0.037674423,0.01047306,1.7881292e-11,1.7827835e-11,4.2854473e-11,7.6868804e-07,9.694994e-07,5.0000093e-08,0.0,0.0,0.0,0.0,0.0,0.0,0.0,0.0,24
98663191,98561749,0.33628678,0.02868088,-0.02759574,0.9409182,-0.00015289315,-0.00034584984,-0.0004424456,-390.97495,221.59654,-1.7805408,1.4963679e-05,6.425837e-05,-1.3359981e-05,0.0040562022,-0.0012610392,-0.00029612292,0.180246,-0.03250009,0.37225235,0.0,0.0,0.0,0.0,0.0,7.1479684e-05,2.1487063e-05,2.6143915e-05,7.534797e-06,1e-06,1e-06,1.0033546e-06,0.044363946,0.044363942,0.010301466,1.8025829e-11,1.7981179e-11,4.2469125e-11,7.6804633e-07,9.657156e-07,5e-08,0.0,0.0,0.0,0.0,0.0,0.0,0.0,0.0,24
99663436,99562036,0.3462308,0.028045002,-0.034558766,0.93709314,0.06067257,0.07693648,0.0016585127,-391.32504,221.78635,-1.7602247,1.2649383e-05,6.569419e-05,-1.20100285e-05,0.004042221,-0.0013079798,-0.00017531405,0.180246,-0.03250009,0.37225235,0.0,0.0,0.0,0.0,0.0,7.0429574e-05,2.1674396e-05,2.6315047e-05,7.925465e-06,0.0002641282,0.0002634872,0.000255394,0.037684284,0.037684284,0.010137349,1.8168795e-11,1.80912e-11,4.2278216e-11,7.6720835e-07,9.624665e-07,5.0000857e-08,0.0,0.0,0.0,0.0,0.0,0.0,0.0,0.0,24
100663672,100562324,0.33863026,0.032038193,-0.025826057,0.94001925,-0.0045601293,0.006504798,-0.00024837928,-391.32938,221.7822,-1.739407,6.523587e-06,6.4577885e-05,-1.0400779e-05,0.004041565,-0.0012777698,-0.00016231685,0.180246,-0.03250009,0.37225235,0.0,0.0,0.0,0.0,0.0,7.038526e-05,2.159293e-05,2.6149868e-05,7.4483337e-06,0.0002470313,0.00024706306,0.00024069581,0.037688278,0.037688274,0.009984445,1.8106724e-11,1.8019912e-11,4.2162905e-11,7.667692e-07,9.57707e-07,5.0001113e-08,0.0,0.0,0.0,0.0,0.0,0.0,0.0,0.0,24
101663985,101562612,0.33756965,0.031893138,-0.02810047,0.9403404,-0.035319112,-0.019624095,-0.008428446,-391.33203,221.78,-1.7157531,1.1865137e-05,6.367416e-05,-1.0038702e-05,0.004041569,-0.001286615,-0.00012280203,0.180246,-0.03250009,0.37225235,0.0,0.0,0.0,0.0,0.0,7.012449e-05,2.160686e-05,2.6108679e-05,7.341606e-06,0.0002324397,0.00023253718,0.000226612,0.037692286,0.037692282,0.009828392,1.808835e-11,1.8018018e-11,4.2036624e-11,7.664439e-07,9.5529e-07,5.000116e-08,0.0,0.0,0.0,0.0,0.0,0.0,0.0,0.0,24
102664319,102562899,0.34602562,0.030230042,-0.032009058,0.93719155,0.006819479,0.016910829,0.007307225,-391.32977,221.78174,-1.6880041,1.3346429e-05,6.280296e-05,-9.095827e-06,0.004041569,-0.001307935,-0.00017000706,0.180246,-0.03250009,0.37225235,0.0,0.0,0.0,0.0,0.0,7.004053e-05,2.1560505e-05,2.605622e-05,7.745293e-06,0.00021733408,0.00021729518,0.00021250895,0.037696328,0.037696328,0.009677139,1.8071888e-11,1.800283e-11,4.210293e-11,7.6611815e-07,9.543113e-07,5.0001162e-08,0.0,0.0,0.0,0.0,0.0,0.0,0.0,0.0,24
103664541,103563187,0.34775534,0.032143235,-0.028022032,0.93661517,-0.012777333,0.000105868094,0.0022987134,-391.3305,221.78145,-1.6582235,1.0173716e-05,6.169864e-05,-7.629444e-06,0.0040398776,-0.0012848625,-0.00014323968,0.180246,-0.03250009,0.37225235,0.0,0.0,0.0,0.0,0.0,7.020518e-05,2.1512576e-05,2.6007037e-05,7.801313e-06,0.00020284338,0.00020288024,0.0001986556,0.037700415,0.037700415,0.009530704,1.8051945e-11,1.7969737e-11,4.2160768e-11,7.654925e-07,9.5255194e-07,5.0001173e-08,0.0,0.0,0.0,0.0,0.0,0.0,0.0,0.0,24
104665079,104563475,0.34321427,0.03204213,-0.02484086,0.93838173,-0.004145716,0.00012779118,0.00045252836,-391.33002,221.78165,-1.6280043,9.348834e-06,5.9979277e-05,-6.508549e-06,0.00404249,-0.0012676697,-0.00017651686,0.180246,-0.03250009,0.37225235,0.0,0.0,0.0,0.0,0.0,7.0748654e-05,2.1472379e-05,2.5910693e-05,7.5655503e-06,0.00018848431,0.0001884888,0.00018489464,0.037704565,0.037704565,0.009388772,1.8032253e-11,1.7953472e-11,4.222895e-11,7.65271e-07,9.513574e-07,5.000108e-08,0.0,0.0,0.0,0.0,0.0,0.0,0.0,0.0,24
105665113,105563763,0.3390869,0.029594524,-0.022869555,0.9400113,-0.007651245,-0.020903831,-0.014994211,-391.3307,221.7804,-1.5956873,1.27711255e-05,5.905148e-05,-6.0641464e-06,0.0040415777,-0.0013055472,-0.00032568318,0.180246,-0.03250009,0.37225235,0.0,0.0,0.0,0.0,0.0,7.113995e-05,2.1370215e-05,2.5749127e-05,7.372681e-06,0.00017463708,0.00017449204,0.00017119038,0.03770875,0.03770875,0.009258136,1.8021884e-11,1.7956062e-11,4.224235e-11,7.6473816e-07,9.495761e-07,5.0001127e-08,0.0,0.0,0.0,0.0,0.0,0.0,0.0,0.0,24
106665466,106564052,0.34246695,0.028501978,-0.025865568,0.93874115,0.0066247256,-0.025439885,-0.008621327,-391.33026,221.7793,-1.5601182,1.6938679e-05,6.1569386e-05,-5.5462806e-06,0.0040415744,-0.001261977,-0.00044732649,0.180246,-0.03250009,0.37225235,0.0,0.0,0.0,0.0,0.0,7.098339e-05,2.1348727e-05,2.572427e-05,7.532008e-06,0.00016039568,0.00016030665,0.00015752256,0.03771298,0.037712988,0.009124412,1.8050006e-11,1.7969931e-11,4.2192857e-11,7.642198e-07,9.4866317e-07,5.000106e-08,0.0,0.0,0.0,0.0,0.0,0.0,0.0,0.0,24
107665695,107564340,0.34568968,0.03183756,-0.026933283,0.93742186,0.0062959343,0.0010245037,0.007704856,-391.3302,221.78001,-1.5225829,1.6004038e-05,6.299275e-05,-4.830586e-06,0.0040415837,-0.0012587868,-0.00028221298,0.180246,-0.03250009,0.37225235,0.0,0.0,0.0,0.0,0.0,7.112397e-05,2.1455255e-05,2.5864127e-05,7.74372e-06,0.00014612601,0.0001461438,0.00014398173,0.037717246,0.03771726,0.008994708,1.8064295e-11,1.7955174e-11,4.2269157e-11,7.635846e-07,9.4698834e-07,5.0000992e-08,0.0,0.0,0.0,0.0,0.0,0.0,0.0,0.0,24
108665981,108564629,0.3400795,0.036675166,-0.023535775,0.9393865,-0.013205827,-0.0015571163,-0.00027902692,-391.33057,221.78038,-1.4854037,1.4769288e-05,6.194393e-05,-3.91845e-06,0.004041582,-0.0012334326,-2.3298567e-06,0.180246,-0.03250009,0.37225235,0.0,0.0,0.0,0.0,0.0,7.1951836e-05,2.1556247e-05,2.5985724e-05,7.51887e-06,0.00013242227,0.00013246918,0.00013055088,0.03772155,0.03772157,0.008868801,1.8048644e-11,1.7943065e-11,4.2421306e-11,7.632388e-07,9.458025e-07,5.0000903e-08,0.0,0.0,0.0,0.0,0.0,0.0,0.0,0.0,24
109666325,109564917,0.3436498,0.03150998,-0.028831901,0.93812615,-0.024030197,-0.030228775,-0.010168123,-391.33148,221.77914,-1.4450581,2.3802495e-05,6.0397946e-05,-4.158794e-06,0.004040894,-0.0013131642,-0.0002174528,0.180246,-0.03250009,0.37225235,0.0,0.0,0.0,0.0,0.0,7.0742935e-05,2.1410284e-05,2.5655014e-05,7.6005686e-06,0.00011899788,0.00011885368,0.00011726964,0.037725847,0.03772587,0.008746462,1.801232e-11,1.7973628e-11,4.2122555e-11,7.627569e-07,9.408945e-07,5.0000793e-08,0.0,0.0,0.0,0.0,0.0,0.0,0.0,0.0,24
110666637,110565205,0.35708496,0.028036823,-0.03542465,0.9329788,0.015914505,0.01660317,-0.0051604486,-391.33133,221.77928,-1.4052802,2.1549204e-05,6.1349274e-05,-3.4825619e-06,0.004041601,-0.0013426124,-0.00041262654,0.180246,-0.03250009,0.37225235,0.0,0.0,0.0,0.0,0.0,6.9369795e-05,2.1286414e-05,2.5458263e-05,8.235772e-06,0.00010525512,0.00010525125,0.00010391968,0.037730165,0.037730187,0.008633634,1.800282e-11,1.7911912e-11,4.1965497e-11,7.6130135e-07,9.368707e-07,5.000071e-08,0.0,0.0,0.0,0.0,0.0,0.0,0.0,0.0,24
111666844,111565494,0.3554826,0.031016983,-0.029750016,0.9336943,0.0027917405,-0.0028973236,0.0022401295,-391.3303,221.78047,-1.3606625,1.4206051e-05,6.212858e-05,-1.9248232e-06,0.0040415823,-0.001423516,-0.0004359339,0.180246,-0.03250009,0.37225235,0.0,0.0,0.0,0.0,0.0,6.907416e-05,2.12209e-05,2.5356469e-05,8.102345e-06,9.162975e-05,9.162564e-05,9.0743335e-05,0.037734523,0.037734535,0.008517818,1.8003118e-11,1.786557e-11,4.189546e-11,7.592121e-07,9.3156063e-07,5.0000637e-08,0.0,0.0,0.0,0.0,0.0,0.0,0.0,0.0,24
112657359,112555679,0.35078353,0.03204411,-0.027756412,0.93549657,0.002681531,0.0062592514,0.0018405325,-391.3302,221.78061,-1.3175757,1.4281108e-05,6.1720726e-05,-1.2213394e-06,0.0040415837,-0.0014347453,-0.0002996333,0.180246,-0.03250009,0.37225235,0.0,0.0,0.0,0.0,0.0,6.971692e-05,2.129861e-05,2.542031e-05,7.911367e-06,6.511596e-05,6.511155e-05,6.46685e-05,0.037738863,0.03773888,0.008405269,1.7989034e-11,1.7853288e-11,4.2009254e-11,7.5883634e-07,9.308025e-07,5.0000452e-08,0.0,0.0,0.0,0.0,0.0,0.0,0.0,0.0,24
113667541,113566072,0.34939936,0.031167118,-0.029202487,0.936,-0.000694523,0.0021890232,-0.0024202757,-482.82172,273.48187,-1.2721384,1.773423e-05,6.0418344e-05,-9.4757354e-07,0.0040415847,-0.0014512637,-0.00027797918,0.180246,-0.03250009,0.37225235,0.0,0.0,0.0,0.0,0.0,6.996908e-05,2.1386986e-05,2.5477804e-05,7.8766125e-06,6.5214e-05,6.521362e-05,6.4660795e-05,0.03767991,0.037679903,0.008296017,1.8071928e-11,1.7958445e-11,4.206036e-11,7.5866257e-07,9.297713e-07,5.000045e-08,0.0,0.0,0.0,0.0,0.0,0.0,0.0,0.0,24
114667737,114566361,0.3489638,0.030699832,-0.028493887,0.9361998,-0.0026037167,0.0029757358,-3.8237315e-05,-482.82156,273.48224,-1.2259586,1.5508496e-05,5.9422473e-05,-2.0777652e-07,0.0040404564,-0.0014544617,-0.0002645112,0.180246,-0.03250009,0.37225235,0.0,0.0,0.0,0.0,0.0,7.053002e-05,2.1314467e-05,2.5389743e-05,7.934449e-06,5.206865e-05,5.207033e-05,5.1758798e-05,0.0376843,0.037684284,0.00818951,1.7995187e-11,1.7876456e-11,4.2227968e-11,7.585109e-07,9.290252e-07,5.0000363e-08,0.0,0.0,0.0,0.0,0.0,0.0,0.0,0.0,24
115668002,115566650,0.34444076,0.0319358,-0.024700586,0.9379396,-0.0021971753,-0.0030432595,0.00055667834,-482.8207,273.4839,-1.1816006,1.5653246e-05,5.965654e-05,8.1572705e-07,0.0040415833,-0.0014409571,-0.0002790194,0.180246,-0.03250009,0.37225235,0.0,0.0,0.0,0.0,0.0,7.091088e-05,2.1244163e-05,2.5298406e-05,7.696787e-06,3.9104834e-05,3.910301e-05,3.8935865e-05,0.037688702,0.03768868,0.008091184,1.7971236e-11,1.7846898e-11,4.2251654e-11,7.580332e-07,9.2757585e-07,5.0000285e-08,0.0,0.0,0.0,0.0,0.0,0.0,0.0,0.0,24
116658191,116556835,0.350302,0.029797448,-0.031305943,0.9356392,0.0009779249,0.0007550332,-0.0005759664,-482.8215,273.4829,-1.1335231,2.357185e-05,6.0888844e-05,6.211581e-07,0.004038461,-0.0013913319,-0.0003284235,0.180246,-0.03250009,0.37225235,0.0,0.0,0.0,0.0,0.0,6.996249e-05,2.1233369e-05,2.515866e-05,7.958977e-06,1.3577862e-05,1.357789e-05,1.3556185e-05,0.037693106,0.03769308,0.007990079,1.7960414e-11,1.7864939e-11,4.2054544e-11,7.5752746e-07,9.2280845e-07,5.0000093e-08,0.0,0.0,0.0,0.0,0.0,0.0,0.0,0.0,24
117658583,117557125,0.35980466,0.030817052,-0.034004737,0.9318985,0.00020801042,0.00040910926,-0.00013811032,-482.82196,273.48187,-1.0837387,1.7048775e-05,6.1885716e-05,1.6204327e-06,0.0041269283,-0.0014350488,-0.00033265943,0.180246,-0.03250009,0.37225235,0.0,0.0,0.0,0.0,0.0,6.8464346e-05,2.117905e-05,2.5077858e-05,8.381011e-06,1e-06,1.0000076e-06,1e-06,0.037697513,0.03769749,0.007891514,1.7954284e-11,1.780304e-11,4.1846065e-11,7.5634574e-07,9.185129e-07,5e-08,0.0,0.0,0.0,0.0,0.0,0.0,0.0,0.0,24
118668951,118567519,0.35369092,0.03382254,-0.029274074,0.9342922,-4.3720327e-05,5.420075e-06,2.0909178e-05,-482.82108,273.48276,-1.034128,1.3451896e-05,6.138213e-05,2.6345951e-06,0.0040403977,-0.0014443722,-0.00019762733,0.180246,-0.03250009,0.37225235,0.0,0.0,0.0,0.0,0.0,6.8830006e-05,2.1215383e-05,2.509188e-05,8.08624e-06,1e-06,1e-06,1e-06,0.037701935,0.037701912,0.0077954563,1.7952527e-11,1.7798416e-11,4.1901326e-11,7.556929e-07,9.161521e-07,5e-08,0.0,0.0,0.0,0.0,0.0,0.0,0.0,0.0,24
119659103,119557703,0.3492867,0.03034354,-0.024094764,0.93621445,6.8806345e-05,-0.03394406,-0.01196397,-482.8209,273.48056,-0.9871735,1.366964e-05,6.1232015e-05,3.533914e-06,0.004041492,-0.0014425834,-0.00044375786,0.180246,-0.03250009,0.37225235,0.0,0.0,0.0,0.0,0.0,6.927685e-05,2.1135027e-05,2.4960505e-05,7.8648645e-06,0.0002473225,0.00024692656,0.00024044683,0.0377079,0.037707884,0.007708112,1.8125458e-11,1.7972044e-11,4.1959814e-11,7.540362e-07,9.146456e-07,5.0001034e-08,0.0,0.0,0.0,0.0,0.0,0.0,0.0,0.0,24
120659347,120557993,0.35134324,0.028429639,-0.026560929,0.935438,0.0059577622,-0.034178402,0.003850714,-482.82065,273.48032,-0.93407565,1.891712e-05,6.425362e-05,3.9238785e-06,0.0040415847,-0.0013497404,-0.00048964086,0.180246,-0.03250009,0.37225235,0.0,0.0,0.0,0.0,0.0,6.901642e-05,2.1160864e-05,2.4937672e-05,7.956279e-06,0.00023203857,0.00023183871,0.00022628205,0.037711915,0.03771191,0.007616361,1.8161722e-11,1.7991442e-11,4.1887403e-11,7.53196e-07,9.124097e-07,5.0001088e-08,0.0,0.0,0.0,0.0,0.0,0.0,0.0,0.0,24
121659644,121558282,0.36455005,0.029191978,-0.036522876,0.93000925,-0.006737388,0.04443547,0.035109248,-482.8217,273.48514,-0.88073635,2.2293083e-05,6.568236e-05,4.3113782e-06,0.0040277475,-0.0013270872,-0.00029282022,0.180246,-0.03250009,0.37225235,0.0,0.0,0.0,0.0,0.0,6.839533e-05,2.1312911e-05,2.5074753e-05,8.66618e-06,0.00021763766,0.00021686047,0.00021240671,0.03771599,0.037715998,0.0075271446,1.8171365e-11,1.8004317e-11,4.1933446e-11,7.5237256e-07,9.0982934e-07,5.0001052e-08,0.0,0.0,0.0,0.0,0.0,0.0,0.0,0.0,24
122659945,122558572,0.36631265,0.023979774,-0.029186891,0.9297248,0.042964783,0.018054688,-0.008151135,-482.8178,273.4852,-0.82826585,1.3689165e-05,6.4360705e-05,5.5620967e-06,0.0040415833,-0.0011616824,-0.0005854417,0.180246,-0.03250009,0.37225235,0.0,0.0,0.0,0.0,0.0,6.715283e-05,2.091168e-05,2.451198e-05,8.648825e-06,0.00020299776,0.0002034025,0.00019875562,0.037720095,0.03772011,0.0074394355,1.8109817e-11,1.7932069e-11,4.1697614e-11,7.4728104e-07,9.0072666e-07,5.0001088e-08,0.0,0.0,0.0,0.0,0.0,0.0,0.0,0.0,24
123660279,123558862,0.36027238,0.028498108,-0.024243409,0.93209654,-0.018334297,0.0031050947,0.018049594,-482.8204,273.48495,-0.77621645,1.2299834e-05,6.51768e-05,6.674813e-06,0.004028248,-0.0012110013,-0.00029034712,0.180246,-0.03250009,0.37225235,0.0,0.0,0.0,0.0,0.0,6.753791e-05,2.1081127e-05,2.4696725e-05,8.329773e-06,0.00018823537,0.00018838495,0.00018495922,0.037724264,0.037724275,0.007354378,1.8132587e-11,1.7946457e-11,4.174175e-11,7.460617e-07,8.976747e-07,5.0001077e-08,0.0,0.0,0.0,0.0,0.0,0.0,0.0,0.0,24
124660502,124559152,0.3600698,0.024927778,-0.02515178,0.9322531,-0.019939952,-0.011943351,0.009004832,-482.8207,273.4843,-0.72661215,1.4935426e-05,6.544084e-05,7.383546e-06,0.0040397663,-0.0012072005,-0.00024447162,0.180246,-0.03250009,0.37225235,0.0,0.0,0.0,0.0,0.0,6.7957975e-05,2.1043332e-05,2.4636987e-05,8.353497e-06,0.00017418445,0.0001742682,0.000171282,0.037728447,0.037728466,0.007275556,1.8117221e-11,1.7938552e-11,4.1858014e-11,7.449167e-07,8.9633016e-07,5.000108e-08,0.0,0.0,0.0,0.0,0.0,0.0,0.0,0.0,24
125660814,125559442,0.36806604,0.015649568,-0.026118105,0.92930096,0.016792927,-0.133182,-0.14484514,-482.82764,273.4224,-0.78951675,1.6254013e-05,6.5264576e-05,8.274461e-06,0.0040415833,-0.0012142226,-0.00022041355,0.180246,-0.03250009,0.37225235,0.0,0.0,0.0,0.0,0.0,6.80079e-05,2.1691862e-05,2.5240106e-05,8.7982335e-06,0.0017844572,0.0017810796,0.0015076124,0.03818347,0.038182877,0.007587252,1.8932246e-11,1.8767458e-11,4.1991088e-11,7.447778e-07,8.957003e-07,5.000038e-08,0.0,0.0,0.0,0.0,0.0,0.0,0.0,0.0,24
126661156,126559732,0.36932644,0.019504838,-0.02942545,0.928629,0.23215188,-0.11883851,-0.09990236,-482.68854,273.2708,-0.82847303,1.6344366e-05,6.5245375e-05,9.156956e-06,0.0040415823,-0.0012149706,-0.00028900613,0.180246,-0.03250009,0.37225235,0.0,0.0,0.0,0.0,0.0,6.8652815e-05,2.2593156e-05,2.6148291e-05,8.951849e-06,0.00549718,0.005512088,0.003674944,0.043267533,0.043266244,0.011054262,1.9956667e-11,1.9798696e-11,4.2213698e-11,7.447439e-07,8.9557665e-07,5.000019e-08,0.0,0.0,0.0,0.0,0.0,0.0,0.0,0.0,24
127661374,127560022,0.36193895,0.029815929,-0.030635986,0.9312211,-5.1728067,2.8923287,0.014898882,-573.3814,322.53754,-0.7620868,1.6445269e-05,6.522859e-05,1.0070517e-05,0.004041582,-0.0012160238,-0.00039083525,0.180246,-0.03250009,0.37225235,0.0,0.0,0.0,0.0,0.0,6.946593e-05,2.3587369e-05,2.7178598e-05,8.613833e-06,0.030155765,0.030155607,0.04788244,0.057645883,0.057645883,0.021923855,2.0978252e-11,2.0827609e-11,4.2357534e-11,7.446997e-07,8.9546535e-07,5.0000097e-08,0.0,0.0,0.0,0.0,0.0,0.0,0.0,0.0,24
128661698,128560313,0.35990787,0.03589994,-0.02961072,0.93182653,-5.1629257,2.7654753,0.094703436,-578.5178,325.32678,-0.51252633,1.6671805e-05,6.475642e-05,1.08588665e-05,0.0040431684,-0.0012209641,-0.00046935055,0.180246,-0.03250009,0.37225235,0.0,0.0,0.0,0.0,0.0,7.023418e-05,2.4516523e-05,2.8146003e-05,8.593774e-06,0.009137502,0.009138587,0.017077979,0.024980498,0.024980638,0.04439654,2.1833431e-11,2.1691546e-11,4.254761e-11,7.446548e-07,8.9534944e-07,5e-08,0.0,0.0,0.0,0.0,0.0,0.0,0.0,0.0,24
129662009,129560603,0.36855614,0.03374078,-0.027706359,0.9285798,-5.0383563,2.550685,0.18706216,-583.5161,327.91574,-0.17189719,1.7304783e-05,6.349134e-05,1.1637844e-05,0.004041651,-0.0012369868,-0.00051824504,0.180246,-0.03250009,0.37225235,0.0,0.0,0.0,0.0,0.0,7.021263e-05,2.4940766e-05,2.8581395e-05,9.093886e-06,0.007353212,0.007350713,0.011075097,0.019440295,0.019440273,0.06479807,2.2093083e-11,2.195757e-11,4.2647847e-11,7.4449696e-07,8.951978e-07,5.000036e-08,0.0,0.0,0.0,0.0,0.0,0.0,0.0,0.0,24
130662269,130560894,0.37472096,0.029599119,-0.034309916,0.9260296,-4.7445297,2.519011,0.23305655,-588.2835,330.42096,0.2704875,1.8365137e-05,6.194612e-05,1.2359404e-05,0.0040415856,-0.0012401269,-0.0005347296,0.180246,-0.03250009,0.37225235,0.0,0.0,0.0,0.0,0.0,7.02374e-05,2.4685258e-05,2.8288929e-05,9.481127e-06,0.007566753,0.007570521,0.008914384,0.018083058,0.018082848,0.08116499,2.1651632e-11,2.1509038e-11,4.273241e-11,7.441966e-07,8.950988e-07,5.0000263e-08,0.0,0.0,0.0,0.0,0.0,0.0,0.0,0.0,24
131662535,131561184,0.37658077,0.027443238,-0.035021957,0.92531466,-4.5554442,2.4181395,0.280708,-592.83936,332.85754,0.750903,1.909174e-05,6.0664148e-05,1.2740371e-05,0.0040415856,-0.0012306131,-0.00051219773,0.180246,-0.03250009,0.37225235,0.0,0.0,0.0,0.0,0.0,7.0696944e-05,2.4029538e-05,2.763669e-05,9.7049e-06,0.0076819775,0.007684246,0.008138328,0.017961234,0.01796144,0.093537785,2.0964478e-11,2.0805385e-11,4.286971e-11,7.4366227e-07,8.9492266e-07,5.000019e-08,0.0,0.0,0.0,0.0,0.0,0.0,0.0,0.0,24
