timestamp,timestamp_sample,position_drift_rate_horizontal_m_s,position_drift_rate_vertical_m_s,filtered_horizontal_speed_m_s,checks_passed,check_fail_gps_fix,check_fail_min_sat_count,check_fail_max_pdop,check_fail_max_horz_err,check_fail_max_vert_err,check_fail_max_spd_err,check_fail_max_horz_drift,check_fail_max_vert_drift,check_fail_max_horz_spd_err,check_fail_max_vert_spd_err
17689009,17551058,0.024835924,0.022602528,0.0008889416,1,0,0,0,0,0,0,0,0,0,0
18678327,18552056,0.02557019,0.023581507,0.00028151233,1,0,0,0,0,0,0,0,0,0,0
19677196,19550049,0.025363574,0.021478662,0.00022037711,1,0,0,0,0,0,0,0,0,0,0
20676686,20549051,0.024333414,0.02196762,0.00073957717,1,0,0,0,0,0,0,0,0,0,0
21685488,21551048,0.024476878,0.022461742,0.00091593846,1,0,0,0,0,0,0,0,0,0,0
22684823,22551048,0.021980377,0.01571535,0.00087297586,1,0,0,0,0,0,0,0,0,0,0
23683918,23551046,0.02060831,0.0125202285,0.0008005188,1,0,0,0,0,0,0,0,0,0,0
24683711,24552093,0.01998998,0.009818415,0.00056202663,1,0,0,0,0,0,0,0,0,0,0
25682091,25555328,0.019008698,0.00762543,0.0023060301,1,0,0,0,0,0,0,0,0,0,0
26681188,26553053,0.017102098,0.0056374534,0.0012555402,1,0,0,0,0,0,0,0,0,0,0
27700316,27563048,0.015601686,0.004681063,0.0012753914,1,0,0,0,0,0,0,0,0,0,0
28679497,28553047,0.013192068,0.0015432214,0.001380876,1,0,0,0,0,0,0,0,0,0,0
29678661,29552048,0.012044511,0.0008795609,0.0016103499,1,0,0,0,0,0,0,0,0,0,0
30687659,30554262,0.010401815,0.001540534,0.0011090366,1,0,0,0,0,0,0,0,0,0,0
31686766,31554048,0.0090417685,0.0018727798,0.0008608741,1,0,0,0,0,0,0,0,0,0,0
32685982,32554048,0.007925909,7.9233294e-05,0.0005097628,1,0,0,0,0,0,0,0,0,0,0
33686048,33553049,0.007059242,0.0019621295,0.0011027101,1,0,0,0,0,0,0,0,0,0,0
34684011,34554046,0.007186898,0.004542513,0.001951113,1,0,0,0,0,0,0,0,0,0,0
35683231,35553048,0.0032255698,0.0071913884,0.0060716555,1,0,0,0,0,0,0,0,0,0,0
36682228,36553346,nan,nan,nan,1,0,0,0,0,0,0,0,0,0,0
37701372,37554049,nan,nan,nan,1,0,0,0,0,0,0,0,0,0,0
38680222,38554048,nan,nan,nan,1,0,0,0,0,0,0,0,0,0,0
39679418,39553048,nan,nan,nan,1,0,0,0,0,0,0,0,0,0,0
40678452,40554047,nan,nan,nan,1,0,0,0,0,0,0,0,0,0,0
41688072,41553067,nan,nan,nan,1,0,0,0,0,0,0,0,0,0,0
42686789,42554048,nan,nan,nan,1,0,0,0,0,0,0,0,0,0,0
43686146,43553076,0.24873564,0.016570173,0.24732995,1,0,0,0,0,0,0,0,0,0,0
44675129,44550597,0.8689078,0.03855974,0.86655384,1,0,0,0,0,0,0,1,0,1,0
45684455,45552047,1.4219537,0.050433062,1.4229861,1,0,0,0,0,0,0,1,0,1,0
46683326,46553286,1.9054129,0.058421176,1.9057096,1,0,0,0,0,0,0,1,0,1,0
47682535,47553048,2.3194873,0.06441755,2.3206413,1,0,0,0,0,0,0,1,0,1,0
48681665,48556075,2.6796155,0.06836198,2.6806417,1,0,0,0,0,0,0,1,0,1,0
49680820,49554053,3.0061717,0.06893862,3.008682,1,0,0,0,0,0,0,1,0,1,0
50680566,50554047,3.3062732,0.07220102,3.3095112,1,0,0,0,0,0,0,1,0,1,0
51679179,51553049,3.5671308,0.07103812,3.570058,1,0,0,0,0,0,0,1,0,1,0
52698899,52554049,nan,nan,nan,1,0,0,0,0,0,0,1,0,1,0
53678121,53552050,nan,nan,nan,1,0,0,0,0,0,0,1,0,1,0
54686414,54554047,nan,nan,nan,1,0,0,0,0,0,0,1,0,1,0
55685242,55560266,nan,nan,nan,1,0,0,0,0,0,0,0,0,0,0
56684364,56552049,nan,nan,nan,1,0,0,0,0,0,0,0,0,0,0
57683750,57552130,0.5963354,0.0059334347,0.5990644,1,0,0,0,0,0,0,1,0,1,0
58682691,58553048,1.1456796,0.004141933,1.1482483,1,0,0,0,0,0,0,1,0,1,0
59681736,59552180,1.6399744,0.00086214737,1.6422019,1,0,0,0,0,0,0,1,0,1,0
60680846,60554049,2.0755005,0.0028749597,2.0790834,1,0,0,0,0,0,0,1,0,1,0
61679990,61553049,2.478093,0.00012929227,2.4831583,1,0,0,0,0,0,0,1,0,1,0
62689114,62554103,nan,nan,nan,1,0,0,0,0,0,0,1,0,1,0
63688244,63554049,0.39078322,0.0038239355,0.39153644,1,0,0,0,0,0,0,0,0,0,0
64687377,64553048,0.9556974,0.007955569,0.956351,1,0,0,0,0,0,0,1,0,1,0
65686590,65553047,1.4682277,0.013929967,1.4697839,1,0,0,0,0,0,0,1,0,1,0
66685650,66558048,1.9357847,0.023439297,1.9384722,1,0,0,0,0,0,0,1,0,1,0
67685406,67555048,2.3478024,0.025884531,2.3490384,1,0,0,0,0,0,0,1,0,1,0
68683912,68552399,2.7149267,0.024850594,2.7146327,1,0,0,0,0,0,0,1,0,1,0
69682965,69550081,nan,nan,nan,1,0,0,0,0,0,0,1,0,1,0
70682053,70550482,nan,nan,nan,1,0,0,0,0,0,0,1,0,1,0
71681255,71550778,0.5842788,0.00014831578,0.5842399,1,0,0,0,0,0,0,1,0,1,0
72680305,72551048,1.1142381,0.0014810157,1.115643,1,0,0,0,0,0,0,1,0,1,0
73679566,73552048,1.5928698,0.00041633763,1.5947739,1,0,0,0,0,0,0,1,0,1,0
74678965,74553049,2.022395,0.0021182422,2.0254202,1,0,0,0,0,0,0,1,0,1,0
75677932,75552068,2.4165637,0.0004888565,2.420264,1,0,0,0,0,0,0,1,0,1,0
76687362,76553048,2.7645206,0.0010407647,2.7684793,1,0,0,0,0,0,0,1,0,1,0
77686340,77553050,3.070167,0.0074087176,3.0745642,1,0,0,0,0,0,0,1,0,1,0
78685411,78552049,3.3452218,0.016170567,3.3482826,1,0,0,0,0,0,0,1,0,1,0
79684302,79554047,3.597376,0.029254844,3.6010268,1,0,0,0,0,0,0,1,0,1,0
80683526,80554259,3.8245878,0.030317942,3.830098,1,0,0,0,0,0,0,1,0,1,0
81682578,81553969,4.037377,0.027223121,4.0424104,1,0,0,0,0,0,0,1,0,1,0
82681664,82553049,4.245733,0.018193824,4.2527084,1,0,0,0,0,0,0,1,0,1,0
83680933,83553047,4.433179,0.0023824864,4.4404407,1,0,0,0,0,0,0,1,0,1,0
84680066,84553046,4.6052794,0.013634834,4.6127744,1,0,0,0,0,0,0,1,0,1,0
85679045,85553048,4.767674,0.014705607,4.7752466,1,0,0,0,0,0,0,1,0,1,0
86678282,86552053,4.9165983,0.010837329,4.9242916,1,0,0,0,0,0,0,1,0,1,0
87687629,87552274,5.051859,0.007890896,5.061018,1,0,0,0,0,0,0,1,0,1,0
88686402,88554048,5.174164,0.00060036266,5.1814547,1,0,0,0,0,0,0,1,0,1,0
89685528,89554047,5.2780805,0.012898386,5.2840753,1,0,0,0,0,0,0,1,0,1,0
90684668,90554047,5.3666034,0.021682814,5.37052,1,0,0,0,0,0,0,1,0,1,0
91704130,91558048,5.442039,0.0273415,5.449204,1,0,0,0,0,0,0,1,0,1,0
92682948,92552049,5.5147777,0.0315169,5.517505,1,0,0,0,0,0,0,1,0,1,0
93682633,93549297,5.573029,0.04361586,5.5757403,1,0,0,0,0,0,0,1,0,1,0
94681419,94550048,5.617724,0.052816328,5.620484,1,0,0,0,0,0,0,1,0,1,0
95680293,95550134,nan,nan,nan,1,0,0,0,0,0,0,1,0,1,0
96679441,96552052,0.2930155,0.0097289635,0.2944817,1,0,0,0,0,0,0,0,0,0,0
97688605,97555049,0.847479,0.026515631,0.8523594,1,0,0,0,0,0,0,1,0,1,0
98687975,98555047,1.3438225,0.038063645,1.3472126,1,0,0,0,0,0,0,1,0,1,0
99686945,99553047,1.7883586,0.04975737,1.7922536,1,0,0,0,0,0,0,1,0,1,0
100686070,100553047,2.2023687,0.06319012,2.2062223,1,0,0,0,0,0,0,1,0,1,0
101685604,101552049,2.5763175,0.07853501,2.5797794,1,0,0,0,0,0,0,1,0,1,0
102685207,102552053,2.914268,0.091987684,2.918403,1,0,0,0,0,0,0,1,0,1,0
103683793,103553496,3.2234964,0.106953435,3.2272544,1,0,0,0,0,0,0,1,0,1,0
104682972,104552083,3.511875,0.12099138,3.515985,1,0,0,0,0,0,0,1,0,1,0
105682514,105552051,3.7770133,0.13430455,3.7806437,1,0,0,0,0,0,0,1,0,1,0
106681006,106552048,4.0115995,0.13929513,4.015647,1,0,0,0,0,0,0,1,0,1,0
107689944,107552048,4.2192864,0.14026605,4.224568,1,0,0,0,0,0,0,1,0,1,0
108679123,108553046,4.409701,0.15326793,4.4136996,1,0,0,0,0,0,0,1,0,1,0
109678239,109552049,4.574911,0.16554008,4.5769587,1,0,0,0,0,0,0,1,0,1,0
110687494,110553048,4.714988,0.17033933,4.7178316,1,0,0,0,0,0,0,1,0,1,0
111686515,111552184,4.8482633,0.16791108,4.8506417,1,0,0,0,0,0,0,1,0,1,0
112685595,112552617,4.97167,0.16806738,4.974257,1,0,0,0,0,0,0,1,0,1,0
113684627,113551049,5.083219,0.17045425,5.0846515,1,0,0,0,0,0,0,1,0,1,0
114683879,114551076,5.1831894,0.17040722,5.1847405,1,0,0,0,0,0,0,1,0,1,0
115683165,115551050,5.2783804,0.17163312,5.279546,1,0,0,0,0,0,0,1,0,1,0
116682191,116552067,5.3552165,0.17118837,5.354666,1,0,0,0,0,0,0,1,0,1,0
117681381,117550048,5.417066,0.16608706,5.4180913,1,0,0,0,0,0,0,1,0,1,0
118680578,118550321,5.4824185,0.167305,5.482753,1,0,0,0,0,0,0,1,0,1,0
119680263,119549270,5.54327,0.167726,5.5435762,1,0,0,0,0,0,0,1,0,1,0
120678771,120550048,5.5907826,0.16085473,5.590835,1,0,0,0,0,0,0,1,0,1,0
121677766,121552049,5.620744,0.15560359,5.620372,1,0,0,0,0,0,0,1,0,1,0
122686865,122552399,5.6506386,0.14743853,5.6521454,1,0,0,0,0,0,0,1,0,1,0
123685989,123553048,5.6835003,0.14068653,5.6851163,1,0,0,0,0,0,0,1,0,1,0
124685432,124552048,5.7094693,0.13731751,5.710835,1,0,0,0,0,0,0,1,0,1,0
125684320,125552047,nan,nan,nan,1,0,0,0,0,0,0,1,0,1,0
126683458,126552045,nan,nan,nan,1,0,0,0,0,0,0,1,0,1,0
127682868,127552590,nan,nan,nan,1,0,0,0,0,0,0,1,0,1,0
128682564,128553047,nan,nan,nan,1,0,0,0,0,0,0,1,0,1,0
129681273,129553048,nan,nan,nan,1,0,0,0,0,0,0,1,0,1,0
130680487,130552047,nan,nan,nan,1,0,0,0,0,0,0,1,0,1,0
131679739,131551048,nan,nan,nan,1,0,0,0,0,0,0,1,0,1,0
132688872,132551054,nan,nan,nan,1,0,0,0,0,0,0,1,0,1,0
133677698,133551048,nan,nan,nan,1,0,0,0,0,0,0,1,0,1,0
134676933,134551048,nan,nan,nan,1,0,0,0,0,0,0,1,0,1,0
135686093,135552048,nan,nan,nan,1,0,0,0,0,0,0,1,0,1,0
136685303,136552048,nan,nan,nan,1,0,0,0,0,0,0,1,0,1,0
137684215,137551051,nan,nan,nan,1,0,0,0,0,0,0,1,0,1,0
138683360,138552047,nan,nan,nan,1,0,0,0,0,0,0,1,0,1,0
139682556,139552048,nan,nan,nan,1,0,0,0,0,0,0,1,0,1,0
140681600,140552047,nan,nan,nan,1,0,0,0,0,0,0,1,0,1,0
141680822,141551050,nan,nan,nan,1,0,0,0,0,0,0,1,0,1,0
142679850,142550048,nan,nan,nan,1,0,0,0,0,0,0,1,0,1,0
143679304,143550045,nan,nan,nan,1,0,0,0,0,0,0,1,0,1,0
144678356,144549048,nan,nan,nan,1,0,0,0,0,0,0,1,0,1,0
145677840,145549046,nan,nan,nan,1,0,0,0,0,0,0,1,0,1,0
146676796,146551051,nan,nan,nan,1,0,0,0,0,0,0,1,0,1,0
147685787,147551052,nan,nan,nan,1,0,0,0,0,0,0,1,0,1,0
148684931,148553169,nan,nan,nan,1,0,0,0,0,0,0,1,0,1,0
149684300,149551046,nan,nan,nan,1,0,0,0,0,0,0,1,0,1,0
150683308,150554048,nan,nan,nan,1,0,0,0,0,0,0,1,0,1,0
151682360,151554050,nan,nan,nan,1,0,0,0,0,0,0,1,0,1,0
152681582,152551049,nan,nan,nan,1,0,0,0,0,0,0,1,0,1,0
153680912,153552047,nan,nan,nan,1,0,0,0,0,0,0,1,0,1,0
154680983,154551048,nan,nan,nan,1,0,0,0,0,0,0,1,0,1,0
155679297,155550050,0.019305568,0.0016903089,0.018636454,1,0,0,0,0,0,0,0,0,0,0
156678866,156550272,0.07642601,0.009072569,0.073928945,1,0,0,0,0,0,0,0,0,0,0
157687907,157551051,0.1081081,0.010977677,0.10331345,1,0,0,0,0,0,0,0,0,0,0
158677185,158551501,0.11988342,0.011943941,0.112716906,1,0,0,0,0,0,0,0,0,0,0
159686360,159551051,0.11180277,0.010537665,0.10415917,1,0,0,0,0,0,0,0,0,0,0
160684488,160552046,0.10021073,0.011050047,0.09372874,1,0,0,0,0,0,0,0,0,0,0
161683647,161551047,0.09226805,0.011914653,0.085136786,1,0,0,0,0,0,0,0,0,0,0
162682861,162551049,0.084952,0.014113233,0.07721443,1,0,0,0,0,0,0,0,0,0,0
163682538,163551048,0.077438444,0.013309472,0.06944082,1,0,0,0,0,0,0,0,0,0,0
164681231,164551047,0.07177544,0.013258519,0.062493548,1,0,0,0,0,0,0,0,0,0,0
165680247,165550051,0.06679891,0.0137375295,0.057350066,1,0,0,0,0,0,0,0,0,0,0
166679273,166548256,0.062369008,0.013125808,0.051800534,1,0,0,0,0,0,0,0,0,0,0
167678550,167548457,0.05632738,0.011857205,0.045778673,1,0,0,0,0,0,0,0,0,0,0
168677633,168548049,0.05201484,0.009171489,0.041083943,1,0,0,0,0,0,0,0,0,0,0
169676775,169548050,0.048105113,0.0057393895,0.036911435,1,0,0,0,0,0,0,0,0,0,0
170675927,170550051,0.043470446,0.0040674913,0.03401491,1,0,0,0,0,0,0,0,0,0,0
171685395,171551048,0.038200736,0.0034628944,0.030692209,1,0,0,0,0,0,0,0,0,0,0
172684439,172551049,0.03350254,0.0027696337,0.027923284,1,0,0,0,0,0,0,0,0,0,0
173683456,173551382,0.029230133,0.0031693422,0.025567144,1,0,0,0,0,0,0,0,0,0,0
174682642,174550172,0.026395764,0.001899219,0.022841983,1,0,0,0,0,0,0,0,0,0,0
175681608,175550048,0.023884336,0.0021862881,0.021060998,1,0,0,0,0,0,0,0,0,0,0
176680913,176551047,0.02156218,0.001163196,0.018724918,1,0,0,0,0,0,0,0,0,0,0
177679890,177550048,0.019490685,0.0025767318,0.017380007,1,0,0,0,0,0,0,0,0,0,0
178679239,178550065,0.016614988,0.0075733075,0.015467338,1,0,0,0,0,0,0,0,0,0,0
179678180,179550048,0.016052665,0.008754677,0.01381293,1,0,0,0,0,0,0,0,0,0,0
180678059,180550048,0.016693445,0.0075903516,0.012456682,1,0,0,0,0,0,0,0,0,0,0
181676604,181550047,0.015096641,0.0054968125,0.011463532,1,0,0,0,0,0,0,0,0,0,0
182685616,182550639,0.013722466,0.004131857,0.009866769,1,0,0,0,0,0,0,0,0,0,0
183674938,183550049,0.013552444,0.005835835,0.009399425,1,0,0,0,0,0,0,0,0,0,0
184684022,184551219,0.011185409,0.008380716,0.008168931,1,0,0,0,0,0,0,0,0,0,0
185683222,185551048,0.009996209,0.006896416,0.00716984,1,0,0,0,0,0,0,0,0,0,0
186682577,186550049,0.007961075,0.006660416,0.005774898,1,0,0,0,0,0,0,0,0,0,0
187681312,187551053,0.007222076,0.0061048795,0.005837148,1,0,0,0,0,0,0,0,0,0,0
188680605,188550049,0.005836608,0.00655522,0.0054554995,1,0,0,0,0,0,0,0,0,0,0
189680606,189550048,0.006095301,0.007932,0.004411112,1,0,0,0,0,0,0,0,0,0,0
