timestamp,timestamp_sample,q[0],q[1],q[2],q[3],delta_q_reset[0],delta_q_reset[1],delta_q_reset[2],delta_q_reset[3],quat_reset_counter
16907526,16907235,0.46608815,0.006024292,-0.019382406,0.88450557,1.0,3.516747e-09,5.121115e-10,-0.00016264651,4
16912668,16912287,0.4660871,0.006023545,-0.01938059,0.884506,1.0,3.516747e-09,5.121115e-10,-0.00016264651,4
16958038,16957754,0.4660884,0.006021177,-0.019374289,0.8845055,1.0,3.516747e-09,5.121115e-10,-0.00016264651,4
17008562,17008274,0.46610612,0.0060475045,-0.0193549,0.88449645,1.0,3.516747e-09,5.121115e-10,-0.00016264651,4
17059123,17058793,0.46611303,0.0060508684,-0.019367956,0.8844925,1.0,3.516747e-09,5.121115e-10,-0.00016264651,4
17109601,17109312,0.46611506,0.0060480516,-0.01938561,0.884491,1.0,3.516747e-09,5.121115e-10,-0.00016264651,4
17155068,17154780,0.46612334,0.006061796,-0.019396478,0.8844864,1.0,3.516747e-09,5.121115e-10,-0.00016264651,4
17210646,17210351,0.46611977,0.006058177,-0.01942653,0.8844876,1.0,3.516747e-09,5.121115e-10,-0.00016264651,4
17256127,17255818,0.4661087,0.0060492856,-0.019461561,0.8844927,1.0,3.516747e-09,5.121115e-10,-0.00016264651,4
17306623,17306338,0.46609992,0.0060256417,-0.01950896,0.88449645,1.0,3.516747e-09,5.121115e-10,-0.00016264651,4
17357279,17356857,0.46609193,0.006000729,-0.01955143,0.88449985,1.0,3.516747e-09,5.121115e-10,-0.00016264651,4
17407664,17407377,0.4660875,0.005964231,-0.019591205,0.88450164,1.0,3.516747e-09,5.121115e-10,-0.00016264651,4
17458183,17457896,0.46608448,0.005946708,-0.01961873,0.8845027,1.0,3.516747e-09,5.121115e-10,-0.00016264651,4
17508724,17508415,0.46608385,0.0059341094,-0.019631252,0.88450295,1.0,3.516747e-09,5.121115e-10,-0.00016264651,4
17559246,17558935,0.4660605,0.005925832,-0.019651147,0.8845148,1.0,3.516747e-09,5.121115e-10,-0.00016264651,4
17609744,17609454,0.4660517,0.0059349164,-0.01962973,0.8845198,1.0,3.516747e-09,5.121115e-10,-0.00016264651,4
17655210,17654922,0.4660489,0.0059336117,-0.019605577,0.8845219,1.0,3.516747e-09,5.121115e-10,-0.00016264651,4
17705727,17705441,0.4660479,0.005947812,-0.01956789,0.88452315,1.0,3.516747e-09,5.121115e-10,-0.00016264651,4
17756264,17755961,0.46604759,0.005970657,-0.019538794,0.88452387,1.0,3.516747e-09,5.121115e-10,-0.00016264651,4
17806756,17806480,0.4660409,0.006001162,-0.019508177,0.8845277,1.0,3.516747e-09,5.121115e-10,-0.00016264651,4
17857270,17856999,0.4660372,0.006042276,-0.019456325,0.88453054,1.0,3.516747e-09,5.121115e-10,-0.00016264651,4
17907801,17907519,0.46603242,0.0060771964,-0.01942071,0.8845337,1.0,3.516747e-09,5.121115e-10,-0.00016264651,4
17958326,17958038,0.46603355,0.0061034765,-0.019384984,0.88453364,1.0,3.516747e-09,5.121115e-10,-0.00016264651,4
18008861,18008557,0.4660319,0.0061208587,-0.019370852,0.88453466,1.0,3.516747e-09,5.121115e-10,-0.00016264651,4
18054302,18054025,0.4660245,0.0061355014,-0.019368188,0.88453853,1.0,3.516747e-09,5.121115e-10,-0.00016264651,4
18109871,18109596,0.46602997,0.0061554704,-0.019367725,0.88453555,1.0,3.516747e-09,5.121115e-10,-0.00016264651,4
18155347,18155064,0.46602407,0.006161692,-0.019369436,0.88453853,1.0,3.516747e-09,5.121115e-10,-0.00016264651,4
18205882,18205583,0.46601018,0.006164526,-0.019384002,0.8845455,1.0,3.516747e-09,5.121115e-10,-0.00016264651,4
18261594,18261154,0.46599954,0.006162411,-0.019400477,0.88455087,1.0,3.516747e-09,5.121115e-10,-0.00016264651,4
18306899,18306622,0.46598622,0.006157075,-0.019408721,0.8845577,1.0,3.516747e-09,5.121115e-10,-0.00016264651,4
18357417,18357141,0.4659744,0.006149771,-0.019405162,0.88456404,1.0,3.516747e-09,5.121115e-10,-0.00016264651,4
18407939,18407661,0.4659778,0.006149531,-0.019380264,0.8845628,1.0,3.516747e-09,5.121115e-10,-0.00016264651,4
18458458,18458180,0.46597725,0.006147315,-0.01934604,0.88456386,1.0,3.516747e-09,5.121115e-10,-0.00016264651,4
18508978,18508699,0.46598625,0.006154173,-0.019295825,0.8845601,1.0,3.516747e-09,5.121115e-10,-0.00016264651,4
18554442,18554167,0.46599388,0.006163708,-0.019267863,0.88455665,1.0,3.516747e-09,5.121115e-10,-0.00016264651,4
18610023,18609741,0.46599436,0.0061649363,-0.019261654,0.88455653,1.0,3.516747e-09,5.121115e-10,-0.00016264651,4
18655482,18655205,0.46598366,0.0061436407,-0.019289792,0.8845618,1.0,3.516747e-09,5.121115e-10,-0.00016264651,4
18706028,18705725,0.46596122,0.006121011,-0.019324098,0.88457304,1.0,3.516747e-09,5.121115e-10,-0.00016264651,4
18761576,18761296,0.46594146,0.006116154,-0.019361096,0.8845826,1.0,3.516747e-09,5.121115e-10,-0.00016264651,4
18807037,18806764,0.46592695,0.0061042653,-0.019402267,0.88458943,1.0,3.516747e-09,5.121115e-10,-0.00016264651,4
18857557,18857283,0.46590137,0.006084016,-0.019449094,0.88460195,1.0,3.516747e-09,5.121115e-10,-0.00016264651,4
18908092,18907802,0.46587446,0.006063584,-0.01949812,0.8846152,1.0,3.516747e-09,5.121115e-10,-0.00016264651,4
18958605,18958322,0.46585193,0.0060609262,-0.019513544,0.88462675,1.0,3.516747e-09,5.121115e-10,-0.00016264651,4
19009121,19008841,0.4658362,0.0060724164,-0.019494075,0.88463545,1.0,3.516747e-09,5.121115e-10,-0.00016264651,4
19054590,19054309,0.4658203,0.006080673,-0.019464208,0.8846444,1.0,3.516747e-09,5.121115e-10,-0.00016264651,4
19110161,19109880,0.46579963,0.0061069336,-0.019420631,0.884656,1.0,3.516747e-09,5.121115e-10,-0.00016264651,4
19161004,19160399,0.4657843,0.006107058,-0.019402666,0.8846646,1.0,3.516747e-09,5.121115e-10,-0.00016264651,4
19206145,19205867,0.46578294,0.0061205416,-0.019384088,0.8846655,1.0,3.516747e-09,5.121115e-10,-0.00016264651,4
19256683,19256386,0.46578237,0.006135005,-0.01936215,0.8846662,1.0,3.516747e-09,5.121115e-10,-0.00016264651,4
19307271,19306905,0.4657771,0.006127434,-0.01938925,0.8846684,1.0,3.516747e-09,5.121115e-10,-0.00016264651,4
19357704,19357425,0.46577004,0.006121293,-0.019420635,0.88467157,1.0,3.516747e-09,5.121115e-10,-0.00016264651,4
19408239,19407944,0.4657604,0.006112999,-0.01945412,0.8846759,1.0,3.516747e-09,5.121115e-10,-0.00016264651,4
19458741,19458464,0.4657491,0.006099274,-0.019492762,0.8846811,1.0,3.516747e-09,5.121115e-10,-0.00016264651,4
19509264,19508983,0.4657463,0.006084319,-0.019527245,0.8846819,1.0,3.516747e-09,5.121115e-10,-0.00016264651,4
19559789,19559502,0.46573973,0.0060658185,-0.019550163,0.884685,1.0,3.516747e-09,5.121115e-10,-0.00016264651,4
19605322,19604970,0.4657399,0.006042351,-0.019580942,0.8846844,1.0,3.516747e-09,5.121115e-10,-0.00016264651,4
19660827,19660544,0.46573868,0.0060071,-0.019631758,0.88468415,1.0,3.516747e-09,5.121115e-10,-0.00016264651,4
19706309,19706008,0.46573216,0.005962963,-0.019687392,0.88468665,1.0,3.516747e-09,5.121115e-10,-0.00016264651,4
19756806,19756528,0.46573493,0.00590746,-0.019765055,0.8846838,1.0,3.516747e-09,5.121115e-10,-0.00016264651,4
19807348,19807047,0.4657424,0.005871545,-0.019826828,0.8846787,1.0,3.516747e-09,5.121115e-10,-0.00016264651,4
19857867,19857567,0.46574542,0.005845316,-0.01986899,0.88467646,1.0,3.516747e-09,5.121115e-10,-0.00016264651,4
19908371,19908086,0.46573663,0.0058291736,-0.019907136,0.88468033,1.0,3.516747e-09,5.121115e-10,-0.00016264651,4
19953830,19953553,0.465729,0.0058259913,-0.01993984,0.88468355,1.0,3.516747e-09,5.121115e-10,-0.00016264651,4
20009414,20009125,0.46570393,0.0058306223,-0.019969068,0.88469607,1.0,3.516747e-09,5.121115e-10,-0.00016264651,4
20060498,20059644,0.46568626,0.0058418517,-0.019973887,0.88470525,1.0,3.516747e-09,5.121115e-10,-0.00016264651,4
20105389,20105112,0.465674,0.00586612,-0.019944863,0.88471216,1.0,3.516747e-09,5.121115e-10,-0.00016264651,4
20160992,20160683,0.46566734,0.005892206,-0.019900814,0.88471645,1.0,3.516747e-09,5.121115e-10,-0.00016264651,4
20206422,20206150,0.46564627,0.0059070764,-0.019884404,0.88472784,1.0,3.516747e-09,5.121115e-10,-0.00016264651,4
20256975,20256670,0.46561584,0.0059222123,-0.019872852,0.88474405,1.0,3.516747e-09,5.121115e-10,-0.00016264651,4
20307472,20307189,0.46560064,0.005944452,-0.019857218,0.8847523,1.0,3.516747e-09,5.121115e-10,-0.00016264651,4
20357990,20357709,0.4655801,0.005935663,-0.019877076,0.8847626,1.0,3.516747e-09,5.121115e-10,-0.00016264651,4
20408511,20408228,0.46556702,0.0059243343,-0.019879384,0.8847695,1.0,3.516747e-09,5.121115e-10,-0.00016264651,4
20459027,20458747,0.46555388,0.005926676,-0.019877622,0.88477653,1.0,3.516747e-09,5.121115e-10,-0.00016264651,4
20509545,20509266,0.4655455,0.0059254346,-0.019877313,0.88478094,1.0,3.516747e-09,5.121115e-10,-0.00016264651,4
20560317,20559786,0.46552563,0.005913477,-0.019913364,0.88479066,1.0,3.516747e-09,5.121115e-10,-0.00016264651,4
20605547,20605253,0.46550712,0.0059048925,-0.019944256,0.88479966,1.0,3.516747e-09,5.121115e-10,-0.00016264651,4
20656053,20655773,0.46550176,0.005895759,-0.019961348,0.8848022,1.0,3.516747e-09,5.121115e-10,-0.00016264651,4
20706767,20706292,0.4655042,0.005886675,-0.019973194,0.8848007,1.0,3.516747e-09,5.121115e-10,-0.00016264651,4
20757090,20756811,0.46550617,0.005871319,-0.019981872,0.88479954,1.0,3.516747e-09,5.121115e-10,-0.00016264651,4
20807628,20807331,0.46549863,0.005852918,-0.02000466,0.8848032,1.0,3.516747e-09,5.121115e-10,-0.00016264651,4
20858131,20857852,0.46550158,0.005859675,-0.0199886,0.884802,1.0,3.516747e-09,5.121115e-10,-0.00016264651,4
20908671,20908369,0.4654981,0.0058709215,-0.019962672,0.88480437,1.0,3.516747e-09,5.121115e-10,-0.00016264651,4
20959167,20958891,0.4654844,0.0058847186,-0.019940278,0.8848118,1.0,3.516747e-09,5.121115e-10,-0.00016264651,4
21004637,21004356,0.4654804,0.005907203,-0.01990949,0.8848145,1.0,3.516747e-09,5.121115e-10,-0.00016264651,4
21060230,21059928,0.46548164,0.0059391656,-0.019862058,0.8848147,1.0,3.516747e-09,5.121115e-10,-0.00016264651,4
21105671,21105395,0.46548116,0.0059536193,-0.019843142,0.8848154,1.0,3.516747e-09,5.121115e-10,-0.00016264651,4
21156199,21155914,0.4654722,0.005955362,-0.019837663,0.88482016,1.0,3.516747e-09,5.121115e-10,-0.00016264651,4
21211916,21211486,0.46547875,0.0059800907,-0.019805392,0.8848173,1.0,3.516747e-09,5.121115e-10,-0.00016264651,4
21257276,21256953,0.46547878,0.0059957076,-0.019778756,0.8848177,1.0,3.516747e-09,5.121115e-10,-0.00016264651,4
21307790,21307472,0.4654865,0.006011252,-0.019763568,0.8848139,1.0,3.516747e-09,5.121115e-10,-0.00016264651,4
21358268,21357992,0.46549326,0.0060214293,-0.019747281,0.8848107,1.0,3.516747e-09,5.121115e-10,-0.00016264651,4
21408791,21408511,0.46549946,0.006016528,-0.01973714,0.8848077,1.0,3.516747e-09,5.121115e-10,-0.00016264651,4
21459447,21459031,0.46549934,0.0060239662,-0.019717526,0.88480806,1.0,3.516747e-09,5.121115e-10,-0.00016264651,4
21504795,21504498,0.4654901,0.0060193017,-0.019701855,0.8848133,1.0,3.516747e-09,5.121115e-10,-0.00016264651,4
21560347,21560069,0.465479,0.0060182186,-0.019676372,0.8848197,1.0,3.516747e-09,5.121115e-10,-0.00016264651,4
21605818,21605537,0.46547836,0.006024313,-0.019651916,0.88482064,1.0,3.516747e-09,5.121115e-10,-0.00016264651,4
21656362,21656056,0.46547678,0.00602477,-0.019649114,0.8848214,1.0,3.516747e-09,5.121115e-10,-0.00016264651,4
21706850,21706575,0.4654799,0.0060068504,-0.01966322,0.8848197,1.0,3.516747e-09,5.121115e-10,-0.00016264651,4
21757394,21757095,0.4654871,0.0059934533,-0.019681524,0.88481563,1.0,3.516747e-09,5.121115e-10,-0.00016264651,4
21807889,21807614,0.46549806,0.00598721,-0.01968452,0.88480985,1.0,3.516747e-09,5.121115e-10,-0.00016264651,4
21858440,21858133,0.46549544,0.0059713186,-0.019727288,0.8848103,1.0,3.516747e-09,5.121115e-10,-0.00016264651,4
21909137,21908653,0.46548054,0.005945679,-0.019787641,0.88481694,1.0,3.516747e-09,5.121115e-10,-0.00016264651,4
21959487,21959172,0.46546814,0.0059260796,-0.019856343,0.884822,1.0,3.516747e-09,5.121115e-10,-0.00016264651,4
22004921,22004639,0.4654619,0.0059118564,-0.01991319,0.88482416,1.0,3.516747e-09,5.121115e-10,-0.00016264651,4
22055442,22055159,0.4654542,0.00589676,-0.019959088,0.8848272,1.0,3.516747e-09,5.121115e-10,-0.00016264651,4
22111032,22110730,0.46544504,0.005891959,-0.019975277,0.88483185,1.0,3.516747e-09,5.121115e-10,-0.00016264651,4
22156476,22156197,0.46544242,0.005893758,-0.019980453,0.884833,1.0,3.516747e-09,5.121115e-10,-0.00016264651,4
22207018,22206717,0.4654384,0.005894005,-0.019964127,0.8848355,1.0,3.516747e-09,5.121115e-10,-0.00016264651,4
22257520,22257236,0.46545395,0.00590723,-0.019930493,0.88482803,1.0,3.516747e-09,5.121115e-10,-0.00016264651,4
22308064,22307755,0.46548024,0.0059286607,-0.019893661,0.8848148,1.0,3.516747e-09,5.121115e-10,-0.00016264651,4
22358746,22358275,0.46550056,0.0059529985,-0.019840484,0.88480514,1.0,3.516747e-09,5.121115e-10,-0.00016264651,4
22404041,22403742,0.4655115,0.005980428,-0.019806558,0.8848,1.0,3.516747e-09,5.121115e-10,-0.00016264651,4
22459593,22459314,0.4655064,0.0060047647,-0.019765032,0.8848035,1.0,3.516747e-09,5.121115e-10,-0.00016264651,4
22510120,22509833,0.46549496,0.0060217977,-0.019741593,0.8848098,1.0,3.516747e-09,5.121115e-10,-0.00016264651,4
22555582,22555300,0.46549076,0.0060211425,-0.019731384,0.88481224,1.0,3.516747e-09,5.121115e-10,-0.00016264651,4
22606096,22605820,0.46549487,0.006019813,-0.019735042,0.88481015,1.0,3.516747e-09,5.121115e-10,-0.00016264651,4
22656655,22656339,0.46551517,0.006007593,-0.019750174,0.8847992,1.0,3.516747e-09,5.121115e-10,-0.00016264651,4
22707137,22706858,0.46552566,0.005984244,-0.019772898,0.88479334,1.0,3.516747e-09,5.121115e-10,-0.00016264651,4
22757656,22757378,0.46554366,0.005977796,-0.019762764,0.88478404,1.0,3.516747e-09,5.121115e-10,-0.00016264651,4
22808753,22807897,0.46556258,0.005990203,-0.019737177,0.8847746,1.0,3.516747e-09,5.121115e-10,-0.00016264651,4
22858697,22858416,0.46557385,0.0059979046,-0.01971466,0.88476914,1.0,3.516747e-09,5.121115e-10,-0.00016264651,4
22909219,22908936,0.46558207,0.0059957905,-0.019699955,0.8847652,1.0,3.516747e-09,5.121115e-10,-0.00016264651,4
22959732,22959455,0.4655931,0.0060028876,-0.01968409,0.8847596,1.0,3.516747e-09,5.121115e-10,-0.00016264651,4
23010254,23009974,0.46560606,0.0060125277,-0.01968283,0.8847528,1.0,3.516747e-09,5.121115e-10,-0.00016264651,4
23055719,23055442,0.46560463,0.0060183587,-0.01969282,0.8847533,1.0,3.516747e-09,5.121115e-10,-0.00016264651,4
23106263,23105961,0.46560538,0.0060254247,-0.019698963,0.88475275,1.0,3.516747e-09,5.121115e-10,-0.00016264651,4
23156760,23156480,0.46559793,0.006017113,-0.019705798,0.8847565,1.0,3.516747e-09,5.121115e-10,-0.00016264651,4
23207279,23207000,0.46559703,0.0060212193,-0.019687422,0.8847574,1.0,3.516747e-09,5.121115e-10,-0.00016264651,4
23258127,23257519,0.46559703,0.0060224473,-0.019687299,0.8847574,1.0,3.516747e-09,5.121115e-10,-0.00016264651,4
23308340,23308039,0.46560022,0.006033156,-0.019661698,0.88475615,1.0,3.516747e-09,5.121115e-10,-0.00016264651,4
23358836,23358558,0.46560892,0.006056162,-0.019611368,0.8847526,1.0,3.516747e-09,5.121115e-10,-0.00016264651,4
23409364,23409077,0.465609,0.0060774665,-0.019577796,0.88475305,1.0,3.516747e-09,5.121115e-10,-0.00016264651,4
23454842,23454545,0.46560803,0.0060899598,-0.019548552,0.8847542,1.0,3.516747e-09,5.121115e-10,-0.00016264651,4
23510396,23510116,0.46560153,0.006091046,-0.019537324,0.8847579,1.0,3.516747e-09,5.121115e-10,-0.00016264651,4
23555863,23555583,0.46560216,0.0060912403,-0.019531311,0.88475776,1.0,3.516747e-09,5.121115e-10,-0.00016264651,4
23606383,23606103,0.46558022,0.0060578315,-0.019598234,0.88476795,1.0,3.516747e-09,5.121115e-10,-0.00016264651,4
23656898,23656622,0.46554962,0.0060301526,-0.01967751,0.88478243,1.0,3.516747e-09,5.121115e-10,-0.00016264651,4
23707710,23707141,0.46539345,0.0059822104,-0.019713333,0.88486415,1.0,3.516747e-09,5.121115e-10,-0.00016264651,4
23757967,23757661,0.46512657,0.005981073,-0.019757595,0.88500345,1.0,3.516747e-09,5.121115e-10,-0.00016264651,4
23808461,23808180,0.4647791,0.005989473,-0.019766232,0.8851858,1.0,3.516747e-09,5.121115e-10,-0.00016264651,4
23858996,23858699,0.4643104,0.0059858267,-0.019754471,0.88543206,1.0,3.516747e-09,5.121115e-10,-0.00016264651,4
23909534,23909221,0.4638435,0.005972666,-0.01979554,0.8856759,1.0,3.516747e-09,5.121115e-10,-0.00016264651,4
23954970,23954686,0.46347,0.0059640505,-0.019848576,0.8858702,1.0,3.516747e-09,5.121115e-10,-0.00016264651,4
24005517,24005205,0.46311885,0.0059798704,-0.019864615,0.8860533,1.0,3.516747e-09,5.121115e-10,-0.00016264651,4
24056001,24055725,0.46283713,0.006055286,-0.019798322,0.88620156,1.0,3.516747e-09,5.121115e-10,-0.00016264651,4
24106522,24106244,0.46255487,0.006137705,-0.019747535,0.8863495,1.0,3.516747e-09,5.121115e-10,-0.00016264651,4
24157049,24156764,0.46224013,0.006216531,-0.019684885,0.88651454,1.0,3.516747e-09,5.121115e-10,-0.00016264651,4
24207591,24207283,0.4619128,0.006265451,-0.019705718,0.88668436,1.0,3.516747e-09,5.121115e-10,-0.00016264651,4
24258082,24257802,0.46161813,0.0062872255,-0.019757533,0.8868364,1.0,3.516747e-09,5.121115e-10,-0.00016264651,4
24308599,24308321,0.46131894,0.006284227,-0.019851854,0.88699,1.0,3.516747e-09,5.121115e-10,-0.00016264651,4
24359142,24358841,0.46106625,0.0063229646,-0.01988506,0.8871205,1.0,3.516747e-09,5.121115e-10,-0.00016264651,4
24409637,24409360,0.46082082,0.0063530332,-0.019870898,0.88724804,1.0,3.516747e-09,5.121115e-10,-0.00016264651,4
24455266,24454828,0.46061185,0.006378424,-0.019825937,0.88735735,1.0,3.516747e-09,5.121115e-10,-0.00016264651,4
24505629,24505347,0.46042618,0.006396996,-0.019776309,0.8874547,1.0,3.516747e-09,5.121115e-10,-0.00016264651,4
24561199,24560919,0.46028638,0.006380085,-0.019785143,0.88752705,1.0,3.516747e-09,5.121115e-10,-0.00016264651,4
24606663,24606386,0.460231,0.0063703945,-0.01980626,0.8875555,1.0,3.516747e-09,5.121115e-10,-0.00016264651,4
24657280,24656905,0.46012956,0.0063512595,-0.019882059,0.8876065,1.0,3.516747e-09,5.121115e-10,-0.00016264651,4
24707701,24707424,0.4599652,0.006314015,-0.019964796,0.88769007,1.0,3.516747e-09,5.121115e-10,-0.00016264651,4
24758222,24757944,0.45972842,0.0063100536,-0.02001181,0.88781166,1.0,3.516747e-09,5.121115e-10,-0.00016264651,4
24808742,24808463,0.4594372,0.006313057,-0.020071652,0.88796103,1.0,3.516747e-09,5.121115e-10,-0.00016264651,4
24854231,24853930,0.45916405,0.006359918,-0.020055072,0.88810235,1.0,3.516747e-09,5.121115e-10,-0.00016264651,4
24909793,24909502,0.45886528,0.0064519537,-0.019968744,0.888258,1.0,3.516747e-09,5.121115e-10,-0.00016264651,4
24960300,24960021,0.4585884,0.0065371115,-0.019852778,0.888403,1.0,3.516747e-09,5.121115e-10,-0.00016264651,4
25005770,25005488,0.45829856,0.0066224677,-0.019766044,0.8885538,1.0,3.516747e-09,5.121115e-10,-0.00016264651,4
25061339,25061064,0.45792705,0.006701468,-0.019692555,0.88874644,1.0,3.516747e-09,5.121115e-10,-0.00016264651,4
25107052,25106527,0.45763037,0.0067420374,-0.019667888,0.8888995,1.0,3.516747e-09,5.121115e-10,-0.00016264651,4
25157358,25157046,0.4573326,0.006774012,-0.019637613,0.8890531,1.0,3.516747e-09,5.121115e-10,-0.00016264651,4
25207840,25207566,0.4570781,0.00672687,-0.019662792,0.8891837,1.0,3.516747e-09,5.121115e-10,-0.00016264651,4
25258365,25258085,0.4568545,0.006621118,-0.019740527,0.88929784,1.0,3.516747e-09,5.121115e-10,-0.00016264651,4
25308902,25308604,0.45659825,0.006475975,-0.019893607,0.88942695,1.0,3.516747e-09,5.121115e-10,-0.00016264651,4
25354387,25354072,0.4563698,0.006325212,-0.020015556,0.8895427,1.0,3.516747e-09,5.121115e-10,-0.00016264651,4
25409925,25409643,0.4561238,0.0061632968,-0.020003585,0.8896702,1.0,3.516747e-09,5.121115e-10,-0.00016264651,4
25460438,25460162,0.45592847,0.006064401,-0.019981742,0.8897714,1.0,3.516747e-09,5.121115e-10,-0.00016264651,4
25505937,25505630,0.45573682,0.0060532973,-0.019984616,0.8898697,1.0,3.516747e-09,5.121115e-10,-0.00016264651,4
25557082,25556149,0.4554993,0.0061000064,-0.020077923,0.88998884,1.0,3.516747e-09,5.121115e-10,-0.00016264651,4
25606946,25606669,0.45528126,0.006157699,-0.020177867,0.89009774,1.0,3.516747e-09,5.121115e-10,-0.00016264651,4
25657484,25657188,0.4551264,0.0062089195,-0.02030891,0.8901737,1.0,3.516747e-09,5.121115e-10,-0.00016264651,4
25707984,25707707,0.45500782,0.0062828683,-0.020493617,0.89022946,1.0,3.516747e-09,5.121115e-10,-0.00016264651,4
25758572,25758227,0.45495105,0.0064202766,-0.020646067,0.890254,1.0,3.516747e-09,5.121115e-10,-0.00016264651,4
25809025,25808746,0.4548935,0.006600328,-0.02087361,0.8902768,1.0,3.516747e-09,5.121115e-10,-0.00016264651,4
25859558,25859265,0.45485395,0.006823682,-0.021042176,0.89029133,1.0,3.516747e-09,5.121115e-10,-0.00016264651,4
25905020,25904732,0.4548162,0.0069624456,-0.021125937,0.89030755,1.0,3.516747e-09,5.121115e-10,-0.00016264651,4
25960624,25960304,0.45477045,0.0070277313,-0.021107456,0.8903309,1.0,3.516747e-09,5.121115e-10,-0.00016264651,4
26006399,26005771,0.4547449,0.0070610447,-0.021000216,0.8903461,1.0,3.516747e-09,5.121115e-10,-0.00016264651,4
26056591,26056291,0.454709,0.0070892954,-0.020893907,0.89036685,1.0,3.516747e-09,5.121115e-10,-0.00016264651,4
26107096,26106810,0.45464694,0.007055121,-0.020783534,0.89040124,1.0,3.516747e-09,5.121115e-10,-0.00016264651,4
26157614,26157329,0.4545774,0.006968584,-0.020704895,0.89043933,1.0,3.516747e-09,5.121115e-10,-0.00016264651,4
26208161,26207848,0.45452392,0.00687391,-0.02066701,0.89046824,1.0,3.516747e-09,5.121115e-10,-0.00016264651,4
26258647,26258368,0.45448306,0.006831838,-0.020671453,0.89048934,1.0,3.516747e-09,5.121115e-10,-0.00016264651,4
26309170,26308887,0.4544287,0.0068109836,-0.020703243,0.8905165,1.0,3.516747e-09,5.121115e-10,-0.00016264651,4
26359688,26359406,0.45436114,0.006825767,-0.020706441,0.89055073,1.0,3.516747e-09,5.121115e-10,-0.00016264651,4
26405288,26404874,0.4542672,0.0068451716,-0.020742351,0.89059776,1.0,3.516747e-09,5.121115e-10,-0.00016264651,4
26456011,26455393,0.45415276,0.006853668,-0.020815369,0.89065427,1.0,3.516747e-09,5.121115e-10,-0.00016264651,4
26511244,26510965,0.45406052,0.006891996,-0.020866761,0.8906998,1.0,3.516747e-09,5.121115e-10,-0.00016264651,4
26556710,26556432,0.4539894,0.0069406736,-0.020931203,0.8907342,1.0,3.516747e-09,5.121115e-10,-0.00016264651,4
26607234,26606951,0.45390278,0.0069694277,-0.02098537,0.8907768,1.0,3.516747e-09,5.121115e-10,-0.00016264651,4
26657777,26657470,0.4537868,0.006911953,-0.02103392,0.89083517,1.0,3.516747e-09,5.121115e-10,-0.00016264651,4
26708271,26707990,0.4536778,0.0068765995,-0.021042628,0.8908908,1.0,3.516747e-09,5.121115e-10,-0.00016264651,4
26758787,26758509,0.4535834,0.0068720076,-0.021046456,0.8909389,1.0,3.516747e-09,5.121115e-10,-0.00016264651,4
26809311,26809028,0.45351353,0.006877354,-0.021042611,0.89097446,1.0,3.516747e-09,5.121115e-10,-0.00016264651,4
26860067,26859548,0.45346007,0.006877833,-0.020998329,0.8910027,1.0,3.516747e-09,5.121115e-10,-0.00016264651,4
26905756,26905015,0.45339343,0.006883433,-0.020969892,0.8910372,1.0,3.516747e-09,5.121115e-10,-0.00016264651,4
26955815,26955535,0.45330718,0.006902375,-0.020940306,0.8910817,1.0,3.516747e-09,5.121115e-10,-0.00016264651,4
27006334,27006054,0.45325562,0.0069707017,-0.020832844,0.8911099,1.0,3.516747e-09,5.121115e-10,-0.00016264651,4
27056856,27056573,0.4531993,0.0070176064,-0.020782549,0.89113927,1.0,3.516747e-09,5.121115e-10,-0.00016264651,4
27107400,27107092,0.4531595,0.007024332,-0.020748813,0.8911603,1.0,3.516747e-09,5.121115e-10,-0.00016264651,4
27157891,27157612,0.45310456,0.0070016617,-0.020764854,0.8911881,1.0,3.516747e-09,5.121115e-10,-0.00016264651,4
27208438,27208131,0.45307782,0.0069816615,-0.020755112,0.891202,1.0,3.516747e-09,5.121115e-10,-0.00016264651,4
27258933,27258650,0.45304397,0.006982489,-0.020785276,0.89121854,1.0,3.516747e-09,5.121115e-10,-0.00016264651,4
27304394,27304118,0.4530062,0.006962859,-0.020804059,0.8912375,1.0,3.516747e-09,5.121115e-10,-0.00016264651,4
27360079,27359689,0.45298323,0.0069524054,-0.02072651,0.8912511,1.0,3.516747e-09,5.121115e-10,-0.00016264651,4
27405438,27405157,0.45294294,0.006928438,-0.02067779,0.89127284,1.0,3.516747e-09,5.121115e-10,-0.00016264651,4
27455958,27455676,0.45291054,0.0069578183,-0.02058289,0.89129126,1.0,3.516747e-09,5.121115e-10,-0.00016264651,4
27511530,27511247,0.45285052,0.0069814594,-0.020497188,0.8913235,1.0,3.516747e-09,5.121115e-10,-0.00016264651,4
27557032,27556715,0.4528294,0.007016144,-0.020401683,0.89133614,1.0,3.516747e-09,5.121115e-10,-0.00016264651,4
27607524,27607234,0.45279723,0.0070494288,-0.020319575,0.8913542,1.0,3.516747e-09,5.121115e-10,-0.00016264651,4
27658083,27657753,0.45275185,0.0070859534,-0.02027007,0.89137805,1.0,3.516747e-09,5.121115e-10,-0.00016264651,4
27708552,27708272,0.45267463,0.00713107,-0.02027475,0.89141685,1.0,3.516747e-09,5.121115e-10,-0.00016264651,4
27759073,27758792,0.45257586,0.007161158,-0.020326324,0.89146554,1.0,3.516747e-09,5.121115e-10,-0.00016264651,4
27804572,27804259,0.45249245,0.0071929037,-0.020366723,0.8915067,1.0,3.516747e-09,5.121115e-10,-0.00016264651,4
27860112,27859831,0.45240885,0.0071989587,-0.020415962,0.89154786,1.0,3.516747e-09,5.121115e-10,-0.00016264651,4
27910635,27910350,0.4523664,0.007231567,-0.020407867,0.8915693,1.0,3.516747e-09,5.121115e-10,-0.00016264651,4
27956096,27955817,0.45231947,0.007251317,-0.020430243,0.89159256,1.0,3.516747e-09,5.121115e-10,-0.00016264651,4
28006659,28006337,0.45224765,0.007275531,-0.020437106,0.8916286,1.0,3.516747e-09,5.121115e-10,-0.00016264651,4
28057137,28056856,0.45215777,0.0072302106,-0.020477517,0.8916736,1.0,3.516747e-09,5.121115e-10,-0.00016264651,4
28107676,28107375,0.45209026,0.007189823,-0.020494375,0.8917077,1.0,3.516747e-09,5.121115e-10,-0.00016264651,4
28158180,28157894,0.45203906,0.007162003,-0.020488448,0.891734,1.0,3.516747e-09,5.121115e-10,-0.00016264651,4
28208690,28208414,0.45199788,0.0071410337,-0.02047991,0.8917553,1.0,3.516747e-09,5.121115e-10,-0.00016264651,4
28259257,28258933,0.4519611,0.0071519963,-0.020463984,0.89177424,1.0,3.516747e-09,5.121115e-10,-0.00016264651,4
28309737,28309453,0.45190245,0.0071540945,-0.020458797,0.8918041,1.0,3.516747e-09,5.121115e-10,-0.00016264651,4
28355272,28354920,0.45185348,0.0071687247,-0.02041293,0.8918297,1.0,3.516747e-09,5.121115e-10,-0.00016264651,4
28410775,28410491,0.45179993,0.00716309,-0.02035988,0.89185816,1.0,3.516747e-09,5.121115e-10,-0.00016264651,4
28456259,28455958,0.45179364,0.007184446,-0.02029863,0.89186263,1.0,3.516747e-09,5.121115e-10,-0.00016264651,4
28506757,28506478,0.45176083,0.007196084,-0.020283904,0.8918795,1.0,3.516747e-09,5.121115e-10,-0.00016264651,4
28557274,28556997,0.45172665,0.007190004,-0.020264108,0.8918973,1.0,3.516747e-09,5.121115e-10,-0.00016264651,4
28607793,28607516,0.45168707,0.007200623,-0.020227648,0.89191806,1.0,3.516747e-09,5.121115e-10,-0.00016264651,4
28658317,28658036,0.4516471,0.0072128903,-0.02018583,0.8919392,1.0,3.516747e-09,5.121115e-10,-0.00016264651,4
28703807,28703503,0.45164776,0.007267037,-0.020098675,0.8919403,1.0,3.516747e-09,5.121115e-10,-0.00016264651,4
28759358,28759075,0.4516042,0.00730743,-0.020086985,0.8919624,1.0,3.516747e-09,5.121115e-10,-0.00016264651,4
28810071,28809594,0.4515556,0.007354483,-0.02006441,0.8919871,1.0,3.516747e-09,5.121115e-10,-0.00016264651,4
28855343,28855061,0.45150417,0.007370978,-0.020076312,0.89201266,1.0,3.516747e-09,5.121115e-10,-0.00016264651,4
28910917,28910632,0.4514485,0.0073837787,-0.020118669,0.89203984,1.0,3.516747e-09,5.121115e-10,-0.00016264651,4
28956398,28956100,0.45141742,0.0074024927,-0.020120913,0.8920553,1.0,3.516747e-09,5.121115e-10,-0.00016264651,4
29006898,29006619,0.4513805,0.0074197017,-0.020127304,0.8920737,1.0,3.516747e-09,5.121115e-10,-0.00016264651,4
29057416,29057139,0.4513297,0.0074272333,-0.020105427,0.8920999,1.0,3.516747e-09,5.121115e-10,-0.00016264651,4
29107939,29107658,0.45127597,0.007421189,-0.020088153,0.8921275,1.0,3.516747e-09,5.121115e-10,-0.00016264651,4
29158502,29158177,0.451239,0.0074388827,-0.020030374,0.89214736,1.0,3.516747e-09,5.121115e-10,-0.00016264651,4
29208972,29208696,0.45118713,0.007447536,-0.019990824,0.8921743,1.0,3.516747e-09,5.121115e-10,-0.00016264651,4
29259650,29259216,0.45115468,0.0074733817,-0.019918522,0.8921922,1.0,3.516747e-09,5.121115e-10,-0.00016264651,4
29310016,29309735,0.45111728,0.007498925,-0.01985123,0.89221245,1.0,3.516747e-09,5.121115e-10,-0.00016264651,4
29355483,29355202,0.45107615,0.0075091776,-0.01980944,0.892234,1.0,3.516747e-09,5.121115e-10,-0.00016264651,4
29406003,29405722,0.4510188,0.0074829212,-0.01981695,0.89226305,1.0,3.516747e-09,5.121115e-10,-0.00016264651,4
29456516,29456241,0.45095485,0.0074576526,-0.019841986,0.892295,1.0,3.516747e-09,5.121115e-10,-0.00016264651,4
29507038,29506760,0.45091057,0.007443233,-0.019854454,0.8923173,1.0,3.516747e-09,5.121115e-10,-0.00016264651,4
29557557,29557280,0.4508763,0.0074334913,-0.019866284,0.89233446,1.0,3.516747e-09,5.121115e-10,-0.00016264651,4
29608083,29607799,0.4508568,0.007431375,-0.019816857,0.89234537,1.0,3.516747e-09,5.121115e-10,-0.00016264651,4
29658663,29658318,0.45079863,0.007423591,-0.019825391,0.8923747,1.0,3.516747e-09,5.121115e-10,-0.00016264651,4
29709115,29708838,0.45076916,0.0074534756,-0.019787416,0.8923902,1.0,3.516747e-09,5.121115e-10,-0.00016264651,4
29754586,29754305,0.4506983,0.007462546,-0.019803261,0.89242554,1.0,3.516747e-09,5.121115e-10,-0.00016264651,4
29805106,29804824,0.45069796,0.007541517,-0.019686617,0.8924276,1.0,3.516747e-09,5.121115e-10,-0.00016264651,4
29855620,29855344,0.4506776,0.0075896177,-0.019650325,0.89243823,1.0,3.516747e-09,5.121115e-10,-0.00016264651,4
29906143,29905863,0.4506146,0.007604702,-0.01967462,0.8924694,1.0,3.516747e-09,5.121115e-10,-0.00016264651,4
29961750,29961434,0.45056382,0.007638394,-0.019672064,0.8924948,1.0,3.516747e-09,5.121115e-10,-0.00016264651,4
30007190,30006902,0.4504843,0.0076230215,-0.019754907,0.89253324,1.0,3.516747e-09,5.121115e-10,-0.00016264651,4
30057697,30057421,0.4504375,0.0076260273,-0.019784452,0.8925562,1.0,3.516747e-09,5.121115e-10,-0.00016264651,4
30108294,30107940,0.4503841,0.0075998763,-0.019859917,0.89258164,1.0,3.516747e-09,5.121115e-10,-0.00016264651,4
30158738,30158460,0.45034784,0.007577521,-0.019887418,0.89259964,1.0,3.516747e-09,5.121115e-10,-0.00016264651,4
30209259,30208979,0.45029092,0.0075245574,-0.019961417,0.8926271,1.0,3.516747e-09,5.121115e-10,-0.00016264651,4
30254722,30254446,0.4502355,0.0074677356,-0.020019231,0.8926543,1.0,3.516747e-09,5.121115e-10,-0.00016264651,4
30310306,30310018,0.45016992,0.0074201543,-0.020038934,0.8926873,1.0,3.516747e-09,5.121115e-10,-0.00016264651,4
30355762,30355486,0.4500998,0.0073834723,-0.020049257,0.89272267,1.0,3.516747e-09,5.121115e-10,-0.00016264651,4
30406306,30406004,0.45006883,0.0073628635,-0.020008354,0.8927394,1.0,3.516747e-09,5.121115e-10,-0.00016264651,4
30456804,30456524,0.45003223,0.0073499233,-0.020007366,0.8927579,1.0,3.516747e-09,5.121115e-10,-0.00016264651,4
30507338,30507043,0.44998264,0.007309472,-0.02007905,0.8927817,1.0,3.516747e-09,5.121115e-10,-0.00016264651,4
30557863,30557562,0.44990554,0.0072860844,-0.020171247,0.89281857,1.0,3.516747e-09,5.121115e-10,-0.00016264651,4
30608397,30608081,0.44988975,0.0072982083,-0.020139823,0.89282715,1.0,3.516747e-09,5.121115e-10,-0.00016264651,4
30658888,30658601,0.44983307,0.0072855987,-0.020176666,0.892855,1.0,3.516747e-09,5.121115e-10,-0.00016264651,4
30709416,30709120,0.44980824,0.007327471,-0.020093825,0.892869,1.0,3.516747e-09,5.121115e-10,-0.00016264651,4
30754888,30754588,0.44976437,0.0073593934,-0.020019414,0.8928926,1.0,3.516747e-09,5.121115e-10,-0.00016264651,4
30805389,30805107,0.44965136,0.0073562465,-0.020061456,0.8929485,1.0,3.516747e-09,5.121115e-10,-0.00016264651,4
30860963,30860678,0.4495967,0.007396554,-0.02000967,0.892977,1.0,3.516747e-09,5.121115e-10,-0.00016264651,4
30906453,30906147,0.44955847,0.007395955,-0.019998476,0.8929965,1.0,3.516747e-09,5.121115e-10,-0.00016264651,4
30956946,30956665,0.44952816,0.0073776008,-0.019988906,0.8930121,1.0,3.516747e-09,5.121115e-10,-0.00016264651,4
31007499,31007185,0.4494939,0.0073384712,-0.020019408,0.8930289,1.0,3.516747e-09,5.121115e-10,-0.00016264651,4
31057982,31057703,0.44946033,0.0072949077,-0.020082135,0.8930448,1.0,3.516747e-09,5.121115e-10,-0.00016264651,4
31108502,31108223,0.44938597,0.007234347,-0.020234108,0.8930793,1.0,3.516747e-09,5.121115e-10,-0.00016264651,4
31153983,31153690,0.44931668,0.0071682585,-0.020372605,0.8931116,1.0,3.516747e-09,5.121115e-10,-0.00016264651,4
31209567,31209261,0.44923565,0.0071072266,-0.020513957,0.89314944,1.0,3.516747e-09,5.121115e-10,-0.00016264651,4
31260061,31259781,0.44918364,0.0070510083,-0.0206026,0.8931742,1.0,3.516747e-09,5.121115e-10,-0.00016264651,4
31305524,31305248,0.44915923,0.0070273867,-0.020574424,0.8931872,1.0,3.516747e-09,5.121115e-10,-0.00016264651,4
31361119,31360819,0.4491129,0.00700326,-0.020564482,0.8932109,1.0,3.516747e-09,5.121115e-10,-0.00016264651,4
31406566,31406287,0.44908643,0.007002048,-0.02052391,0.89322525,1.0,3.516747e-09,5.121115e-10,-0.00016264651,4
31457088,31456806,0.44905397,0.0070092576,-0.020472618,0.89324266,1.0,3.516747e-09,5.121115e-10,-0.00016264651,4
31507603,31507325,0.44907,0.0070640426,-0.020360067,0.89323664,1.0,3.516747e-09,5.121115e-10,-0.00016264651,4
31558128,31557845,0.44905373,0.007097988,-0.020286188,0.89324623,1.0,3.516747e-09,5.121115e-10,-0.00016264651,4
31608663,31608364,0.44902802,0.007110594,-0.02024845,0.89325994,1.0,3.516747e-09,5.121115e-10,-0.00016264651,4
31659162,31658883,0.4489786,0.007087001,-0.020296723,0.89328396,1.0,3.516747e-09,5.121115e-10,-0.00016264651,4
31709689,31709403,0.44894016,0.0070443186,-0.02041686,0.8933008,1.0,3.516747e-09,5.121115e-10,-0.00016264651,4
31760203,31759922,0.44891462,0.0069704447,-0.02055399,0.8933111,1.0,3.516747e-09,5.121115e-10,-0.00016264651,4
31805701,31805389,0.44888267,0.00689785,-0.020702202,0.8933243,1.0,3.516747e-09,5.121115e-10,-0.00016264651,4
31856190,31855909,0.44886833,0.006845782,-0.020781552,0.89333,1.0,3.516747e-09,5.121115e-10,-0.00016264651,4
31906721,31906428,0.44883218,0.006799079,-0.020870654,0.8933465,1.0,3.516747e-09,5.121115e-10,-0.00016264651,4
31957226,31956947,0.44881064,0.0067816637,-0.02090762,0.89335656,1.0,3.516747e-09,5.121115e-10,-0.00016264651,4
32007743,32007467,0.44876456,0.00678575,-0.020947618,0.8933787,1.0,3.516747e-09,5.121115e-10,-0.00016264651,4
32058286,32057986,0.4487304,0.0067861825,-0.020962125,0.8933956,1.0,3.516747e-09,5.121115e-10,-0.00016264651,4
32108783,32108505,0.44872832,0.0068147904,-0.02092559,0.8933973,1.0,3.516747e-09,5.121115e-10,-0.00016264651,4
32159326,32159025,0.4487044,0.006816667,-0.020964738,0.8934083,1.0,3.516747e-09,5.121115e-10,-0.00016264651,4
32204767,32204492,0.44865954,0.006794006,-0.021058515,0.8934289,1.0,3.516747e-09,5.121115e-10,-0.00016264651,4
32260354,32260063,0.44860965,0.0067493566,-0.021214107,0.8934505,1.0,3.516747e-09,5.121115e-10,-0.00016264651,4
32305816,32305531,0.4485818,0.006687732,-0.021375818,0.89346105,1.0,3.516747e-09,5.121115e-10,-0.00016264651,4
32356354,32356051,0.44856548,0.0066205207,-0.021535613,0.89346606,1.0,3.516747e-09,5.121115e-10,-0.00016264651,4
32412019,32411621,0.44855127,0.006577287,-0.0216427,0.8934708,1.0,3.516747e-09,5.121115e-10,-0.00016264651,4
32457364,32457089,0.44850802,0.0065241796,-0.021770705,0.8934899,1.0,3.516747e-09,5.121115e-10,-0.00016264651,4
32507902,32507608,0.4484804,0.0064807762,-0.021833235,0.89350253,1.0,3.516747e-09,5.121115e-10,-0.00016264651,4
32558404,32558127,0.4484621,0.006445731,-0.021863084,0.8935113,1.0,3.516747e-09,5.121115e-10,-0.00016264651,4
32608923,32608646,0.44843102,0.006391837,-0.021927437,0.89352566,1.0,3.516747e-09,5.121115e-10,-0.00016264651,4
32659445,32659166,0.44842002,0.006373955,-0.021918382,0.89353144,1.0,3.516747e-09,5.121115e-10,-0.00016264651,4
32704936,32704633,0.4484026,0.0063574784,-0.021955326,0.8935394,1.0,3.516747e-09,5.121115e-10,-0.00016264651,4
32760484,32760208,0.44835502,0.0063289567,-0.022025535,0.89356184,1.0,3.516747e-09,5.121115e-10,-0.00016264651,4
32805975,32805672,0.44834423,0.0063090757,-0.022050673,0.8935667,1.0,3.516747e-09,5.121115e-10,-0.00016264651,4
32856468,32856191,0.4483546,0.0062708114,-0.02210088,0.8935605,1.0,3.516747e-09,5.121115e-10,-0.00016264651,4
32906996,32906710,0.44836286,0.0062687253,-0.022143211,0.89355534,1.0,3.516747e-09,5.121115e-10,-0.00016264651,4
32957528,32957230,0.4483714,0.006291353,-0.022133524,0.89355123,1.0,3.516747e-09,5.121115e-10,-0.00016264651,4
33008028,33007749,0.4483846,0.006324396,-0.022071963,0.89354587,1.0,3.516747e-09,5.121115e-10,-0.00016264651,4
33058566,33058268,0.44838586,0.0063450322,-0.02203892,0.89354587,1.0,3.516747e-09,5.121115e-10,-0.00016264651,4
33109104,33108788,0.44835722,0.0063015423,-0.022054648,0.89356023,1.0,3.516747e-09,5.121115e-10,-0.00016264651,4
33159591,33159307,0.44838107,0.006302824,-0.021997198,0.89354956,1.0,3.516747e-09,5.121115e-10,-0.00016264651,4
33205056,33204775,0.44840553,0.0063225115,-0.021916196,0.8935392,1.0,3.516747e-09,5.121115e-10,-0.00016264651,4
33255579,33255294,0.44841146,0.0063348175,-0.021862365,0.8935374,1.0,3.516747e-09,5.121115e-10,-0.00016264651,4
33311374,33310865,0.44843227,0.0063711577,-0.021795472,0.8935284,1.0,3.516747e-09,5.121115e-10,-0.00016264651,4
33356607,33356332,0.44840053,0.0063774628,-0.021820128,0.8935436,1.0,3.516747e-09,5.121115e-10,-0.00016264651,4
33407148,33406852,0.44837877,0.00638719,-0.021850053,0.89355385,1.0,3.516747e-09,5.121115e-10,-0.00016264651,4
33457652,33457371,0.4483728,0.0064191064,-0.021820704,0.89355725,1.0,3.516747e-09,5.121115e-10,-0.00016264651,4
33508166,33507890,0.44835705,0.006437684,-0.021778513,0.89356613,1.0,3.516747e-09,5.121115e-10,-0.00016264651,4
33558701,33558410,0.4483223,0.0064451504,-0.021731623,0.8935845,1.0,3.516747e-09,5.121115e-10,-0.00016264651,4
33604159,33603877,0.44829988,0.006471818,-0.021656374,0.8935974,1.0,3.516747e-09,5.121115e-10,-0.00016264651,4
33659724,33659449,0.44832212,0.006582087,-0.021424737,0.89359117,1.0,3.516747e-09,5.121115e-10,-0.00016264651,4
33710250,33709968,0.44830164,0.0066504604,-0.021277927,0.8936044,1.0,3.516747e-09,5.121115e-10,-0.00016264651,4
33755791,33755435,0.4482831,0.006694602,-0.021142669,0.89361656,1.0,3.516747e-09,5.121115e-10,-0.00016264651,4
33811443,33811006,0.44824862,0.006745118,-0.021026082,0.89363617,1.0,3.516747e-09,5.121115e-10,-0.00016264651,4
33856770,33856474,0.4482218,0.00677482,-0.020947527,0.8936512,1.0,3.516747e-09,5.121115e-10,-0.00016264651,4
33907275,33906993,0.44821408,0.0068371724,-0.020822816,0.8936576,1.0,3.516747e-09,5.121115e-10,-0.00016264651,4
33958029,33957512,0.44817275,0.006881665,-0.020781249,0.89367896,1.0,3.516747e-09,5.121115e-10,-0.00016264651,4
34008308,34008032,0.44813615,0.0069215912,-0.020747496,0.8936977,1.0,3.516747e-09,5.121115e-10,-0.00016264651,4
34058832,34058551,0.44809392,0.006945518,-0.020749161,0.8937187,1.0,3.516747e-09,5.121115e-10,-0.00016264651,4
34104303,34104018,0.4480352,0.0069383895,-0.02076543,0.89374787,1.0,3.516747e-09,5.121115e-10,-0.00016264651,4
34159866,34159589,0.44800344,0.006953741,-0.020717898,0.8937647,1.0,3.516747e-09,5.121115e-10,-0.00016264651,4
34210743,34210113,0.4479953,0.006997261,-0.020560818,0.89377207,1.0,3.516747e-09,5.121115e-10,-0.00016264651,4
34255856,34255576,0.44796392,0.007053758,-0.02039024,0.89379126,1.0,3.516747e-09,5.121115e-10,-0.00016264651,4
34306372,34306095,0.44791737,0.007118647,-0.020212654,0.8938181,1.0,3.516747e-09,5.121115e-10,-0.00016264651,4
34356891,34356615,0.44790202,0.0071818694,-0.020036377,0.8938292,1.0,3.516747e-09,5.121115e-10,-0.00016264651,4
34407435,34407134,0.44789243,0.007248128,-0.019893626,0.8938368,1.0,3.516747e-09,5.121115e-10,-0.00016264651,4
34457958,34457653,0.44788656,0.007305447,-0.019759964,0.89384216,1.0,3.516747e-09,5.121115e-10,-0.00016264651,4
34508458,34508173,0.44784188,0.0073487926,-0.01968937,0.8938658,1.0,3.516747e-09,5.121115e-10,-0.00016264651,4
34558966,34558692,0.44773933,0.0073681017,-0.019673994,0.8939173,1.0,3.516747e-09,5.121115e-10,-0.00016264651,4
34609484,34609211,0.44761032,0.0074004107,-0.019684384,0.8939815,1.0,3.516747e-09,5.121115e-10,-0.00016264651,4
34654984,34654679,0.44748014,0.007441219,-0.019686092,0.8940462,1.0,3.516747e-09,5.121115e-10,-0.00016264651,4
34710558,34710250,0.44727054,0.007496941,-0.019712042,0.8941501,1.0,3.516747e-09,5.121115e-10,-0.00016264651,4
34755993,34755717,0.4470656,0.007529992,-0.019740568,0.8942516,1.0,3.516747e-09,5.121115e-10,-0.00016264651,4
34806519,34806237,0.44681183,0.00758155,-0.019794155,0.8943769,1.0,3.516747e-09,5.121115e-10,-0.00016264651,4
34857066,34856756,0.44652304,0.0076884944,-0.019810813,0.89451975,1.0,3.516747e-09,5.121115e-10,-0.00016264651,4
34907557,34907275,0.44624683,0.007794767,-0.019741906,0.8946582,1.0,3.516747e-09,5.121115e-10,-0.00016264651,4
34958072,34957795,0.44595215,0.007898044,-0.019685587,0.8948055,1.0,3.516747e-09,5.121115e-10,-0.00016264651,4
35008590,35008314,0.4456278,0.007980305,-0.01963617,0.89496744,1.0,3.516747e-09,5.121115e-10,-0.00016264651,4
35059109,35058833,0.44529065,0.008050847,-0.019631496,0.8951346,1.0,3.516747e-09,5.121115e-10,-0.00016264651,4
35109631,35109353,0.44494465,0.008096901,-0.019568462,0.8953076,1.0,3.516747e-09,5.121115e-10,-0.00016264651,4
35155146,35154820,0.4446172,0.008055938,-0.019532448,0.89547145,1.0,3.516747e-09,5.121115e-10,-0.00016264651,4
35205617,35205339,0.44420713,0.007912071,-0.019569585,0.8956755,1.0,3.516747e-09,5.121115e-10,-0.00016264651,4
35256157,35255859,0.4438277,0.00778084,-0.019520622,0.8958657,1.0,3.516747e-09,5.121115e-10,-0.00016264651,4
35306656,35306378,0.4433746,0.0075586243,-0.019487066,0.8960928,1.0,3.516747e-09,5.121115e-10,-0.00016264651,4
35357211,35356897,0.44284746,0.0072345,-0.01946964,0.8963564,1.0,3.516747e-09,5.121115e-10,-0.00016264651,4
35407703,35407417,0.4423078,0.0068288874,-0.019369379,0.8966282,1.0,3.516747e-09,5.121115e-10,-0.00016264651,4
35458233,35457936,0.44174486,0.0063774777,-0.019389272,0.8969085,1.0,3.516747e-09,5.121115e-10,-0.00016264651,4
35508728,35508455,0.44122508,0.005895898,-0.019451657,0.89716625,1.0,3.516747e-09,5.121115e-10,-0.00016264651,4
35559271,35558975,0.44064218,0.005362221,-0.01952757,0.8974545,1.0,3.516747e-09,5.121115e-10,-0.00016264651,4
35609978,35609494,0.43995264,0.0050411387,-0.019672265,0.8977913,1.0,3.516747e-09,5.121115e-10,-0.00016264651,4
35655237,35654961,0.43927372,0.0048116306,-0.019781992,0.89812267,1.0,3.516747e-09,5.121115e-10,-0.00016264651,4
35705761,35705481,0.43852222,0.0045686155,-0.01999888,0.8984862,1.0,3.516747e-09,5.121115e-10,-0.00016264651,4
35756280,35756000,0.43777353,0.004371735,-0.020126216,0.8988494,1.0,3.516747e-09,5.121115e-10,-0.00016264651,4
35806827,35806519,0.4368671,0.0043691937,-0.020353295,0.89928526,1.0,3.516747e-09,5.121115e-10,-0.00016264651,4
35857320,35857039,0.43590218,0.0046001757,-0.020604603,0.89974636,1.0,3.516747e-09,5.121115e-10,-0.00016264651,4
35908037,35907558,0.43497,0.004742021,-0.020675685,0.9001951,1.0,3.516747e-09,5.121115e-10,-0.00016264651,4
35958352,35958077,0.43396875,0.0044202325,-0.020869667,0.90067536,1.0,3.516747e-09,5.121115e-10,-0.00016264651,4
36008899,36008596,0.4328875,0.004070293,-0.021006417,0.9011941,1.0,3.516747e-09,5.121115e-10,-0.00016264651,4
36054387,36054064,0.4319109,0.0035348155,-0.021258824,0.90165883,1.0,3.516747e-09,5.121115e-10,-0.00016264651,4
36109933,36109635,0.43073067,0.0033678354,-0.021381604,0.9022209,1.0,3.516747e-09,5.121115e-10,-0.00016264651,4
36155383,36155102,0.4297644,0.0032631895,-0.021600496,0.90267676,1.0,3.516747e-09,5.121115e-10,-0.00016264651,4
36205905,36205622,0.42878225,0.0030946701,-0.021989405,0.9031349,1.0,3.516747e-09,5.121115e-10,-0.00016264651,4
36261498,36261193,0.42772967,0.0028613957,-0.022023043,0.90363395,1.0,3.516747e-09,5.121115e-10,-0.00016264651,4
36306961,36306660,0.42679536,0.0025895278,-0.022289984,0.9040699,1.0,3.516747e-09,5.121115e-10,-0.00016264651,4
36357467,36357180,0.42579487,0.0024033885,-0.02267625,0.9045323,1.0,3.516747e-09,5.121115e-10,-0.00016264651,4
36407985,36407699,0.42486885,0.002511132,-0.022686418,0.9049672,1.0,3.516747e-09,5.121115e-10,-0.00016264651,4
36458519,36458218,0.4237493,0.0026542211,-0.022947261,0.9054849,1.0,3.516747e-09,5.121115e-10,-0.00016264651,4
36509207,36508738,0.42261428,0.0028797367,-0.02310267,0.9060106,1.0,3.516747e-09,5.121115e-10,-0.00016264651,4
36559555,36559257,0.42145583,0.002729046,-0.023273248,0.9065462,1.0,3.516747e-09,5.121115e-10,-0.00016264651,4
36610128,36609776,0.42006242,0.0027555984,-0.023563197,0.9071851,1.0,3.516747e-09,5.121115e-10,-0.00016264651,4
36660582,36660296,0.41877967,0.0026250281,-0.02359925,0.90777737,1.0,3.516747e-09,5.121115e-10,-0.00016264651,4
36706040,36705763,0.41752732,0.0026758877,-0.023661403,0.9083523,1.0,3.516747e-09,5.121115e-10,-0.00016264651,4
36756586,36756282,0.41609314,0.0028040574,-0.023975527,0.9090016,1.0,3.516747e-09,5.121115e-10,-0.00016264651,4
36807274,36806802,0.41462538,0.0026387705,-0.024612747,0.9096555,1.0,3.516747e-09,5.121115e-10,-0.00016264651,4
36857597,36857321,0.41294646,0.0026252966,-0.02510012,0.91040564,1.0,3.516747e-09,5.121115e-10,-0.00016264651,4
36908115,36907840,0.41134146,0.0025954333,-0.025214167,0.91112894,1.0,3.516747e-09,5.121115e-10,-0.00016264651,4
36958925,36958360,0.40969414,0.0025425202,-0.024948005,0.9118782,1.0,3.516747e-09,5.121115e-10,-0.00016264651,4
37009163,37008879,0.40823954,0.0030533054,-0.024781566,0.9125333,1.0,3.516747e-09,5.121115e-10,-0.00016264651,4
37059691,37059398,0.40695614,0.0033176714,-0.024693578,0.91310793,1.0,3.516747e-09,5.121115e-10,-0.00016264651,4
37105142,37104866,0.4055322,0.0035970286,-0.024667684,0.91374075,1.0,3.516747e-09,5.121115e-10,-0.00016264651,4
37160744,37160437,0.41013634,-0.0027551018,-0.02578222,0.91165566,1.0,3.516747e-09,5.121115e-10,-0.00016264651,4
37206229,37205905,0.4142987,-0.0086649405,-0.027077388,0.9096969,1.0,3.516747e-09,5.121115e-10,-0.00016264651,4
37256720,37256424,0.41847405,-0.01465409,-0.028209757,0.9076722,1.0,3.516747e-09,5.121115e-10,-0.00016264651,4
37307221,37306943,0.421511,-0.018779276,-0.028491335,0.90618104,1.0,3.516747e-09,5.121115e-10,-0.00016264651,4
37357740,37357462,0.42305264,-0.021471607,-0.028964693,0.9053876,1.0,3.516747e-09,5.121115e-10,-0.00016264651,4
37408261,37407981,0.42343885,-0.022722293,-0.029176498,0.9051696,1.0,3.516747e-09,5.121115e-10,-0.00016264651,4
37458790,37458501,0.42335606,-0.023062589,-0.028780144,0.90521246,1.0,3.516747e-09,5.121115e-10,-0.00016264651,4
37509301,37509020,0.42254785,-0.022811487,-0.028685268,0.9055993,1.0,3.516747e-09,5.121115e-10,-0.00016264651,4
37559816,37559539,0.421512,-0.02261984,-0.028518276,0.906092,1.0,3.516747e-09,5.121115e-10,-0.00016264651,4
37605283,37605007,0.4205538,-0.021883016,-0.028031494,0.90657043,1.0,3.516747e-09,5.121115e-10,-0.00016264651,4
37655825,37655526,0.41940698,-0.021091944,-0.027833542,0.9071263,1.0,3.516747e-09,5.121115e-10,-0.00016264651,4
37706322,37706045,0.4180912,-0.020637773,-0.027888995,0.9077423,1.0,3.516747e-09,5.121115e-10,-0.00016264651,4
37756842,37756565,0.41668266,-0.020475423,-0.028226646,0.90838295,1.0,3.516747e-09,5.121115e-10,-0.00016264651,4
37807380,37807084,0.41536838,-0.020697137,-0.028230138,0.90897954,1.0,3.516747e-09,5.121115e-10,-0.00016264651,4
37858419,37857603,0.41404137,-0.020923315,-0.028471738,0.9095721,1.0,3.516747e-09,5.121115e-10,-0.00016264651,4
37908407,37908123,0.4128582,-0.02091622,-0.028771628,0.9101006,1.0,3.516747e-09,5.121115e-10,-0.00016264651,4
37958925,37958642,0.41177917,-0.020822909,-0.029012594,0.91058373,1.0,3.516747e-09,5.121115e-10,-0.00016264651,4
38009443,38009161,0.41087136,-0.020798283,-0.028985452,0.9109952,1.0,3.516747e-09,5.121115e-10,-0.00016264651,4
38059959,38059681,0.40992856,-0.020718437,-0.028902,0.91142416,1.0,3.516747e-09,5.121115e-10,-0.00016264651,4
38105462,38105148,0.40926853,-0.020613542,-0.02891464,0.91172266,1.0,3.516747e-09,5.121115e-10,-0.00016264651,4
38155945,38155667,0.40846106,-0.020531686,-0.028672257,0.9120943,1.0,3.516747e-09,5.121115e-10,-0.00016264651,4
38206459,38206187,0.40768686,-0.020444922,-0.028466629,0.91244894,1.0,3.516747e-09,5.121115e-10,-0.00016264651,4
38256980,38256706,0.4068587,-0.020422405,-0.028364787,0.9128223,1.0,3.516747e-09,5.121115e-10,-0.00016264651,4
38307501,38307225,0.40604016,-0.020498546,-0.028070837,0.91319406,1.0,3.516747e-09,5.121115e-10,-0.00016264651,4
38358078,38357745,0.40512368,-0.020490443,-0.028005278,0.9136032,1.0,3.516747e-09,5.121115e-10,-0.00016264651,4
38408557,38408264,0.40426546,-0.020507688,-0.027890714,0.9139863,1.0,3.516747e-09,5.121115e-10,-0.00016264651,4
38459060,38458783,0.40349382,-0.020758396,-0.027505511,0.9143333,1.0,3.516747e-09,5.121115e-10,-0.00016264651,4
38504532,38504251,0.40267348,-0.020889113,-0.027738295,0.91468483,1.0,3.516747e-09,5.121115e-10,-0.00016264651,4
38560334,38559822,0.40194437,-0.02074462,-0.027663494,0.915011,1.0,3.516747e-09,5.121115e-10,-0.00016264651,4
38605563,38605289,0.40115643,-0.020741833,-0.028099569,0.9153435,1.0,3.516747e-09,5.121115e-10,-0.00016264651,4
38656085,38655809,0.4002212,-0.020714121,-0.028490324,0.9157414,1.0,3.516747e-09,5.121115e-10,-0.00016264651,4
38711689,38711380,0.2443208,-0.015814556,-0.027122643,0.96918607,0.98652583,-0.004150924,0.0020963233,0.16353962,5
38757309,38756847,0.24416302,-0.016129447,-0.027114782,0.96922094,0.98652583,-0.004150924,0.0020963233,0.16353962,5
38808007,38807367,0.24406773,-0.016388899,-0.027449297,0.9692312,0.98652583,-0.004150924,0.0020963233,0.16353962,5
38858300,38857886,0.24413656,-0.016713908,-0.027370607,0.9692104,0.98652583,-0.004150924,0.0020963233,0.16353962,5
38908820,38908405,0.24410634,-0.017153515,-0.027604189,0.96920377,0.98652583,-0.004150924,0.0020963233,0.16353962,5
38959391,38958925,0.2439922,-0.017684314,-0.027727684,0.96921945,0.98652583,-0.004150924,0.0020963233,0.16353962,5
39004727,39004392,0.24402986,-0.017703293,-0.027846523,0.9692063,0.98652583,-0.004150924,0.0020963233,0.16353962,5
39060490,39059963,0.2441425,-0.018046439,-0.027747184,0.9691743,0.98652583,-0.004150924,0.0020963233,0.16353962,5
39110900,39110482,0.24427527,-0.018304415,-0.027736215,0.96913636,0.98652583,-0.004150924,0.0020963233,0.16353962,5
39156260,39155950,0.24437858,-0.01812735,-0.02775494,0.96911305,0.98652583,-0.004150924,0.0020963233,0.16353962,5
39206795,39206469,0.24435012,-0.01802194,-0.027871694,0.96911895,0.98652583,-0.004150924,0.0020963233,0.16353962,5
39257451,39256988,0.24413553,-0.01786652,-0.027951164,0.96917355,0.98652583,-0.004150924,0.0020963233,0.16353962,5
39307827,39307508,0.24388203,-0.017624924,-0.028094538,0.9692376,0.98652583,-0.004150924,0.0020963233,0.16353962,5
39358334,39358027,0.24376243,-0.017402546,-0.027794123,0.9692804,0.98652583,-0.004150924,0.0020963233,0.16353962,5
39408881,39408546,0.24360147,-0.017049039,-0.028160311,0.9693166,0.98652583,-0.004150924,0.0020963233,0.16353962,5
39459393,39459066,0.24357006,-0.017084368,-0.027966524,0.96932954,0.98652583,-0.004150924,0.0020963233,0.16353962,5
39504998,39504533,0.24350148,-0.016930131,-0.028284576,0.9693402,0.98652583,-0.004150924,0.0020963233,0.16353962,5
39555465,39555053,0.24342816,-0.016867355,-0.028514903,0.969353,0.98652583,-0.004150924,0.0020963233,0.16353962,5
39610930,39610624,0.24332812,-0.01677959,-0.028492177,0.96938026,0.98652583,-0.004150924,0.0020963233,0.16353962,5
39656604,39656091,0.24337474,-0.016531127,-0.028799644,0.9693638,0.98652583,-0.004150924,0.0020963233,0.16353962,5
39707256,39706610,0.24339712,-0.0167672,-0.028958457,0.9693493,0.98652583,-0.004150924,0.0020963233,0.16353962,5
39757590,39757130,0.24327391,-0.016750267,-0.02919137,0.9693736,0.98652583,-0.004150924,0.0020963233,0.16353962,5
39808350,39807649,0.24305862,-0.016760347,-0.029466977,0.9694191,0.98652583,-0.004150924,0.0020963233,0.16353962,5
39858605,39858168,0.24292842,-0.016937371,-0.029898621,0.9694354,0.98652583,-0.004150924,0.0020963233,0.16353962,5
39909141,39908688,0.24290419,-0.017107131,-0.029394394,0.969454,0.98652583,-0.004150924,0.0020963233,0.16353962,5
39959624,39959207,0.24298376,-0.017249664,-0.029695785,0.9694223,0.98652583,-0.004150924,0.0020963233,0.16353962,5
40010203,40009726,0.24311237,-0.01739727,-0.029119577,0.9694048,0.98652583,-0.004150924,0.0020963233,0.16353962,5
40055505,40055194,0.2432129,-0.017241696,-0.029225675,0.96937925,0.98652583,-0.004150924,0.0020963233,0.16353962,5
40111230,40110765,0.2433307,-0.017370377,-0.028931139,0.96935624,0.98652583,-0.004150924,0.0020963233,0.16353962,5
40156948,40156232,0.24341998,-0.017303744,-0.028654661,0.96934325,0.98652583,-0.004150924,0.0020963233,0.16353962,5
40207084,40206752,0.24363169,-0.017338527,-0.028607164,0.96929085,0.98652583,-0.004150924,0.0020963233,0.16353962,5
40257579,40257271,0.24371465,-0.017266516,-0.02889788,0.96926266,0.98652583,-0.004150924,0.0020963233,0.16353962,5
40308157,40307790,0.24357611,-0.017165998,-0.028995454,0.96929634,0.98652583,-0.004150924,0.0020963233,0.16353962,5
40358618,40358310,0.24336657,-0.017151313,-0.02902753,0.9693483,0.98652583,-0.004150924,0.0020963233,0.16353962,5
40409158,40408829,0.24337108,-0.017132508,-0.029569836,0.969331,0.98652583,-0.004150924,0.0020963233,0.16353962,5
40459655,40459349,0.24351998,-0.017108683,-0.02975176,0.96928847,0.98652583,-0.004150924,0.0020963233,0.16353962,5
40510325,40509868,0.24379426,-0.016989967,-0.02961735,0.96922576,0.98652583,-0.004150924,0.0020963233,0.16353962,5
40555862,40555335,0.24407084,-0.017178584,-0.030004447,0.9691409,0.98652583,-0.004150924,0.0020963233,0.16353962,5
40606652,40605854,0.24424352,-0.017033134,-0.029995404,0.9691003,0.98652583,-0.004150924,0.0020963233,0.16353962,5
40656822,40656374,0.24434371,-0.017168911,-0.030004388,0.9690723,0.98652583,-0.004150924,0.0020963233,0.16353962,5
40707343,40706893,0.24458523,-0.017481437,-0.02974553,0.96901375,0.98652583,-0.004150924,0.0020963233,0.16353962,5
40757876,40757412,0.24476391,-0.01806121,-0.029235374,0.9689735,0.98652583,-0.004150924,0.0020963233,0.16353962,5
40808514,40807932,0.24508244,-0.018495837,-0.02879838,0.9688979,0.98652583,-0.004150924,0.0020963233,0.16353962,5
40858895,40858451,0.24539661,-0.018723955,-0.028810877,0.96881366,0.98652583,-0.004150924,0.0020963233,0.16353962,5
40909426,40908970,0.24553898,-0.01895557,-0.028079728,0.9687946,0.98652583,-0.004150924,0.0020963233,0.16353962,5
40954741,40954438,0.24566005,-0.019024722,-0.027718242,0.9687729,0.98652583,-0.004150924,0.0020963233,0.16353962,5
41005283,41004957,0.24580954,-0.018812183,-0.027478933,0.96874595,0.98652583,-0.004150924,0.0020963233,0.16353962,5
41056375,41055476,0.24577522,-0.018374113,-0.027712885,0.96875644,0.98652583,-0.004150924,0.0020963233,0.16353962,5
41106306,41105996,0.24555661,-0.017850515,-0.027696393,0.9688221,0.98652583,-0.004150924,0.0020963233,0.16353962,5
41156823,41156515,0.24532312,-0.0174121,-0.027818205,0.9688858,0.98652583,-0.004150924,0.0020963233,0.16353962,5
41207338,41207034,0.24515669,-0.016965223,-0.027992621,0.9689307,0.98652583,-0.004150924,0.0020963233,0.16353962,5
41257882,41257554,0.2451275,-0.016359769,-0.02737248,0.96896625,0.98652583,-0.004150924,0.0020963233,0.16353962,5
41308397,41308073,0.24520169,-0.015761202,-0.027363844,0.9689577,0.98652583,-0.004150924,0.0020963233,0.16353962,5
41358901,41358592,0.24544695,-0.015171966,-0.026630437,0.9689254,0.98652583,-0.004150924,0.0020963233,0.16353962,5
41409420,41409112,0.24570143,-0.014680273,-0.026481017,0.9688726,0.98652583,-0.004150924,0.0020963233,0.16353962,5
41455013,41454579,0.24573286,-0.014289101,-0.026135381,0.9688799,0.98652583,-0.004150924,0.0020963233,0.16353962,5
41510481,41510151,0.24566932,-0.013950278,-0.026060263,0.96890295,0.98652583,-0.004150924,0.0020963233,0.16353962,5
41556141,41555618,0.24556078,-0.013920571,-0.025844047,0.96893674,0.98652583,-0.004150924,0.0020963233,0.16353962,5
41606603,41606137,0.24544585,-0.01400712,-0.025719333,0.9689679,0.98652583,-0.004150924,0.0020963233,0.16353962,5
41657099,41656656,0.24535304,-0.014322315,-0.025476169,0.9689932,0.98652583,-0.004150924,0.0020963233,0.16353962,5
41707622,41707176,0.2452645,-0.014771956,-0.025322458,0.96901286,0.98652583,-0.004150924,0.0020963233,0.16353962,5
41758278,41757695,0.24514796,-0.015353272,-0.02502985,0.96904093,0.98652583,-0.004150924,0.0020963233,0.16353962,5
41808668,41808214,0.24507101,-0.015970416,-0.02470355,0.96905875,0.98652583,-0.004150924,0.0020963233,0.16353962,5
41859156,41858734,0.24507336,-0.016558243,-0.024298808,0.9690586,0.98652583,-0.004150924,0.0020963233,0.16353962,5
41909691,41909253,0.24513182,-0.01709957,-0.023923595,0.96904373,0.98652583,-0.004150924,0.0020963233,0.16353962,5
41955024,41954720,0.24518631,-0.017683417,-0.023516672,0.96902937,0.98652583,-0.004150924,0.0020963233,0.16353962,5
42005591,42005240,0.24520011,-0.018513732,-0.023128437,0.9690197,0.98652583,-0.004150924,0.0020963233,0.16353962,5
42061274,42060811,0.24511316,-0.019689385,-0.022604896,0.969031,0.98652583,-0.004150924,0.0020963233,0.16353962,5
42106606,42106278,0.24506512,-0.020874523,-0.022160042,0.96902853,0.98652583,-0.004150924,0.0020963233,0.16353962,5
42157110,42156798,0.24505173,-0.02246165,-0.021619732,0.9690087,0.98652583,-0.004150924,0.0020963233,0.16353962,5
42207647,42207317,0.2451014,-0.024289891,-0.021055916,0.9689644,0.98652583,-0.004150924,0.0020963233,0.16353962,5
42258175,42257836,0.24514645,-0.026247019,-0.020518692,0.96891344,0.98652583,-0.004150924,0.0020963233,0.16353962,5
42308666,42308356,0.24513546,-0.028084917,-0.0200433,0.9688747,0.98652583,-0.004150924,0.0020963233,0.16353962,5
42354268,42353823,0.24515574,-0.029551383,-0.019649722,0.96883404,0.98652583,-0.004150924,0.0020963233,0.16353962,5
42409703,42409394,0.24514139,-0.031034073,-0.019196186,0.9688003,0.98652583,-0.004150924,0.0020963233,0.16353962,5
42460317,42459914,0.24504776,-0.03198287,-0.01886711,0.96879965,0.98652583,-0.004150924,0.0020963233,0.16353962,5
42505794,42505381,0.2449152,-0.032468047,-0.018710008,0.96882015,0.98652583,-0.004150924,0.0020963233,0.16353962,5
42561281,42560952,0.24473527,-0.032734,-0.018546369,0.9688598,0.98652583,-0.004150924,0.0020963233,0.16353962,5
42606840,42606420,0.24466273,-0.03282319,-0.018411323,0.9688776,0.98652583,-0.004150924,0.0020963233,0.16353962,5
42657394,42656939,0.24477088,-0.032842197,-0.018250309,0.96885276,0.98652583,-0.004150924,0.0020963233,0.16353962,5
42707870,42707458,0.24476346,-0.03291977,-0.018080756,0.96885514,0.98652583,-0.004150924,0.0020963233,0.16353962,5
42758391,42757978,0.24463698,-0.033117358,-0.01784212,0.96888477,0.98652583,-0.004150924,0.0020963233,0.16353962,5
42809022,42808497,0.24454732,-0.033405457,-0.017672028,0.9689006,0.98652583,-0.004150924,0.0020963233,0.16353962,5
42859459,42859016,0.24422756,-0.033636186,-0.017453944,0.96897733,0.98652583,-0.004150924,0.0020963233,0.16353962,5
42909951,42909536,0.24388377,-0.033797618,-0.017068358,0.96906507,0.98652583,-0.004150924,0.0020963233,0.16353962,5
42960515,42960055,0.24381448,-0.033807527,-0.016789757,0.969087,0.98652583,-0.004150924,0.0020963233,0.16353962,5
43006099,43005522,0.2438917,-0.033603624,-0.016386097,0.9690816,0.98652583,-0.004150924,0.0020963233,0.16353962,5
43056360,43056042,0.24395321,-0.03324758,-0.016020557,0.96908456,0.98652583,-0.004150924,0.0020963233,0.16353962,5
43106891,43106561,0.24404798,-0.03287966,-0.015668204,0.969079,0.98652583,-0.004150924,0.0020963233,0.16353962,5
43157389,43157080,0.24406818,-0.03257766,-0.015520857,0.9690864,0.98652583,-0.004150924,0.0020963233,0.16353962,5
43207903,43207600,0.24375655,-0.032261312,-0.015330374,0.9691785,0.98652583,-0.004150924,0.0020963233,0.16353962,5
43258451,43258119,0.24325648,-0.03201921,-0.015441012,0.96931046,0.98652583,-0.004150924,0.0020963233,0.16353962,5
43308966,43308638,0.24280423,-0.031768892,-0.015548997,0.96943027,0.98652583,-0.004150924,0.0020963233,0.16353962,5
43359463,43359158,0.24239653,-0.031430237,-0.015592946,0.96954274,0.98652583,-0.004150924,0.0020963233,0.16353962,5
43405108,43404625,0.24224994,-0.031014573,-0.015517267,0.96959394,0.98652583,-0.004150924,0.0020963233,0.16353962,5
43461072,43460351,0.2503199,-0.03659337,-0.00026957822,0.96747136,0.99408746,-0.0065598427,0.005792689,0.10822942,7
43506239,43505312,0.2495718,-0.042769175,0.0041371332,0.9674025,0.99408746,-0.0065598427,0.005792689,0.10822942,7
