timestamp,timestamp_sample,device_id,x,y,z,temperature,error_count
17538993,17538802,458770,-0.15493333,-0.049466666,0.44106668,nan,0
18513990,18513800,458770,-0.1552,-0.049466666,0.43933335,nan,0
19527991,19527800,458770,-0.15453334,-0.049733333,0.44186667,nan,0
20515990,20515800,458770,-0.15506667,-0.050133333,0.44293335,nan,0
21529991,21529801,458770,-0.15493333,-0.049733333,0.4384,nan,0
22530997,22530807,458770,-0.15386666,-0.0496,0.44213334,nan,0
23518991,23518801,458770,-0.17133333,-0.0508,0.42213333,nan,0
24532993,24532802,458770,-0.18186668,-0.051066667,0.39946666,nan,0
25521007,25520802,458770,-0.1656,-0.050533336,0.43346667,nan,0
26534992,26534800,458770,-0.16813333,-0.051066667,0.42666668,nan,0
27535991,27535801,458770,-0.16266666,-0.050533336,0.424,nan,0
28523993,28523801,458770,-0.162,-0.050933335,0.4328,nan,0
29524991,29524801,458770,-0.168,-0.050133333,0.42880002,nan,0
30513007,30512801,458770,-0.16813333,-0.0504,0.428,nan,0
31513991,31513800,458770,-0.1652,-0.050666668,0.42613333,nan,0
32527991,32527800,458770,-0.16573334,-0.052,0.4304,nan,0
33516003,33515800,458770,-0.16413334,-0.051866665,0.43013334,nan,0
34529990,34529800,458770,-0.19,-0.0524,0.38613334,nan,0
35530991,35530800,458770,-0.21746667,-0.053466666,0.36613333,nan,0
36518991,36518801,458770,-0.35373333,-0.06373333,0.18186668,nan,0
37533013,37532800,458770,-0.51240003,-0.07306667,-0.0088,nan,0
38533991,38533800,458770,-0.5621333,-0.07373334,-0.074266665,nan,0
39522007,39521800,458770,-0.5552,-0.0768,-0.06746667,nan,0
40535994,40535804,458770,-0.54933333,-0.07666667,-0.0652,nan,0
41536991,41536801,458770,-0.37493333,-0.0604,0.16,nan,0
42524991,42524800,458770,-0.21586667,-0.047066666,0.37946668,nan,0
43525991,43525801,458770,-0.1936,-0.042533334,0.39573333,nan,0
44513991,44513801,458770,-0.2184,-0.04,0.36586666,nan,0
45527991,45527800,458770,-0.19266666,-0.0336,0.3956,nan,0
46528993,46528802,458770,-0.24053334,-0.031200001,0.35613334,nan,0
47516990,47516800,458770,-0.32373333,-0.039866667,0.25013334,nan,0
48530991,48530801,458770,-0.30106667,-0.0472,0.27386668,nan,0
49531991,49531801,458770,-0.19240001,-0.0452,0.4012,nan,0
50532991,50532800,458770,-0.18573333,-0.040666666,0.41120002,nan,0
51533991,51533800,458770,-0.20173334,-0.043733332,0.38786668,nan,0
52521990,52521800,458770,-0.2,-0.0572,0.38480002,nan,0
53535991,53535800,458770,-0.19453333,-0.043333333,0.39893335,nan,0
54536993,54536801,458770,-0.19586667,-0.0352,0.4008,nan,0
55524991,55524800,458770,-0.1936,-0.040933333,0.40600002,nan,0
56525993,56525801,458770,-0.22026667,-0.056133334,0.3688,nan,0
57526990,57526800,458770,-0.2536,-0.05426667,0.3276,nan,0
58514991,58514801,458770,-0.22453333,-0.042266667,0.3668,nan,0
59528990,59528800,458770,-0.20386668,-0.0376,0.39626667,nan,0
60530007,60529800,458770,-0.22906667,-0.051066667,0.36186668,nan,0
61530994,61530800,458770,-0.20413333,-0.053733334,0.37693334,nan,0
62531993,62531800,458770,-0.20706667,-0.04,0.38506666,nan,0
63533011,63532800,458770,-0.20453334,-0.036666665,0.39333335,nan,0
64520991,64520800,458770,-0.20253333,-0.044,0.38706666,nan,0
65535011,65534820,458770,-0.19546667,-0.044666667,0.3996,nan,0
66522991,66522800,458770,-0.21013333,-0.034533333,0.38426667,nan,0
67536991,67536800,458770,-0.222,-0.041866668,0.37066668,nan,0
68537991,68537801,458770,-0.21440001,-0.04546667,0.37213334,nan,0
69526022,69525810,458770,-0.208,-0.036933333,0.37666667,nan,0
70526991,70526800,458770,-0.19586667,-0.031733334,0.40306666,nan,0
71527991,71527800,458770,-0.20653334,-0.04106667,0.3764,nan,0
72529011,72528800,458770,-0.1876,-0.04106667,0.41466668,nan,0
73529993,73529802,458770,-0.20506667,-0.042,0.3904,nan,0
74518026,74517800,458770,-0.234,-0.044533335,0.352,nan,0
75532005,75531800,458770,-0.21186666,-0.0336,0.3824,nan,0
76532993,76532800,458770,-0.20813334,-0.033066668,0.38533333,nan,0
77521037,77520800,458770,-0.19586667,-0.0372,0.40186667,nan,0
78535011,78534801,458770,-0.25253335,-0.0432,0.32853335,nan,0
79522991,79522800,458770,-0.23533334,-0.040933333,0.35893333,nan,0
80536993,80536801,458770,-0.23266667,-0.04546667,0.35,nan,0
81524991,81524800,458770,-0.23386668,-0.052533332,0.3428,nan,0
82512991,82512800,458770,-0.20480001,-0.041733332,0.39226666,nan,0
83527003,83526812,458770,-0.23133333,-0.04586667,0.3592,nan,0
84514990,84514800,458770,-0.19706666,-0.04986667,0.3944,nan,0
85528991,85528801,458770,-0.19386667,-0.04546667,0.4012,nan,0
86529991,86529801,458770,-0.1932,-0.042933334,0.4064,nan,0
87517991,87517801,458770,-0.20813334,-0.0408,0.38626668,nan,0
88531991,88531801,458770,-0.20746666,-0.036133334,0.38493335,nan,0
89520015,89519800,458770,-0.2148,-0.03466667,0.37906668,nan,0
90533991,90533801,458770,-0.21133333,-0.039333332,0.3748,nan,0
91534993,91534801,458770,-0.1996,-0.0396,0.40066668,nan,0
92523015,92522825,458770,-0.1744,-0.034,0.42946666,nan,0
93536991,93536801,458770,-0.17173333,-0.031066667,0.42973334,nan,0
94537991,94537801,458770,-0.17506666,-0.028933333,0.40973333,nan,0
95525990,95525800,458770,-0.19493334,-0.0396,0.39720002,nan,0
96526990,96526800,458770,-0.21093334,-0.05,0.37493333,nan,0
97514991,97514800,458770,-0.16613333,-0.038533334,0.42626667,nan,0
98528993,98528800,458770,-0.18453334,-0.037333332,0.4130667,nan,0
99529991,99529800,458770,-0.18666667,-0.047733333,0.41653335,nan,0
100530990,100530800,458770,-0.17426667,-0.038666666,0.42466667,nan,0
101531993,101531801,458770,-0.18573333,-0.0388,0.41133335,nan,0
102519991,102519801,458770,-0.16746667,-0.04346667,0.42586666,nan,0
103533993,103533801,458770,-0.1888,-0.043066666,0.40240002,nan,0
104521994,104521800,458770,-0.1752,-0.040266667,0.41093335,nan,0
105535991,105535801,458770,-0.1752,-0.034133334,0.42426667,nan,0
106536991,106536801,458770,-0.1852,-0.033733334,0.42053333,nan,0
107538007,107537800,458770,-0.17493333,-0.037333332,0.4208,nan,0
108538997,108538806,458770,-0.174,-0.031600002,0.41293335,nan,0
109513990,109513800,458770,-0.16973333,-0.030933334,0.40653333,nan,0
110527991,110527801,458770,-0.17893334,-0.0424,0.42706668,nan,0
111515990,111515800,458770,-0.17893334,-0.042133335,0.412,nan,0
112529990,112529800,458770,-0.17853333,-0.038266666,0.41506666,nan,0
113517991,113517800,458770,-0.18360001,-0.036666665,0.41333333,nan,0
114531992,114531800,458770,-0.1952,-0.038266666,0.3924,nan,0
115532994,115532802,458770,-0.1716,-0.032133333,0.422,nan,0
116533994,116533800,458770,-0.1756,-0.0328,0.41706666,nan,0
117534991,117534800,458770,-0.17480001,-0.042533334,0.41946667,nan,0
118522990,118522800,458770,-0.186,-0.040133335,0.40213335,nan,0
119523993,119523800,458770,-0.16453333,-0.031200001,0.43853334,nan,0
120511993,120511802,458770,-0.17186667,-0.0324,0.42720002,nan,0
121538991,121538801,458770,-0.17893334,-0.040400002,0.42013335,nan,0
122513993,122513800,458770,-0.17693333,-0.044533335,0.42386666,nan,0
123527991,123527800,458770,-0.17346667,-0.036933333,0.432,nan,0
124529011,124528801,458770,-0.16906667,-0.036933333,0.44066668,nan,0
125529993,125529802,458770,-0.1768,-0.0432,0.42880002,nan,0
126530991,126530800,458770,-0.1716,-0.043733332,0.43826666,nan,0
127532041,127531800,458770,-0.16506667,-0.038,0.43586668,nan,0
128532991,128532800,458770,-0.15653333,-0.032533333,0.44346666,nan,0
129520992,129520801,458770,-0.16093333,-0.03906667,0.44293335,nan,0
130535032,130534800,458770,-0.1592,-0.0364,0.4336,nan,0
131522990,131522800,458770,-0.16013333,-0.0356,0.444,nan,0
132536991,132536801,458770,-0.16066667,-0.0392,0.44293335,nan,0
133511996,133511802,458770,-0.1588,-0.043866668,0.44226667,nan,0
134525990,134525800,458770,-0.1608,-0.044266667,0.448,nan,0
135526993,135526801,458770,-0.16173333,-0.044133335,0.44186667,nan,0
136527991,136527800,458770,-0.16226667,-0.040266667,0.444,nan,0
137528991,137528800,458770,-0.164,-0.035066668,0.44213334,nan,0
138516991,138516801,458770,-0.16133334,-0.027066667,0.43906668,nan,0
139531009,139530800,458770,-0.16573334,-0.022,0.44773334,nan,0
140518993,140518802,458770,-0.15933333,-0.030266667,0.45373333,nan,0
141532992,141532800,458770,-0.16093333,-0.036933333,0.43906668,nan,0
142534006,142533801,458770,-0.16,-0.0436,0.44506666,nan,0
143534993,143534802,458770,-0.15986668,-0.043333333,0.4372,nan,0
144535993,144535801,458770,-0.16093333,-0.0476,0.44173333,nan,0
145523991,145523801,458770,-0.1576,-0.045333333,0.4430667,nan,0
146537990,146537800,458770,-0.15253334,-0.040533334,0.44266668,nan,0
147512993,147512800,458770,-0.1608,-0.047066666,0.43773335,nan,0
148526990,148526800,458770,-0.16293333,-0.041733332,0.4304,nan,0
149527991,149527801,458770,-0.16226667,-0.034933332,0.42626667,nan,0
150529034,150528800,458770,-0.16,-0.03466667,0.44293335,nan,0
151529991,151529800,458770,-0.16,-0.039333332,0.44253334,nan,0
152517991,152517800,458770,-0.16053334,-0.0436,0.4436,nan,0
153532033,153531800,458770,-0.16013333,-0.045733333,0.4484,nan,0
154532991,154532800,458770,-0.16253333,-0.041733332,0.44133332,nan,0
155533990,155533800,458770,-0.16213334,-0.041866668,0.4424,nan,0
156535035,156534800,458770,-0.16413334,-0.038533334,0.44106668,nan,0
157535991,157535801,458770,-0.16346666,-0.033466667,0.43760002,nan,0
158536993,158536801,458770,-0.16266666,-0.032266665,0.44453335,nan,0
159524991,159524800,458770,-0.16306667,-0.031066667,0.43986666,nan,0
160538991,160538800,458770,-0.16373333,-0.029333334,0.4424,nan,0
161513993,161513801,458770,-0.16346666,-0.028133333,0.4452,nan,0
162528005,162527800,458770,-0.16266666,-0.0284,0.43786666,nan,0
163515991,163515801,458770,-0.16373333,-0.026800001,0.45986667,nan,0
164529991,164529800,458770,-0.1632,-0.028266666,0.44,nan,0
165531005,165530800,458770,-0.1628,-0.027333334,0.4392,nan,0
166531993,166531801,458770,-0.16213334,-0.0276,0.44346666,nan,0
167532996,167532806,458770,-0.164,-0.024933334,0.43786666,nan,0
168534009,168533800,458770,-0.1644,-0.021866666,0.44546667,nan,0
169534991,169534800,458770,-0.16373333,-0.0216,0.44026667,nan,0
170523034,170522800,458770,-0.16306667,-0.022400001,0.44133332,nan,0
171537009,171536800,458770,-0.16453333,-0.022,0.44280002,nan,0
172512003,172511813,458770,-0.1636,-0.023466667,0.4388,nan,0
173526037,173525800,458770,-0.16413334,-0.022666667,0.4452,nan,0
174513995,174513801,458770,-0.16453333,-0.0212,0.44133332,nan,0
175527991,175527801,458770,-0.1636,-0.0228,0.44333333,nan,0
176515991,176515800,458770,-0.16413334,-0.021733334,0.4444,nan,0
177529993,177529801,458770,-0.16373333,-0.022,0.4408,nan,0
178517992,178517801,458770,-0.16253333,-0.022533333,0.4456,nan,0
179532037,179531800,458770,-0.1636,-0.022,0.4392,nan,0
180532991,180532800,458770,-0.1604,-0.0184,0.45733333,nan,0
181533993,181533800,458770,-0.1636,-0.0212,0.4408,nan,0
182535042,182534800,458770,-0.16293333,-0.0216,0.44146666,nan,0
183535990,183535800,458770,-0.16346666,-0.020666666,0.44293335,nan,0
184536993,184536802,458770,-0.16346666,-0.019333333,0.45226666,nan,0
185524990,185524800,458770,-0.1632,-0.0216,0.44613335,nan,0
186525991,186525800,458770,-0.1628,-0.020533334,0.4532,nan,0
187513991,187513800,458770,-0.16386667,-0.020666666,0.44106668,nan,0
188527993,188527802,458770,-0.16373333,-0.020666666,0.44480002,nan,0
189515993,189515801,458770,-0.16293333,-0.020533334,0.43893334,nan,0
