timestamp,timestamp_sample,baro_device_id,baro_alt_meter,baro_temp_celcius,baro_pressure_pa,rho,calibration_count
16864534,16864495,3997730,26.592304,25.18,101006.0,1.2256286,0
16945366,16915035,3997730,26.520962,25.18,101006.836,1.2256387,0
17066634,17066571,3997730,26.092907,25.17,101012.0,1.2257015,0
17268695,17268655,3997730,26.50775,25.18,101007.0,1.2256408,0
17470802,17470736,3997730,26.174816,25.17,101011.0,1.2256892,0
17672849,17672807,3997730,26.341284,25.17,101009.0,1.225665,0
17874917,17874879,3997730,26.174816,25.17,101011.0,1.2256892,0
18076995,18076956,3997730,26.341284,25.16,101009.0,1.225665,0
18279101,18279039,3997730,26.341284,25.16,101009.0,1.225665,0
18481178,18481116,3997730,25.841887,25.16,101015.0,1.2257378,0
18683276,18683215,3997730,26.341284,25.16,101009.0,1.225665,0
18885312,18885271,3997730,26.425837,25.16,101008.0,1.2256528,0
19087391,19087349,3997730,26.425837,25.16,101008.0,1.2256528,0
19289487,19289424,3997730,26.174816,25.15,101011.0,1.2256892,0
19491552,19491500,3997730,26.341284,25.15,101009.0,1.225665,0
19693621,19693578,3997730,26.50775,25.15,101007.0,1.2256408,0
19895701,19895656,3997730,26.50775,25.15,101007.0,1.226058,0
20097778,20097734,3997730,26.341284,25.15,101009.0,1.225665,0
20299874,20299812,3997730,26.592304,25.15,101006.0,1.2256286,0
20501955,20501890,3997730,26.259373,25.15,101010.0,1.2256771,0
20704041,20703969,3997730,26.592304,25.15,101006.0,1.2256286,0
20906241,20906198,3997730,26.341284,25.14,101009.0,1.225665,0
21108165,21108124,3997730,26.259373,25.14,101010.0,1.2256771,0
21300140,21259685,3997730,26.354494,25.14,101008.86,1.2256633,0
21502223,21461756,3997730,26.341284,25.14,101009.0,1.225665,0
21704290,21663839,3997730,26.388845,25.135714,101008.43,1.225658,0
21906391,21865915,3997730,26.365065,25.137142,101008.71,1.2256615,0
22108456,22067989,3997730,26.425837,25.137144,101008.0,1.2256528,0
22310568,22270066,3997730,26.388845,25.132856,101008.43,1.225658,0
22421659,22421621,3997730,26.259373,25.13,101010.0,1.2256771,0
22623783,22623702,3997730,26.425837,25.13,101008.0,1.2256528,0
22825842,22825779,3997730,26.425837,25.13,101008.0,1.2260702,0
23027932,23027856,3997730,26.092907,25.13,101012.0,1.2257015,0
23230101,23230065,3997730,26.341284,25.13,101009.0,1.225665,0
23432052,23432010,3997730,26.174816,25.13,101011.0,1.2256892,0
23634133,23634088,3997730,26.341284,25.13,101009.0,1.225665,0
23836205,23836164,3997730,26.259373,25.119999,101010.0,1.2256771,0
24038289,24038246,3997730,26.425837,25.13,101008.0,1.2256528,0
24240361,24240320,3997730,26.259373,25.119999,101010.0,1.2256771,0
24442441,24442399,3997730,26.592304,25.119999,101006.0,1.2256286,0
24644587,24644482,3997730,25.923796,25.119999,101014.0,1.2257257,0
24846601,24846556,3997730,26.341284,25.119999,101009.0,1.225665,0
25048696,25048628,3997730,26.174816,25.119999,101011.0,1.2256892,0
25250762,25250712,3997730,26.259373,25.119999,101010.0,1.2256771,0
25452829,25452784,3997730,26.174816,25.119999,101011.0,1.2256892,0
25654904,25654860,3997730,26.592304,25.119999,101006.0,1.2256286,0
25856988,25856943,3997730,26.174816,25.119999,101011.0,1.2256892,0
26059061,26059014,3997730,25.923796,25.119999,101014.0,1.2257257,0
26261154,26261100,3997730,26.341284,25.119999,101009.0,1.225665,0
26463214,26463170,3997730,26.75877,25.109999,101004.0,1.2256044,0
26665336,26665252,3997730,26.50775,25.119999,101007.0,1.2256408,0
26867372,26867328,3997730,26.341284,25.109999,101009.0,1.225665,0
27069448,27069403,3997730,26.50775,25.109999,101007.0,1.2256408,0
27271525,27271480,3997730,26.341284,25.109999,101009.0,1.225665,0
27473602,27473556,3997730,26.50775,25.109999,101007.0,1.2252237,0
27675681,27675637,3997730,26.425837,25.109999,101008.0,1.2256528,0
27877754,27877709,3997730,26.092907,25.119999,101012.0,1.2257015,0
28079843,28079795,3997730,26.008352,25.109999,101013.0,1.2257136,0
28281913,28281868,3997730,26.50775,25.109999,101007.0,1.2256408,0
28484036,28483945,3997730,26.174816,25.109999,101011.0,1.2256892,0
28686065,28686022,3997730,26.341284,25.109999,101009.0,1.2252479,0
28888254,28888189,3997730,26.341284,25.109999,101009.0,1.225665,0
29090248,29090178,3997730,26.341284,25.109999,101009.0,1.225665,0
29292295,29292254,3997730,26.092907,25.109999,101012.0,1.2257015,0
29494373,29494331,3997730,26.341284,25.109999,101009.0,1.225665,0
29696449,29696407,3997730,26.341284,25.109999,101009.0,1.225665,0
29898552,29898510,3997730,26.174816,25.109999,101011.0,1.2256892,0
30100604,30100563,3997730,26.50775,25.1,101007.0,1.2256408,0
30302701,30302638,3997730,26.425837,25.1,101008.0,1.2256528,0
30504785,30504716,3997730,26.008352,25.109999,101013.0,1.2257136,0
30706833,30706794,3997730,26.092907,25.109999,101012.0,1.2257015,0
30908958,30908872,3997730,26.174816,25.109999,101011.0,1.2256892,0
31090784,31060447,3997730,26.354494,25.109999,101008.836,1.225663,0
31293061,31262545,3997730,26.341284,25.109999,101009.0,1.225665,0
31494947,31464585,3997730,26.230307,25.109999,101010.336,1.2252642,0
31697014,31666666,3997730,26.285795,25.105001,101009.664,1.225256,0
31899117,31868739,3997730,26.299007,25.1,101009.5,1.2252539,0
32101167,32070815,3997730,26.465471,25.105001,101007.5,1.2256469,0
32303258,32272893,3997730,26.354494,25.104998,101008.836,1.225663,0
32505321,32474970,3997730,26.299007,25.105001,101009.5,1.225671,0
32707417,32677050,3997730,26.412626,25.1,101008.164,1.2256548,0
32828663,32828607,3997730,26.174816,25.109999,101011.0,1.225272,0
33111555,33081258,3997730,26.50775,25.1,101007.0,1.226058,0
33232797,33232758,3997730,26.341284,25.109999,101009.0,1.225665,0
33434877,33434839,3997730,26.174816,25.1,101011.0,1.225272,0
33636951,33636913,3997730,26.341284,25.109999,101009.0,1.2252479,0
33839032,33838994,3997730,26.50775,25.109999,101007.0,1.2252237,0
34041133,34041070,3997730,26.425837,25.1,101008.0,1.2252358,0
34243183,34243144,3997730,26.50775,25.109999,101007.0,1.2256408,0
34445309,34445248,3997730,26.092907,25.109999,101012.0,1.2257015,0
34647368,34647303,3997730,26.341284,25.109999,101009.0,1.2252479,0
34849441,34849379,3997730,26.174816,25.1,101011.0,1.225272,0
35051496,35051455,3997730,26.174816,25.109999,101011.0,1.225272,0
35253574,35253533,3997730,26.341284,25.109999,101009.0,1.2252479,0
35455651,35455610,3997730,26.50775,25.1,101007.0,1.2252237,0
35657730,35657687,3997730,26.341284,25.109999,101009.0,1.225665,0
35859807,35859765,3997730,26.425837,25.1,101008.0,1.2252358,0
36061902,36061841,3997730,26.092907,25.1,101012.0,1.2252843,0
36263984,36263920,3997730,26.425837,25.1,101008.0,1.2252358,0
36466079,36466016,3997730,26.174816,25.1,101011.0,1.225272,0
36668140,36668076,3997730,26.425837,25.109999,101008.0,1.2252358,0
36870239,36870192,3997730,26.50775,25.109999,101007.0,1.2252237,0
37072278,37072242,3997730,26.174816,25.1,101011.0,1.225272,0
37274349,37274307,3997730,26.674217,25.109999,101005.0,1.2251995,0
37476424,37476382,3997730,26.092907,25.109999,101012.0,1.2257015,0
37678503,37678461,3997730,26.174816,25.109999,101011.0,1.225272,0
37880611,37880541,3997730,26.425837,25.109999,101008.0,1.2252358,0
38082656,38082613,3997730,26.092907,25.109999,101012.0,1.2252843,0
38284736,38284694,3997730,26.092907,25.109999,101012.0,1.2257015,0
38486832,38486770,3997730,26.425837,25.109999,101008.0,1.2252358,0
38688940,38688872,3997730,26.174816,25.109999,101011.0,1.2256892,0
38890980,38890924,3997730,26.592304,25.109999,101006.0,1.2256286,0
39093231,39093195,3997730,26.092907,25.109999,101012.0,1.2257015,0
39295147,39295111,3997730,25.339846,25.109999,101021.0,1.2258106,0
39497192,39497157,3997730,26.341284,25.109999,101009.0,1.225665,0
39699293,39699257,3997730,25.424398,25.109999,101020.0,1.2257985,0
39901345,39901308,3997730,26.008352,25.109999,101013.0,1.2257136,0
40103420,40103385,3997730,25.424398,25.109999,101020.0,1.2257985,0
40305516,40305465,3997730,26.174816,25.109999,101011.0,1.2256892,0
40507594,40507543,3997730,25.672775,25.109999,101017.0,1.2261794,0
40709670,40709618,3997730,26.092907,25.109999,101012.0,1.2261187,0
40901647,40861182,3997730,25.590866,25.112856,101018.0,1.2261914,0
41103704,41063266,3997730,25.530092,25.109999,101018.71,1.2262002,0
41305780,41265361,3997730,25.506311,25.109999,101019.0,1.2262037,0
41507876,41467415,3997730,25.746761,25.109999,101016.14,1.2261689,0
41709935,41669485,3997730,25.614645,25.109999,101017.71,1.2266057,0
41821082,41821043,3997730,25.757332,25.109999,101016.0,1.2265849,0
42023159,42023120,3997730,25.590866,25.109999,101018.0,1.2266091,0
42225237,42225198,3997730,25.672775,25.119999,101017.0,1.2265971,0
42427359,42427274,3997730,25.424398,25.109999,101020.0,1.2266335,0
42629433,42629374,3997730,26.008352,25.119999,101013.0,1.2265486,0
42831470,42831429,3997730,26.008352,25.119999,101013.0,1.2265486,0
43033545,43033505,3997730,26.341284,25.109999,101009.0,1.2269177,0
43235643,43235585,3997730,26.341284,25.119999,101009.0,1.2269177,0
43437678,43437639,3997730,26.843325,25.119999,101003.0,1.2268448,0
43639751,43639712,3997730,26.425837,25.109999,101008.0,1.2269056,0
43841829,43841789,3997730,26.592304,25.119999,101006.0,1.2268813,0
44043908,44043867,3997730,26.925238,25.119999,101002.0,1.2268327,0
44245990,44245945,3997730,26.341284,25.119999,101009.0,1.2269177,0
44448067,44448025,3997730,26.75877,25.119999,101004.0,1.2272753,0
44650139,44650100,3997730,27.091703,25.119999,101000.0,1.2272266,0
44852230,44852194,3997730,26.50775,25.119999,101007.0,1.2273117,0
45054338,45054252,3997730,26.925238,25.119999,101002.0,1.2272509,0
45256366,45256331,3997730,27.091703,25.119999,101000.0,1.2272266,0
45458443,45458407,3997730,26.843325,25.119999,101003.0,1.2272631,0
45660524,45660484,3997730,27.176258,25.119999,100999.0,1.2272145,0
45862600,45862563,3997730,27.342724,25.119999,100997.0,1.2271903,0
46064702,46064643,3997730,27.176258,25.119999,100999.0,1.2272145,0
46266753,46266716,3997730,27.176258,25.119999,100999.0,1.2272145,0
46468833,46468795,3997730,27.26081,25.119999,100998.0,1.2272023,0
46670912,46670872,3997730,27.26081,25.119999,100998.0,1.2272023,0
46872988,46872951,3997730,27.091703,25.119999,101000.0,1.2272266,0
47075202,47075166,3997730,27.342724,25.119999,100997.0,1.2271903,0
47277142,47277106,3997730,27.176258,25.13,100999.0,1.2276329,0
47479233,47479185,3997730,27.00979,25.119999,101001.0,1.2276571,0
47681333,47681276,3997730,27.511831,25.119999,100995.0,1.2275841,0
47883375,47883336,3997730,27.678297,25.119999,100993.0,1.2275599,0
48085452,48085413,3997730,27.342724,25.13,100997.0,1.2276086,0
48287532,48287492,3997730,27.678297,25.13,100993.0,1.2275599,0
48489613,48489570,3997730,27.427279,25.13,100996.0,1.2275963,0
48691688,48691648,3997730,27.427279,25.13,100996.0,1.2275963,0
48893794,48893749,3997730,27.760208,25.13,100992.0,1.2275478,0
49095872,49095827,3997730,27.593744,25.13,100994.0,1.2275721,0
49298135,49298048,3997730,27.511831,25.13,100995.0,1.2275841,0
49500093,49500010,3997730,27.760208,25.13,100992.0,1.2275478,0
49702152,49702083,3997730,27.926676,25.13,100990.0,1.2279422,0
49904205,49904140,3997730,27.678297,25.13,100993.0,1.2275599,0
50106283,50106218,3997730,27.678297,25.13,100993.0,1.2283976,0
50308360,50308294,3997730,28.095785,25.13,100988.0,1.2279178,0
50490234,50459855,3997730,27.998016,25.13,100989.164,1.227932,0
50692311,50661932,3997730,27.871187,25.13,100990.664,1.2279502,0
50894382,50864008,3997730,27.802486,25.135,100991.5,1.2279605,0
51096478,51066089,3997730,27.871187,25.135,100990.664,1.2279502,0
51298553,51268181,3997730,27.913464,25.135,100990.164,1.2279441,0
51500592,51470263,3997730,27.998016,25.14,100989.164,1.228351,0
51702668,51672315,3997730,28.06672,25.14,100988.336,1.227922,0
51904745,51874391,3997730,27.998016,25.14,100989.164,1.227932,0
52106791,52076452,3997730,27.968952,25.14,100989.5,1.2279361,0
52308869,52278523,3997730,28.011229,25.14,100989.0,1.22793,0
52430119,52430080,3997730,28.428717,25.14,100984.0,1.2282882,0
52632192,52632156,3997730,28.177696,25.14,100987.0,1.2283247,0
52834271,52834235,3997730,28.262249,25.14,100986.0,1.2283125,0
53036350,53036312,3997730,27.760208,25.14,100992.0,1.2283856,0
53238423,53238387,3997730,28.011229,25.14,100989.0,1.228349,0
53440501,53440464,3997730,27.678297,25.15,100993.0,1.2283976,0
53642579,53642543,3997730,27.926676,25.14,100990.0,1.2283612,0
53844655,53844618,3997730,28.262249,25.15,100986.0,1.2283125,0
54046757,54046721,3997730,28.011229,25.14,100989.0,1.228349,0
54248810,54248773,3997730,27.844765,25.15,100991.0,1.2283734,0
54450887,54450850,3997730,27.176258,25.15,100999.0,1.2284707,0
54652988,54652930,3997730,28.095785,25.15,100988.0,1.2283368,0
54855044,54855007,3997730,28.095785,25.15,100988.0,1.228756,0
55057205,55057169,3997730,27.760208,25.15,100992.0,1.2283856,0
55259199,55259162,3997730,28.262249,25.15,100986.0,1.2283125,0
55461294,55461258,3997730,27.926676,25.14,100990.0,1.2283612,0
55663380,55663343,3997730,28.262249,25.15,100986.0,1.2283125,0
55865429,55865395,3997730,27.760208,25.15,100992.0,1.2283856,0
56067503,56067471,3997730,28.011229,25.15,100989.0,1.228349,0
56269582,56269549,3997730,28.095785,25.15,100988.0,1.2283368,0
56471657,56471625,3997730,28.177696,25.15,100987.0,1.2283247,0
56673751,56673705,3997730,27.926676,25.15,100990.0,1.2283612,0
56875815,56875782,3997730,28.095785,25.15,100988.0,1.2283368,0
57077922,57077860,3997730,27.593744,25.16,100994.0,1.228829,0
57280056,57280019,3997730,27.593744,25.15,100994.0,1.228829,0
57482130,57482095,3997730,27.844765,25.16,100991.0,1.2287925,0
57684131,57684095,3997730,27.926676,25.16,100990.0,1.2283612,0
57886213,57886169,3997730,28.011229,25.16,100989.0,1.2287681,0
58088282,58088245,3997730,27.678297,25.16,100993.0,1.2288169,0
58290361,58290324,3997730,27.593744,25.16,100994.0,1.228829,0
58492461,58492405,3997730,27.678297,25.16,100993.0,1.2288169,0
58695046,58694749,3997730,28.095785,25.16,100988.0,1.228756,0
58896647,58896586,3997730,27.760208,25.16,100992.0,1.2288047,0
59098737,59098662,3997730,27.593744,25.16,100994.0,1.228829,0
59300804,59300742,3997730,27.593744,25.16,100994.0,1.228829,0
59503079,59503037,3997730,27.593744,25.16,100994.0,1.228829,0
59704936,59704894,3997730,27.760208,25.16,100992.0,1.2288047,0
59907017,59906974,3997730,27.511831,25.17,100995.0,1.2288412,0
60109094,60109050,3997730,27.427279,25.16,100996.0,1.2288533,0
60301068,60260612,3997730,27.760208,25.167143,100992.0,1.2288047,0
60503162,60462691,3997730,27.820982,25.17,100991.29,1.228796,0
60705231,60664767,3997730,27.760208,25.17,100992.0,1.2288047,0
60907327,60866844,3997730,27.654516,25.17,100993.29,1.2288203,0
61109388,61068923,3997730,27.688866,25.17,100992.86,1.2288151,0
61220524,61220479,3997730,27.678297,25.17,100993.0,1.2288169,0
61422593,61422552,3997730,27.844765,25.17,100991.0,1.2287925,0
61624693,61624629,3997730,27.844765,25.17,100991.0,1.2292122,0
61826768,61826709,3997730,27.511831,25.17,100995.0,1.2292608,0
62028843,62028800,3997730,27.593744,25.17,100994.0,1.2292486,0
62230905,62230863,3997730,28.011229,25.17,100989.0,1.2291877,0
62432986,62432944,3997730,27.844765,25.17,100991.0,1.2292122,0
62635086,62635020,3997730,27.760208,25.17,100992.0,1.2292243,0
62837163,62837098,3997730,27.760208,25.18,100992.0,1.2292243,0
63039267,63039199,3997730,27.511831,25.17,100995.0,1.2292608,0
63241304,63241259,3997730,27.593744,25.18,100994.0,1.2292486,0
63443372,63443327,3997730,27.427279,25.18,100996.0,1.229273,0
63645469,63645407,3997730,27.844765,25.18,100991.0,1.2292122,0
63847528,63847484,3997730,27.342724,25.18,100997.0,1.2292851,0
64049607,64049562,3997730,27.26081,25.18,100998.0,1.2292973,0
64251691,64251644,3997730,27.593744,25.18,100994.0,1.2292486,0
64453762,64453717,3997730,27.678297,25.18,100993.0,1.2296562,0
64655874,64655797,3997730,27.176258,25.18,100999.0,1.2293094,0
64857941,64857876,3997730,27.760208,25.18,100992.0,1.2292243,0
65060021,65059955,3997730,27.593744,25.189999,100994.0,1.2292486,0
65262236,65262190,3997730,27.593744,25.18,100994.0,1.2292486,0
65464179,65464128,3997730,27.342724,25.189999,100997.0,1.2292851,0
65666247,65666186,3997730,27.678297,25.189999,100993.0,1.2292365,0
65868307,65868262,3997730,27.511831,25.18,100995.0,1.2292608,0
66070383,66070339,3997730,27.427279,25.189999,100996.0,1.229273,0
66272461,66272416,3997730,27.511831,25.189999,100995.0,1.2292608,0
66474537,66474493,3997730,27.342724,25.189999,100997.0,1.2292851,0
66676617,66676571,3997730,27.427279,25.189999,100996.0,1.2296927,0
66878714,66878653,3997730,27.26081,25.189999,100998.0,1.2292973,0
67080788,67080727,3997730,27.427279,25.189999,100996.0,1.2296927,0
67282867,67282802,3997730,27.342724,25.189999,100997.0,1.2292851,0
67485109,67485067,3997730,27.760208,25.189999,100992.0,1.2292243,0
67686999,67686957,3997730,27.593744,25.189999,100994.0,1.2296684,0
67889079,67889037,3997730,27.26081,25.189999,100998.0,1.2297171,0
68091177,68091115,3997730,27.511831,25.189999,100995.0,1.2296805,0
68293237,68293196,3997730,27.427279,25.189999,100996.0,1.2296927,0
68495278,68495242,3997730,27.26081,25.199999,100998.0,1.2297171,0
68697376,68697323,3997730,27.511831,25.199999,100995.0,1.2296805,0
68899456,68899419,3997730,27.427279,25.199999,100996.0,1.2296927,0
69101512,69101475,3997730,27.593744,25.199999,100994.0,1.2296684,0
69303590,69303554,3997730,27.176258,25.199999,100999.0,1.2297293,0
69505666,69505630,3997730,27.342724,25.199999,100997.0,1.229705,0
69707747,69707711,3997730,27.26081,25.199999,100998.0,1.2297171,0
69909825,69909786,3997730,27.26081,25.199999,100998.0,1.2297171,0
70091694,70061351,3997730,27.244957,25.199999,100998.164,1.229719,0
70293784,70263430,3997730,27.371788,25.199999,100996.664,1.2297008,0
70495891,70465509,3997730,27.482765,25.199999,100995.336,1.2301049,0
70697931,70667581,3997730,27.385,25.199999,100996.5,1.2296988,0
70900000,70869656,3997730,27.342724,25.205,100997.0,1.229705,0
71102080,71071735,3997730,27.482765,25.205,100995.336,1.2296847,0
71304219,71273846,3997730,27.231745,25.199999,100998.336,1.2297212,0
71506238,71475898,3997730,27.414066,25.21,100996.164,1.2296947,0
71708328,71677968,3997730,27.300446,25.205,100997.5,1.229711,0
71829559,71829526,3997730,27.091703,25.21,101000.0,1.2301617,0
72031637,72031602,3997730,27.342724,25.21,100997.0,1.229705,0
72233717,72233680,3997730,27.678297,25.21,100993.0,1.2296562,0
72435793,72435758,3997730,27.26081,25.21,100998.0,1.2297171,0
72637871,72637835,3997730,27.091703,25.21,101000.0,1.2297415,0
72839957,72839919,3997730,27.511831,25.21,100995.0,1.2296805,0
73042035,73041992,3997730,27.26081,25.21,100998.0,1.2297171,0
73244220,73244184,3997730,27.26081,25.21,100998.0,1.2297171,0
73446255,73446196,3997730,27.26081,25.21,100998.0,1.2301373,0
73648284,73648228,3997730,27.26081,25.21,100998.0,1.2297171,0
73850341,73850304,3997730,27.091703,25.22,101000.0,1.2297415,0
74052419,74052383,3997730,27.427279,25.22,100996.0,1.2296927,0
74254495,74254459,3997730,27.342724,25.22,100997.0,1.229705,0
74456571,74456535,3997730,27.00979,25.22,101001.0,1.2301738,0
74658656,74658620,3997730,27.091703,25.22,101000.0,1.2297415,0
74860737,74860691,3997730,27.342724,25.22,100997.0,1.229705,0
75062809,75062773,3997730,27.26081,25.22,100998.0,1.2301373,0
75264883,75264847,3997730,27.678297,25.22,100993.0,1.2296562,0
75467076,75467040,3997730,27.511831,25.22,100995.0,1.2296805,0
75669077,75669042,3997730,27.176258,25.22,100999.0,1.2297293,0
75871117,75871081,3997730,27.26081,25.22,100998.0,1.2297171,0
76073195,76073160,3997730,26.925238,25.22,101002.0,1.2306063,0
76275277,76275241,3997730,27.342724,25.22,100997.0,1.229705,0
76477352,76477315,3997730,27.00979,25.23,101001.0,1.2297536,0
76679440,76679392,3997730,27.26081,25.23,100998.0,1.2297171,0
76881553,76881510,3997730,27.176258,25.23,100999.0,1.2297293,0
77083580,77083547,3997730,26.925238,25.23,101002.0,1.2297658,0
77285660,77285627,3997730,27.342724,25.23,100997.0,1.229705,0
77487737,77487705,3997730,27.342724,25.23,100997.0,1.229705,0
77690012,77689782,3997730,27.342724,25.23,100997.0,1.229705,0
77891892,77891859,3997730,27.176258,25.23,100999.0,1.2297293,0
78093970,78093938,3997730,27.091703,25.24,101000.0,1.2297415,0
78296072,78296017,3997730,26.925238,25.23,101002.0,1.2297658,0
78498137,78498098,3997730,27.26081,25.23,100998.0,1.2297171,0
78700229,78700171,3997730,26.925238,25.23,101002.0,1.2297658,0
78902298,78902261,3997730,27.176258,25.23,100999.0,1.2297293,0
79104363,79104326,3997730,27.00979,25.24,101001.0,1.2301738,0
79306464,79306406,3997730,26.75877,25.24,101004.0,1.2297902,0
79508520,79508483,3997730,26.925238,25.24,101002.0,1.230186,0
79710604,79710568,3997730,26.674217,25.24,101005.0,1.2302226,0
79902592,79862126,3997730,26.938448,25.237143,101001.86,1.2301843,0
80104649,80064205,3997730,26.867105,25.240002,101002.71,1.230615,0
80306726,80266278,3997730,26.938448,25.240002,101001.86,1.2301843,0
80417874,80417838,3997730,26.674217,25.24,101005.0,1.2302226,0
80710903,80670436,3997730,26.962229,25.240002,101001.57,1.2301807,0
80822024,80821988,3997730,26.592304,25.24,101006.0,1.2302347,0
81024114,81024071,3997730,27.091703,25.24,101000.0,1.2301617,0
81226242,81226203,3997730,27.176258,25.24,100999.0,1.2301495,0
81428308,81428266,3997730,26.674217,25.24,101005.0,1.2306429,0
81630352,81630302,3997730,27.091703,25.24,101000.0,1.2301617,0
81832434,81832381,3997730,27.26081,25.24,100998.0,1.2301373,0
82034492,82034457,3997730,26.75877,25.25,101004.0,1.2302104,0
82236571,82236535,3997730,26.843325,25.25,101003.0,1.2301981,0
82438650,82438613,3997730,26.843325,25.25,101003.0,1.2301981,0
82640727,82640691,3997730,26.925238,25.25,101002.0,1.230186,0
82842805,82842769,3997730,26.843325,25.25,101003.0,1.2301981,0
83044884,83044847,3997730,26.843325,25.25,101003.0,1.2301981,0
83247010,83246927,3997730,26.50775,25.25,101007.0,1.2302469,0
83449211,83449172,3997730,26.925238,25.25,101002.0,1.230186,0
83651128,83651089,3997730,27.176258,25.25,100999.0,1.2301495,0
83853224,83853185,3997730,27.00979,25.25,101001.0,1.2301738,0
84055301,84055262,3997730,26.843325,25.26,101003.0,1.2301981,0
84257392,84257344,3997730,27.00979,25.26,101001.0,1.2301738,0
84459480,84459421,3997730,27.091703,25.25,101000.0,1.230582,0
84661536,84661495,3997730,27.176258,25.26,100999.0,1.2301495,0
84863635,84863576,3997730,27.00979,25.26,101001.0,1.2301738,0
85065737,85065653,3997730,27.091703,25.26,101000.0,1.2301617,0
85267813,85267733,3997730,27.342724,25.26,100997.0,1.2301252,0
85469871,85469811,3997730,26.75877,25.26,101004.0,1.2302104,0
85672095,85672044,3997730,27.176258,25.26,100999.0,1.2301495,0
85874003,85873965,3997730,27.091703,25.26,101000.0,1.2301617,0
86076081,86076041,3997730,27.176258,25.26,100999.0,1.2301495,0
86278185,86278120,3997730,27.00979,25.26,101001.0,1.2301738,0
86480248,86480198,3997730,27.00979,25.26,101001.0,1.2301738,0
86682314,86682276,3997730,26.925238,25.269999,101002.0,1.230186,0
86884416,86884358,3997730,27.26081,25.26,100998.0,1.2301373,0
87086489,87086434,3997730,27.176258,25.26,100999.0,1.2301495,0
87288569,87288514,3997730,27.091703,25.269999,101000.0,1.2301617,0
87490624,87490588,3997730,27.091703,25.269999,101000.0,1.2301617,0
87692701,87692665,3997730,27.26081,25.269999,100998.0,1.2301373,0
87894780,87894744,3997730,27.176258,25.269999,100999.0,1.2305698,0
88096863,88096827,3997730,27.427279,25.269999,100996.0,1.2301129,0
88298957,88298901,3997730,27.427279,25.269999,100996.0,1.2301129,0
88501013,88500977,3997730,27.593744,25.269999,100994.0,1.2300886,0
88703107,88703059,3997730,27.26081,25.269999,100998.0,1.2301373,0
88905203,88905143,3997730,27.427279,25.269999,100996.0,1.2301129,0
89107272,89107216,3997730,27.427279,25.269999,100996.0,1.2301129,0
89309350,89309293,3997730,27.091703,25.279999,101000.0,1.230582,0
89491248,89460882,3997730,27.189468,25.275,100998.836,1.2301475,0
89693278,89662938,3997730,27.120768,25.275,100999.664,1.2301576,0
89895359,89865072,3997730,27.176258,25.279999,100999.0,1.2301495,0
90097432,90067088,3997730,27.06528,25.279999,101000.336,1.230586,0
90299512,90269166,3997730,27.176258,25.275,100999.0,1.2305698,0
90501589,90471241,3997730,27.120768,25.279999,100999.664,1.2301576,0
90703666,90673318,3997730,27.218533,25.279999,100998.5,1.2301434,0
90905765,90875399,3997730,27.052069,25.279999,101000.5,1.2305881,0
91107840,91077476,3997730,27.06528,25.279999,101000.336,1.2301657,0
91229111,91229056,3997730,27.26081,25.279999,100998.0,1.2301373,0
91431225,91431190,3997730,26.925238,25.279999,101002.0,1.2310271,0
91633232,91633192,3997730,26.843325,25.279999,101003.0,1.2301981,0
91835300,91835269,3997730,26.925238,25.289999,101002.0,1.230186,0
92037380,92037347,3997730,27.176258,25.289999,100999.0,1.2305698,0
92239453,92239422,3997730,26.843325,25.289999,101003.0,1.2301981,0
92441534,92441501,3997730,27.26081,25.289999,100998.0,1.2301373,0
92643611,92643579,3997730,27.091703,25.289999,101000.0,1.2301617,0
92845690,92845658,3997730,26.75877,25.289999,101004.0,1.2306308,0
93047814,93047737,3997730,26.925238,25.289999,101002.0,1.230186,0
93249894,93249838,3997730,26.843325,25.289999,101003.0,1.2301981,0
93451947,93451895,3997730,26.925238,25.289999,101002.0,1.2306063,0
93654099,93654044,3997730,26.843325,25.289999,101003.0,1.2306185,0
93856136,93856089,3997730,26.592304,25.289999,101006.0,1.2306551,0
94058173,94058134,3997730,26.674217,25.289999,101005.0,1.2306429,0
94260246,94260210,3997730,26.674217,25.289999,101005.0,1.2306429,0
94462319,94462284,3997730,26.75877,25.3,101004.0,1.2306308,0
94664400,94664365,3997730,26.925238,25.3,101002.0,1.2306063,0
94866496,94866441,3997730,26.843325,25.289999,101003.0,1.2306185,0
95068599,95068521,3997730,26.50775,25.3,101007.0,1.2306672,0
95270661,95270606,3997730,26.50775,25.3,101007.0,1.2306672,0
95472723,95472675,3997730,26.425837,25.289999,101008.0,1.2306795,0
95674788,95674753,3997730,26.50775,25.3,101007.0,1.2306672,0
95877094,95877030,3997730,26.592304,25.3,101006.0,1.2306551,0
96078948,96078912,3997730,26.674217,25.3,101005.0,1.2306429,0
96281023,96280988,3997730,26.425837,25.3,101008.0,1.2306795,0
96483103,96483067,3997730,26.592304,25.3,101006.0,1.2306551,0
96685179,96685144,3997730,26.425837,25.3,101008.0,1.2306795,0
96887258,96887222,3997730,26.341284,25.3,101009.0,1.2306917,0
97089361,97089304,3997730,26.425837,25.3,101008.0,1.2306795,0
97291438,97291381,3997730,26.341284,25.3,101009.0,1.2306917,0
97493522,97493461,3997730,26.092907,25.31,101012.0,1.2307283,0
97695571,97695534,3997730,26.174816,25.31,101011.0,1.230716,0
97897649,97897613,3997730,26.092907,25.31,101012.0,1.2307283,0
98099731,98099694,3997730,26.092907,25.31,101012.0,1.2307283,0
98301832,98301790,3997730,25.590866,25.31,101018.0,1.2308012,0
98503859,98503823,3997730,26.092907,25.31,101012.0,1.2307283,0
98705941,98705902,3997730,25.672775,25.31,101017.0,1.2307891,0
98908017,98907981,3997730,26.174816,25.31,101011.0,1.230716,0
99110088,99110056,3997730,25.841887,25.31,101015.0,1.2307647,0
99302073,99261618,3997730,25.923796,25.31,101014.0,1.2307526,0
99504201,99463704,3997730,25.815462,25.31,101015.29,1.2307683,0
99706258,99665792,3997730,25.99514,25.31,101013.14,1.2307421,0
99908305,99867900,3997730,25.841887,25.314285,101015.0,1.2307647,0
100019450,100019411,3997730,25.672775,25.32,101017.0,1.2307891,0
100221532,100221492,3997730,25.841887,25.32,101015.0,1.2307647,0
100423606,100423567,3997730,25.757332,25.32,101016.0,1.2311977,0
100625769,100625650,3997730,25.841887,25.32,101015.0,1.2307647,0
100827763,100827724,3997730,25.590866,25.32,101018.0,1.2308012,0
101029841,101029802,3997730,25.672775,25.32,101017.0,1.2307891,0
101231945,101231881,3997730,25.590866,25.32,101018.0,1.2308012,0
101434003,101433964,3997730,25.424398,25.32,101020.0,1.2308257,0
101636205,101636166,3997730,25.923796,25.32,101014.0,1.2307526,0
101838159,101838120,3997730,25.257933,25.32,101022.0,1.2308501,0
102040236,102040196,3997730,25.424398,25.32,101020.0,1.2308257,0
102242319,102242275,3997730,25.424398,25.33,101020.0,1.2308257,0
102444390,102444354,3997730,25.590866,25.32,101018.0,1.2308012,0
102646465,102646429,3997730,25.339846,25.33,101021.0,1.2308378,0
102848546,102848509,3997730,25.091465,25.32,101024.0,1.2308744,0
103050621,103050586,3997730,24.922358,25.33,101026.0,1.2308987,0
103252700,103252664,3997730,25.091465,25.33,101024.0,1.2308744,0
103454779,103454743,3997730,25.173378,25.32,101023.0,1.2308623,0
103656857,103656822,3997730,25.506311,25.33,101019.0,1.2308135,0
103859058,103859017,3997730,25.091465,25.33,101024.0,1.2308744,0
104061013,104060977,3997730,25.173378,25.33,101023.0,1.2308623,0
104263099,104263059,3997730,25.257933,25.33,101022.0,1.2308501,0
104465168,104465133,3997730,24.840445,25.33,101027.0,1.230911,0
104667270,104667212,3997730,24.589424,25.33,101030.0,1.2309475,0
104869328,104869290,3997730,24.589424,25.33,101030.0,1.2309475,0
105071431,105071371,3997730,24.67398,25.34,101029.0,1.2309353,0
105273498,105273447,3997730,24.840445,25.33,101027.0,1.230911,0
105475583,105475526,3997730,24.755892,25.34,101028.0,1.2309232,0
105677644,105677604,3997730,24.67398,25.34,101029.0,1.2309353,0
105879724,105879683,3997730,24.755892,25.33,101028.0,1.2309232,0
106082019,106081765,3997730,24.504871,25.34,101031.0,1.2309597,0
106283884,106283845,3997730,24.589424,25.34,101030.0,1.2309475,0
106485959,106485919,3997730,24.755892,25.34,101028.0,1.2309232,0
106688038,106687998,3997730,24.67398,25.34,101029.0,1.2309353,0
106890127,106890084,3997730,24.17194,25.34,101035.0,1.2310084,0
107092226,107092155,3997730,24.42296,25.34,101032.0,1.2309718,0
107294276,107294234,3997730,24.42296,25.34,101032.0,1.2309718,0
107496349,107496310,3997730,24.338404,25.34,101033.0,1.230984,0
107698428,107698389,3997730,24.338404,25.34,101033.0,1.230984,0
107900515,107900471,3997730,24.42296,25.34,101032.0,1.2309718,0
108102606,108102546,3997730,24.17194,25.35,101035.0,1.2310084,0
108304672,108304633,3997730,24.338404,25.35,101033.0,1.230984,0
108506740,108506702,3997730,24.087383,25.35,101036.0,1.2310207,0
108708824,108708784,3997730,23.839006,25.35,101039.0,1.2314781,0
108910896,108910859,3997730,24.338404,25.35,101033.0,1.230984,0
109092765,109062422,3997730,24.10324,25.35,101035.836,1.2310187,0
109294845,109264496,3997730,23.989618,25.35,101037.164,1.2310349,0
109496926,109466579,3997730,23.976408,25.35,101037.336,1.2310369,0
109699026,109668656,3997730,24.06096,25.35,101036.336,1.2310247,0
109901100,109870755,3997730,24.10324,25.35,101035.836,1.2310187,0
110103165,110072838,3997730,24.10324,25.35,101035.836,1.2310187,0
110305257,110274890,3997730,23.934132,25.355001,101037.836,1.231043,0
110507316,110476970,3997730,24.087383,25.35,101036.0,1.2310207,0
110709436,110679048,3997730,23.949984,25.355001,101037.664,1.231041,0
110830645,110830608,3997730,24.17194,25.35,101035.0,1.2310084,0
111032722,111032685,3997730,23.92092,25.359999,101038.0,1.231045,0
111234799,111234763,3997730,23.587986,25.359999,101042.0,1.2310938,0
111436895,111436843,3997730,23.839006,25.359999,101039.0,1.2314781,0
111638959,111638922,3997730,23.503433,25.359999,101043.0,1.2311059,0
111841204,111841164,3997730,23.92092,25.359999,101038.0,1.231045,0
112043139,112043104,3997730,23.587986,25.359999,101042.0,1.2315147,0
112245213,112245159,3997730,23.839006,25.359999,101039.0,1.2310572,0
112447268,112447235,3997730,23.839006,25.359999,101039.0,1.2310572,0
112649372,112649339,3997730,23.669899,25.359999,101041.0,1.2315024,0
112851454,112851416,3997730,23.587986,25.359999,101042.0,1.2315147,0
113053533,113053495,3997730,23.503433,25.369999,101043.0,1.2311059,0
113255613,113255575,3997730,23.252413,25.359999,101046.0,1.2315634,0
113457692,113457650,3997730,23.503433,25.359999,101043.0,1.2315269,0
113659798,113659735,3997730,23.42152,25.359999,101044.0,1.2311181,0
113861875,113861807,3997730,23.42152,25.359999,101044.0,1.231539,0
114064100,114064041,3997730,23.085945,25.369999,101048.0,1.2311668,0
114265995,114265942,3997730,23.503433,25.369999,101043.0,1.2315269,0
114468058,114468020,3997730,23.252413,25.369999,101046.0,1.2311424,0
114670143,114670099,3997730,23.252413,25.369999,101046.0,1.2311424,0
114872223,114872179,3997730,23.336966,25.369999,101045.0,1.2315513,0
115074292,115074257,3997730,23.085945,25.369999,101048.0,1.2315878,0
115276391,115276334,3997730,23.252413,25.369999,101046.0,1.2315634,0
115478465,115478412,3997730,23.085945,25.369999,101048.0,1.2315878,0
115680530,115680491,3997730,22.91948,25.38,101050.0,1.2316122,0
115882608,115882571,3997730,22.91948,25.38,101050.0,1.2316122,0
116084748,116084648,3997730,23.42152,25.369999,101044.0,1.231539,0
116286763,116286727,3997730,23.252413,25.38,101046.0,1.2315634,0
116488844,116488806,3997730,23.085945,25.38,101048.0,1.2315878,0
116690923,116690884,3997730,22.91948,25.38,101050.0,1.2316122,0
116893000,116892963,3997730,22.753014,25.38,101052.0,1.2316365,0
117095094,117095042,3997730,22.753014,25.38,101052.0,1.2316365,0
117297183,117297130,3997730,22.91948,25.38,101050.0,1.2316122,0
117499234,117499199,3997730,23.1705,25.38,101047.0,1.2315756,0
117701317,117701280,3997730,22.91948,25.38,101050.0,1.2316122,0
117903392,117903356,3997730,22.837568,25.38,101051.0,1.2316244,0
118105519,118105470,3997730,23.085945,25.38,101048.0,1.2315878,0
118307549,118307514,3997730,22.253614,25.38,101058.0,1.2317097,0
118509628,118509593,3997730,22.586548,25.38,101054.0,1.231661,0
118701604,118661153,3997730,22.549555,25.382856,101054.43,1.2316661,0
118903701,118863234,3997730,22.420082,25.385714,101056.0,1.2316853,0
119105760,119065314,3997730,22.491425,25.382856,101055.14,1.2316748,0
119307850,119267387,3997730,22.39366,25.39,101056.29,1.2316887,0
119509926,119469468,3997730,22.467644,25.39,101055.43,1.2316784,0
119621066,119621025,3997730,22.169062,25.39,101059.0,1.2317219,0
119823205,119823165,3997730,22.087149,25.39,101060.0,1.231734,0
120025245,120025207,3997730,22.671103,25.39,101053.0,1.2316487,0
120227300,120227261,3997730,22.002594,25.39,101061.0,1.2317462,0
120429379,120429340,3997730,22.420082,25.39,101056.0,1.2321064,0
120631468,120631428,3997730,22.169062,25.39,101059.0,1.2317219,0
120833539,120833499,3997730,22.169062,25.39,101059.0,1.2317219,0
121035614,121035575,3997730,22.501993,25.39,101055.0,1.2316731,0
121237738,121237654,3997730,22.169062,25.39,101059.0,1.2317219,0
121439778,121439739,3997730,22.253614,25.39,101058.0,1.2317097,0
121641871,121641816,3997730,22.253614,25.4,101058.0,1.2317097,0
121843931,121843890,3997730,22.002594,25.4,101061.0,1.2317462,0
122046207,122046170,3997730,22.335527,25.4,101057.0,1.2316976,0
122248174,122248135,3997730,22.253614,25.4,101058.0,1.2317097,0
122450166,122450129,3997730,22.501993,25.4,101055.0,1.2316731,0
122652243,122652206,3997730,22.087149,25.4,101060.0,1.231734,0
122854321,122854284,3997730,22.087149,25.4,101060.0,1.231734,0
123056404,123056367,3997730,22.169062,25.4,101059.0,1.232143,0
123258511,123258464,3997730,22.002594,25.4,101061.0,1.2317462,0
123460560,123460524,3997730,22.335527,25.4,101057.0,1.2316976,0
123662647,123662601,3997730,21.836128,25.4,101063.0,1.2317706,0
123864716,123864679,3997730,21.585108,25.41,101066.0,1.2318072,0
124066813,124066777,3997730,21.751575,25.4,101064.0,1.2317829,0
124269056,124269019,3997730,21.585108,25.41,101066.0,1.2318072,0
124470950,124470915,3997730,21.918041,25.41,101062.0,1.2317584,0
124673029,124672992,3997730,21.585108,25.41,101066.0,1.2318072,0
124875115,124875078,3997730,21.669662,25.41,101065.0,1.2317951,0
125077187,125077151,3997730,22.002594,25.41,101061.0,1.2317462,0
125279267,125279230,3997730,21.918041,25.41,101062.0,1.2317584,0
125481346,125481307,3997730,21.918041,25.41,101062.0,1.2317584,0
125683432,125683391,3997730,22.087149,25.41,101060.0,1.231734,0
125885505,125885465,3997730,22.002594,25.41,101061.0,1.2317462,0
126087607,126087568,3997730,22.087149,25.41,101060.0,1.231734,0
126289665,126289625,3997730,21.585108,25.41,101066.0,1.2318072,0
126491742,126491703,3997730,21.167622,25.41,101071.0,1.2318681,0
126693823,126693783,3997730,21.500555,25.41,101067.0,1.2318194,0
126895899,126895859,3997730,21.751575,25.41,101064.0,1.2317829,0
127097979,127097939,3997730,21.836128,25.42,101063.0,1.2321918,0
127300059,127300017,3997730,22.335527,25.42,101057.0,1.2321187,0
127502213,127502147,3997730,21.167622,25.42,101071.0,1.2318681,0
127704215,127704175,3997730,21.500555,25.42,101067.0,1.2318194,0
127906295,127906255,3997730,22.671103,25.41,101053.0,1.2316487,0
128108373,128108333,3997730,21.001156,25.42,101073.0,1.2318926,0
128290244,128259899,3997730,22.198126,25.42,101058.664,1.2317178,0
128492344,128461976,3997730,21.725151,25.42,101064.336,1.231787,0
128694412,128664055,3997730,21.918041,25.42,101062.0,1.2317584,0
128896499,128866141,3997730,21.875763,25.42,101062.5,1.2317644,0
129098623,129068217,3997730,21.725151,25.42,101064.336,1.231787,0
129300637,129270291,3997730,22.306461,25.42,101057.336,1.2321228,0
129502728,129472366,3997730,22.044872,25.42,101060.5,1.2317401,0
129704798,129674445,3997730,22.113571,25.425001,101059.664,1.23173,0
129906874,129876524,3997730,22.15585,25.43,101059.164,1.2317239,0
130108948,130078602,3997730,22.182274,25.425001,101058.836,1.232141,0
130230213,130230171,3997730,22.087149,25.43,101060.0,1.231734,0
130432282,130432246,3997730,22.087149,25.43,101060.0,1.2321552,0
130634358,130634320,3997730,22.335527,25.43,101057.0,1.2316976,0
130836434,130836399,3997730,21.836128,25.43,101063.0,1.2321918,0
131038531,131038478,3997730,21.669662,25.43,101065.0,1.2322162,0
131240622,131240556,3997730,22.253614,25.43,101058.0,1.2317097,0
131442671,131442634,3997730,22.671103,25.43,101053.0,1.2316487,0
131644752,131644716,3997730,22.837568,25.43,101051.0,1.2320455,0
131846829,131846793,3997730,22.420082,25.43,101056.0,1.2321064,0
132048965,132048923,3997730,21.836128,25.43,101063.0,1.2321918,0
132251064,132251027,3997730,21.751575,25.439999,101064.0,1.2322041,0
132453103,132453069,3997730,21.751575,25.439999,101064.0,1.2322041,0
132655174,132655110,3997730,21.836128,25.439999,101063.0,1.2321918,0
132857233,132857187,3997730,22.420082,25.439999,101056.0,1.2321064,0
133059300,133059267,3997730,22.087149,25.439999,101060.0,1.2325768,0
133261379,133261346,3997730,21.669662,25.439999,101065.0,1.2322162,0
133463463,133463429,3997730,22.335527,25.439999,101057.0,1.2321187,0
133665534,133665502,3997730,21.669662,25.439999,101065.0,1.2322162,0
133867618,133867584,3997730,22.586548,25.439999,101054.0,1.232082,0
134069714,134069682,3997730,22.335527,25.439999,101057.0,1.2321187,0
134271774,134271741,3997730,22.837568,25.439999,101051.0,1.2320455,0
134474090,134474017,3997730,21.918041,25.439999,101062.0,1.2321796,0
134675959,134675900,3997730,22.335527,25.439999,101057.0,1.2321187,0
134878015,134877979,3997730,22.420082,25.439999,101056.0,1.2321064,0
135080091,135080056,3997730,21.918041,25.439999,101062.0,1.2321796,0
135282176,135282140,3997730,22.753014,25.449999,101052.0,1.2320577,0
135484289,135484253,3997730,22.002594,25.449999,101061.0,1.2321674,0
135686332,135686294,3997730,21.836128,25.449999,101063.0,1.2321918,0
135888408,135888372,3997730,21.585108,25.449999,101066.0,1.2322284,0
136090491,136090453,3997730,21.918041,25.449999,101062.0,1.2321796,0
136292565,136292529,3997730,22.420082,25.449999,101056.0,1.2321064,0
136494647,136494609,3997730,22.002594,25.449999,101061.0,1.2321674,0
136696726,136696690,3997730,22.253614,25.449999,101058.0,1.2321309,0
136898803,136898767,3997730,22.586548,25.449999,101054.0,1.232082,0
137100885,137100849,3997730,21.500555,25.46,101067.0,1.2322406,0
137302965,137302924,3997730,22.087149,25.449999,101060.0,1.2321552,0
137505076,137505030,3997730,22.501993,25.46,101055.0,1.2320943,0
137707135,137707084,3997730,22.335527,25.449999,101057.0,1.2321187,0
137899094,137858643,3997730,22.229836,25.45714,101058.29,1.2321345,0
138111279,138111241,3997730,22.169062,25.46,101059.0,1.232143,0
138303258,138262816,3997730,22.335527,25.457142,101057.0,1.2321187,0
138505332,138464914,3997730,21.931253,25.460001,101061.86,1.2321779,0
138707432,138666965,3997730,22.203413,25.460001,101058.57,1.2321378,0
138909494,138869041,3997730,22.216623,25.460001,101058.43,1.2321361,0
139020637,139020601,3997730,22.169062,25.46,101059.0,1.232143,0
139222719,139222680,3997730,22.087149,25.46,101060.0,1.2321552,0
139424819,139424755,3997730,22.253614,25.46,101058.0,1.2321309,0
139626873,139626834,3997730,22.087149,25.46,101060.0,1.2321552,0
139828978,139828918,3997730,22.002594,25.47,101061.0,1.2321674,0
140031077,140031037,3997730,22.169062,25.46,101059.0,1.232143,0
140233225,140233186,3997730,21.585108,25.46,101066.0,1.2322284,0
140435191,140435152,3997730,21.836128,25.47,101063.0,1.2321918,0
140637269,140637231,3997730,21.918041,25.46,101062.0,1.2321796,0
140839351,140839311,3997730,21.751575,25.47,101064.0,1.2322041,0
141041446,141041393,3997730,22.002594,25.47,101061.0,1.2321674,0
141243506,141243467,3997730,21.751575,25.47,101064.0,1.2322041,0
141445586,141445547,3997730,22.253614,25.47,101058.0,1.2325525,0
141647700,141647630,3997730,22.087149,25.47,101060.0,1.2321552,0
141849746,141849704,3997730,22.169062,25.47,101059.0,1.232143,0
142051846,142051807,3997730,22.002594,25.47,101061.0,1.2321674,0
142253908,142253863,3997730,22.087149,25.47,101060.0,1.2321552,0
142456081,142456018,3997730,22.087149,25.47,101060.0,1.2321552,0
142658090,142658054,3997730,21.836128,25.47,101063.0,1.2321918,0
142860148,142860102,3997730,21.836128,25.47,101063.0,1.2321918,0
143062230,143062181,3997730,22.335527,25.48,101057.0,1.2321187,0
143264296,143264259,3997730,22.335527,25.48,101057.0,1.2321187,0
143466440,143466401,3997730,22.002594,25.48,101061.0,1.2321674,0
143668452,143668416,3997730,22.420082,25.48,101056.0,1.2321064,0
143870583,143870496,3997730,21.918041,25.48,101062.0,1.2321796,0
144072613,144072576,3997730,22.586548,25.48,101054.0,1.232082,0
144274692,144274655,3997730,22.335527,25.48,101057.0,1.2321187,0
144476770,144476733,3997730,21.918041,25.48,101062.0,1.2326012,0
144679059,144679013,3997730,22.586548,25.48,101054.0,1.232082,0
144880929,144880893,3997730,22.169062,25.48,101059.0,1.232143,0
145083007,145082971,3997730,21.918041,25.48,101062.0,1.2326012,0
145285109,145285053,3997730,22.253614,25.48,101058.0,1.2321309,0
145487185,145487141,3997730,22.420082,25.48,101056.0,1.2321064,0
145689246,145689210,3997730,22.501993,25.48,101055.0,1.2320943,0
145891338,145891288,3997730,21.836128,25.49,101063.0,1.2321918,0
146093417,146093366,3997730,22.253614,25.49,101058.0,1.2321309,0
146295486,146295446,3997730,22.335527,25.49,101057.0,1.2321187,0
146497566,146497525,3997730,22.253614,25.49,101058.0,1.2321309,0
146699647,146699608,3997730,22.087149,25.49,101060.0,1.2321552,0
146901722,146901684,3997730,22.253614,25.49,101058.0,1.2321309,0
147103820,147103775,3997730,22.002594,25.49,101061.0,1.232589,0
147305887,147305847,3997730,22.087149,25.49,101060.0,1.2321552,0
147507961,147507920,3997730,22.335527,25.49,101057.0,1.2321187,0
147689869,147659482,3997730,22.126783,25.49,101059.5,1.2321491,0
147891908,147861559,3997730,22.169062,25.495,101059.0,1.232143,0
148093989,148063642,3997730,22.169062,25.49,101059.0,1.232143,0
148296069,148265723,3997730,22.126783,25.49,101059.5,1.2321491,0
148498240,148467847,3997730,22.113571,25.495,101059.664,1.2321512,0
148700232,148669889,3997730,22.058084,25.495,101060.336,1.2321593,0
148902311,148871961,3997730,21.989384,25.495,101061.164,1.2321694,0
149104389,149074038,3997730,22.335527,25.495,101057.0,1.2321187,0
149306486,149276115,3997730,22.253614,25.5,101058.0,1.2321309,0
149508542,149478195,3997730,22.002594,25.5,101061.0,1.2321674,0
149710649,149680275,3997730,22.420082,25.5,101056.0,1.2321064,0
149831919,149831831,3997730,22.335527,25.5,101057.0,1.2321187,0
150033970,150033934,3997730,22.253614,25.5,101058.0,1.2325525,0
150236040,150235992,3997730,22.087149,25.5,101060.0,1.2321552,0
150438202,150438165,3997730,22.335527,25.5,101057.0,1.2321187,0
150640199,150640149,3997730,22.002594,25.5,101061.0,1.2321674,0
150842267,150842231,3997730,22.169062,25.5,101059.0,1.232143,0
151044361,151044309,3997730,22.335527,25.5,101057.0,1.2321187,0
151246441,151246390,3997730,22.087149,25.5,101060.0,1.2325768,0
151448526,151448491,3997730,22.002594,25.5,101061.0,1.2321674,0
151650602,151650553,3997730,22.253614,25.51,101058.0,1.2321309,0
151852703,151852628,3997730,22.087149,25.51,101060.0,1.2321552,0
152054740,152054704,3997730,22.169062,25.51,101059.0,1.232143,0
152256821,152256785,3997730,22.087149,25.51,101060.0,1.2321552,0
152458900,152458864,3997730,22.253614,25.51,101058.0,1.2321309,0
152661087,152661032,3997730,22.420082,25.51,101056.0,1.2321064,0
152863094,152863059,3997730,22.169062,25.51,101059.0,1.232143,0
153065136,153065103,3997730,22.335527,25.51,101057.0,1.2321187,0
153267214,153267181,3997730,22.501993,25.51,101055.0,1.2320943,0
153469297,153469266,3997730,21.918041,25.51,101062.0,1.2321796,0
153671373,153671341,3997730,22.253614,25.519999,101058.0,1.2321309,0
153873453,153873421,3997730,22.420082,25.51,101056.0,1.2321064,0
154075532,154075499,3997730,22.335527,25.519999,101057.0,1.2325402,0
154277608,154277577,3997730,22.169062,25.519999,101059.0,1.232143,0
154479717,154479661,3997730,22.501993,25.519999,101055.0,1.2320943,0
154681774,154681737,3997730,22.586548,25.519999,101054.0,1.232082,0
154884074,154884019,3997730,22.087149,25.519999,101060.0,1.2321552,0
155085960,155085898,3997730,22.420082,25.519999,101056.0,1.2321064,0
155288011,155287975,3997730,22.002594,25.519999,101061.0,1.2321674,0
155490094,155490057,3997730,22.253614,25.519999,101058.0,1.2321309,0
155692173,155692133,3997730,22.169062,25.519999,101059.0,1.232143,0
155894251,155894214,3997730,22.253614,25.519999,101058.0,1.2321309,0
156096330,156096294,3997730,22.420082,25.519999,101056.0,1.2321064,0
156298424,156298377,3997730,22.087149,25.519999,101060.0,1.2321552,0
156500489,156500454,3997730,22.169062,25.519999,101059.0,1.232143,0
156702570,156702534,3997730,22.420082,25.519999,101056.0,1.2321064,0
156904711,156904655,3997730,22.253614,25.519999,101058.0,1.2321309,0
157106748,157106693,3997730,22.169062,25.519999,101059.0,1.232143,0
157308807,157308770,3997730,22.169062,25.519999,101059.0,1.232143,0
157500798,157460330,3997730,22.240404,25.529999,101058.14,1.2321326,0
157702873,157662408,3997730,22.335527,25.529999,101057.0,1.2321187,0
157904956,157864490,3997730,22.216623,25.529999,101058.43,1.2321361,0
158107040,158066568,3997730,22.229836,25.529999,101058.29,1.2321345,0
158309098,158268646,3997730,22.301178,25.529999,101057.43,1.232124,0
158420241,158420205,3997730,22.002594,25.529999,101061.0,1.2321674,0
158622322,158622286,3997730,22.335527,25.529999,101057.0,1.2321187,0
158824401,158824365,3997730,22.420082,25.529999,101056.0,1.232528,0
159026484,159026447,3997730,22.253614,25.529999,101058.0,1.2321309,0
159228561,159228525,3997730,22.253614,25.529999,101058.0,1.2321309,0
159430660,159430623,3997730,22.087149,25.529999,101060.0,1.2321552,0
159632732,159632681,3997730,22.087149,25.539999,101060.0,1.2321552,0
159834847,159834766,3997730,22.501993,25.529999,101055.0,1.2320943,0
160036882,160036843,3997730,22.087149,25.529999,101060.0,1.2321552,0
160238998,160238924,3997730,22.420082,25.529999,101056.0,1.2321064,0
160441041,160441001,3997730,22.501993,25.539999,101055.0,1.2320943,0
160643205,160643165,3997730,22.002594,25.539999,101061.0,1.2321674,0
160845203,160845162,3997730,22.253614,25.539999,101058.0,1.2321309,0
161047281,161047240,3997730,22.002594,25.539999,101061.0,1.2321674,0
161249359,161249320,3997730,22.087149,25.539999,101060.0,1.2321552,0
161451452,161451397,3997730,22.169062,25.539999,101059.0,1.2325647,0
161653522,161653482,3997730,22.253614,25.539999,101058.0,1.2321309,0
161855597,161855559,3997730,22.002594,25.539999,101061.0,1.2321674,0
162057676,162057636,3997730,22.420082,25.539999,101056.0,1.2321064,0
162259778,162259719,3997730,22.420082,25.539999,101056.0,1.2321064,0
162461837,162461797,3997730,22.169062,25.55,101059.0,1.232143,0
162663918,162663877,3997730,22.420082,25.55,101056.0,1.2321064,0
162866084,162866024,3997730,22.087149,25.539999,101060.0,1.2321552,0
163068142,163068106,3997730,22.335527,25.539999,101057.0,1.2321187,0
163270154,163270118,3997730,22.087149,25.55,101060.0,1.2321552,0
163472235,163472196,3997730,22.253614,25.55,101058.0,1.2321309,0
163674315,163674280,3997730,22.169062,25.55,101059.0,1.232143,0
163876390,163876354,3997730,22.169062,25.55,101059.0,1.232143,0
164078491,164078436,3997730,22.253614,25.55,101058.0,1.2325525,0
164280551,164280515,3997730,22.335527,25.55,101057.0,1.2321187,0
164482634,164482597,3997730,22.002594,25.55,101061.0,1.2321674,0
164684708,164684672,3997730,22.420082,25.55,101056.0,1.2321064,0
164886839,164886798,3997730,22.002594,25.55,101061.0,1.2321674,0
165089054,165089017,3997730,22.335527,25.55,101057.0,1.2321187,0
165290951,165290913,3997730,22.169062,25.56,101059.0,1.232143,0
165493025,165492989,3997730,22.002594,25.56,101061.0,1.2317462,0
165695105,165695068,3997730,22.420082,25.55,101056.0,1.2321064,0
165897186,165897149,3997730,22.087149,25.56,101060.0,1.2321552,0
166099284,166099230,3997730,22.420082,25.56,101056.0,1.2321064,0
166301349,166301308,3997730,22.253614,25.56,101058.0,1.2317097,0
166503428,166503388,3997730,22.087149,25.56,101060.0,1.231734,0
166705508,166705466,3997730,22.253614,25.56,101058.0,1.2321309,0
166907609,166907569,3997730,22.420082,25.56,101056.0,1.2321064,0
167089451,167059133,3997730,22.058084,25.56,101060.336,1.2321593,0
167291532,167261187,3997730,22.240404,25.56,101058.164,1.2317116,0
167493609,167463265,3997730,22.240404,25.565,101058.164,1.2317116,0
167695694,167665346,3997730,22.266827,25.565,101057.836,1.2317077,0
167897769,167867424,3997730,22.280039,25.565,101057.664,1.2317055,0
168099856,168069517,3997730,22.14264,25.57,101059.336,1.2317259,0
168302020,168271584,3997730,22.351381,25.57,101056.836,1.2316955,0
168504050,168473666,3997730,22.240404,25.57,101058.164,1.2317116,0
168706112,168675744,3997730,22.351381,25.57,101056.836,1.2316955,0
168908260,168877860,3997730,22.253614,25.57,101058.0,1.2317097,0
169110253,169079909,3997730,22.335527,25.57,101057.0,1.2316976,0
169231497,169231461,3997730,22.169062,25.57,101059.0,1.2317219,0
169433576,169433540,3997730,22.586548,25.57,101054.0,1.231661,0
169635659,169635623,3997730,22.335527,25.57,101057.0,1.2316976,0
169837738,169837702,3997730,22.501993,25.57,101055.0,1.2316731,0
170039818,170039782,3997730,21.918041,25.57,101062.0,1.2317584,0
170241913,170241859,3997730,22.420082,25.57,101056.0,1.2316853,0
170443975,170443939,3997730,22.501993,25.57,101055.0,1.2316731,0
170646059,170646021,3997730,22.002594,25.58,101061.0,1.2317462,0
170848201,170848165,3997730,22.169062,25.58,101059.0,1.2317219,0
171050268,171050230,3997730,22.253614,25.58,101058.0,1.2321309,0
171252316,171252262,3997730,22.253614,25.58,101058.0,1.2317097,0
171454396,171454338,3997730,22.169062,25.58,101059.0,1.2317219,0
171656472,171656418,3997730,22.002594,25.58,101061.0,1.2317462,0
171858534,171858497,3997730,22.586548,25.58,101054.0,1.231661,0
172060615,172060579,3997730,22.253614,25.58,101058.0,1.2317097,0
172262692,172262656,3997730,22.169062,25.58,101059.0,1.2317219,0
172464775,172464738,3997730,22.501993,25.58,101055.0,1.2316731,0
172666858,172666820,3997730,22.335527,25.58,101057.0,1.2316976,0
172868978,172868942,3997730,22.087149,25.58,101060.0,1.231734,0
173071225,173071188,3997730,22.253614,25.58,101058.0,1.2317097,0
173273118,173273083,3997730,22.335527,25.58,101057.0,1.2316976,0
173475202,173475136,3997730,22.253614,25.59,101058.0,1.2317097,0
173677248,173677215,3997730,22.335527,25.59,101057.0,1.2316976,0
173879338,173879297,3997730,22.253614,25.59,101058.0,1.2317097,0
174081408,174081376,3997730,22.253614,25.59,101058.0,1.2317097,0
174283489,174283455,3997730,22.335527,25.58,101057.0,1.2316976,0
174485572,174485539,3997730,22.169062,25.59,101059.0,1.2317219,0
174687645,174687612,3997730,22.253614,25.59,101058.0,1.2317097,0
174889748,174889716,3997730,22.002594,25.59,101061.0,1.2317462,0
175091811,175091774,3997730,22.335527,25.59,101057.0,1.2316976,0
175294099,175294044,3997730,22.002594,25.59,101061.0,1.2317462,0
175495969,175495933,3997730,22.253614,25.59,101058.0,1.2317097,0
175698053,175698013,3997730,22.087149,25.59,101060.0,1.231734,0
175900129,175900092,3997730,22.501993,25.59,101055.0,1.2316731,0
176102208,176102172,3997730,22.169062,25.599998,101059.0,1.2317219,0
176304327,176304290,3997730,22.420082,25.59,101056.0,1.2316853,0
176506391,176506330,3997730,22.253614,25.599998,101058.0,1.2317097,0
176708446,176708411,3997730,22.420082,25.59,101056.0,1.2316853,0
176900440,176859972,3997730,22.216623,25.599997,101058.43,1.231715,0
177102503,177062072,3997730,22.253614,25.599997,101058.0,1.2317097,0
177304582,177264133,3997730,22.359308,25.599997,101056.71,1.231694,0
177506684,177466234,3997730,22.253614,25.599997,101058.0,1.2317097,0
177708742,177668299,3997730,22.383087,25.599997,101056.43,1.2316906,0
177819888,177819852,3997730,22.501993,25.599998,101055.0,1.2316731,0
178021967,178021929,3997730,22.169062,25.599998,101059.0,1.2317219,0
178224052,178224015,3997730,22.420082,25.599998,101056.0,1.2316853,0
178426130,178426089,3997730,22.253614,25.599998,101058.0,1.2321309,0
178628228,178628173,3997730,22.169062,25.609999,101059.0,1.2317219,0
178830288,178830251,3997730,22.335527,25.609999,101057.0,1.2316976,0
179032364,179032329,3997730,22.501993,25.599998,101055.0,1.2316731,0
179234446,179234409,3997730,22.002594,25.609999,101061.0,1.2317462,0
179436527,179436489,3997730,22.087149,25.599998,101060.0,1.231734,0
179638605,179638569,3997730,22.335527,25.609999,101057.0,1.2316976,0
179840702,179840647,3997730,22.253614,25.609999,101058.0,1.2317097,0
180042767,180042728,3997730,22.002594,25.609999,101061.0,1.2317462,0
180244847,180244807,3997730,22.087149,25.609999,101060.0,1.231734,0
180446954,180446887,3997730,22.253614,25.609999,101058.0,1.2317097,0
180649009,180648969,3997730,22.169062,25.609999,101059.0,1.2317219,0
180851137,180851091,3997730,22.253614,25.619999,101058.0,1.2317097,0
181053205,181053162,3997730,22.253614,25.609999,101058.0,1.2317097,0
181255248,181255209,3997730,22.335527,25.609999,101057.0,1.2316976,0
181457331,181457290,3997730,22.420082,25.609999,101056.0,1.2316853,0
181659408,181659367,3997730,22.335527,25.609999,101057.0,1.2316976,0
181861486,181861447,3997730,22.002594,25.619999,101061.0,1.2317462,0
182063567,182063528,3997730,22.335527,25.619999,101057.0,1.2316976,0
182265651,182265610,3997730,22.335527,25.619999,101057.0,1.2316976,0
182467748,182467689,3997730,22.002594,25.619999,101061.0,1.2317462,0
182669853,182669766,3997730,22.002594,25.619999,101061.0,1.2317462,0
182871917,182871870,3997730,22.335527,25.619999,101057.0,1.2316976,0
183073974,183073925,3997730,22.002594,25.619999,101061.0,1.2317462,0
183276200,183276164,3997730,22.169062,25.619999,101059.0,1.2317219,0
183478127,183478087,3997730,22.169062,25.619999,101059.0,1.2317219,0
183680206,183680168,3997730,22.420082,25.619999,101056.0,1.2316853,0
183882284,183882248,3997730,22.002594,25.619999,101061.0,1.2317462,0
184084371,184084335,3997730,22.169062,25.63,101059.0,1.2317219,0
184286470,184286433,3997730,22.253614,25.619999,101058.0,1.2317097,0
184488520,184488484,3997730,22.420082,25.619999,101056.0,1.2316853,0
184690629,184690568,3997730,22.420082,25.619999,101056.0,1.2316853,0
184892684,184892646,3997730,22.087149,25.63,101060.0,1.231734,0
185094763,185094728,3997730,22.087149,25.63,101060.0,1.231734,0
185296842,185296806,3997730,22.420082,25.63,101056.0,1.2316853,0
185499055,185499018,3997730,22.087149,25.63,101060.0,1.231734,0
185701004,185700966,3997730,22.501993,25.63,101055.0,1.2316731,0
185903084,185903047,3997730,22.087149,25.63,101060.0,1.231734,0
186105162,186105125,3997730,22.335527,25.63,101057.0,1.2316976,0
186307267,186307214,3997730,22.335527,25.63,101057.0,1.2316976,0
186509323,186509284,3997730,22.087149,25.63,101060.0,1.231734,0
186691212,186660846,3997730,22.126783,25.635,101059.5,1.231728,0
186893270,186862926,3997730,22.322317,25.635,101057.164,1.2316995,0
187095352,187065006,3997730,22.113571,25.635,101059.664,1.23173,0
187297432,187267093,3997730,22.364592,25.635,101056.664,1.2316934,0
187499511,187469180,3997730,22.211338,25.64,101058.5,1.2317158,0
187701607,187671282,3997730,22.377804,25.63,101056.5,1.2316915,0
187903688,187873326,3997730,22.322317,25.64,101057.164,1.2316995,0
188105754,188075405,3997730,22.306461,25.64,101057.336,1.2312806,0
188307835,188277485,3997730,22.40687,25.64,101056.164,1.2316873,0
188509922,188479566,3997730,22.211338,25.64,101058.5,1.2312948,0
188631163,188631127,3997730,22.087149,25.64,101060.0,1.231734,0
188833288,188833253,3997730,21.918041,25.64,101062.0,1.2317584,0
189035323,189035286,3997730,22.501993,25.64,101055.0,1.2312521,0
189237402,189237366,3997730,22.420082,25.65,101056.0,1.2312642,0
189439511,189439448,3997730,22.335527,25.64,101057.0,1.2312765,0
189641562,189641526,3997730,22.253614,25.64,101058.0,1.2312887,0
189843666,189843609,3997730,22.253614,25.65,101058.0,1.2317097,0
190045735,190045692,3997730,22.002594,25.64,101061.0,1.2317462,0
190247807,190247770,3997730,22.501993,25.65,101055.0,1.2312521,0
