timestamp,timestamp_sample,states[0],states[1],states[2],states[3],states[4],states[5],states[6],states[7],states[8],states[9],states[10],states[11],states[12],states[13],states[14],states[15],states[16],states[17],states[18],states[19],states[20],states[21],states[22],states[23],covariances[0],covariances[1],covariances[2],covariances[3],covariances[4],covariances[5],covariances[6],covariances[7],covariances[8],covariances[9],covariances[10],covariances[11],covariances[12],covariances[13],covariances[14],covariances[15],covariances[16],covariances[17],covariances[18],covariances[19],covariances[20],covariances[21],covariances[22],covariances[23],n_states
17661814,17561255,0.24850543,0.013731985,-0.015690679,0.96840614,-0.00020838245,-0.00026216233,0.00014302091,-0.06434557,-0.0060970597,-0.5003585,-3.4181092e-05,1.5734378e-05,-5.943427e-06,-5.1652252e-05,0.00012956308,9.418292e-05,0.24514122,-0.044201367,0.2247842,0.0,0.0,0.0,0.0,0.0,0.00045312475,4.4245517e-05,4.416974e-05,2.9861998e-05,1.3310513e-05,1.3310492e-05,1.3287593e-05,0.008660264,0.008660264,0.04211929,3.4082702e-11,3.2247625e-11,2.9948357e-09,1.6160038e-06,1.6168624e-06,5.000009e-08,0.0,0.0,0.0,0.0,0.0,0.0,0.0,0.0,24
18651132,18550581,0.2482613,0.013767243,-0.015348359,0.96847373,0.0004580647,0.000256482,0.0001447373,-0.08112229,-0.0067011234,-0.4987538,-3.42127e-05,1.5605492e-05,-6.729852e-06,-5.259338e-05,0.00012949122,9.769912e-05,0.24514122,-0.044201367,0.2247842,0.0,0.0,0.0,0.0,0.0,0.0004252972,4.4324366e-05,4.4256514e-05,2.806474e-05,0.00021410419,0.00021410844,0.00020887732,0.0067857257,0.0067857257,0.03941451,3.1606426e-11,3.0115316e-11,2.4505757e-09,1.615878e-06,1.616736e-06,5.0000885e-08,0.0,0.0,0.0,0.0,0.0,0.0,0.0,0.0,24
19660441,19559888,0.24778233,0.01367016,-0.015527988,0.96859485,0.0005426421,-0.00038857455,0.00026366411,-0.09598977,-0.007698273,-0.49854365,-3.441159e-05,1.5459485e-05,-7.2808134e-06,-5.3983073e-05,0.00013036546,9.028701e-05,0.24514122,-0.044201367,0.2247842,0.0,0.0,0.0,0.0,0.0,0.0003947351,4.420454e-05,4.4136195e-05,2.6003354e-05,0.0001573884,0.00015739162,0.00015467455,0.0055786367,0.0055786376,0.037035268,2.905586e-11,2.7835333e-11,2.0028397e-09,1.6157073e-06,1.6165624e-06,5.000103e-08,0.0,0.0,0.0,0.0,0.0,0.0,0.0,0.0,24
20659766,20559205,0.24744348,0.0136259915,-0.015955886,0.9686751,0.00084333844,0.0009190357,1.633123e-05,-0.10881159,-0.010083714,-0.5040799,-3.4485067e-05,1.5478063e-05,-7.6133565e-06,-5.4109918e-05,0.00013084768,8.8740315e-05,0.24514122,-0.044201367,0.2247842,0.0,0.0,0.0,0.0,0.0,0.0003741982,4.4108794e-05,4.4037515e-05,2.4614124e-05,8.9853354e-05,8.985421e-05,8.899301e-05,0.004737404,0.0047374037,0.034927662,2.7069022e-11,2.603706e-11,1.680512e-09,1.6155742e-06,1.6164286e-06,5.0000626e-08,0.0,0.0,0.0,0.0,0.0,0.0,0.0,0.0,24
21659224,21558521,0.24741225,0.013714324,-0.015540528,0.9686886,7.8480174e-05,-0.00046769698,-1.2619789e-06,-0.12102175,-0.014162714,-0.50586253,-3.460744e-05,1.5434305e-05,-7.6116935e-06,-5.4778182e-05,0.00013136829,9.0783826e-05,0.24514122,-0.044201367,0.2247842,0.0,0.0,0.0,0.0,0.0,0.00035568615,4.4017354e-05,4.3955624e-05,2.338423e-05,2.573824e-05,2.5737969e-05,2.5669275e-05,0.004117981,0.0041179806,0.033047862,2.5455105e-11,2.4579321e-11,1.4243384e-09,1.6154681e-06,1.6163308e-06,5.000018e-08,0.0,0.0,0.0,0.0,0.0,0.0,0.0,0.0,24
22658395,22557837,0.24715084,0.013740149,-0.015651882,0.96875316,0.001886317,0.0016165772,0.0001761198,-0.13091034,-0.019472772,-0.50829345,-3.463077e-05,1.544337e-05,-8.119333e-06,-5.4730626e-05,0.00013138451,8.975992e-05,0.24514122,-0.044201367,0.2247842,0.0,0.0,0.0,0.0,0.0,0.0003335731,4.412781e-05,4.406545e-05,2.1932154e-05,0.00024210941,0.000242118,0.00023654492,0.0036442871,0.0036442867,0.03144251,2.4516196e-11,2.3779844e-11,1.2039645e-09,1.6154017e-06,1.616255e-06,5.00009e-08,0.0,0.0,0.0,0.0,0.0,0.0,0.0,0.0,24
23657766,23557153,0.24710323,0.013743514,-0.01542319,0.968769,0.0013918557,0.0018910292,-0.0010938466,-0.13821687,-0.026365984,-0.5101211,-3.4736655e-05,1.5325562e-05,-8.358731e-06,-5.5578515e-05,0.000131752,8.828738e-05,0.24514122,-0.044201367,0.2247842,0.0,0.0,0.0,0.0,0.0,0.0003188195,4.4046017e-05,4.3987133e-05,2.0972226e-05,0.00017085651,0.00017085976,0.00016808703,0.0032669827,0.0032669823,0.02991061,2.3382473e-11,2.275432e-11,1.0388539e-09,1.6153266e-06,1.616185e-06,5.0001063e-08,0.0,0.0,0.0,0.0,0.0,0.0,0.0,0.0,24
24657184,24556469,0.24686031,0.01398652,-0.015589502,0.96882474,0.0010961514,0.0001784217,0.00022807972,-0.14418618,-0.03364068,-0.5099103,-3.4846635e-05,1.5019481e-05,-8.421488e-06,-5.735065e-05,0.00013169188,8.8223846e-05,0.24514122,-0.044201367,0.2247842,0.0,0.0,0.0,0.0,0.0,0.00030096062,4.397482e-05,4.3916654e-05,1.9756724e-05,0.000102924736,0.000102928636,0.0001019425,0.0029616777,0.0029616775,0.028522046,2.2417915e-11,2.1890557e-11,8.934109e-10,1.6152345e-06,1.6160934e-06,5.000072e-08,0.0,0.0,0.0,0.0,0.0,0.0,0.0,0.0,24
25656427,25555785,0.24622908,0.013508918,-0.015890157,0.9689873,0.0030238307,0.00013710142,0.00031050184,-0.15149033,-0.040357932,-0.5092619,-3.493836e-05,1.4107889e-05,-8.4391495e-06,-6.20309e-05,0.00013004574,7.762698e-05,0.24514122,-0.044201367,0.2247842,0.0,0.0,0.0,0.0,0.0,0.00028843235,4.3886357e-05,4.3826076e-05,1.8824505e-05,3.8279013e-05,3.8291884e-05,3.8147926e-05,0.0027096418,0.0027096432,0.0272575,2.158713e-11,2.1164704e-11,7.810738e-10,1.6147404e-06,1.6159231e-06,5.000027e-08,0.0,0.0,0.0,0.0,0.0,0.0,0.0,0.0,24
26655686,26555101,0.24614342,0.014422562,-0.01673105,0.96898174,-0.017488148,0.010273944,-0.001208444,-0.15782951,-0.04498972,-0.510647,-3.4924877e-05,1.5736801e-05,-8.230964e-06,-5.2480947e-05,0.00014042742,8.593987e-05,0.24514122,-0.044201367,0.2247842,0.0,0.0,0.0,0.0,0.0,0.0002760577,4.3980188e-05,4.3957945e-05,1.7983495e-05,0.00025632224,0.00025658164,0.00025052179,0.0024997694,0.0024997743,0.026158405,2.1307565e-11,2.0857358e-11,6.8580003e-10,1.6129123e-06,1.6157795e-06,5.0000896e-08,0.0,0.0,0.0,0.0,0.0,0.0,0.0,0.0,24
27655038,27554417,0.24619102,0.014520027,-0.01622638,0.96897674,-0.0017715609,0.0006946936,-0.0011440114,-0.1601086,-0.05147952,-0.51090807,-3.489092e-05,1.5394491e-05,-8.091259e-06,-5.331877e-05,0.00013878927,9.002528e-05,0.24514122,-0.044201367,0.2247842,0.0,0.0,0.0,0.0,0.0,0.0002622533,4.3899476e-05,4.3899352e-05,1.7070563e-05,0.00018455995,0.00018456786,0.00018154646,0.0023177995,0.0023177993,0.025090208,2.0696386e-11,2.03176e-11,6.017276e-10,1.6121414e-06,1.615675e-06,5.0001077e-08,0.0,0.0,0.0,0.0,0.0,0.0,0.0,0.0,24
28654288,28553733,0.24635345,0.014638378,-0.015975704,0.9689379,-0.0008845544,0.0010162852,-0.00014367403,-0.16189492,-0.058455586,-0.508995,-3.4931083e-05,1.5219961e-05,-7.992657e-06,-5.3908912e-05,0.00013868976,9.205649e-05,0.24514122,-0.044201367,0.2247842,0.0,0.0,0.0,0.0,0.0,0.0002533058,4.384148e-05,4.3843876e-05,1.6497346e-05,0.000116154144,0.00011615554,0.00011496311,0.0021616481,0.0021616472,0.024106849,2.0186597e-11,1.9854292e-11,5.366867e-10,1.6120115e-06,1.6156182e-06,5.0000807e-08,0.0,0.0,0.0,0.0,0.0,0.0,0.0,0.0,24
29653745,29553048,0.24656132,0.014831609,-0.015455087,0.9688905,-0.0020410712,-0.0017661867,0.00043341814,-0.1615838,-0.06505569,-0.50942326,-3.5004698e-05,1.5169994e-05,-7.901662e-06,-5.379314e-05,0.00013914469,9.8461045e-05,0.24514122,-0.044201367,0.2247842,0.0,0.0,0.0,0.0,0.0,0.00024498516,4.378611e-05,4.379374e-05,1.5971733e-05,5.0941046e-05,5.094209e-05,5.0712766e-05,0.0020261777,0.002026177,0.02319847,1.9751594e-11,1.9451076e-11,4.8101956e-10,1.6119483e-06,1.6155452e-06,5.000036e-08,0.0,0.0,0.0,0.0,0.0,0.0,0.0,0.0,24
30653102,30552364,0.24647626,0.014776494,-0.015919771,0.9689054,-0.00029762555,0.002259609,-0.0007674101,-0.16105223,-0.071150504,-0.51037776,-3.488341e-05,1.51714885e-05,-7.77628e-06,-5.382045e-05,0.00013879706,0.00010045135,0.24514122,-0.044201367,0.2247842,0.0,0.0,0.0,0.0,0.0,0.0002345907,4.390722e-05,4.390834e-05,1.526838e-05,0.00027052418,0.00027052785,0.00026446895,0.0019096722,0.0019096722,0.02235888,1.9630322e-11,1.936275e-11,4.29563e-10,1.6118852e-06,1.6155133e-06,5.000081e-08,0.0,0.0,0.0,0.0,0.0,0.0,0.0,0.0,24
31662448,31561673,0.24631765,0.0145796165,-0.016115407,0.9689455,-0.002030635,-0.00028177386,0.0004123218,-0.16020131,-0.077618025,-0.5104486,-3.4819797e-05,1.5082386e-05,-7.925391e-06,-5.4052747e-05,0.00013855932,9.717374e-05,0.24514122,-0.044201367,0.2247842,0.0,0.0,0.0,0.0,0.0,0.00022770834,4.3858694e-05,4.385398e-05,1.4816339e-05,0.00021257988,0.00021258862,0.00020882335,0.0018030045,0.001803005,0.021574738,1.9299895e-11,1.9059757e-11,3.8848064e-10,1.6118543e-06,1.615423e-06,5.0001038e-08,0.0,0.0,0.0,0.0,0.0,0.0,0.0,0.0,24
32651686,32550995,0.24628064,0.014258907,-0.017640213,0.9689331,0.0005614543,-0.0036920821,0.0009456232,-0.15837649,-0.08245892,-0.5108982,-3.488435e-05,1.4874173e-05,-8.017279e-06,-5.4745284e-05,0.00013860973,9.830045e-05,0.24514122,-0.044201367,0.2247842,0.0,0.0,0.0,0.0,0.0,0.00022077258,4.3810844e-05,4.379108e-05,1.4371832e-05,0.00012951065,0.00012950037,0.00012809692,0.0017081978,0.001708198,0.020879762,1.8987223e-11,1.8771935e-11,3.5275158e-10,1.61183e-06,1.6153713e-06,5.0000885e-08,0.0,0.0,0.0,0.0,0.0,0.0,0.0,0.0,24
33660988,33560304,0.24683268,0.01404763,-0.017527549,0.9687978,0.0013482466,-0.0013141896,0.0006509304,-0.15652469,-0.08680524,-0.5098168,-3.4799872e-05,1.4785411e-05,-7.8078365e-06,-5.4898104e-05,0.00013890659,9.719575e-05,0.24514122,-0.044201367,0.2247842,0.0,0.0,0.0,0.0,0.0,0.00021247353,4.3761742e-05,4.3740893e-05,1.3872094e-05,7.6623415e-05,7.6624485e-05,7.61271e-05,0.0016240553,0.001624056,0.02019593,1.8730609e-11,1.853849e-11,3.1915873e-10,1.6117584e-06,1.6151013e-06,5.0000537e-08,0.0,0.0,0.0,0.0,0.0,0.0,0.0,0.0,24
34660379,34559620,0.24695824,0.014606282,-0.015313589,0.96879506,-0.00037141543,8.348134e-05,0.00013624833,-0.15439789,-0.0913984,-0.51120245,-3.4866054e-05,1.4896661e-05,-7.706011e-06,-5.4277687e-05,0.00013831056,9.772147e-05,0.24514122,-0.044201367,0.2247842,0.0,0.0,0.0,0.0,0.0,0.00020665022,4.3694134e-05,4.3695723e-05,1.3493685e-05,1.3302073e-05,1.3302199e-05,1.3287132e-05,0.0015484416,0.0015484411,0.019555975,1.8502234e-11,1.8321124e-11,2.9198297e-10,1.6117107e-06,1.6149469e-06,5.000009e-08,0.0,0.0,0.0,0.0,0.0,0.0,0.0,0.0,24
35659765,35558935,0.24416442,0.011617543,-0.0154892905,0.96954054,-0.021595959,0.01421091,-0.00587951,-0.15462036,-0.09458898,-0.5117532,-3.4765253e-05,1.194557e-05,-7.686744e-06,-6.171062e-05,0.00012468264,0.00010688304,0.24514122,-0.044201367,0.2247842,0.0,0.0,0.0,0.0,0.0,0.00019713414,4.371213e-05,4.379103e-05,1.2551598e-05,0.00022702085,0.00022717984,0.00022285864,0.0014810171,0.0014810191,0.01895668,1.8453784e-11,1.836169e-11,2.6403332e-10,1.6073832e-06,1.6148414e-06,5.000092e-08,0.0,0.0,0.0,0.0,0.0,0.0,0.0,0.0,24
36658986,36558251,0.2368549,0.010512498,-0.019851452,0.97128534,-0.5673711,0.2633601,0.00949319,-0.34292376,-0.009757929,-0.5075522,-3.463805e-05,9.763212e-06,-6.7309124e-06,-6.172338e-05,8.039718e-05,6.934793e-05,0.24514122,-0.044201367,0.2247842,0.0,0.0,0.0,0.0,0.0,0.00019108235,4.4009572e-05,4.4173077e-05,1.130708e-05,0.0013129798,0.0014850443,0.0012407672,0.0016246884,0.0016420047,0.018622028,1.8900478e-11,1.8859619e-11,2.4177957e-10,1.6020778e-06,1.6143418e-06,5.0000676e-08,0.0,0.0,0.0,0.0,0.0,0.0,0.0,0.0,24
37658517,37557816,0.2501347,-0.01260369,-0.025499819,0.9677931,-0.5698508,0.50109327,-0.12588754,-0.27830458,0.16672547,-0.5750641,-3.0046649e-05,-1.6652335e-05,7.4588097e-06,0.00022209508,-0.0015472013,2.6553034e-05,0.24514122,-0.044201367,0.2247842,0.0,0.0,0.0,0.0,0.0,0.00013543683,3.926153e-05,4.4129592e-05,7.835486e-06,0.0008979045,0.0010676448,0.000898653,0.0015849915,0.0016417045,0.0181235,1.8661041e-11,1.8570926e-11,1.8229745e-10,1.4367821e-06,1.6061098e-06,5.000084e-08,0.0,0.0,0.0,0.0,0.0,0.0,0.0,0.0,24
38657690,38557132,0.24658906,-0.0121188145,-0.024400419,0.9687371,-1.7424711,1.1177737,-0.1597765,-1.4937353,1.0100231,-0.68098044,-3.0020738e-05,-1.6169444e-05,6.2314116e-06,0.0003566199,-0.0015347352,-2.876194e-06,0.24514122,-0.044201367,0.2247842,0.0,0.0,0.0,0.0,0.0,0.00013591113,3.963671e-05,4.4994056e-05,7.763095e-06,0.003921372,0.00500612,0.0035079888,0.0039550755,0.0046667345,0.019812357,1.9647697e-11,1.9557233e-11,1.7319454e-10,1.421115e-06,1.6054709e-06,5.0000175e-08,0.0,0.0,0.0,0.0,0.0,0.0,0.0,0.0,24
39657064,39556448,0.24512511,-0.012937744,-0.026687749,0.9690378,-2.6944659,1.7087854,-0.1767172,-3.7559164,2.4428673,-0.7877936,-2.999672e-05,-1.6041837e-05,5.068153e-06,0.0006506432,-0.0014781437,-7.3608455e-05,0.24514122,-0.044201367,0.2247842,0.0,0.0,0.0,0.0,0.0,0.00013680465,3.9186405e-05,4.5971177e-05,7.851397e-06,0.009393871,0.011708154,0.006352146,0.016722146,0.021004673,0.027786339,2.0637759e-11,2.0542233e-11,1.6516555e-10,1.374198e-06,1.6036994e-06,5.000009e-08,0.0,0.0,0.0,0.0,0.0,0.0,0.0,0.0,24
40656394,40555764,0.24585375,-0.013215368,-0.028361019,0.96880186,-3.3846745,2.2608743,-0.13988036,-6.8364725,4.4267077,-0.7988412,-2.9978148e-05,-1.586249e-05,4.173377e-06,0.0010635041,-0.0013990763,-0.00018431859,0.24514122,-0.044201367,0.2247842,0.0,0.0,0.0,0.0,0.0,0.00013727421,3.838123e-05,4.7051955e-05,8.048169e-06,0.018109553,0.021312125,0.008210992,0.05516636,0.06841769,0.042408865,2.1628714e-11,2.152358e-11,1.574703e-10,1.3136979e-06,1.6014801e-06,5e-08,0.0,0.0,0.0,0.0,0.0,0.0,0.0,0.0,24
41655631,41555079,0.24722365,-0.009929299,-0.024308452,0.96860266,-3.7822056,2.7703168,-0.12343576,-10.4655,6.9591904,-0.7561733,-2.9944644e-05,-1.5705531e-05,3.2391395e-06,0.0013745545,-0.0013471756,-0.00028052778,0.24514122,-0.044201367,0.2247842,0.0,0.0,0.0,0.0,0.0,0.0001366016,3.7959548e-05,4.819431e-05,8.227497e-06,0.031025996,0.03437991,0.008912458,0.14459017,0.17269893,0.060007207,2.2620005e-11,2.250376e-11,1.4950029e-10,1.2640147e-06,1.6001732e-06,5.0000345e-08,0.0,0.0,0.0,0.0,0.0,0.0,0.0,0.0,24
42655153,42554395,0.24648426,-0.02876452,-0.01688915,0.9685726,-3.31924,2.7512867,-0.61936086,-14.174386,9.769243,-0.9425165,-2.991737e-05,-1.561858e-05,2.1262842e-06,0.0015151297,-0.001321896,-0.00031973422,0.24514122,-0.044201367,0.2247842,0.0,0.0,0.0,0.0,0.0,0.00013645142,3.8378414e-05,4.9723163e-05,8.298221e-06,0.04951333,0.051741537,0.008750154,0.32313278,0.36954343,0.07617764,2.3612327e-11,2.3489268e-11,1.425554e-10,1.2381153e-06,1.5996151e-06,5.000027e-08,0.0,0.0,0.0,0.0,0.0,0.0,0.0,0.0,24
43654267,43553711,0.2584421,-0.044292767,0.0041363826,0.96500194,0.03762842,-0.06375659,0.021776292,-8.957908,4.9993043,-0.3094285,-3.9715007e-05,-3.4674093e-05,1.12960215e-05,0.0015458318,-0.0009755058,-0.0007482784,0.24514122,-0.044201367,0.2247842,0.0,0.0,0.0,0.0,0.0,0.00010444299,3.2523745e-05,4.3602402e-05,6.341816e-06,3.8548264e-05,4.441976e-05,3.8251284e-05,0.045191556,0.06467731,0.037853286,1.8292713e-11,1.8281052e-11,1.1690485e-10,1.1879596e-06,1.58554e-06,5.0000178e-08,0.0,0.0,0.0,0.0,0.0,0.0,0.0,0.0,24
44653646,44553027,0.25004625,-0.01601857,-0.005473661,0.96808594,0.1266414,-0.080696836,0.03711157,-7.6185684,3.880222,-0.23550542,-3.5702946e-05,1.4173376e-06,9.11957e-06,0.000991351,-0.0014170259,-0.00024771615,0.24514122,-0.044201367,0.2247842,0.0,0.0,0.0,0.0,0.0,7.950301e-05,3.0580493e-05,4.354179e-05,4.8512143e-06,0.00025862956,0.00026022887,0.00025254174,0.040367793,0.050474007,0.0350781,1.8272685e-11,1.8064746e-11,9.911178e-11,1.0976779e-06,1.5745773e-06,5e-08,0.0,0.0,0.0,0.0,0.0,0.0,0.0,0.0,24
45663058,45562336,0.24186505,0.0026519194,-0.0055034608,0.97029066,0.036202803,-0.013261973,0.015958343,-7.0472364,3.5194407,-0.22803411,-3.5271663e-05,2.1852404e-05,8.902827e-06,0.001005355,-0.0011813676,0.00010937927,0.24514122,-0.044201367,0.2247842,0.0,0.0,0.0,0.0,0.0,8.021714e-05,2.9625186e-05,4.3364165e-05,4.6472937e-06,0.0001989101,0.00019891516,0.00019582917,0.038715005,0.047192223,0.032962844,1.8180823e-11,1.7804107e-11,9.6363265e-11,1.0616546e-06,1.568781e-06,5.0000484e-08,0.0,0.0,0.0,0.0,0.0,0.0,0.0,0.0,24
46652323,46551659,0.24757612,0.007829802,-0.007585853,0.9688071,0.0068989736,-0.039842967,-0.0012325015,-6.941704,3.3069527,-0.26307973,-2.5541403e-05,3.0812294e-05,1.5881618e-05,0.0011871947,-0.0010673078,9.808147e-05,0.24514122,-0.044201367,0.2247842,0.0,0.0,0.0,0.0,0.0,8.084124e-05,2.91619e-05,4.267656e-05,4.679428e-06,0.000116338495,0.000116207084,0.00011513833,0.03795326,0.046227723,0.03130058,1.7977606e-11,1.7723416e-11,9.319145e-11,1.0480796e-06,1.5579669e-06,5.0000722e-08,0.0,0.0,0.0,0.0,0.0,0.0,0.0,0.0,24
47651530,47550976,0.2573414,0.00829326,-0.015282427,0.9661641,-0.0055747656,-0.0036947022,-0.0005291705,-6.9124813,3.200298,-0.32391402,-2.047514e-05,3.5874178e-05,1.6197391e-05,0.001048004,-0.0012663975,3.7628382e-05,0.24514122,-0.044201367,0.2247842,0.0,0.0,0.0,0.0,0.0,8.2644976e-05,2.8827564e-05,4.236881e-05,5.256202e-06,5.0944625e-05,5.098251e-05,5.0723025e-05,0.037684534,0.045729257,0.029758476,1.7791562e-11,1.763165e-11,9.118103e-11,1.0404262e-06,1.5550169e-06,5.0000303e-08,0.0,0.0,0.0,0.0,0.0,0.0,0.0,0.0,24
48661389,48560285,0.26640773,0.010473994,-0.021978742,0.96355295,-7.988204e-05,0.00027722787,1.1204354e-05,-6.9310665,3.1826644,-0.38528207,-2.0865842e-05,3.4425804e-05,1.3886643e-05,0.000986042,-0.0011455448,0.00016924777,0.24514122,-0.044201367,0.2247842,0.0,0.0,0.0,0.0,0.0,8.304923e-05,2.8587889e-05,4.206805e-05,5.866478e-06,1e-06,1.0016083e-06,1e-06,0.037604958,0.045302317,0.028372252,1.7569227e-11,1.75063e-11,8.849156e-11,1.0310314e-06,1.5421324e-06,5e-08,0.0,0.0,0.0,0.0,0.0,0.0,0.0,0.0,24
49650315,49549608,0.26601046,0.012249286,-0.017938308,0.9637254,0.042035025,0.035046212,-0.0016643667,-6.938594,3.2027888,-0.42716792,-2.8226561e-05,3.0350986e-05,1.0690025e-05,0.0013441567,-0.0005801415,0.00016473932,0.24514122,-0.044201367,0.2247842,0.0,0.0,0.0,0.0,0.0,8.083154e-05,2.8324946e-05,4.133653e-05,5.918287e-06,0.00019901407,0.00019895515,0.00019590107,0.037575975,0.04467069,0.027108008,1.7594474e-11,1.7539439e-11,8.434772e-11,1.0208047e-06,1.5154975e-06,5.000051e-08,0.0,0.0,0.0,0.0,0.0,0.0,0.0,0.0,24
50659658,50558918,0.25564224,0.013989036,-0.013461192,0.9665766,0.024370978,-0.019236086,-0.00774822,-6.9307647,3.1911895,-0.48731607,-3.3058564e-05,3.189939e-05,8.812191e-06,0.0014056236,-0.0006545428,4.0365434e-05,0.24514122,-0.044201367,0.2247842,0.0,0.0,0.0,0.0,0.0,8.2789215e-05,2.8034141e-05,4.0895622e-05,5.7110815e-06,0.00014320319,0.0001432035,0.00014167173,0.0375454,0.044324774,0.0259544,1.7534326e-11,1.7456238e-11,8.2415824e-11,1.015081e-06,1.506732e-06,5.000084e-08,0.0,0.0,0.0,0.0,0.0,0.0,0.0,0.0,24
51658852,51558234,0.25970617,0.016757542,-0.020034632,0.9653345,-0.006293429,-0.019032596,-0.0011628092,-6.9320436,3.1739583,-0.54419816,-2.7835205e-05,3.4935594e-05,8.076684e-06,0.0013807087,-0.0006331474,0.00026112742,0.24514122,-0.044201367,0.2247842,0.0,0.0,0.0,0.0,0.0,8.356209e-05,2.8018387e-05,4.077908e-05,6.005961e-06,7.671885e-05,7.664276e-05,7.623769e-05,0.03750638,0.04403569,0.02494892,1.7492438e-11,1.7434868e-11,8.017594e-11,1.0081185e-06,1.4970615e-06,5.000046e-08,0.0,0.0,0.0,0.0,0.0,0.0,0.0,0.0,24
52658278,52557551,0.26877066,0.014379037,-0.031957332,0.9625665,-6.6730614,3.5481443,-0.08834305,-99.55856,56.667004,-0.6742886,-2.7929573e-05,3.4975903e-05,6.5583367e-06,0.0012845419,-0.0006629255,0.00026512257,0.24514122,-0.044201367,0.2247842,0.0,0.0,0.0,0.0,0.0,8.478252e-05,2.8777362e-05,4.1595442e-05,6.68483e-06,0.018039033,0.018020295,0.03272298,0.030786633,0.030786479,0.03535559,1.8479274e-11,1.842483e-11,7.8531695e-11,1.005951e-06,1.496742e-06,5.0000494e-08,0.0,0.0,0.0,0.0,0.0,0.0,0.0,0.0,24
53657616,53556868,0.2509093,0.01625112,-0.025118828,0.9675482,-6.4053335,3.9101975,-0.08274298,-106.06334,60.31583,-0.85092545,-2.8372855e-05,3.474514e-05,5.5995724e-06,0.0012157306,-0.0006781093,0.0002632536,0.24514122,-0.044201367,0.2247842,0.0,0.0,0.0,0.0,0.0,8.713565e-05,2.9561026e-05,4.2333886e-05,6.002482e-06,0.007605852,0.0075508724,0.014965967,0.02110952,0.02110446,0.05630666,1.9374904e-11,1.9317168e-11,7.684244e-11,1.0039277e-06,1.4953853e-06,5.0000267e-08,0.0,0.0,0.0,0.0,0.0,0.0,0.0,0.0,24
54657038,54556184,0.23476179,0.019781252,-0.020555828,0.9716343,-6.402903,3.7692895,-0.022774125,-112.435356,63.977364,-0.9766552,-2.955701e-05,3.3956174e-05,4.4699614e-06,0.0011430819,-0.0007124501,0.00025174837,0.24514122,-0.044201367,0.2247842,0.0,0.0,0.0,0.0,0.0,8.8938796e-05,3.018422e-05,4.2918116e-05,5.4096904e-06,0.006216389,0.0062003727,0.010485614,0.018331124,0.018321203,0.073913895,1.9953709e-11,1.9892104e-11,7.504141e-11,1.0021225e-06,1.4945974e-06,5e-08,0.0,0.0,0.0,0.0,0.0,0.0,0.0,0.0,24
55656239,55555501,0.25984296,-0.060955834,-0.024767568,0.96340674,0.16829693,-0.0802197,0.0023451105,-108.54005,61.781853,-1.0621598,-2.9143146e-05,-5.4841246e-05,1.1318105e-05,0.0028459057,-0.0021703397,-0.00033892127,0.24514122,-0.044201367,0.2247842,0.0,0.0,0.0,0.0,0.0,8.4039064e-05,2.804274e-05,4.095198e-05,5.6772e-06,0.00017525707,0.00017561048,0.00016846528,0.011124796,0.011154366,0.033405557,1.8276554e-11,1.8065235e-11,7.054414e-11,9.940295e-07,1.4669857e-06,5.0000345e-08,0.0,0.0,0.0,0.0,0.0,0.0,0.0,0.0,24
56655502,56554818,0.26938283,-0.06766559,-0.0339672,0.9600524,1.8423768,-0.31282282,0.1547555,-107.56363,61.543064,-1.0490022,-2.9250587e-05,-5.4788637e-05,9.732983e-06,0.0027828214,-0.0021938165,-0.0003584876,0.24514122,-0.044201367,0.2247842,0.0,0.0,0.0,0.0,0.0,8.515071e-05,2.8865381e-05,4.1844058e-05,6.4465657e-06,0.0026454865,0.0028476627,0.0019531574,0.011143971,0.0112878,0.031047376,1.92631e-11,1.90593e-11,6.941423e-11,9.923455e-07,1.4666946e-06,5.000027e-08,0.0,0.0,0.0,0.0,0.0,0.0,0.0,0.0,24
57654928,57554135,0.22618781,-0.00351805,-0.02875705,0.97365284,0.029487317,-0.0009718973,0.00368734,-107.782555,61.68584,-1.2920938,-6.0128983e-05,5.0351323e-06,-1.1318086e-05,0.0029963348,-0.0035108468,-0.0006856655,0.24514122,-0.044201367,0.2247842,0.0,0.0,0.0,0.0,0.0,7.916559e-05,2.712034e-05,4.0654697e-05,5.6115887e-06,7.674604e-05,7.683958e-05,7.6104894e-05,0.010952947,0.011020149,0.029215576,1.7811459e-11,1.7377568e-11,6.478353e-11,9.799365e-07,1.4549404e-06,5.0000168e-08,0.0,0.0,0.0,0.0,0.0,0.0,0.0,0.0,24
58654258,58553452,0.22456942,0.0061909957,-0.01677328,0.97429407,0.002687103,-0.0017894597,-0.0011329026,-107.72366,61.650093,-1.3242546,-5.9582475e-05,1.5428684e-05,-4.2970037e-06,0.00293372,-0.0023371328,-0.0007079973,0.24514122,-0.044201367,0.2247842,0.0,0.0,0.0,0.0,0.0,7.878649e-05,2.679814e-05,3.9668932e-05,4.973892e-06,1.3305581e-05,1.33076655e-05,1.32858795e-05,0.010915326,0.010961826,0.027737038,1.7524595e-11,1.7297488e-11,6.278779e-11,9.697228e-07,1.4362115e-06,5.0000093e-08,0.0,0.0,0.0,0.0,0.0,0.0,0.0,0.0,24
59653380,59552769,0.23989189,0.012646333,-0.018100286,0.9705485,0.02724368,-0.08281945,0.019995663,-107.70548,61.59249,-1.3415978,-5.215117e-05,2.3535267e-05,4.9632927e-06,0.0030615656,-0.0017737476,-0.0005857473,0.24514122,-0.044201367,0.2247842,0.0,0.0,0.0,0.0,0.0,7.804021e-05,2.695183e-05,3.948685e-05,4.9457058e-06,0.00022745345,0.000226837,0.00022228132,0.0109054465,0.010941677,0.026468089,1.7642738e-11,1.7522539e-11,6.097528e-11,9.637356e-07,1.424314e-06,5.000048e-08,0.0,0.0,0.0,0.0,0.0,0.0,0.0,0.0,24
60652716,60552087,0.26286173,0.01496333,-0.030080188,0.9642485,0.009716879,0.018481666,-0.0039801644,-107.70078,61.5759,-1.3603324,-4.730424e-05,2.875579e-05,7.870541e-06,0.0028801966,-0.0019592799,-0.00031224752,0.24514122,-0.044201367,0.2247842,0.0,0.0,0.0,0.0,0.0,7.706973e-05,2.6972182e-05,3.9230472e-05,5.7171574e-06,0.00015739087,0.00015706604,0.00015425858,0.010904816,0.010935766,0.02539328,1.7517937e-11,1.7503542e-11,5.9599686e-11,9.582576e-07,1.4129782e-06,5.0000903e-08,0.0,0.0,0.0,0.0,0.0,0.0,0.0,0.0,24
61651981,61551404,0.25734687,0.02197249,-0.023436055,0.96578497,0.017996863,0.023968127,0.0047083898,-107.69358,61.595074,-1.3590703,-5.813511e-05,2.828076e-05,2.6152454e-06,0.0037019644,-0.0016938262,-0.00033104807,0.24514122,-0.044201367,0.2247842,0.0,0.0,0.0,0.0,0.0,7.4885545e-05,2.6540436e-05,3.8040835e-05,5.7427164e-06,8.980135e-05,8.9646404e-05,8.905013e-05,0.010907153,0.010935598,0.024367083,1.7385718e-11,1.735764e-11,5.768131e-11,9.489713e-07,1.3776998e-06,5.0000597e-08,0.0,0.0,0.0,0.0,0.0,0.0,0.0,0.0,24
62661409,62560715,0.23949851,0.026137732,-0.0110859,0.9704816,0.021765659,-0.13645,0.03363451,-107.65636,61.595512,-1.3648527,-6.0364444e-05,2.8605455e-05,1.5735565e-06,0.0037718902,-0.0016837914,-0.00029375957,0.24514122,-0.044201367,0.2247842,0.0,0.0,0.0,0.0,0.0,7.663889e-05,2.7166128e-05,3.8539158e-05,5.118134e-06,0.0015905681,0.0015863453,0.001394682,0.0112379445,0.011262424,0.023652805,1.8180343e-11,1.8150254e-11,5.6957047e-11,9.477624e-07,1.3722248e-06,5.000052e-08,0.0,0.0,0.0,0.0,0.0,0.0,0.0,0.0,24
63650681,63550039,0.24215123,0.028919054,-0.016819753,0.96966165,-0.02126362,-0.0499899,-0.006279682,-107.63702,61.676388,-1.3890431,-5.0402654e-05,3.1049527e-05,2.030763e-06,0.003995283,-0.0017092125,-0.00023941272,0.24514122,-0.044201367,0.2247842,0.0,0.0,0.0,0.0,0.0,7.622068e-05,2.6579919e-05,3.774858e-05,5.093695e-06,0.0001850374,0.00018465564,0.00018130496,0.011138765,0.011174406,0.022754189,1.7454573e-11,1.7508908e-11,5.5655952e-11,9.44539e-07,1.3680868e-06,5.0000892e-08,0.0,0.0,0.0,0.0,0.0,0.0,0.0,0.0,24
64659992,64559350,0.2515426,0.027780527,-0.025052521,0.96712303,0.006780258,0.009246793,0.004525635,-107.637886,61.673927,-1.4037685,-4.555493e-05,3.207644e-05,8.6180654e-07,0.0039761094,-0.00174753,-0.00031141218,0.24514122,-0.044201367,0.2247842,0.0,0.0,0.0,0.0,0.0,7.6791075e-05,2.64754e-05,3.751821e-05,5.600106e-06,0.00012949813,0.00012943585,0.00012784857,0.011142645,0.011176465,0.02194066,1.7399472e-11,1.7480436e-11,5.4995303e-11,9.4273116e-07,1.3649396e-06,5.0000775e-08,0.0,0.0,0.0,0.0,0.0,0.0,0.0,0.0,24
65659333,65558668,0.24897787,0.0319287,-0.021341376,0.96774745,0.0011049521,0.004084725,0.0023810538,-107.636635,61.676933,-1.4111334,-5.0161354e-05,3.2297823e-05,1.2421269e-07,0.0039965576,-0.0017009848,-0.00010036401,0.24514122,-0.044201367,0.2247842,0.0,0.0,0.0,0.0,0.0,7.7198834e-05,2.6458863e-05,3.7468802e-05,5.5914456e-06,6.370327e-05,6.369737e-05,6.331807e-05,0.011147186,0.011179365,0.021220777,1.7352715e-11,1.7368773e-11,5.417673e-11,9.4089745e-07,1.3578504e-06,5.0000367e-08,0.0,0.0,0.0,0.0,0.0,0.0,0.0,0.0,24
66658732,66557986,0.23777401,0.033095982,-0.016714657,0.97061265,-0.00020919406,-0.00048588827,-0.00037570237,-107.63638,61.67774,-1.4202952,-4.7170608e-05,3.0356712e-05,-1.1331819e-06,0.0040679276,-0.0017770375,-2.3072129e-05,0.24514122,-0.044201367,0.2247842,0.0,0.0,0.0,0.0,0.0,7.8047306e-05,2.63771e-05,3.7248286e-05,5.1859474e-06,1e-06,1.00155e-06,1.001521e-06,0.011152016,0.011182743,0.020513644,1.7282632e-11,1.7330281e-11,5.3403025e-11,9.396655e-07,1.3528562e-06,5e-08,0.0,0.0,0.0,0.0,0.0,0.0,0.0,0.0,24
67657929,67557304,0.24061343,0.029020013,-0.02598734,0.96983904,-0.0186676,0.0073285885,0.00016034691,-107.64119,61.675915,-1.4271388,-3.9419072e-05,2.8349015e-05,-3.2714643e-06,0.0039955936,-0.001950303,-0.00026574964,0.24514122,-0.044201367,0.2247842,0.0,0.0,0.0,0.0,0.0,7.762031e-05,2.6310845e-05,3.6871854e-05,5.3624954e-06,0.00021247503,0.00021240556,0.00020805025,0.011157493,0.011186096,0.019854043,1.7420152e-11,1.7543855e-11,5.244429e-11,9.3783683e-07,1.3434578e-06,5.0000825e-08,0.0,0.0,0.0,0.0,0.0,0.0,0.0,0.0,24
68657241,68556622,0.24601778,0.028733874,-0.0288626,0.9684093,0.011857855,0.044160336,0.008120413,-107.64036,61.67656,-1.4321201,-4.0687453e-05,2.5322348e-05,-3.6008075e-06,0.0039968602,-0.0019149943,-0.00016653904,0.24514122,-0.044201367,0.2247842,0.0,0.0,0.0,0.0,0.0,7.795987e-05,2.6306312e-05,3.6919508e-05,5.648785e-06,0.00014354556,0.00014302392,0.00014122423,0.011161286,0.011188712,0.019234303,1.7371776e-11,1.7451082e-11,5.1876416e-11,9.3690727e-07,1.341965e-06,5.0000793e-08,0.0,0.0,0.0,0.0,0.0,0.0,0.0,0.0,24
69656750,69555940,0.23423423,0.032011475,-0.021182386,0.97142214,0.006659158,0.12516522,0.0061573572,-204.19962,118.73559,-1.4356257,-4.4589317e-05,2.3760336e-05,-3.1615425e-06,0.003991196,-0.0018691228,-9.467934e-05,0.24514122,-0.044201367,0.2247842,0.0,0.0,0.0,0.0,0.0,7.8608944e-05,2.6747894e-05,3.725313e-05,5.1308893e-06,0.0007551879,0.0007514661,0.00069102366,0.035996877,0.035996683,0.018696627,1.7950393e-11,1.7983368e-11,5.117652e-11,9.362775e-07,1.3362696e-06,5.0000608e-08,0.0,0.0,0.0,0.0,0.0,0.0,0.0,0.0,24
70655968,70555258,0.22857143,0.034103684,-0.015733272,0.97280246,-0.27429456,-0.23465848,0.0133234365,-204.32707,118.694786,-1.420761,-4.461587e-05,2.3809002e-05,-4.1602602e-06,0.0039885766,-0.001857137,-0.0001067593,0.24514122,-0.044201367,0.2247842,0.0,0.0,0.0,0.0,0.0,7.997376e-05,2.7576443e-05,3.8086662e-05,5.0224726e-06,0.003651882,0.003637032,0.0026614554,0.038086265,0.03808618,0.019787487,1.8946776e-11,1.8977847e-11,5.084474e-11,9.358626e-07,1.3360135e-06,5.000036e-08,0.0,0.0,0.0,0.0,0.0,0.0,0.0,0.0,24
71655319,71554577,0.23559786,0.028781822,-0.028711526,0.971,0.0083995005,0.024261912,0.0019332125,-204.13774,118.859436,-1.4266747,-3.587918e-05,2.067325e-05,-7.092247e-06,0.0039866585,-0.0020447746,-0.00024912032,0.24514122,-0.044201367,0.2247842,0.0,0.0,0.0,0.0,0.0,7.923038e-05,2.6122305e-05,3.646106e-05,5.4206334e-06,0.00015696471,0.00015685825,0.00015425033,0.036318246,0.036312692,0.017929057,1.7414062e-11,1.7500463e-11,5.0004292e-11,9.3222434e-07,1.3265077e-06,5.000084e-08,0.0,0.0,0.0,0.0,0.0,0.0,0.0,0.0,24
72654587,72553895,0.23748206,0.029290846,-0.027046707,0.9705734,0.0014650878,0.008158423,-0.0019350768,-204.13661,118.86303,-1.4276946,-4.068775e-05,2.0202393e-05,-6.787408e-06,0.003997266,-0.002043982,-0.0002481434,0.24514122,-0.044201367,0.2247842,0.0,0.0,0.0,0.0,0.0,7.9336925e-05,2.6013751e-05,3.637074e-05,5.502947e-06,8.9684305e-05,8.967991e-05,8.884189e-05,0.03632202,0.036316607,0.017423453,1.7350444e-11,1.7359452e-11,4.9436868e-11,9.3137317e-07,1.3237586e-06,5.000054e-08,0.0,0.0,0.0,0.0,0.0,0.0,0.0,0.0,24
73653926,73553214,0.23374699,0.02943051,-0.025218135,0.9715248,0.0004876317,0.00073960854,-0.0006138876,-204.1362,118.86349,-1.4288298,-4.235308e-05,2.1476691e-05,-7.1150043e-06,0.003994598,-0.0020481967,-0.0002644965,0.24514122,-0.044201367,0.2247842,0.0,0.0,0.0,0.0,0.0,8.020316e-05,2.5944391e-05,3.632452e-05,5.4070206e-06,2.5724288e-05,2.5724774e-05,2.5655017e-05,0.03632617,0.03632107,0.016946143,1.7311482e-11,1.7285676e-11,4.9037663e-11,9.3044724e-07,1.3231179e-06,5.0000107e-08,0.0,0.0,0.0,0.0,0.0,0.0,0.0,0.0,24
74653247,74552533,0.22999069,0.029172013,-0.02691064,0.97238326,0.018821675,0.051715434,-0.00095118285,-204.1351,118.86696,-1.4287761,-4.1706968e-05,2.2225024e-05,-7.935409e-06,0.003994418,-0.0020277132,-0.00026293154,0.24514122,-0.044201367,0.2247842,0.0,0.0,0.0,0.0,0.0,8.077087e-05,2.6079613e-05,3.6423586e-05,5.312416e-06,0.00024204097,0.00024137725,0.00023571304,0.036331873,0.036326833,0.016518233,1.7479147e-11,1.7447559e-11,4.858558e-11,9.299081e-07,1.3220404e-06,5.000071e-08,0.0,0.0,0.0,0.0,0.0,0.0,0.0,0.0,24
75652572,75551852,0.21761833,0.031382985,-0.016725918,0.9753859,-0.013443567,-0.039927892,0.0050987075,-204.13577,118.86447,-1.4305451,-4.5926023e-05,2.1955671e-05,-7.927211e-06,0.0039204094,-0.0019831203,-0.00015765052,0.24514122,-0.044201367,0.2247842,0.0,0.0,0.0,0.0,0.0,8.09594e-05,2.6008358e-05,3.6214347e-05,4.772169e-06,0.00017103554,0.00017048059,0.00016770686,0.036334753,0.03633028,0.016087381,1.74398e-11,1.738061e-11,4.796298e-11,9.279556e-07,1.3127826e-06,5.000093e-08,0.0,0.0,0.0,0.0,0.0,0.0,0.0,0.0,24
76661933,76561164,0.21589248,0.033596374,-0.023319982,0.97556037,-0.008138427,-0.010888162,0.003134194,-204.1369,118.86372,-1.4216549,-3.7783462e-05,2.2432014e-05,-9.522957e-06,0.003997262,-0.0019464568,-8.723732e-05,0.24514122,-0.044201367,0.2247842,0.0,0.0,0.0,0.0,0.0,7.986989e-05,2.5982408e-05,3.5979498e-05,4.67963e-06,0.00011606663,0.00011604666,0.00011467472,0.03633878,0.03633458,0.015679123,1.741885e-11,1.741999e-11,4.7095404e-11,9.242029e-07,1.3004657e-06,5.0000622e-08,0.0,0.0,0.0,0.0,0.0,0.0,0.0,0.0,24
77651371,77550490,0.22022524,0.033965662,-0.027281653,0.97447574,-0.0015683741,0.0051707285,-0.0010941108,-204.13765,118.863335,-1.4204582,-3.752772e-05,2.06176e-05,-1.0139613e-05,0.003997277,-0.0019842598,2.0898844e-05,0.24514122,-0.044201367,0.2247842,0.0,0.0,0.0,0.0,0.0,8.033618e-05,2.5948886e-05,3.5969057e-05,4.91182e-06,3.8280188e-05,3.8269358e-05,3.8110913e-05,0.036343124,0.03633919,0.015292186,1.7357567e-11,1.7355749e-11,4.6872655e-11,9.23359e-07,1.2988556e-06,5.00002e-08,0.0,0.0,0.0,0.0,0.0,0.0,0.0,0.0,24
78660498,78559802,0.22042792,0.035718173,-0.027246984,0.9743682,-0.0056157755,0.016124908,0.012367847,-204.13812,118.86565,-1.4167961,-4.0004354e-05,1.9314022e-05,-1.025768e-05,0.003997255,-0.0019570393,0.00011155362,0.24514122,-0.044201367,0.2247842,0.0,0.0,0.0,0.0,0.0,8.0860904e-05,2.6064943e-05,3.6114896e-05,4.951918e-06,0.0002702074,0.000270151,0.00026303894,0.036350086,0.03634622,0.014926468,1.7522742e-11,1.7494952e-11,4.6626855e-11,9.229442e-07,1.2979991e-06,5.0000725e-08,0.0,0.0,0.0,0.0,0.0,0.0,0.0,0.0,24
79659885,79559121,0.21872692,0.029117687,-0.024382114,0.97504675,-0.020735906,-0.012458453,-0.021089159,-204.13995,118.864586,-1.4138262,-4.0794734e-05,1.411808e-05,-1.0748535e-05,0.003927028,-0.0018804065,-0.00015905774,0.24514122,-0.044201367,0.2247842,0.0,0.0,0.0,0.0,0.0,8.075555e-05,2.5646921e-05,3.5539946e-05,4.8634392e-06,0.00019873829,0.00019872462,0.00019453316,0.03635276,0.036349166,0.014574187,1.742519e-11,1.7413487e-11,4.6213e-11,9.197405e-07,1.294205e-06,5.0000878e-08,0.0,0.0,0.0,0.0,0.0,0.0,0.0,0.0,24
80659130,80558441,0.22347346,0.024697332,-0.028267661,0.973987,0.00033644208,0.0027682444,0.0030905525,-204.13948,118.86508,-1.4057982,-3.8394635e-05,1.3107826e-05,-1.1631732e-05,0.003927483,-0.0018250888,-0.00040012033,0.24514122,-0.044201367,0.2247842,0.0,0.0,0.0,0.0,0.0,8.104004e-05,2.5491254e-05,3.5299592e-05,5.111148e-06,0.00012938806,0.00012939368,0.00012778294,0.03635662,0.036353122,0.014255526,1.7379322e-11,1.7373979e-11,4.5961124e-11,9.186463e-07,1.2912536e-06,5.000078e-08,0.0,0.0,0.0,0.0,0.0,0.0,0.0,0.0,24
81658485,81557760,0.23058724,0.027183248,-0.02905085,0.97223794,0.011125133,0.040402472,0.0059437705,-204.1387,118.866264,-1.3975384,-4.4236862e-05,1.1296083e-05,-1.0695682e-05,0.0039972877,-0.0018397056,-0.00022975952,0.24514122,-0.044201367,0.2247842,0.0,0.0,0.0,0.0,0.0,8.0259146e-05,2.5537804e-05,3.529992e-05,5.309867e-06,6.4161315e-05,6.374805e-05,6.350908e-05,0.036360957,0.03635765,0.013935151,1.7335076e-11,1.7288974e-11,4.550443e-11,9.1527517e-07,1.2826614e-06,5.0000406e-08,0.0,0.0,0.0,0.0,0.0,0.0,0.0,0.0,24
82657941,82557080,0.22193703,0.025152685,-0.017487101,0.97457963,9.1546335e-06,-0.00016028996,-0.00022294762,-204.13869,118.8685,-1.3879431,-4.7882553e-05,9.311163e-06,-1.0210515e-05,0.0039995634,-0.0017160967,-0.000502477,0.24514122,-0.044201367,0.2247842,0.0,0.0,0.0,0.0,0.0,7.950816e-05,2.5220681e-05,3.4693418e-05,4.81451e-06,1e-06,1e-06,1.0005024e-06,0.036365688,0.036362436,0.013629634,1.7266263e-11,1.7210788e-11,4.4872012e-11,9.122613e-07,1.2729084e-06,5e-08,0.0,0.0,0.0,0.0,0.0,0.0,0.0,0.0,24
83657285,83556399,0.22441995,0.021826567,-0.023249432,0.97397065,-6.7062755,3.637127,-0.1388069,-298.31534,168.83217,-1.3958687,-4.1087784e-05,1.0283821e-05,-1.1410136e-05,0.0039919848,-0.0016184176,-0.0007075835,0.24514122,-0.044201367,0.2247842,0.0,0.0,0.0,0.0,0.0,7.815949e-05,2.5299621e-05,3.4544988e-05,4.871812e-06,0.09012842,0.09012846,0.09012041,0.09453513,0.09453513,0.014233198,1.7436792e-11,1.7402553e-11,4.4217234e-11,9.117518e-07,1.2657066e-06,5.0000942e-08,0.0,0.0,0.0,0.0,0.0,0.0,0.0,0.0,24
84656466,84555719,0.23124824,0.023021072,-0.02364807,0.9723349,0.03523582,0.018596852,0.024085196,-298.88818,169.16098,-1.3783662,-4.4712735e-05,1.1990409e-05,-1.1217772e-05,0.003997118,-0.0017568229,-0.0004358582,0.24514122,-0.044201367,0.2247842,0.0,0.0,0.0,0.0,0.0,7.751308e-05,2.5525267e-05,3.4821293e-05,5.1097118e-06,0.00014316749,0.0001435128,0.00014122052,0.037485626,0.037485622,0.013057994,1.7515284e-11,1.7434124e-11,4.387266e-11,9.097179e-07,1.2597715e-06,5.000083e-08,0.0,0.0,0.0,0.0,0.0,0.0,0.0,0.0,24
85655614,85555039,0.2261191,0.03047027,-0.020850986,0.9733997,0.0019786118,0.0024652875,-0.0024453744,-298.8876,169.16139,-1.3776827,-4.7070364e-05,1.526677e-05,-1.0792681e-05,0.003997185,-0.001895879,6.332795e-05,0.24514122,-0.044201367,0.2247842,0.0,0.0,0.0,0.0,0.0,7.768943e-05,2.5628733e-05,3.5054807e-05,4.8585543e-06,7.669243e-05,7.669467e-05,7.605121e-05,0.03749011,0.037490103,0.01280269,1.7445986e-11,1.732948e-11,4.3629413e-11,9.0620296e-07,1.2550203e-06,5.00005e-08,0.0,0.0,0.0,0.0,0.0,0.0,0.0,0.0,24
86654943,86554359,0.22293654,0.028943151,-0.021188686,0.9741729,0.00041709258,-0.00083765737,0.0002577856,-298.88834,169.16086,-1.3782797,-4.3858072e-05,1.501477e-05,-1.1022415e-05,0.00399729,-0.0019632622,-0.00013607884,0.24514122,-0.044201367,0.2247842,0.0,0.0,0.0,0.0,0.0,7.816471e-05,2.5348985e-05,3.4603996e-05,4.7234685e-06,1.3302188e-05,1.3302033e-05,1.3284503e-05,0.03749493,0.03749492,0.012545231,1.734269e-11,1.7253846e-11,4.349871e-11,9.0529414e-07,1.2527369e-06,5.000009e-08,0.0,0.0,0.0,0.0,0.0,0.0,0.0,0.0,24
87654315,87553679,0.2178486,0.0316254,-0.019448973,0.9752761,-0.0006172198,0.0011303559,0.012890512,-298.8882,169.16068,-1.3796923,-4.3728232e-05,1.6862801e-05,-1.1215123e-05,0.0039947075,-0.0019133417,-0.00010545483,0.24514122,-0.044201367,0.2247842,0.0,0.0,0.0,0.0,0.0,7.863492e-05,2.5438474e-05,3.471786e-05,4.536335e-06,0.00022656999,0.00022657265,0.0002218148,0.037500784,0.037500773,0.012299048,1.7515355e-11,1.7410233e-11,4.3367938e-11,9.0440267e-07,1.2518738e-06,5.000087e-08,0.0,0.0,0.0,0.0,0.0,0.0,0.0,0.0,24
88653686,88552999,0.212432,0.034221504,-0.019100407,0.97638965,-0.02838123,-0.020373667,0.0058591287,-298.88907,169.16005,-1.3814001,-3.9344246e-05,1.666017e-05,-1.1664002e-05,0.003996728,-0.0019035549,0.0001012634,0.24514122,-0.044201367,0.2247842,0.0,0.0,0.0,0.0,0.0,7.8950114e-05,2.5479394e-05,3.473506e-05,4.3185905e-06,0.00015667452,0.00015682628,0.00015425196,0.03750439,0.037504386,0.01206046,1.7466455e-11,1.7399637e-11,4.320477e-11,9.028073e-07,1.248131e-06,5.000091e-08,0.0,0.0,0.0,0.0,0.0,0.0,0.0,0.0,24
89653033,89552320,0.21431871,0.034201156,-0.02032727,0.97595316,-0.01756261,-0.0039449595,-0.0038509413,-298.889,169.15994,-1.3823735,-3.563832e-05,1.2975728e-05,-1.2052794e-05,0.0039811595,-0.0020655515,0.00011369597,0.24514122,-0.044201367,0.2247842,0.0,0.0,0.0,0.0,0.0,7.8972975e-05,2.534154e-05,3.4545832e-05,4.371926e-06,8.967648e-05,8.974198e-05,8.88467e-05,0.037508745,0.037508745,0.011843077,1.7380434e-11,1.7368745e-11,4.3084872e-11,9.016567e-07,1.2453228e-06,5.000059e-08,0.0,0.0,0.0,0.0,0.0,0.0,0.0,0.0,24
90662253,90561633,0.21991251,0.028845757,-0.025695741,0.97475445,-0.00029440707,0.003234,0.0005660981,-298.89014,169.15927,-1.3821313,-3.0725456e-05,9.9431845e-06,-1.3031072e-05,0.0039664865,-0.0021139057,-6.2068735e-05,0.24514122,-0.044201367,0.2247842,0.0,0.0,0.0,0.0,0.0,7.845192e-05,2.5173103e-05,3.424304e-05,4.582817e-06,3.826683e-05,3.8260954e-05,3.8116457e-05,0.037513524,0.037513524,0.011623072,1.7315604e-11,1.7348869e-11,4.286694e-11,9.008685e-07,1.2423066e-06,5.000026e-08,0.0,0.0,0.0,0.0,0.0,0.0,0.0,0.0,24
91651515,91550961,0.22206306,0.028904691,-0.024493616,0.974296,0.018473327,0.020924557,-0.0016984423,-298.88864,169.16139,-1.3784511,-3.3624496e-05,9.650996e-06,-1.3038868e-05,0.003997289,-0.002101493,-4.9934533e-05,0.24514122,-0.044201367,0.2247842,0.0,0.0,0.0,0.0,0.0,7.837344e-05,2.5238396e-05,3.429409e-05,4.6650853e-06,0.00024134725,0.0002414247,0.00023565633,0.03751974,0.037519746,0.011412531,1.746989e-11,1.7450577e-11,4.2749377e-11,9.000436e-07,1.2392829e-06,5.000074e-08,0.0,0.0,0.0,0.0,0.0,0.0,0.0,0.0,24
92660950,92560275,0.2150363,0.031666737,-0.022755222,0.9758272,0.018677171,-0.0007417499,0.027720163,-298.88876,169.15968,-1.3734009,-3.3918877e-05,1.1896519e-05,-1.3452078e-05,0.003989359,-0.0020957405,-6.837677e-05,0.24514122,-0.044201367,0.2247842,0.0,0.0,0.0,0.0,0.0,7.846725e-05,2.5174997e-05,3.4238124e-05,4.404374e-06,0.00018386378,0.00018404204,0.00018099383,0.037523367,0.037523374,0.011207292,1.7458989e-11,1.7403313e-11,4.256129e-11,8.987218e-07,1.2373115e-06,5.0001002e-08,0.0,0.0,0.0,0.0,0.0,0.0,0.0,0.0,24
93660156,93559595,0.20815082,0.03362462,-0.021035446,0.97729224,-0.0077936808,-0.0046553817,-0.007706885,-298.88974,169.15948,-1.3693732,-3.4039484e-05,1.12301495e-05,-1.3893396e-05,0.003975485,-0.0021203947,7.245511e-05,0.24514122,-0.044201367,0.2247842,0.0,0.0,0.0,0.0,0.0,7.9125246e-05,2.5110798e-05,3.416279e-05,4.179651e-06,0.00011616421,0.00011616798,0.00011471328,0.03752748,0.037527487,0.011009875,1.74072e-11,1.7353709e-11,4.2558804e-11,8.963809e-07,1.2336519e-06,5.0000743e-08,0.0,0.0,0.0,0.0,0.0,0.0,0.0,0.0,24
94659648,94558916,0.20590168,0.033108123,-0.02439925,0.9777081,0.0019218514,-0.0058330884,0.0017001472,-298.89062,169.15868,-1.3599252,-2.8907083e-05,1.2267637e-05,-1.4912503e-05,0.003997544,-0.0020693953,-2.3183284e-05,0.24514122,-0.044201367,0.2247842,0.0,0.0,0.0,0.0,0.0,7.909685e-05,2.5029587e-05,3.393177e-05,4.114967e-06,5.092053e-05,5.0917384e-05,5.0653034e-05,0.03753213,0.037532132,0.010820018,1.737698e-11,1.7351906e-11,4.2397672e-11,8.9446735e-07,1.2282777e-06,5.0000327e-08,0.0,0.0,0.0,0.0,0.0,0.0,0.0,0.0,24
95658844,95558237,0.2169624,0.033657327,-0.034634553,0.97498465,-0.012739803,-0.005215043,0.014633788,-298.89276,169.15428,-1.3432453,-2.5970112e-05,1.3162474e-05,-1.5738837e-05,0.003997304,-0.0020229043,4.90828e-05,0.24514122,-0.044201367,0.2247842,0.0,0.0,0.0,0.0,0.0,7.843136e-05,2.5613881e-05,3.4387034e-05,4.545685e-06,0.0010130081,0.0010125459,0.0009179787,0.03765103,0.037651006,0.010750681,1.796729e-11,1.7958947e-11,4.2252226e-11,8.937224e-07,1.2246262e-06,5.0000637e-08,0.0,0.0,0.0,0.0,0.0,0.0,0.0,0.0,24
96658372,96557558,0.22360125,0.035081238,-0.031421352,0.9735423,5.871311e-05,0.00038640716,-0.00030076603,-298.88943,169.0772,-1.3255906,-3.550549e-05,9.701265e-06,-1.4641019e-05,0.004110633,-0.0017722261,-8.376555e-05,0.24514122,-0.044201367,0.2247842,0.0,0.0,0.0,0.0,0.0,7.642266e-05,2.4844618e-05,3.3507e-05,4.6455416e-06,1e-06,1e-06,1e-06,0.03771939,0.037717316,0.010628836,1.7313602e-11,1.7233572e-11,4.1828457e-11,8.9064764e-07,1.2153304e-06,5e-08,0.0,0.0,0.0,0.0,0.0,0.0,0.0,0.0,24
97657435,97556880,0.21288411,0.035376474,-0.02128107,0.9762049,-0.002448277,-0.008439165,0.00645595,-298.88818,169.08629,-1.3076744,-4.1239913e-05,6.484032e-06,-1.39069625e-05,0.0039972938,-0.0016442477,-0.00017383111,0.24514122,-0.044201367,0.2247842,0.0,0.0,0.0,0.0,0.0,7.649761e-05,2.485414e-05,3.338083e-05,4.1640674e-06,0.00021248376,0.0002123592,0.00020806758,0.037723783,0.037722114,0.010452626,1.7449585e-11,1.7371804e-11,4.1722115e-11,8.894451e-07,1.2094335e-06,5.0001e-08,0.0,0.0,0.0,0.0,0.0,0.0,0.0,0.0,24
98656871,98556201,0.20933284,0.03438171,-0.023049219,0.97696793,-0.009513097,-0.034189433,-0.012607095,-390.52942,221.35446,-1.2901994,-3.537306e-05,7.111849e-06,-1.5063415e-05,0.003997946,-0.0015852931,-0.0002064133,0.24514122,-0.044201367,0.2247842,0.0,0.0,0.0,0.0,0.0,7.543342e-05,2.494913e-05,3.3296223e-05,3.993707e-06,0.00014405162,0.00014367023,0.00014098387,0.037678402,0.037678394,0.010281233,1.755425e-11,1.7482847e-11,4.1330224e-11,8.8823987e-07,1.2031696e-06,5.000086e-08,0.0,0.0,0.0,0.0,0.0,0.0,0.0,0.0,24
99656081,99555522,0.21843848,0.035073284,-0.029228287,0.9747822,0.011297431,0.02857076,-0.0008406088,-390.52924,221.35472,-1.2705264,-3.8709975e-05,8.678749e-06,-1.47190585e-05,0.0039972947,-0.0016064749,-0.00012960394,0.24514122,-0.044201367,0.2247842,0.0,0.0,0.0,0.0,0.0,7.382451e-05,2.4927098e-05,3.3119428e-05,4.2327806e-06,7.689272e-05,7.673281e-05,7.607167e-05,0.03768287,0.03768287,0.010124226,1.7443772e-11,1.7330486e-11,4.0986763e-11,8.870919e-07,1.1943407e-06,5.0000494e-08,0.0,0.0,0.0,0.0,0.0,0.0,0.0,0.0,24
100655425,100554844,0.20946465,0.037111614,-0.021237876,0.9768809,-0.0002431198,0.0003938433,0.0006606683,-390.52887,221.35637,-1.2493416,-4.335264e-05,7.578458e-06,-1.4125788e-05,0.003995314,-0.0015860975,-0.00011522228,0.24514122,-0.044201367,0.2247842,0.0,0.0,0.0,0.0,0.0,7.40618e-05,2.4824265e-05,3.292927e-05,3.8664243e-06,1.3302018e-05,1.3302043e-05,1.328335e-05,0.037687697,0.037687708,0.009964345,1.7356401e-11,1.723942e-11,4.096483e-11,8.867276e-07,1.1893194e-06,5.0000093e-08,0.0,0.0,0.0,0.0,0.0,0.0,0.0,0.0,24
101654719,101554170,0.20689176,0.037688874,-0.023472138,0.9773559,-0.028586883,-0.027572934,-0.008891248,-390.53152,221.35416,-1.2258064,-3.8194074e-05,6.998509e-06,-1.47834535e-05,0.0039972938,-0.0015970609,-8.006297e-05,0.24514122,-0.044201367,0.2247842,0.0,0.0,0.0,0.0,0.0,7.374408e-05,2.4971123e-05,3.2976528e-05,3.7457737e-06,0.00022731547,0.0002272415,0.00022154282,0.037693575,0.03769358,0.009810777,1.750889e-11,1.7411583e-11,4.0835432e-11,8.8600734e-07,1.1852054e-06,5.000095e-08,0.0,0.0,0.0,0.0,0.0,0.0,0.0,0.0,24
102654160,102553487,0.21404922,0.036607854,-0.027471473,0.9757501,0.0022107798,0.015221592,0.0054393364,-390.52997,221.3561,-1.1993101,-3.697515e-05,6.18123e-06,-1.4919275e-05,0.003997295,-0.0016211631,-0.00011961018,0.24514122,-0.044201367,0.2247842,0.0,0.0,0.0,0.0,0.0,7.400783e-05,2.4902214e-05,3.2869735e-05,4.0022856e-06,0.00015662592,0.0001565649,0.00015402629,0.037697162,0.037697166,0.009659557,1.745615e-11,1.7360455e-11,4.0949324e-11,8.855753e-07,1.1836271e-06,5.0000942e-08,0.0,0.0,0.0,0.0,0.0,0.0,0.0,0.0,24
103653443,103552809,0.21446486,0.037771516,-0.023163816,0.97572625,-0.005945157,-0.00074095494,0.0025512532,-390.53024,221.35637,-1.1705021,-4.0076695e-05,5.0816825e-06,-1.4422735e-05,0.0039936723,-0.0015911548,-9.1691574e-05,0.24514122,-0.044201367,0.2247842,0.0,0.0,0.0,0.0,0.0,7.442573e-05,2.4822699e-05,3.278408e-05,4.00237e-06,8.961723e-05,8.9621455e-05,8.877754e-05,0.03770151,0.03770151,0.009513883,1.7401192e-11,1.7293493e-11,4.105142e-11,8.851098e-07,1.1814233e-06,5.0000576e-08,0.0,0.0,0.0,0.0,0.0,0.0,0.0,0.0,24
104662744,104562125,0.20815088,0.03733464,-0.019893043,0.97718143,-0.00047528645,-0.00028298277,-0.00025132712,-390.53067,221.35645,-1.1403996,-4.1079056e-05,3.5802452e-06,-1.4271175e-05,0.00399835,-0.0015799073,-0.00012369778,0.24514122,-0.044201367,0.2247842,0.0,0.0,0.0,0.0,0.0,7.4954514e-05,2.4745557e-05,3.265081e-05,3.7707055e-06,3.8264545e-05,3.8264017e-05,3.8107424e-05,0.03770628,0.037706282,0.009373117,1.7355024e-11,1.7251015e-11,4.111543e-11,8.84881e-07,1.1796955e-06,5.0000246e-08,0.0,0.0,0.0,0.0,0.0,0.0,0.0,0.0,24
105652007,105551453,0.20261125,0.034969848,-0.01790069,0.9784709,-0.0057695527,-0.03419162,-0.020822871,-390.5316,221.35374,-1.1098536,-3.8210248e-05,2.8058987e-06,-1.46561115e-05,0.003997295,-0.0016280005,-0.00025502482,0.24514122,-0.044201367,0.2247842,0.0,0.0,0.0,0.0,0.0,7.5281496e-05,2.4745912e-05,3.2555916e-05,3.5742378e-06,0.00024199368,0.00024160302,0.00023522919,0.03771249,0.0377125,0.009244886,1.7501696e-11,1.741254e-11,4.111822e-11,8.8386366e-07,1.1766771e-06,5.0000796e-08,0.0,0.0,0.0,0.0,0.0,0.0,0.0,0.0,24
106661333,106560769,0.20401108,0.034462545,-0.020982679,0.9781368,0.014529992,-0.025874492,-0.009239905,-390.5305,221.35371,-1.0737741,-3.3954486e-05,5.2599307e-06,-1.5388026e-05,0.003997293,-0.001537089,-0.00040125966,0.24514122,-0.044201367,0.2247842,0.0,0.0,0.0,0.0,0.0,7.517609e-05,2.4679232e-05,3.2447093e-05,3.6304095e-06,0.00018452255,0.00018447667,0.00018071553,0.03771611,0.037716124,0.009110912,1.7503055e-11,1.7401077e-11,4.1056897e-11,8.8272236e-07,1.1744497e-06,5.0001017e-08,0.0,0.0,0.0,0.0,0.0,0.0,0.0,0.0,24
107660691,107560091,0.20585035,0.037879158,-0.021335052,0.9776173,0.00447942,0.0016180738,0.004925835,-390.53082,221.35501,-1.037568,-3.4943158e-05,6.7191477e-06,-1.5536332e-05,0.003997295,-0.0014988405,-0.0002236555,0.24514122,-0.044201367,0.2247842,0.0,0.0,0.0,0.0,0.0,7.5357195e-05,2.478678e-05,3.25904e-05,3.711549e-06,0.00011601227,0.00011601663,0.00011461067,0.03772022,0.03772024,0.008981482,1.748402e-11,1.735039e-11,4.1109508e-11,8.8189165e-07,1.1716621e-06,5.000075e-08,0.0,0.0,0.0,0.0,0.0,0.0,0.0,0.0,24
108649987,108549420,0.1985175,0.041886747,-0.01739459,0.97904736,-0.003212941,-0.0006418826,-0.0013150544,-390.53036,221.35533,-1.0018744,-3.6068286e-05,5.5765017e-06,-1.5494841e-05,0.0039972956,-0.0014680371,4.5840014e-05,0.24514122,-0.044201367,0.2247842,0.0,0.0,0.0,0.0,0.0,7.609636e-05,2.4849809e-05,3.2686046e-05,3.4783486e-06,3.8273378e-05,3.8275477e-05,3.8104597e-05,0.037724864,0.037724882,0.008862633,1.741848e-11,1.7291524e-11,4.1236573e-11,8.813788e-07,1.1695923e-06,5.000027e-08,0.0,0.0,0.0,0.0,0.0,0.0,0.0,0.0,24
109659300,109558737,0.20096083,0.038300574,-0.022310115,0.978596,-0.03312386,-0.07655293,-0.023718111,-390.53442,221.34758,-0.9646541,-2.8626193e-05,4.2150523e-06,-1.643758e-05,0.003997294,-0.001588907,-0.00013129358,0.24514122,-0.044201367,0.2247842,0.0,0.0,0.0,0.0,0.0,7.512395e-05,2.4849198e-05,3.2413853e-05,3.5061973e-06,0.00027236232,0.00027113772,0.00026325553,0.037731986,0.037732016,0.008743349,1.7562342e-11,1.7498511e-11,4.100405e-11,8.805662e-07,1.1630588e-06,5.000084e-08,0.0,0.0,0.0,0.0,0.0,0.0,0.0,0.0,24
110658617,110558058,0.21390802,0.035223577,-0.03104824,0.9757247,0.022887677,0.04739606,-0.009068769,-390.53,221.35722,-0.9221299,-2.8798442e-05,5.0960257e-06,-1.6664688e-05,0.003997295,-0.0016151749,-0.00034934652,0.24514122,-0.044201367,0.2247842,0.0,0.0,0.0,0.0,0.0,7.4170566e-05,2.469921e-05,3.206675e-05,3.9247298e-06,0.00019932936,0.00019876462,0.00019420589,0.037734937,0.03773498,0.008623113,1.7516145e-11,1.7414152e-11,4.0891263e-11,8.7914793e-07,1.1569116e-06,5.000101e-08,0.0,0.0,0.0,0.0,0.0,0.0,0.0,0.0,24
111657941,111557381,0.21161023,0.037703723,-0.024349345,0.97632307,0.004919132,-0.0015122567,0.00050575583,-390.53122,221.35449,-0.87841254,-3.6986836e-05,5.8189285e-06,-1.5554198e-05,0.003997296,-0.0017090016,-0.00039279182,0.24514122,-0.044201367,0.2247842,0.0,0.0,0.0,0.0,0.0,7.35021e-05,2.4565878e-05,3.1867377e-05,3.7670075e-06,0.00012945496,0.00012944965,0.00012764196,0.037738875,0.03773893,0.008507236,1.7477401e-11,1.7316289e-11,4.0736844e-11,8.766917e-07,1.148396e-06,5.0000846e-08,0.0,0.0,0.0,0.0,0.0,0.0,0.0,0.0,24
112657259,112556704,0.20521359,0.03848713,-0.021734513,0.97771865,0.0005300007,0.006858853,0.0020684258,-480.82446,272.35812,-0.835908,-3.7358583e-05,5.4229045e-06,-1.5546066e-05,0.0039972975,-0.0017151913,-0.0002809941,0.24514122,-0.044201367,0.2247842,0.0,0.0,0.0,0.0,0.0,7.4193216e-05,2.476663e-05,3.208283e-05,3.560915e-06,6.380765e-05,6.379951e-05,6.32355e-05,0.094864115,0.094864115,0.008395948,1.7642303e-11,1.74818e-11,4.0858303e-11,8.762555e-07,1.1474367e-06,5.0000416e-08,0.0,0.0,0.0,0.0,0.0,0.0,0.0,0.0,24
113656888,113556027,0.20239693,0.038025413,-0.023119332,0.9782919,-6.780247e-05,-4.4880166e-05,-4.3040633e-05,-482.0248,273.03293,-0.7910046,-3.4076533e-05,4.2485594e-06,-1.5979465e-05,0.0040040878,-0.0017368419,-0.0002482157,0.24514122,-0.044201367,0.2247842,0.0,0.0,0.0,0.0,0.0,7.458908e-05,2.4644696e-05,3.1901087e-05,3.4702139e-06,1e-06,1e-06,1e-06,0.037680734,0.03768073,0.008287154,1.7445191e-11,1.731042e-11,4.0928892e-11,8.7580776e-07,1.145232e-06,5e-08,0.0,0.0,0.0,0.0,0.0,0.0,0.0,0.0,24
114656019,114555350,0.2008892,0.037338603,-0.022907447,0.9786341,-0.0072985506,0.009097813,0.0075556524,-482.02493,273.03424,-0.74752617,-3.5898254e-05,3.447313e-06,-1.5772788e-05,0.00399479,-0.00173633,-0.0002494752,0.24514122,-0.044201367,0.2247842,0.0,0.0,0.0,0.0,0.0,7.495133e-05,2.4701912e-05,3.1928295e-05,3.4189673e-06,0.00021263176,0.00021262532,0.00020773865,0.03768629,0.037686285,0.008187595,1.7557403e-11,1.7418754e-11,4.101965e-11,8.7558595e-07,1.1440295e-06,5.0001013e-08,0.0,0.0,0.0,0.0,0.0,0.0,0.0,0.0,24
115655330,115554673,0.19421412,0.037723403,-0.018142605,0.98006564,-0.006118713,-0.031541564,0.0045643477,-482.0246,273.0326,-0.7015827,-3.664367e-05,3.3858275e-06,-1.5630321e-05,0.0039972947,-0.0017179415,-0.00025026934,0.24514122,-0.044201367,0.2247842,0.0,0.0,0.0,0.0,0.0,7.572799e-05,2.4581437e-05,3.179802e-05,3.2099424e-06,0.000143314,0.00014298664,0.00014089464,0.037690073,0.037690066,0.008083191,1.7496764e-11,1.7351523e-11,4.1143994e-11,8.7472137e-07,1.1422188e-06,5.0000935e-08,0.0,0.0,0.0,0.0,0.0,0.0,0.0,0.0,24
116654548,116553996,0.19941796,0.036986504,-0.025500225,0.9788842,-5.0326635e-05,-0.004042605,-0.001280439,-482.02487,273.03174,-0.6532778,-2.810927e-05,4.6773866e-06,-1.6552223e-05,0.0039972956,-0.001644735,-0.0002841177,0.24514122,-0.044201367,0.2247842,0.0,0.0,0.0,0.0,0.0,7.4675e-05,2.457461e-05,3.1529424e-05,3.3298554e-06,7.661804e-05,7.6616474e-05,7.5948126e-05,0.03769456,0.037694525,0.007982262,1.7462346e-11,1.7353478e-11,4.0898528e-11,8.7366107e-07,1.133679e-06,5.0000505e-08,0.0,0.0,0.0,0.0,0.0,0.0,0.0,0.0,24
117653950,117553320,0.20851023,0.038317855,-0.028211487,0.97686195,0.0009318724,0.0013932857,0.0012508119,-482.02487,273.03085,-0.6030985,-3.4412926e-05,5.674046e-06,-1.6122824e-05,0.003999141,-0.0016923627,-0.0002970202,0.24514122,-0.044201367,0.2247842,0.0,0.0,0.0,0.0,0.0,7.31782e-05,2.449992e-05,3.1363128e-05,3.576235e-06,1.3300915e-05,1.3303019e-05,1.328202e-05,0.037699364,0.03769934,0.007884304,1.7417689e-11,1.7246525e-11,4.0655704e-11,8.724584e-07,1.1273269e-06,5.0000068e-08,0.0,0.0,0.0,0.0,0.0,0.0,0.0,0.0,24
118653283,118552643,0.20091808,0.04083593,-0.022875756,0.9784892,-0.009703466,-0.0017687352,0.0053961975,-482.0246,273.03174,-0.55574876,-3.8245817e-05,5.403059e-06,-1.5664793e-05,0.0039972872,-0.0017021192,-0.00016229204,0.24514122,-0.044201367,0.2247842,0.0,0.0,0.0,0.0,0.0,7.367429e-05,2.4660842e-05,3.1521613e-05,3.3212912e-06,0.00022670568,0.0002267231,0.00022126023,0.037705213,0.03770517,0.0077948254,1.7576707e-11,1.7397741e-11,4.074858e-11,8.7173214e-07,1.1240032e-06,5.0001002e-08,0.0,0.0,0.0,0.0,0.0,0.0,0.0,0.0,24
119652519,119551967,0.19426082,0.036552593,-0.018394832,0.98009604,0.0063591315,-0.02189861,-0.0060081114,-482.024,273.03076,-0.5057985,-3.7766138e-05,5.2057358e-06,-1.5692527e-05,0.003997294,-0.0016830898,-0.00041745426,0.24514122,-0.044201367,0.2247842,0.0,0.0,0.0,0.0,0.0,7.4316864e-05,2.4338882e-05,3.1120686e-05,3.1111467e-06,0.00015684357,0.00015667616,0.00015399368,0.037708804,0.03770876,0.0077003175,1.7515584e-11,1.7337036e-11,4.0845508e-11,8.69312e-07,1.1214808e-06,5.0000953e-08,0.0,0.0,0.0,0.0,0.0,0.0,0.0,0.0,24
120651914,120551290,0.1948149,0.035567056,-0.021103045,0.97996783,0.0054395497,-0.0030931544,0.0034692169,-482.0244,273.03082,-0.4542523,-3.2273536e-05,8.551133e-06,-1.612597e-05,0.0039972956,-0.0015329224,-0.00045048413,0.24514122,-0.044201367,0.2247842,0.0,0.0,0.0,0.0,0.0,7.37842e-05,2.4349212e-05,3.10439e-05,3.0944768e-06,8.9591245e-05,8.960005e-05,8.873076e-05,0.037713155,0.037713114,0.007609035,1.7522823e-11,1.7326356e-11,4.068179e-11,8.679866e-07,1.1177027e-06,5.00006e-08,0.0,0.0,0.0,0.0,0.0,0.0,0.0,0.0,24
121661171,121560607,0.20753814,0.03708398,-0.029559907,0.97707677,-0.0055599716,0.01056532,0.007090139,-482.02335,273.02945,-0.40474123,-2.9997145e-05,8.600501e-06,-1.6260412e-05,0.003997295,-0.0014709893,-0.00017724127,0.24514122,-0.044201367,0.2247842,0.0,0.0,0.0,0.0,0.0,7.37133e-05,2.4525492e-05,3.1200438e-05,3.502315e-06,3.8289716e-05,3.8254864e-05,3.810938e-05,0.037717935,0.037717905,0.007520152,1.7482429e-11,1.7302427e-11,4.079928e-11,8.663883e-07,1.1138166e-06,5.0000253e-08,0.0,0.0,0.0,0.0,0.0,0.0,0.0,0.0,24
122660545,122559931,0.20878358,0.030920438,-0.023932984,0.97718,0.049553365,0.04007068,-0.01561044,-482.01938,273.0345,-0.3518797,-3.761938e-05,7.673867e-06,-1.5408195e-05,0.003997342,-0.0013016002,-0.0005266247,0.24514122,-0.044201367,0.2247842,0.0,0.0,0.0,0.0,0.0,7.226578e-05,2.4158426e-05,3.0568506e-05,3.4544894e-06,0.00025632672,0.00025670644,0.00024924192,0.03772458,0.03772456,0.0074352496,1.7588877e-11,1.7392546e-11,4.0517634e-11,8.6054376e-07,1.1014167e-06,5.0000835e-08,0.0,0.0,0.0,0.0,0.0,0.0,0.0,0.0,24
123659877,123559255,0.20094016,0.034813367,-0.0180453,0.9788185,-0.0175521,-0.0034552494,0.017726889,-482.02435,273.0324,-0.29953718,-3.9373168e-05,8.695974e-06,-1.4941146e-05,0.003988327,-0.0013597439,-0.0002583106,0.24514122,-0.044201367,0.2247842,0.0,0.0,0.0,0.0,0.0,7.270401e-05,2.4294726e-05,3.073629e-05,3.1827449e-06,0.00018404733,0.00018415334,0.00018087635,0.037727773,0.037727762,0.007349549,1.7573202e-11,1.7362377e-11,4.0584276e-11,8.589753e-07,1.0964901e-06,5.0001017e-08,0.0,0.0,0.0,0.0,0.0,0.0,0.0,0.0,24
124659275,124558579,0.19885854,0.031456757,-0.019305093,0.97933304,-0.013272967,-0.020822242,0.0058310954,-482.02365,273.03232,-0.25054318,-3.683224e-05,8.899474e-06,-1.5029687e-05,0.003993603,-0.0013443495,-0.00019985953,0.24514122,-0.044201367,0.2247842,0.0,0.0,0.0,0.0,0.0,7.320775e-05,2.4211386e-05,3.0627038e-05,3.1189907e-06,0.00011612329,0.000116057374,0.00011474822,0.03773188,0.03773186,0.007270595,1.751975e-11,1.7317875e-11,4.069576e-11,8.573208e-07,1.0943222e-06,5.0000775e-08,0.0,0.0,0.0,0.0,0.0,0.0,0.0,0.0,24
125658545,125557904,0.20521633,0.022953894,-0.020639459,0.97822976,0.025473237,-0.18325794,-0.13491562,-482.0379,272.919,-0.3049533,-3.6825386e-05,8.899584e-06,-1.4919983e-05,0.003997312,-0.001332903,-0.00021849026,0.24514122,-0.044201367,0.2247842,0.0,0.0,0.0,0.0,0.0,7.363146e-05,2.5008387e-05,3.1349504e-05,3.3355293e-06,0.0022149982,0.002206269,0.001811474,0.038494878,0.03849172,0.0078382855,1.8507905e-11,1.8314784e-11,4.0856755e-11,8.5727356e-07,1.0940663e-06,5.0000246e-08,0.0,0.0,0.0,0.0,0.0,0.0,0.0,0.0,24
126657811,126557228,0.20459779,0.027337067,-0.023135336,0.9781908,0.21294917,-0.12402116,-0.087370954,-481.89664,272.74988,-0.32640257,-3.6811703e-05,8.9018295e-06,-1.47546725e-05,0.0039972975,-0.0013107989,-0.000292433,0.24514122,-0.044201367,0.2247842,0.0,0.0,0.0,0.0,0.0,7.438862e-05,2.5909989e-05,3.2268497e-05,3.333556e-06,0.0062398487,0.006246891,0.0039996686,0.044997957,0.044981956,0.012099328,1.949678e-11,1.9311745e-11,4.1062254e-11,8.572185e-07,1.093818e-06,5.0000178e-08,0.0,0.0,0.0,0.0,0.0,0.0,0.0,0.0,24
127657419,127556552,0.19467935,0.03775522,-0.022477185,0.9798823,-5.1550827,2.8915446,0.073531225,-573.3762,322.53802,-0.21868877,-3.6798738e-05,8.908745e-06,-1.4597967e-05,0.003999328,-0.0012892635,-0.00038525183,0.24514122,-0.044201367,0.2247842,0.0,0.0,0.0,0.0,0.0,7.537772e-05,2.688551e-05,3.332098e-05,3.0374215e-06,0.018198023,0.01819741,0.032690104,0.04130019,0.041300192,0.02671062,2.0473389e-11,2.0296285e-11,4.125337e-11,8.571494e-07,1.093628e-06,5e-08,0.0,0.0,0.0,0.0,0.0,0.0,0.0,0.0,24
128656674,128555877,0.19049968,0.04374878,-0.020028172,0.98050743,-5.155294,2.7337263,0.13448071,-578.49115,325.30783,0.041244097,-3.6739693e-05,8.408372e-06,-1.4528214e-05,0.0039972975,-0.0012823266,-0.0004480823,0.24514122,-0.044201367,0.2247842,0.0,0.0,0.0,0.0,0.0,7.5915916e-05,2.7728905e-05,3.4214743e-05,2.9188886e-06,0.008168437,0.008166543,0.014876103,0.02273565,0.022735568,0.049185686,2.1205508e-11,2.1039344e-11,4.1362528e-11,8.5704903e-07,1.0933609e-06,5.0000345e-08,0.0,0.0,0.0,0.0,0.0,0.0,0.0,0.0,24
129656002,129555202,0.19724913,0.041378092,-0.018017646,0.979314,-5.016021,2.5299187,0.1908028,-583.474,327.88852,0.41849455,-3.6510843e-05,7.1774234e-06,-1.4572914e-05,0.003997295,-0.0012935541,-0.00048809755,0.24514122,-0.044201367,0.2247842,0.0,0.0,0.0,0.0,0.0,7.639086e-05,2.799835e-05,3.446278e-05,3.1440554e-06,0.0072441646,0.0072366814,0.010294185,0.018784296,0.018783137,0.068565354,2.1300439e-11,2.1142076e-11,4.1507697e-11,8.566911e-07,1.0929167e-06,5.000027e-08,0.0,0.0,0.0,0.0,0.0,0.0,0.0,0.0,24
130655303,130554526,0.20177662,0.038584933,-0.024604877,0.9783619,-4.758692,2.5305564,0.2533019,-588.24524,330.3979,0.8572689,-3.6066416e-05,5.5314354e-06,-1.4506374e-05,0.003997296,-0.0012963412,-0.0004908047,0.24514122,-0.044201367,0.2247842,0.0,0.0,0.0,0.0,0.0,7.687869e-05,2.7658902e-05,3.4083954e-05,3.3042086e-06,0.007508721,0.0075098355,0.008594935,0.017868932,0.017867729,0.08397336,2.080227e-11,2.0637565e-11,4.1638706e-11,8.5618206e-07,1.0926376e-06,5.0000178e-08,0.0,0.0,0.0,0.0,0.0,0.0,0.0,0.0,24
