timestamp,timestamp_sample,output_tracking_error[0],output_tracking_error[1],output_tracking_error[2],control_mode_flags,filter_fault_flags,pos_horiz_accuracy,pos_vert_accuracy,mag_test_ratio,vel_test_ratio,pos_test_ratio,hgt_test_ratio,tas_test_ratio,hagl_test_ratio,beta_test_ratio,time_slip,accel_device_id,gyro_device_id,baro_device_id,mag_device_id,gps_check_fail_flags,innovation_check_flags,solution_status_flags,reset_count_vel_ne,reset_count_vel_d,reset_count_pos_ne,reset_count_pod_d,reset_count_quat,pre_flt_fail_innov_heading,pre_flt_fail_innov_vel_horiz,pre_flt_fail_innov_vel_vert,pre_flt_fail_innov_height,pre_flt_fail_mag_field_disturbed,health_flags,timeout_flags
16902675,16801144,0.00011669228,0.0027193967,0.0020131313,67240471,0,0.14783515,0.20314468,0.00065377884,0.005883227,0.020414341,0.0066200723,0.0,0.0,0.0,0.0,2490402,2490402,3997730,458770,0,0,895,2,1,2,0,3,0,0,0,0,0,0,0
16912909,16811248,0.00012843718,0.0026649875,0.0024202606,67240471,0,0.14783517,0.20280337,0.0030046268,0.005883227,0.020414341,0.007119758,0.0,0.0,0.0,0.0,2490402,2490402,3997730,458770,0,0,895,2,1,2,0,3,0,0,0,0,0,0,0
17104733,17003222,0.00014503402,0.0026011795,0.0018423987,67240471,0,0.14177398,0.20179182,0.0013147764,0.016152501,0.022957338,0.015993662,0.0,0.0,0.0,0.0,2490402,2490402,3997730,458770,0,0,895,2,1,2,0,3,0,0,0,0,0,0,0
17306860,17205299,9.271803e-05,0.0013416905,0.0022946196,67240471,0,0.13901368,0.20046571,0.0043426184,0.011186791,0.02642121,0.002937174,0.0,0.0,0.0,0.0,2490402,2490402,3997730,458770,0,0,895,2,1,2,0,3,0,0,0,0,0,0,0
17508903,17407377,8.123303e-05,0.0012679411,0.0016599451,67240471,0,0.1339398,0.19916543,0.0025109837,0.01426439,0.024501039,0.001540055,0.0,0.0,0.0,0.0,2490402,2490402,3997730,458770,0,0,895,2,1,2,0,3,0,0,0,0,0,0,0
17700981,17599350,0.00018637626,0.0032299543,0.0031878918,67240471,0,0.12938449,0.19789018,0.0012963269,0.0072383136,0.022826912,0.017471004,0.0,0.0,0.0,0.0,2490402,2490402,3997730,458770,0,0,895,2,1,2,0,3,0,0,0,0,0,0,0
17903201,17801428,9.218662e-05,0.0018277344,0.0023159888,67240471,0,0.12727824,0.1966392,0.0019427208,0.033698715,0.026446145,0.0029929632,0.0,0.0,0.0,0.0,2490402,2490402,3997730,458770,0,0,895,2,1,2,0,3,0,0,0,0,0,0,0
18105059,18003506,9.719559e-05,0.0017022169,0.0025276209,67240471,0,0.12335149,0.19541168,0.00093310146,0.010108534,0.029179066,0.0017967492,0.0,0.0,0.0,0.0,2490402,2490402,3997730,458770,0,0,895,2,1,2,0,3,0,0,0,0,0,0,0
18307129,18205583,7.8601886e-05,0.001410244,0.0013836224,67240471,0,0.12152361,0.19420694,0.00016552553,0.019950107,0.028289784,0.0112664895,0.0,0.0,0.0,0.0,2490402,2490402,3997730,458770,0,0,895,2,1,2,0,3,0,0,0,0,0,0,0
18509213,18407661,0.00011289417,0.0012593319,0.0007687811,67240471,0,0.11809315,0.19302425,0.0014808899,0.025615444,0.031072602,0.0064558536,0.0,0.0,0.0,0.0,2490402,2490402,3997730,458770,0,0,895,2,1,2,0,3,0,0,0,0,0,0,0
18701496,18599634,5.170767e-05,0.00091005093,0.0014238737,67240471,0,0.11495521,0.1918682,0.0009241013,0.018308392,0.029438239,0.011162977,0.0,0.0,0.0,0.0,2490402,2490402,3997730,458770,0,0,895,2,1,2,0,3,0,0,0,0,0,0,0
18903226,18801712,7.450319e-05,0.0009085196,0.0015792579,67240471,0,0.11347475,0.19072771,0.00016408083,0.016698124,0.02866016,0.0030266545,0.0,0.0,0.0,0.0,2490402,2490402,3997730,458770,0,0,895,2,1,2,0,3,0,0,0,0,0,0,0
19105304,19003789,4.1068328e-05,0.0006411922,0.0009851459,67240471,0,0.11066983,0.18960738,0.0014605392,0.004833547,0.031624153,0.011271549,0.0,0.0,0.0,0.0,2490402,2490402,3997730,458770,0,0,895,2,1,2,0,3,0,0,0,0,0,0,0
19307419,19205867,8.697309e-05,0.0015199612,0.0013552225,67240471,0,0.10934812,0.18850662,0.0010476308,0.0177486,0.030894846,0.011226794,0.0,0.0,0.0,0.0,2490402,2490402,3997730,458770,0,0,895,2,1,2,0,3,0,0,0,0,0,0,0
19509436,19407944,6.966661e-05,0.0010889093,0.0019858805,67240471,0,0.10683296,0.18742485,0.0022508735,0.021322107,0.03389763,0.012390861,0.0,0.0,0.0,0.0,2490402,2490402,3997730,458770,0,0,895,2,1,2,0,3,0,0,0,0,0,0,0
19701548,19599918,0.00011285509,0.0005048768,0.0009563391,67240471,0,0.10447993,0.18636036,0.004415078,0.0038262426,0.032402318,0.006623804,0.0,0.0,0.0,0.0,2490402,2490402,3997730,458770,0,0,895,2,1,2,0,3,0,0,0,0,0,0,0
19903518,19801995,4.6877314e-05,0.00024262161,0.0010262079,67240471,0,0.10336732,0.18531498,0.0010501556,0.013559572,0.0317012,0.02068018,0.0,0.0,0.0,0.0,2490402,2490402,3997730,458770,0,0,895,2,1,2,0,3,0,0,0,0,0,0,0
20105560,20004073,4.8832208e-05,0.00048430433,0.0012625154,67240471,0,0.10123632,0.18428707,0.00030504758,0.012901743,0.030403782,0.01578781,0.0,0.0,0.0,0.0,2490402,2490402,3997730,458770,0,0,895,2,1,2,0,3,0,0,0,0,0,0,0
20307621,20206150,6.208405e-05,0.0012162173,0.0018344534,67240471,0,0.10022415,0.18327612,0.0015481327,0.011136787,0.02978838,0.020451268,0.0,0.0,0.0,0.0,2490402,2490402,3997730,458770,0,0,895,2,1,2,0,3,0,0,0,0,0,0,0
20509978,20408228,1.4683183e-05,0.0008302194,0.0011615682,67240471,0,0.09827926,0.18228167,0.0012535094,0.0037179533,0.032865673,0.0034861465,0.0,0.0,0.0,0.0,2490402,2490402,3997730,458770,0,0,895,2,1,2,0,3,0,0,0,0,0,0,0
20701722,20600201,9.921578e-05,0.0011114924,0.001104645,67240471,0,0.09643979,0.1813022,0.00018121871,0.00781774,0.031663515,0.012964749,0.0,0.0,0.0,0.0,2490402,2490402,3997730,458770,0,0,895,2,1,2,0,3,0,0,0,0,0,0,0
20903781,20802279,5.268002e-05,0.001134157,0.0012207935,67240471,0,0.095565096,0.18033947,0.0012547381,0.0040356163,0.031076577,0.008358329,0.0,0.0,0.0,0.0,2490402,2490402,3997730,458770,0,0,895,2,1,2,0,3,0,0,0,0,0,0,0
21105848,21004356,7.362495e-05,0.0005805353,0.0010670437,67240471,0,0.09387597,0.17939197,0.0046573645,0.01462996,0.03434376,0.0130113745,0.0,0.0,0.0,0.0,2490402,2490402,3997730,458770,0,0,895,2,1,2,0,3,0,0,0,0,0,0,0
21308121,21206434,0.000117703086,0.0013402465,0.0008512264,67240471,0,0.09227374,0.17845929,0.0052626333,0.012622519,0.033223424,0.024950283,0.0,0.0,0.0,0.0,2490402,2490402,3997730,458770,0,0,895,2,1,2,0,3,0,0,0,0,0,0,0
21499899,21398407,2.7473836e-05,0.0011767432,0.0012048524,67240471,0,0.09150449,0.17776893,0.0017188843,0.015555973,0.03708518,0.00057233684,0.0,0.0,0.0,0.0,2490402,2490402,3997730,458770,0,0,895,2,1,2,0,3,0,0,0,0,0,0,0
21701953,21600485,6.022804e-05,0.00047948514,0.0009885514,67240471,0,0.09001963,0.17686129,0.00031469247,0.013252589,0.03590032,0.0037475605,0.0,0.0,0.0,0.0,2490402,2490402,3997730,458770,0,0,895,2,1,2,0,3,0,0,0,0,0,0,0
21904023,21802562,0.00011084481,0.0013914066,0.0011161999,67240471,0,0.089309305,0.1759675,0.0024849959,0.007242264,0.03528779,0.002887013,0.0,0.0,0.0,0.0,2490402,2490402,3997730,458770,0,0,895,2,1,2,0,3,0,0,0,0,0,0,0
22106132,22004639,0.00010046223,0.0010056053,0.00078737474,67240471,0,0.087928206,0.17508717,0.0033060526,0.009110727,0.034167733,0.00011027001,0.0,0.0,0.0,0.0,2490402,2490402,3997730,458770,0,0,895,2,1,2,0,3,0,0,0,0,0,0,0
22308214,22206717,0.00010022584,0.0016336625,0.0014880402,67240471,0,0.087266795,0.17421998,0.003300216,0.004391615,0.0336614,9.4269504e-05,0.0,0.0,0.0,0.0,2490402,2490402,3997730,458770,0,0,895,2,1,2,0,3,0,0,0,0,0,0,0
22510292,22408794,8.476172e-05,0.0008205124,0.001470711,67240471,0,0.085977994,0.1733656,0.0008148711,0.029806038,0.028292773,0.0031473988,0.0,0.0,0.0,0.0,2490402,2490402,3997730,458770,0,0,895,2,1,2,0,3,0,0,0,0,0,0,0
22702292,22600768,5.7818146e-05,0.00013239835,0.0012967959,67240471,0,0.08474144,0.17252281,0.00072304567,0.048413437,0.02746359,0.0014922373,0.0,0.0,0.0,0.0,2490402,2490402,3997730,458770,0,0,895,2,1,2,0,3,0,0,0,0,0,0,0
22904314,22802845,6.3171916e-05,0.0007644,0.0012796719,67240471,0,0.084150225,0.17169313,0.00019078256,0.008975804,0.027056176,0.00077573734,0.0,0.0,0.0,0.0,2490402,2490402,3997730,458770,0,0,895,2,1,2,0,3,0,0,0,0,0,0,0
23106413,23004922,2.053641e-05,0.00017327686,0.0012719814,67240471,0,0.082994014,0.17087534,0.0010798781,0.037545994,0.026303113,0.0056594857,0.0,0.0,0.0,0.0,2490402,2490402,3997730,458770,0,0,895,2,1,2,0,3,0,0,0,0,0,0,0
23308488,23207000,5.360216e-05,0.0010467336,0.001918076,67240471,0,0.082439244,0.17006919,0.0005257196,0.003454173,0.025946366,0.0031240303,0.0,0.0,0.0,0.0,2490402,2490402,3997730,458770,0,0,895,2,1,2,0,3,0,0,0,0,0,0,0
23510548,23409077,1.9850379e-05,0.0007815957,0.0015897484,67240471,0,0.0813522,0.16927436,0.0023802686,0.014113819,0.027958622,0.0075895498,0.0,0.0,0.0,0.0,2490402,2490402,3997730,458770,0,0,895,2,1,2,0,3,0,0,0,0,0,0,0
23702610,23601051,0.001630844,0.00023045934,0.0014617452,67240471,0,0.08030411,0.16848984,0.11544179,0.0103807,0.02720206,0.0060963305,0.0,0.0,0.0,0.0,2490402,2490402,3997730,458770,0,0,895,2,1,2,0,3,0,0,0,0,0,0,0
23904616,23803128,0.003978853,0.0007418406,0.0014993272,67240471,0,0.07980251,0.16771695,0.083257794,0.030982472,0.026882323,0.0027005337,0.0,0.0,0.0,0.0,2490402,2490402,3997730,458770,0,0,895,2,1,2,0,3,0,0,0,0,0,0,0
24106670,24005205,0.0026290116,0.0010712754,0.0018657489,67240471,0,0.07881638,0.16695465,0.082090445,0.008839164,0.029661324,0.0017992496,0.0,0.0,0.0,0.0,2490402,2490402,3997730,458770,0,0,895,2,1,2,0,3,0,0,0,0,0,0,0
24308897,24207283,0.0021655099,0.00214159,0.0020052504,67240471,0,0.07786631,0.1662027,0.07744823,0.011169892,0.028999897,0.008172859,0.0,0.0,0.0,0.0,2490402,2490402,3997730,458770,0,0,895,2,1,2,0,3,0,0,0,0,0,0,0
24500743,24399257,0.0008483673,0.0028819253,0.0021111965,67240471,0,0.0774071,0.16546017,0.0061772754,0.014414059,0.028609354,0.0032758832,0.0,0.0,0.0,0.0,2490402,2490402,3997730,458770,0,0,895,2,1,2,0,3,0,0,0,0,0,0,0
24702801,24601334,0.0016187286,0.0007206372,0.0012683489,67240471,0,0.076507255,0.16472822,0.08481663,0.012727677,0.027961824,0.0021816574,0.0,0.0,0.0,0.0,2490402,2490402,3997730,458770,0,0,895,2,1,2,0,3,0,0,0,0,0,0,0
24904898,24803411,0.0027850152,0.0019144794,0.0006474907,67240471,0,0.07607507,0.16400596,0.077515475,0.012107108,0.031070093,0.00048600294,0.0,0.0,0.0,0.0,2490402,2490402,3997730,458770,0,0,895,2,1,2,0,3,0,0,0,0,0,0,0
25107281,25005488,0.0024149057,0.0019566296,0.00099743,67240471,0,0.075221255,0.16329315,0.051525753,0.012415938,0.030364828,0.0028186045,0.0,0.0,0.0,0.0,2490402,2490402,3997730,458770,0,0,895,2,1,2,0,3,0,0,0,0,0,0,0
25309229,25207566,0.0011871778,0.004045525,0.0017655871,67240471,0,0.07439592,0.16258961,0.042303804,0.005408985,0.029778264,0.0074134273,0.0,0.0,0.0,0.0,2490402,2490402,3997730,458770,0,0,895,2,1,2,0,3,0,0,0,0,0,0,0
25501066,25399539,0.0012597751,0.011669633,0.0037682697,67240471,0,0.07399697,0.16189453,0.040135607,0.01769013,0.029286165,0.001232026,0.0,0.0,0.0,0.0,2490402,2490402,3997730,458770,0,0,895,2,1,2,0,3,0,0,0,0,0,0,0
25703331,25601617,0.0006270445,0.010640764,0.0047107725,67240471,0,0.07321158,0.16120891,0.007976781,0.03449334,0.028510422,0.0018199658,0.0,0.0,0.0,0.0,2490402,2490402,3997730,458770,0,0,895,2,1,2,0,3,0,0,0,0,0,0,0
25905317,25803694,0.0012356717,0.013557908,0.0015649681,67240471,0,0.07283448,0.16053198,0.008283526,0.016480425,0.028005991,0.002297624,0.0,0.0,0.0,0.0,2490402,2490402,3997730,458770,0,0,895,2,1,2,0,3,0,0,0,0,0,0,0
26107276,26005771,0.00097526517,0.018169837,0.0053227944,67240471,0,0.072086,0.15986355,0.021964375,0.017780202,0.027783796,0.0040557995,0.0,0.0,0.0,0.0,2490402,2490402,3997730,458770,0,0,895,2,1,2,0,3,0,0,0,0,0,0,0
26309348,26207848,0.0008101625,0.017983861,0.007335891,67240471,0,0.07172667,0.15920345,0.016520444,0.034551147,0.027678229,0.0024258138,0.0,0.0,0.0,0.0,2490402,2490402,3997730,458770,0,0,895,2,1,2,0,3,0,0,0,0,0,0,0
26511471,26409926,0.0004584289,0.010289054,0.006057681,67240471,0,0.071012296,0.1585515,0.008807516,0.012215788,0.027087253,0.011891597,0.0,0.0,0.0,0.0,2490402,2490402,3997730,458770,0,0,895,2,1,2,0,3,0,0,0,0,0,0,0
26703369,26601900,0.0010719213,0.011071355,0.0006788579,67240471,0,0.070316896,0.15806797,0.0080626365,0.005499604,0.030001799,0.0005956833,0.0,0.0,0.0,0.0,2490402,2490402,3997730,458770,0,0,895,2,1,2,0,3,0,0,0,0,0,0,0
26905903,26803977,0.0006433813,0.013683629,0.0038185583,67240471,0,0.06998439,0.1574299,0.0048552006,0.013644916,0.029683655,0.0005255688,0.0,0.0,0.0,0.0,2490402,2490402,3997730,458770,0,0,895,2,1,2,0,3,0,0,0,0,0,0,0
27107549,27006054,0.00023077022,0.0044618263,0.0036446862,67240471,0,0.069321394,0.15679955,0.003891056,0.011184415,0.029123988,0.00055845536,0.0,0.0,0.0,0.0,2490402,2490402,3997730,458770,0,0,895,2,1,2,0,3,0,0,0,0,0,0,0
27299496,27198028,0.0005174571,0.0043442636,0.001697875,67240471,0,0.06900151,0.15617631,0.0031263202,0.01011893,0.03202515,0.01000611,0.0,0.0,0.0,0.0,2490402,2490402,3997730,458770,0,0,895,2,1,2,0,3,0,0,0,0,0,0,0
27511736,27410209,0.00034689173,0.00467529,0.00095617847,67240471,0,0.06836851,0.15556136,0.007974469,0.010257029,0.035041384,0.009060644,0.0,0.0,0.0,0.0,2490402,2490402,3997730,458770,0,0,895,2,1,2,0,3,0,0,0,0,0,0,0
27703649,27602182,0.00021791697,0.0013455043,0.0005183581,67240471,0,0.06774909,0.15495276,0.0034195867,0.015553584,0.0343663,0.00045981916,0.0,0.0,0.0,0.0,2490402,2490402,3997730,458770,0,0,895,2,1,2,0,3,0,0,0,0,0,0,0
27905723,27804259,0.00023192393,0.00296011,0.00069652183,67240471,0,0.0674533,0.15435176,0.005343567,0.012199409,0.03756157,0.009924678,0.0,0.0,0.0,0.0,2490402,2490402,3997730,458770,0,0,895,2,1,2,0,3,0,0,0,0,0,0,0
28108025,28006337,0.00042539314,0.006132506,0.0023777927,67240471,0,0.066860825,0.15375774,0.010463746,0.015677141,0.036869865,0.009069126,0.0,0.0,0.0,0.0,2490402,2490402,3997730,458770,0,0,895,2,1,2,0,3,0,0,0,0,0,0,0
28309887,28208414,0.00023908366,0.0016809485,0.0021910816,67240471,0,0.066577174,0.15317056,0.007672245,0.006191712,0.036518656,0.004099048,0.0,0.0,0.0,0.0,2490402,2490402,3997730,458770,0,0,895,2,1,2,0,3,0,0,0,0,0,0,0
28501869,28400387,0.0002522035,0.0020985205,0.0012601942,67240471,0,0.06600637,0.15258972,0.0064765243,0.016419945,0.039389044,0.0054334975,0.0,0.0,0.0,0.0,2490402,2490402,3997730,458770,0,0,895,2,1,2,0,3,0,0,0,0,0,0,0
28703962,28602465,5.087552e-05,0.0008207491,0.0010213617,67240471,0,0.06545191,0.15201586,0.004841058,0.0069129914,0.038651165,0.014931118,0.0,0.0,0.0,0.0,2490402,2490402,3997730,458770,0,0,895,2,1,2,0,3,0,0,0,0,0,0,0
28906071,28804542,0.00016218076,0.0019188216,0.0013299913,67240471,0,0.0651868,0.15144846,0.0029939513,0.025614694,0.041759137,0.00055947306,0.0,0.0,0.0,0.0,2490402,2490402,3997730,458770,0,0,895,2,1,2,0,3,0,0,0,0,0,0,0
29108114,29006619,0.00020236787,0.0027152242,0.0016847486,67240471,0,0.06465328,0.15088741,0.0040349653,0.012769971,0.04109154,0.0005206032,0.0,0.0,0.0,0.0,2490402,2490402,3997730,458770,0,0,895,2,1,2,0,3,0,0,0,0,0,0,0
29310417,29208696,0.00018008536,0.0008070465,0.0016799269,67240471,0,0.06413297,0.1503326,0.0041673784,0.009813897,0.040437438,0.004188919,0.0,0.0,0.0,0.0,2490402,2490402,3997730,458770,0,0,895,2,1,2,0,3,0,0,0,0,0,0,0
29502147,29400670,0.00023550888,0.0025924135,0.0009698984,67240471,0,0.06388323,0.1497836,0.00051242637,0.03246919,0.04011186,0.0005655825,0.0,0.0,0.0,0.0,2490402,2490402,3997730,458770,0,0,895,2,1,2,0,3,0,0,0,0,0,0,0
29704215,29602747,0.00011793986,0.0018948604,0.00068565516,67240471,0,0.063381806,0.14924091,0.00096381083,0.00502285,0.03944398,0.010052495,0.0,0.0,0.0,0.0,2490402,2490402,3997730,458770,0,0,895,2,1,2,0,3,0,0,0,0,0,0,0
29906291,29804824,0.00017394425,0.0028529817,0.0008386281,67240471,0,0.06314263,0.14870411,0.0010586869,0.007748637,0.04261725,0.019536262,0.0,0.0,0.0,0.0,2490402,2490402,3997730,458770,0,0,895,2,1,2,0,3,0,0,0,0,0,0,0
30108492,30006902,0.00018022246,0.002414269,0.0011979352,67240471,0,0.06265902,0.14817311,0.005866071,0.013610112,0.04186396,0.00045767994,0.0,0.0,0.0,0.0,2490402,2490402,3997730,458770,0,0,895,2,1,2,0,3,0,0,0,0,0,0,0
30310457,30208979,8.592934e-05,0.0020058313,0.0012273871,67240471,0,0.06242856,0.1476478,0.0038131583,0.017372511,0.03821101,0.009928222,0.0,0.0,0.0,0.0,2490402,2490402,3997730,458770,0,0,895,2,1,2,0,3,0,0,0,0,0,0,0
30502455,30400952,0.00035950125,0.004674967,0.00044648594,67240471,0,0.061960652,0.14712784,0.003905451,0.007693952,0.03744394,0.004362879,0.0,0.0,0.0,0.0,2490402,2490402,3997730,458770,0,0,895,2,1,2,0,3,0,0,0,0,0,0,0
30704549,30603030,0.00017235444,0.0029467884,0.00027207084,67240471,0,0.061504465,0.14661361,0.017425194,0.0061909403,0.036845785,0.0098274,0.0,0.0,0.0,0.0,2490402,2490402,3997730,458770,0,0,895,2,1,2,0,3,0,0,0,0,0,0,0
30906633,30805107,0.00032090145,0.0038979896,0.0010332499,67240471,0,0.061287448,0.1461048,0.0033675714,0.0099780755,0.03653,0.0003836418,0.0,0.0,0.0,0.0,2490402,2490402,3997730,458770,0,0,895,2,1,2,0,3,0,0,0,0,0,0,0
31108679,31007185,0.000129991,0.0023112884,0.0014090495,67240471,0,0.06084652,0.14560127,0.00056457403,0.012236233,0.036051154,0.005174132,0.0,0.0,0.0,0.0,2490402,2490402,3997730,458770,0,0,895,2,1,2,0,3,0,0,0,0,0,0,0
31300638,31199158,0.00029511796,0.0042723794,0.0008068708,67240471,0,0.060636234,0.14522764,0.0026128357,0.011838562,0.035853706,0.004374194,0.0,0.0,0.0,0.0,2490402,2490402,3997730,458770,0,0,895,2,1,2,0,3,0,0,0,0,0,0,0
31502854,31401235,0.00023627288,0.0027040823,0.0006602455,67240471,0,0.060209755,0.14473318,0.004335949,0.0050536413,0.035051964,0.0037683106,0.0,0.0,0.0,0.0,2490402,2490402,3997730,458770,0,0,895,2,1,2,0,3,0,0,0,0,0,0,0
31704806,31603312,0.00024663823,0.0027493257,0.0010872679,67240471,0,0.059792466,0.14424378,0.009526926,0.00849828,0.034700826,0.0010608917,0.0,0.0,0.0,0.0,2490402,2490402,3997730,458770,0,0,895,2,1,2,0,3,0,0,0,0,0,0,0
31907010,31805389,0.00026334022,0.0027900708,0.00067095936,67240471,0,0.059594583,0.14375935,0.0044220267,0.010949614,0.03455544,0.0043817842,0.0,0.0,0.0,0.0,2490402,2490402,3997730,458770,0,0,895,2,1,2,0,3,0,0,0,0,0,0,0
32108961,32007467,0.00012499427,0.0020356725,0.000700967,67240471,0,0.059190527,0.14327982,0.0023696362,0.022321139,0.03399786,0.0043415157,0.0,0.0,0.0,0.0,2490402,2490402,3997730,458770,0,0,895,2,1,2,0,3,0,0,0,0,0,0,0
32300922,32199440,2.8970213e-05,0.0012178082,0.0006846507,67240471,0,0.05899862,0.14280497,0.0015499145,0.019311251,0.033770323,0.0072084568,0.0,0.0,0.0,0.0,2490402,2490402,3997730,458770,0,0,895,2,1,2,0,3,0,0,0,0,0,0,0
32503083,32401517,7.2487484e-05,0.00030613184,0.0007170387,67240471,0,0.058607064,0.14233495,0.0033152413,0.019032666,0.033247225,0.005132949,0.0,0.0,0.0,0.0,2490402,2490402,3997730,458770,0,0,895,2,1,2,0,3,0,0,0,0,0,0,0
32705091,32603595,0.0001057769,0.0011502726,0.0007015304,67240471,0,0.058223553,0.1418696,0.005762483,0.01667791,0.032911506,0.0058523817,0.0,0.0,0.0,0.0,2490402,2490402,3997730,458770,0,0,895,2,1,2,0,3,0,0,0,0,0,0,0
32907172,32805672,0.00027790433,0.0040839594,0.0010966989,67240471,0,0.058042336,0.14140882,0.0074277204,0.011398131,0.03260639,0.006935991,0.0,0.0,0.0,0.0,2490402,2490402,3997730,458770,0,0,895,2,1,2,0,3,0,0,0,0,0,0,0
33109253,33007749,0.00024932998,0.0016848468,0.0007731527,67240471,0,0.05767035,0.14095254,0.011772188,0.010126628,0.0322082,0.0032015285,0.0,0.0,0.0,0.0,2490402,2490402,3997730,458770,0,0,895,2,1,2,0,3,0,0,0,0,0,0,0
33311521,33209826,0.00012302607,0.0021168943,0.0011508148,67240471,0,0.057494856,0.1405007,0.0020523262,0.019541886,0.03201842,0.003984017,0.0,0.0,0.0,0.0,2490402,2490402,3997730,458770,0,0,895,2,1,2,0,3,0,0,0,0,0,0,0
33503460,33401800,0.00023711832,0.0035685021,0.0010923835,67240471,0,0.05713345,0.14005312,0.00055689196,0.011957796,0.031729918,0.00027639847,0.0,0.0,0.0,0.0,2490402,2490402,3997730,458770,0,0,895,2,1,2,0,3,0,0,0,0,0,0,0
33705368,33603877,0.00012457739,0.002301545,0.0005483163,67240471,0,0.05677947,0.13960992,0.010934375,0.01356297,0.031271435,0.006452489,0.0,0.0,0.0,0.0,2490402,2490402,3997730,458770,0,0,895,2,1,2,0,3,0,0,0,0,0,0,0
33907427,33805954,0.00016835649,0.0021694081,0.0005560081,67240471,0,0.056612868,0.13917094,0.005539605,0.013638532,0.030904194,0.002318155,0.0,0.0,0.0,0.0,2490402,2490402,3997730,458770,0,0,895,2,1,2,0,3,0,0,0,0,0,0,0
34109503,34008032,0.00022387365,0.0018969503,0.0004958632,67240471,0,0.056269,0.13873613,0.009000907,0.01579946,0.034020986,0.0062792846,0.0,0.0,0.0,0.0,2490402,2490402,3997730,458770,0,0,895,2,1,2,0,3,0,0,0,0,0,0,0
34301494,34200005,0.00022316344,0.0025463805,0.00059876184,67240471,0,0.056107197,0.13830534,0.008498103,0.015574707,0.033712644,0.006835608,0.0,0.0,0.0,0.0,2490402,2490402,3997730,458770,0,0,895,2,1,2,0,3,0,0,0,0,0,0,0
34503571,34402082,0.00018795476,0.0029897261,0.0009614733,67240471,0,0.055773016,0.13787861,0.0034713405,0.007388881,0.033261843,0.0006961319,0.0,0.0,0.0,0.0,2490402,2490402,3997730,458770,0,0,895,2,1,2,0,3,0,0,0,0,0,0,0
34705649,34604159,0.0010815008,0.0035589798,0.00014825171,67240471,0,0.05544502,0.13745587,0.070321254,0.011890864,0.0328562,0.002732919,0.0,0.0,0.0,0.0,2490402,2490402,3997730,458770,0,0,895,2,1,2,0,3,0,0,0,0,0,0,0
34907716,34806237,0.0021218015,0.007192382,0.00088901137,67240471,0,0.055291314,0.13703702,0.08682041,0.0106115285,0.03270327,0.0019715575,0.0,0.0,0.0,0.0,2490402,2490402,3997730,458770,0,0,895,2,1,2,0,3,0,0,0,0,0,0,0
35110073,35008314,0.0023208815,0.012843955,0.0025154252,67240471,0,0.05497229,0.13662203,0.09771137,0.025644423,0.02891165,0.002758429,0.0,0.0,0.0,0.0,2490402,2490402,3997730,458770,0,0,895,2,1,2,0,3,0,0,0,0,0,0,0
35301812,35200287,0.0021546169,0.026194852,0.004779553,67240471,0,0.054822925,0.1362108,0.0968313,0.018110825,0.028684946,0.0020148123,0.0,0.0,0.0,0.0,2490402,2490402,3997730,458770,0,0,895,2,1,2,0,3,0,0,0,0,0,0,0
35503864,35402365,0.0035850615,0.064822525,0.011347263,67240471,0,0.0545125,0.13580331,0.0923286,0.016033346,0.02519792,0.0012452686,0.0,0.0,0.0,0.0,2490402,2490402,3997730,458770,0,0,895,2,1,2,0,3,0,0,0,0,0,0,0
35705947,35604442,0.003984936,0.061310533,0.016423244,67240471,0,0.054207534,0.13539949,0.15816313,0.08856359,0.015328051,0.008356428,0.0,0.0,0.0,0.0,2490402,2490402,3997730,458770,0,0,895,2,1,2,0,3,0,0,0,0,0,0,0
35908224,35806519,0.004594721,0.06870301,0.018543655,67240471,0,0.05406537,0.13499933,0.14188574,0.10947448,0.008304643,0.007367996,0.0,0.0,0.0,0.0,2490402,2490402,3997730,458770,0,0,895,2,1,2,0,3,0,0,0,0,0,0,0
36110118,36008596,0.003191954,0.024710942,0.014063871,131607,0,0.053838167,0.13461646,0.20796032,0.15215978,0.024020439,0.004677606,0.0,0.0,0.0,0.0,2490402,2490402,3997730,458770,0,0,895,2,1,2,0,3,0,0,0,0,0,0,0
36302205,36200574,0.0067898184,0.0029512,0.005968985,131607,0,0.054212067,0.13442042,0.36945802,0.16224992,0.032363225,0.0047700834,0.0,0.0,0.0,0.0,2490402,2490402,3997730,458770,0,0,895,2,1,2,0,3,0,0,0,0,0,0,0
36504139,36402647,0.00884577,0.011485054,0.0033030813,131607,0,0.05544495,0.1343217,0.35201135,0.2231544,0.05751777,0.02865823,0.0,0.0,0.0,0.0,2490402,2490402,3997730,458770,0,0,895,2,1,2,0,3,0,0,0,0,0,0,0
36706219,36604724,0.007963579,0.022426073,0.012062257,131607,0,0.058198843,0.13453348,0.34002092,0.26943922,0.09098186,0.009551602,0.0,0.0,0.0,0.0,2490402,2490402,3997730,458770,0,0,895,2,1,2,0,3,0,0,0,0,0,0,0
36908285,36806802,0.009319132,0.024657335,0.015980996,131607,0,0.06324738,0.13519557,0.37296167,0.2843524,0.10821399,0.028471772,0.0,0.0,0.0,0.0,2490402,2490402,3997730,458770,0,0,895,2,1,2,0,3,0,0,0,0,0,0,0
37100241,36998775,0.013244181,0.040420346,0.028876686,131607,0,0.069525205,0.13631968,0.36173245,0.31599134,0.14539267,0.02844028,0.0,0.0,0.0,0.0,2490402,2490402,3997730,458770,0,0,895,2,1,2,0,3,0,0,0,0,0,0,0
37302328,37200852,0.03557393,0.54308295,0.416087,131607,0,0.056154698,0.13307196,0.46716633,0.9840141,0.40315986,0.007234952,0.0,0.0,0.0,0.0,2490402,2490402,3997730,458770,0,0,895,2,1,2,0,3,0,1,0,0,0,0,0
37504395,37402930,0.006703526,0.19547059,0.21152972,131607,0,0.056390468,0.1327818,0.46695423,1.125365,0.55642533,0.0032140203,0.0,0.0,0.0,0.0,2490402,2490402,3997730,458770,0,1,1919,2,1,2,0,3,0,1,0,0,0,0,0
37706473,37605007,0.0077218856,0.01961109,0.056850977,131607,0,0.057592455,0.13268305,0.4629752,1.2003942,0.72154695,0.02323791,0.0,0.0,0.0,0.0,2490402,2490402,3997730,458770,0,1,1919,2,1,2,0,3,0,1,0,0,0,0,0
37908560,37807084,0.006656603,0.056381628,0.028708685,131607,0,0.06060071,0.13290723,0.46226025,1.2919353,0.81448674,0.024278423,0.0,0.0,0.0,0.0,2490402,2490402,3997730,458770,0,1,1919,2,1,2,0,3,0,1,0,0,0,0,0
38100642,37999058,0.0072097885,0.08616348,0.07281189,131607,0,0.06549982,0.13351955,0.4565249,1.3877554,1.0007162,0.015914029,0.0,0.0,0.0,0.0,2490402,2490402,3997730,458770,0,3,1919,2,1,2,0,3,0,1,0,0,0,0,0
38302639,38201135,0.0053417953,0.09312302,0.085049875,131607,0,0.07351447,0.13478868,0.45479298,1.4522827,1.1102353,0.012382933,0.0,0.0,0.0,0.0,2490402,2490402,3997730,458770,0,3,1919,2,1,2,0,3,0,1,0,0,0,0,0
38504727,38403212,0.006011649,0.09235558,0.08761062,131607,0,0.08439294,0.13675295,0.4516157,1.5594776,1.3377347,0.032781992,0.0,0.0,0.0,0.0,2490402,2490402,3997730,458770,0,3,1919,2,1,2,0,3,0,1,0,0,0,0,0
38706765,38605289,0.0063953847,0.0886165,0.08528823,131607,0,0.098141454,0.1395082,0.43864352,1.6839712,1.5770206,0.029279055,0.0,0.0,0.0,0.0,2490402,2490402,3997730,458770,0,3,1919,2,1,2,0,3,0,1,0,0,0,0,0
38908788,38807367,0.0051154,0.08247844,0.07961195,131607,0,0.11468366,0.14329712,0.4286577,1.6926318,1.7031573,0.025868682,0.0,0.0,0.0,0.0,2490402,2490402,3997730,458770,0,3,1919,2,1,2,0,3,0,1,0,0,0,0,0
39110868,39009444,0.0055459877,0.07704012,0.07397202,537002519,0,0.13385576,0.14778818,0.41854936,1.7956581,1.9577266,0.036867578,0.0,0.0,0.0,0.0,2490402,2490402,3997730,458770,0,3,1919,2,1,2,0,3,0,1,0,0,0,0,0
39302837,39201417,0.006071601,0.07154328,0.068245985,537002519,0,0.15434253,0.15313922,0.4075534,1.8601346,2.0948913,0.047893822,0.0,0.0,0.0,0.0,2490402,2490402,3997730,458770,0,3,1919,2,1,2,0,3,0,1,0,0,0,0,0
39504966,39403495,0.006363646,0.06709357,0.06494269,537002519,0,0.17821556,0.15912661,0.3943198,1.9724683,2.3629246,0.08671915,0.0,0.0,0.0,0.0,2490402,2490402,3997730,458770,0,3,1919,2,1,2,0,3,0,1,0,0,0,0,0
39707226,39605572,0.0046884236,0.062188882,0.06004576,537002519,0,0.20449746,0.1656299,0.3852074,2.0504103,2.6406407,0.020822788,0.0,0.0,0.0,0.0,2490402,2490402,3997730,458770,0,3,1919,2,1,2,0,3,0,1,0,0,0,0,0
39909109,39807649,0.005279933,0.056683596,0.054989405,537002519,0,0.23298952,0.17358325,0.37584898,2.076103,2.780504,0.059789285,0.0,0.0,0.0,0.0,2490402,2490402,3997730,458770,0,3,1919,2,1,2,0,3,0,1,0,0,0,0,0
40111197,40009726,0.005467634,0.053978004,0.055140797,537002519,0,0.26375383,0.18089937,0.36842188,2.1532612,3.0522525,0.08833693,0.0,0.0,0.0,0.0,2490402,2490402,3997730,458770,0,3,1919,2,1,2,0,3,0,1,0,0,0,0,0
40303238,40201700,0.0057099685,0.049227193,0.05181276,537002519,0,0.29503882,0.1892832,0.36033505,2.227857,3.1925256,0.0601999,0.0,0.0,0.0,0.0,2490402,2490402,3997730,458770,0,3,1919,2,1,2,0,3,0,1,0,0,0,0,0
40505231,40403777,0.0043216045,0.045312922,0.048280116,537002519,0,0.33027774,0.1968295,0.35098976,2.309106,3.457225,0.059978347,0.0,0.0,0.0,0.0,2490402,2490402,3997730,458770,0,3,1919,2,1,2,0,3,0,1,0,0,0,0,0
40707312,40605854,0.004552954,0.044780567,0.054491438,537002519,0,0.36763465,0.20422395,0.3423546,2.3702157,3.7055075,0.07810439,0.0,0.0,0.0,0.0,2490402,2490402,3997730,458770,0,3,1919,2,1,2,0,3,0,1,0,0,0,0,0
40909392,40807932,0.004885103,0.03845623,0.0443979,537002519,0,0.40734246,0.2137043,0.3378871,2.3642876,3.827249,0.05926683,0.0,0.0,0.0,0.0,2490402,2490402,3997730,458770,0,3,1919,2,1,2,0,3,0,1,0,0,0,0,0
41101378,40999905,0.0052949307,0.036608145,0.045555986,537002519,0,0.44714317,0.22052698,0.33201286,2.4847922,4.049308,0.051213462,0.0,0.0,0.0,0.0,2490402,2490402,3997730,458770,0,3,1919,2,1,2,0,3,0,1,0,0,0,0,0
41303429,41201982,0.003488571,0.030646749,0.03237812,537002519,0,0.49147215,0.23002376,0.27392453,2.509078,4.163617,0.054961532,0.0,0.0,0.0,0.0,2490402,2490402,3997730,458770,0,3,1919,2,1,2,0,3,0,1,0,0,0,0,0
41505770,41404060,0.0036983502,0.028325604,0.03266267,537002519,0,0.5379406,0.2365447,0.26639327,2.577322,4.35593,0.06780924,0.0,0.0,0.0,0.0,2490402,2490402,3997730,458770,0,3,1919,2,1,2,0,3,0,1,0,0,0,0,0
41707591,41606137,0.0031216969,0.026771665,0.03298178,537002519,0,0.5867917,0.2426667,0.17026176,2.6034253,4.5231366,0.057016555,0.0,0.0,0.0,0.0,2490402,2490402,3997730,458770,0,3,1919,2,1,2,0,3,0,1,0,0,0,0,0
41909659,41808214,0.0013808882,0.022983998,0.022238884,537002519,0,0.6380871,0.2515924,0.05667449,2.6023026,4.606959,0.059269525,0.0,0.0,0.0,0.0,2490402,2490402,3997730,458770,0,3,1919,2,1,2,0,3,0,1,0,0,0,0,0
42101689,42000188,0.0015429482,0.020321129,0.014159855,537002519,0,0.6889667,0.25626397,0.1383666,2.6615891,4.735696,0.049159635,0.0,0.0,0.0,0.0,2490402,2490402,3997730,458770,0,3,1919,2,1,2,0,3,0,1,0,0,0,0,0
42303686,42202265,0.0020365613,0.018613376,0.01118087,537002519,0,0.7451857,0.26466128,0.16929571,2.6392643,4.7947574,0.053119868,0.0,0.0,0.0,0.0,2490402,2490402,3997730,458770,0,3,1919,2,1,2,0,3,0,1,0,0,0,0,0
42505764,42404342,0.0006110346,0.018137377,0.014466539,537002519,0,0.8036817,0.2693158,0.08620429,2.6150289,4.8805976,0.0509938,0.0,0.0,0.0,0.0,2490402,2490402,3997730,458770,0,3,1919,2,1,2,0,3,0,1,0,0,0,0,0
42707838,42606420,0.0015521576,0.020724706,0.034575082,537002519,0,0.86483127,0.27362716,0.12325623,2.7143834,4.956811,0.041694917,0.0,0.0,0.0,0.0,2490402,2490402,3997730,458770,0,3,1919,2,1,2,0,3,0,1,0,0,0,0,0
42909919,42808497,0.0019838903,0.017514173,0.03944501,537002519,0,0.9281772,0.28102747,0.108041674,2.698572,4.9976945,0.04680484,0.0,0.0,0.0,0.0,2490402,2490402,3997730,458770,0,3,1919,2,1,2,0,3,0,1,0,0,0,0,0
43101907,43000470,0.0016211828,0.017544122,0.041012567,537002519,0,22.064909,0.2839531,0.19378929,2.7639515,5.044815,0.042969186,0.0,0.0,0.0,0.0,2490402,2490402,3997730,458770,0,3,1919,2,1,2,0,3,0,1,0,0,0,0,0
43303984,43202548,0.0008838167,0.014988903,0.03323309,537002519,0,22.791464,0.29073456,0.0057448107,2.747447,5.071248,0.04602159,0.0,0.0,0.0,0.0,2490402,2490402,3997730,458770,0,3,1919,2,1,2,0,3,0,1,0,0,0,0,0
43505976,43404625,0.06923216,2.4222033,6.749835,67240471,0,0.36116892,0.19291157,0.33859268,4.8911633,9.925911,0.008657299,0.0,0.0,0.0,0.0,2490402,2490402,3997730,458770,0,3,1919,2,1,2,0,3,0,1,0,0,0,0,0
43708205,43606702,0.06403567,0.76040155,3.2625072,67240471,0,0.33646047,0.1914822,0.16863553,4.7839603,11.034898,0.016452197,0.0,0.0,0.0,0.0,2490402,2490402,3997730,458770,0,3,1919,2,1,2,0,3,0,1,0,0,0,0,0
43900048,43798676,0.03173552,0.14930135,1.5022169,67240471,0,0.32421875,0.19001403,0.11988647,4.919472,11.374766,0.028391728,0.0,0.0,0.0,0.0,2490402,2490402,3997730,458770,0,3,1919,2,1,2,0,3,0,1,0,0,0,0,0
44102103,44000753,0.017650517,0.40102074,0.4172787,67240471,0,0.3167861,0.18866873,0.0050590355,4.669903,12.404846,0.024739346,0.0,0.0,0.0,0.0,2490402,2490402,3997730,458770,0,3,1919,2,1,2,0,3,0,1,0,0,0,0,0
44304180,44202830,0.016907062,0.49591026,0.27593097,67240471,0,0.31120077,0.18736807,0.013264024,4.7686706,12.736063,0.036737926,0.0,0.0,0.0,0.0,2490402,2490402,3997730,458770,0,3,1919,2,1,2,0,3,0,1,0,0,0,0,0
44506262,44404908,0.016489651,0.50338435,0.5314545,67240471,0,0.30686846,0.18610993,0.038131714,4.607074,13.6247425,0.039711848,0.0,0.0,0.0,0.0,2490402,2490402,3997730,458770,0,3,1919,2,1,2,0,3,0,1,0,0,0,0,0
44708466,44606985,0.011948117,0.4475381,0.6837024,67240471,0,0.30409995,0.18492824,0.05703379,4.5991316,14.345604,0.04816206,0.0,0.0,0.0,0.0,2490402,2490402,3997730,458770,0,3,1919,2,1,2,0,3,0,1,0,0,0,0,0
44900367,44798959,0.008350505,0.37516245,0.7497175,67240471,0,0.30240828,0.18382211,0.07393184,4.6056094,14.664902,0.048399165,0.0,0.0,0.0,0.0,2490402,2490402,3997730,458770,0,3,1919,2,1,2,0,3,0,1,0,0,0,0,0
45102415,45001036,0.00876095,0.32214987,0.7393322,67240471,0,0.3006693,0.18271989,0.046144098,4.564898,15.399726,0.04536445,0.0,0.0,0.0,0.0,2490402,2490402,3997730,458770,0,3,1919,2,1,2,0,3,0,1,0,0,0,0,0
45304491,45203113,0.009424242,0.2941311,0.6973143,67240471,0,0.29908693,0.18163179,0.13692492,4.5573955,15.715353,0.052425712,0.0,0.0,0.0,0.0,2490402,2490402,3997730,458770,0,3,1919,2,1,2,0,3,0,1,0,0,0,0,0
45506665,45405190,0.007035463,0.24089102,0.66742796,67240471,0,0.29800215,0.18059202,0.1274618,4.5337667,16.398024,0.053209994,0.0,0.0,0.0,0.0,2490402,2490402,3997730,458770,0,3,1919,2,1,2,0,3,0,1,0,0,0,0,0
45708646,45607268,0.0046251914,0.16083257,0.6464356,67240471,0,0.29739317,0.17960422,0.0649064,4.448762,17.075365,0.05881632,0.0,0.0,0.0,0.0,2490402,2490402,3997730,458770,0,3,1919,2,1,2,0,3,0,1,0,0,0,0,0
45910762,45809345,0.0047022128,0.13927154,0.5881561,67240471,0,0.29665944,0.17862853,0.11089537,4.501414,17.386211,0.061589986,0.0,0.0,0.0,0.0,2490402,2490402,3997730,458770,0,3,1919,2,1,2,0,3,0,1,0,0,0,0,0
46102794,46001319,0.009615578,0.16012463,0.53615886,67240471,0,0.29589885,0.17790902,0.20524341,4.451274,18.042297,0.056291685,0.0,0.0,0.0,0.0,2490402,2490402,3997730,458770,0,3,1919,2,1,2,0,3,0,1,0,0,0,0,0
46304766,46203396,0.008240536,0.1547566,0.49490735,67240471,0,0.29531673,0.17697656,0.07953055,4.4847994,18.354973,0.03666111,0.0,0.0,0.0,0.0,2490402,2490402,3997730,458770,0,3,1919,2,1,2,0,3,0,1,0,0,0,0,0
46506924,46405473,0.0060644858,0.13864432,0.45332414,67240471,0,0.29482758,0.17606112,0.14661634,4.4558806,18.988855,0.0648458,0.0,0.0,0.0,0.0,2490402,2490402,3997730,458770,0,3,1919,2,1,2,0,3,0,1,0,0,0,0,0
46708903,46607551,0.006108933,0.1300825,0.4161188,67240471,0,0.2944398,0.17516308,0.17785491,4.5193915,19.632288,0.06887742,0.0,0.0,0.0,0.0,2490402,2490402,3997730,458770,0,3,1919,2,1,2,0,3,0,1,0,0,0,0,0
46900875,46799524,0.004491133,0.10581563,0.3836606,67240471,0,0.2941058,0.17428125,0.11951645,4.5079684,19.94545,0.049175326,0.0,0.0,0.0,0.0,2490402,2490402,3997730,458770,0,3,1919,2,1,2,0,3,0,1,0,0,0,0,0
47102957,47001601,0.00320359,0.073761314,0.34902725,67240471,0,0.29380774,0.17341098,0.15671766,4.4774356,20.583572,0.06299322,0.0,0.0,0.0,0.0,2490402,2490402,3997730,458770,0,3,1919,2,1,2,0,3,0,1,0,0,0,0,0
47305105,47203679,0.003196989,0.047925647,0.31790194,67240471,0,0.29354715,0.17255458,0.25091457,4.518345,20.897057,0.052752215,0.0,0.0,0.0,0.0,2490402,2490402,3997730,458770,0,3,1919,2,1,2,0,3,0,1,0,0,0,0,0
47507106,47405756,0.0024981885,0.025096215,0.29207173,67240471,0,0.29337728,0.17171416,0.30459055,4.469342,21.523396,0.071361825,0.0,0.0,0.0,0.0,2490402,2490402,3997730,458770,0,3,1919,2,1,2,0,3,0,1,0,0,0,0,0
47709204,47607833,0.0017127417,0.036100015,0.2688725,67240471,0,0.29318544,0.17088985,0.23880199,4.5322027,22.153301,0.06581595,0.0,0.0,0.0,0.0,2490402,2490402,3997730,458770,0,3,1919,2,1,2,0,3,0,1,0,0,0,0,0
47901608,47799807,0.0014376336,0.04496195,0.2431207,67240471,0,0.29300767,0.17007913,0.16824314,4.54876,22.47045,0.055590466,0.0,0.0,0.0,0.0,2490402,2490402,3997730,458770,0,3,1919,2,1,2,0,3,0,1,0,0,0,0,0
48103281,48001884,0.002769048,0.04674154,0.21628067,67240471,0,0.29286382,0.16927727,0.2172919,4.5572257,23.104834,0.06939937,0.0,0.0,0.0,0.0,2490402,2490402,3997730,458770,0,3,1919,2,1,2,0,3,0,1,0,0,0,0,0
48305313,48203962,0.0022034796,0.031900562,0.19441241,67240471,0,0.29269943,0.16848686,0.26747164,4.584494,23.421118,0.07826446,0.0,0.0,0.0,0.0,2490402,2490402,3997730,458770,0,3,1919,2,1,2,0,3,0,1,0,0,0,0,0
48507389,48406039,0.0026238903,0.041540325,0.17795503,67240471,0,0.29253104,0.16770636,0.2980828,4.579566,24.055214,0.06807314,0.0,0.0,0.0,0.0,2490402,2490402,3997730,458770,0,3,1919,2,1,2,0,3,0,1,0,0,0,0,0
48709523,48608117,0.005700006,0.08941413,0.16141209,67240471,0,0.29229635,0.16693717,0.2837683,4.622357,24.691328,0.05342576,0.0,0.0,0.0,0.0,2490402,2490402,3997730,458770,0,3,1919,2,1,2,0,3,0,1,0,0,0,0,0
48901556,48800090,0.008448879,0.14316419,0.14320903,67240471,0,0.29199028,0.16618006,0.19428796,4.6320286,25.016354,0.081822574,0.0,0.0,0.0,0.0,2490402,2490402,3997730,458770,0,3,1919,2,1,2,0,3,0,1,0,0,0,0,0
49103580,49002167,0.0067162705,0.13569064,0.123107485,67240471,0,0.29182124,0.16543418,0.19986752,4.659647,25.66247,0.05753406,0.0,0.0,0.0,0.0,2490402,2490402,3997730,458770,0,3,1919,2,1,2,0,3,0,1,0,0,0,0,0
49305671,49204245,0.005316738,0.11770392,0.10912996,67240471,0,0.2916283,0.16469865,0.10299244,4.67963,25.988243,0.08091569,0.0,0.0,0.0,0.0,2490402,2490402,3997730,458770,0,3,1919,2,1,2,0,3,0,1,0,0,0,0,0
49507759,49406322,0.006727254,0.13079418,0.10053155,67240471,0,0.29134372,0.16397049,0.006893716,4.6775975,26.64192,0.075719275,0.0,0.0,0.0,0.0,2490402,2490402,3997730,458770,0,3,1919,2,1,2,0,3,0,1,0,0,0,0,0
49699808,49598295,0.0059772786,0.11753226,0.09900308,67240471,0,0.29113072,0.1632467,0.15864566,4.6670794,27.295132,0.08949001,0.0,0.0,0.0,0.0,2490402,2490402,3997730,458770,0,3,1919,2,1,2,0,3,0,1,0,0,0,0,0
49911994,49810477,0.003450124,0.07109199,0.100367315,67240471,0,0.29098666,0.16253638,0.1606949,4.627335,27.617891,0.06497924,0.0,0.0,0.0,0.0,2490402,2490402,3997730,458770,0,3,1919,2,1,2,0,3,0,1,0,0,0,0,0
50104085,50002450,0.0034309346,0.065406375,0.09779077,67240471,0,0.2908769,0.1618393,0.1093365,4.6185865,28.258715,0.07873214,0.0,0.0,0.0,0.0,2490402,2490402,3997730,458770,0,3,1919,2,1,2,0,3,0,1,0,0,0,0,0
50305964,50204528,0.0036359855,0.057116866,0.09156734,67240471,0,0.2907348,0.16115056,0.13376431,4.6019254,28.581175,0.073273934,0.0,0.0,0.0,0.0,2490402,2490402,3997730,458770,0,3,1919,2,1,2,0,3,0,1,0,0,0,0,0
50508049,50406605,0.0011278598,0.02122362,0.08555654,67240471,0,0.29061627,0.16047242,0.024389911,4.6080685,29.222252,0.1011614,0.0,0.0,0.0,0.0,2490402,2490402,3997730,458770,0,3,1919,2,1,2,0,3,0,1,0,0,0,0,0
50710177,50608682,0.0025260416,0.0589277,0.08294449,67240471,0,0.29046467,0.15980141,0.016068527,4.578256,29.863914,0.08123463,0.0,0.0,0.0,0.0,2490402,2490402,3997730,458770,0,3,1919,2,1,2,0,3,0,1,0,0,0,0,0
50902069,50800656,0.0032669776,0.08145021,0.0848273,67240471,0,0.29035282,0.1593007,0.01659405,4.581049,30.188435,0.0869136,0.0,0.0,0.0,0.0,2490402,2490402,3997730,458770,0,3,1919,2,1,2,0,3,0,1,0,0,0,0,0
51104217,51002733,0.003607853,0.11395201,0.0845543,67240471,0,0.29018354,0.15864241,0.18322878,4.540922,30.826487,0.09114147,0.0,0.0,0.0,0.0,2490402,2490402,3997730,458770,0,3,1919,2,1,2,0,3,0,1,0,0,0,0,0
51306232,51204811,0.0034696227,0.10899304,0.080802,67240471,0,0.29004994,0.15799761,0.10648235,4.563061,31.141409,0.07749377,0.0,0.0,0.0,0.0,2490402,2490402,3997730,458770,0,3,1919,2,1,2,0,3,0,1,0,0,0,0,0
51508457,51406888,0.0026335595,0.094017014,0.07349013,67240471,0,0.2899321,0.15735945,0.046576034,4.5649033,31.777668,0.078835495,0.0,0.0,0.0,0.0,2490402,2490402,3997730,458770,0,3,1919,2,1,2,0,3,0,1,0,0,0,0,0
51710374,51608966,0.0036316172,0.109267384,0.06786733,67240471,0,0.28982562,0.15672944,0.05796874,4.562003,32.417675,0.08718673,0.0,0.0,0.0,0.0,2490402,2490402,3997730,458770,0,3,1919,2,1,2,0,3,0,1,0,0,0,0,0
51902487,51800942,0.001451824,0.05768959,0.058204774,131607,0,0.28973955,0.15611428,0.070985354,4.560887,32.74111,0.09120759,0.0,0.0,0.0,0.0,2490402,2490402,3997730,458770,0,3,1919,2,1,2,0,3,0,1,0,0,0,0,0
52104366,52003017,0.0008323108,0.023530126,0.46520445,131607,0,0.28619435,0.16126838,0.07452472,0.010044051,0.01265864,0.08896167,0.0,0.0,0.0,0.0,2490402,2490402,3997730,458770,0,0,895,3,2,3,0,3,0,1,0,0,0,0,0
52306495,52205094,0.0005507246,0.012649268,0.19606026,131607,0,0.27387357,0.17478922,0.023081107,0.0130872065,0.002623934,0.09096042,0.0,0.0,0.0,0.0,2490402,2490402,3997730,458770,0,0,895,3,2,3,0,3,0,1,0,0,0,0,0
52508581,52407171,0.00050050416,0.008669232,0.06795972,131607,0,0.24651136,0.18517229,0.07820526,0.042747658,0.0054900087,0.0883642,0.0,0.0,0.0,0.0,2490402,2490402,3997730,458770,0,0,895,3,2,3,0,3,0,1,0,0,0,0,0
52700655,52599145,0.00064578565,0.029737538,0.010323301,131607,0,0.22662993,0.19387919,0.06184626,0.07072766,0.035842653,0.08225022,0.0,0.0,0.0,0.0,2490402,2490402,3997730,458770,0,0,895,3,2,3,0,3,0,1,0,0,0,0,0
52902578,52801222,0.0010069663,0.021326266,0.022114763,131607,0,0.22515506,0.20756035,0.10099293,0.040848512,0.010041476,0.084079206,0.0,0.0,0.0,0.0,2490402,2490402,3997730,458770,0,0,895,3,2,3,0,3,0,1,0,0,0,0,0
53104744,53003300,0.00043815427,0.030358277,0.02906395,131607,0,0.21234174,0.21576953,0.006755337,0.08151791,0.02845613,0.079803914,0.0,0.0,0.0,0.0,2490402,2490402,3997730,458770,0,0,895,3,2,3,0,3,0,1,0,0,0,0,0
53306754,53205377,0.00018168637,0.019494412,0.02892017,131607,0,0.2133711,0.22822142,0.01375037,0.066222996,0.014636446,0.07787854,0.0,0.0,0.0,0.0,2490402,2490402,3997730,458770,0,0,895,3,2,3,0,3,0,1,0,0,0,0,0
53508807,53407456,0.00025880538,0.024216007,0.033431314,131607,0,0.20388749,0.23508416,0.006672878,0.10959511,0.03686351,0.073162,0.0,0.0,0.0,0.0,2490402,2490402,3997730,458770,0,0,895,3,2,3,0,3,0,1,0,0,0,0,0
53700778,53599428,0.00037095492,0.029742649,0.03971537,131607,0,0.19545808,0.24066487,0.013747451,0.09761607,0.028269384,0.078469545,0.0,0.0,0.0,0.0,2490402,2490402,3997730,458770,0,0,895,3,2,3,0,3,0,1,0,0,0,0,0
53902856,53801506,0.00034985776,0.02077281,0.035414245,131607,0,0.19820584,0.2510711,0.021308802,0.12854454,0.03147491,0.06994682,0.0,0.0,0.0,0.0,2490402,2490402,3997730,458770,0,0,895,3,2,3,0,3,0,1,0,0,0,0,0
54104941,54003583,0.00049640454,0.024714407,0.040200327,131607,0,0.19188654,0.2565086,0.006536433,0.124645315,0.03488502,0.06815922,0.0,0.0,0.0,0.0,2490402,2490402,3997730,458770,0,0,895,3,2,3,0,3,0,1,0,0,0,0,0
54307346,54205660,0.0003586975,0.014584012,0.032805275,131607,0,0.19537076,0.26576236,0.015528042,0.11048742,0.040619243,0.064345144,0.0,0.0,0.0,0.0,2490402,2490402,3997730,458770,0,0,895,3,2,3,0,3,0,1,0,0,0,0,0
54509134,54407738,0.00055975455,0.019673364,0.03661901,131607,0,0.18999538,0.27029145,0.004538954,0.13068044,0.03885278,0.061558545,0.0,0.0,0.0,0.0,2490402,2490402,3997730,458770,0,0,895,3,2,3,0,3,0,1,0,0,0,0,0
54701123,54599711,0.00074100064,0.026776131,0.044069514,131607,0,0.18462731,0.2737918,0.005583368,0.14187682,0.042886626,0.060374267,0.0,0.0,0.0,0.0,2490402,2490402,3997730,458770,0,0,895,3,2,3,0,3,0,1,0,0,0,0,0
54903192,54801789,0.00067438715,0.019087369,0.03587219,131607,0,0.18875846,0.28148854,0.0077459924,0.15294734,0.055553433,0.066958226,0.0,0.0,0.0,0.0,2490402,2490402,3997730,458770,0,0,895,3,2,3,0,3,0,1,0,0,0,0,0
55105318,55003866,0.0011403128,0.026417518,0.043433893,131607,0,0.18457295,0.28502673,0.12852278,0.15901555,0.05003743,0.061796516,0.0,0.0,0.0,0.0,2490402,2490402,3997730,458770,0,0,895,3,2,3,0,3,0,1,0,0,0,0,0
55307345,55205944,0.12570679,3.5093768,4.133765,67240471,0,0.15005678,0.18866317,0.08558002,4.407252,2.6914818,0.05651594,0.0,0.0,0.0,0.0,2490402,2490402,3997730,458770,0,3,1919,3,2,3,0,3,0,1,0,0,0,0,0
55509404,55408021,0.03004142,1.0677036,2.0102503,67240471,0,0.14920248,0.18686706,0.06591662,4.441537,3.4291282,0.061093505,0.0,0.0,0.0,0.0,2490402,2490402,3997730,458770,0,3,1919,3,2,3,0,3,0,1,0,0,0,0,0
55701349,55599995,0.02317629,0.05752471,0.68636453,131607,0,0.14858718,0.18545087,0.08004907,4.547567,4.1574903,0.047312394,0.0,0.0,0.0,0.0,2490402,2490402,3997730,458770,0,3,1919,3,2,3,0,3,0,1,0,0,0,0,0
55903511,55802073,0.00235135,0.36102358,0.16675778,131607,0,0.14820816,0.184119,0.05890755,4.6676297,4.4968834,0.061173156,0.0,0.0,0.0,0.0,2490402,2490402,3997730,458770,0,3,1919,3,2,3,0,3,0,1,0,0,0,0,0
56105972,56004150,0.0015003921,0.47154254,0.5685957,131607,0,0.1478186,0.18267035,0.0778058,4.901824,5.2027907,0.061041135,0.0,0.0,0.0,0.0,2490402,2490402,3997730,458770,0,3,1919,3,2,3,0,3,0,1,0,0,0,0,0
56307599,56206227,0.00076012796,0.5012231,0.7344121,131607,0,0.14772281,0.1811981,0.07118092,5.1097217,5.574227,0.04246872,0.0,0.0,0.0,0.0,2490402,2490402,3997730,458770,0,3,1919,3,2,3,0,3,0,1,0,0,0,0,0
56499600,56398201,0.0002673338,0.49343443,0.777601,131607,0,0.14824417,0.17982322,0.03035417,5.3685246,6.3517966,0.03878034,0.0,0.0,0.0,0.0,2490402,2490402,3997730,458770,0,3,1919,3,2,3,0,3,0,1,0,0,0,0,0
56701647,56600278,0.00034428696,0.46787405,0.7621022,537002519,0,0.14988694,0.17860435,0.025912879,5.622108,7.159445,0.054795064,0.0,0.0,0.0,0.0,2490402,2490402,3997730,458770,0,3,1919,3,2,3,0,3,0,1,0,0,0,0,0
56903706,56802356,0.0997861,1.7607361,1.3207468,67240471,0,0.14816433,0.17751087,0.07129372,4.274996,7.282093,0.07117292,0.0,0.0,0.0,0.0,2490402,2490402,3997730,458770,0,3,1919,3,2,3,0,3,0,1,0,0,0,0,0
57105785,57004433,0.009100295,1.031122,1.0696186,67240471,0,0.14801247,0.17633389,0.13641736,4.299574,7.936295,0.033096187,0.0,0.0,0.0,0.0,2490402,2490402,3997730,458770,0,3,1919,3,2,3,0,3,0,1,0,0,0,0,0
57307866,57206511,0.004385136,0.6104543,0.8069069,67240471,0,0.14787151,0.1752069,0.122694306,4.2457604,8.263147,0.028372537,0.0,0.0,0.0,0.0,2490402,2490402,3997730,458770,0,3,1919,3,2,3,0,3,0,1,0,0,0,0,0
57510008,57408588,0.005473341,0.39580595,0.6055167,67240471,0,0.14775257,0.17413382,0.14498137,4.2369943,8.902458,0.03787918,0.0,0.0,0.0,0.0,2490402,2490402,3997730,458770,0,3,1919,3,2,3,0,3,0,1,0,0,0,0,0
57701963,57600565,0.0055713537,0.28703603,0.47044986,67240471,0,0.1476527,0.1731124,0.033663817,4.2367644,9.5343485,0.042366423,0.0,0.0,0.0,0.0,2490402,2490402,3997730,458770,0,3,1919,3,2,3,0,3,0,1,0,0,0,0,0
57904184,57802640,0.005557334,0.21016888,0.3730775,67240471,0,0.14756294,0.17213398,0.11792559,4.2086706,9.848037,0.027729005,0.0,0.0,0.0,0.0,2490402,2490402,3997730,458770,0,3,1919,3,2,3,0,3,0,1,0,0,0,0,0
58106067,58004717,0.0036856872,0.14549173,0.30328414,67240471,0,0.14747913,0.17120308,0.20249909,4.219615,10.473109,0.0036582698,0.0,0.0,0.0,0.0,2490402,2490402,3997730,458770,0,3,1919,3,2,3,0,3,0,1,0,0,0,0,0
58308144,58206795,0.009070294,0.14139211,0.25118822,67240471,0,0.14740564,0.1702914,0.2345534,4.1883035,10.785565,0.027048133,0.0,0.0,0.0,0.0,2490402,2490402,3997730,458770,0,3,1919,3,2,3,0,3,0,1,0,0,0,0,0
58510224,58408872,0.009588319,0.1489687,0.21702941,67240471,0,0.14734888,0.16940163,0.110041365,4.2023344,11.407786,0.040849216,0.0,0.0,0.0,0.0,2490402,2490402,3997730,458770,0,3,1919,3,2,3,0,3,0,1,0,0,0,0,0
58702274,58600846,0.0075668707,0.14407434,0.19345248,67240471,0,0.14730504,0.16854036,0.093568,4.207973,12.025212,0.03578607,0.0,0.0,0.0,0.0,2490402,2490402,3997730,458770,0,3,1919,3,2,3,0,3,0,1,0,0,0,0,0
58904411,58802924,0.0064004967,0.12961593,0.17222817,67240471,0,0.1472672,0.16770135,0.15581913,4.19501,12.336294,0.0066347397,0.0,0.0,0.0,0.0,2490402,2490402,3997730,458770,0,3,1919,3,2,3,0,3,0,1,0,0,0,0,0
59106410,59005001,0.010009294,0.13870446,0.15429495,67240471,0,0.14723662,0.16687964,0.18285647,4.2281494,12.9559965,0.011274089,0.0,0.0,0.0,0.0,2490402,2490402,3997730,458770,0,3,1919,3,2,3,0,3,0,1,0,0,0,0,0
59308563,59207078,0.0074785147,0.12651356,0.14002988,67240471,0,0.14721416,0.16607311,0.1483979,4.204564,13.266773,0.020594671,0.0,0.0,0.0,0.0,2490402,2490402,3997730,458770,0,3,1919,3,2,3,0,3,0,1,0,0,0,0,0
59500519,59399052,0.011882984,0.14826125,0.1278426,67240471,0,0.14719327,0.16528685,0.105125606,4.1870728,13.885925,0.025455706,0.0,0.0,0.0,0.0,2490402,2490402,3997730,458770,0,3,1919,3,2,3,0,3,0,1,0,0,0,0,0
59702570,59601130,0.009607397,0.14123587,0.11506723,67240471,0,0.14717631,0.16451898,0.06500721,4.1839223,14.503991,0.020619491,0.0,0.0,0.0,0.0,2490402,2490402,3997730,458770,0,3,1919,3,2,3,0,3,0,1,0,0,0,0,0
59904705,59803207,0.005248865,0.108336166,0.10139098,67240471,0,0.1471656,0.16376464,0.055516113,4.216027,14.813542,0.03956756,0.0,0.0,0.0,0.0,2490402,2490402,3997730,458770,0,3,1919,3,2,3,0,3,0,1,0,0,0,0,0
60106722,60005285,0.005353562,0.09309181,0.08776634,67240471,0,0.14715777,0.16302574,0.031762335,4.212861,15.432294,0.034724623,0.0,0.0,0.0,0.0,2490402,2490402,3997730,458770,0,3,1919,3,2,3,0,3,0,1,0,0,0,0,0
60309002,60207362,0.00457912,0.08021603,0.073822536,67240471,0,0.14715108,0.16230315,0.034968983,4.18581,15.7413225,0.04401181,0.0,0.0,0.0,0.0,2490402,2490402,3997730,458770,0,3,1919,3,2,3,0,3,0,1,0,0,0,0,0
60500768,60399336,0.0009651156,0.043431178,0.059700787,67240471,0,0.14714746,0.16176753,0.054640733,4.2408366,16.364265,0.035760168,0.0,0.0,0.0,0.0,2490402,2490402,3997730,458770,0,3,1919,3,2,3,0,3,0,1,0,0,0,0,0
60702886,60601413,0.003655154,0.03837932,0.046532355,67240471,0,0.14714572,0.16106819,0.036971156,4.230921,16.987724,0.02153848,0.0,0.0,0.0,0.0,2490402,2490402,3997730,458770,0,3,1919,3,2,3,0,3,0,1,0,0,0,0,0
60904929,60803491,0.0042717904,0.05729921,0.039527234,67240471,0,0.1471446,0.16037984,0.06662524,4.2294064,17.297304,0.02775173,0.0,0.0,0.0,0.0,2490402,2490402,3997730,458770,0,3,1919,3,2,3,0,3,0,1,0,0,0,0,0
61106983,61005569,0.005636729,0.078382656,0.039789815,67240471,0,0.14714439,0.15970145,0.040862765,4.231723,17.920399,0.030866537,0.0,0.0,0.0,0.0,2490402,2490402,3997730,458770,0,3,1919,3,2,3,0,3,0,1,0,0,0,0,0
61309059,61207646,0.007141722,0.098329134,0.045872677,67240471,0,0.14714602,0.15903212,0.025302421,4.2229767,18.235437,0.030051086,0.0,0.0,0.0,0.0,2490402,2490402,3997730,458770,0,3,1919,3,2,3,0,3,0,1,0,0,0,0,0
61501027,61399620,0.0067167836,0.106483385,0.05053377,67240471,0,0.1471484,0.15837225,0.07893297,4.197298,18.854258,0.021496339,0.0,0.0,0.0,0.0,2490402,2490402,3997730,458770,0,3,1919,3,2,3,0,3,0,1,0,0,0,0,0
61703116,61601697,0.006065814,0.101157784,0.05226486,67240471,0,0.14715104,0.15771991,0.07291045,4.153404,19.46973,0.024716012,0.0,0.0,0.0,0.0,2490402,2490402,3997730,458770,0,3,1919,3,2,3,0,3,0,1,0,0,0,0,0
61905192,61803775,0.004630035,0.081598096,0.049349107,67240471,0,0.14715384,0.15707691,0.10216216,4.1320014,19.776382,0.02063893,0.0,0.0,0.0,0.0,2490402,2490402,3997730,458770,0,3,1919,3,2,3,0,3,0,1,0,0,0,0,0
62107286,62005852,0.0006369016,0.030067328,0.034872256,131607,0,0.14721733,0.15645187,0.12938575,4.0973616,20.378693,0.032471783,0.0,0.0,0.0,0.0,2490402,2490402,3997730,458770,0,3,1919,3,2,3,0,3,0,1,0,0,0,0,0
62299263,62197826,0.0009613565,0.035421018,0.021614838,131607,0,0.14749064,0.15590666,0.10391533,4.0984564,20.68144,0.02771665,0.0,0.0,0.0,0.0,2490402,2490402,3997730,458770,0,3,1919,3,2,3,0,3,0,1,0,0,0,0,0
62511707,62410008,0.00077084784,0.04423327,0.016140996,131607,0,0.1482655,0.15555379,0.08725073,4.0652466,21.287554,0.02843346,0.0,0.0,0.0,0.0,2490402,2490402,3997730,458770,0,3,1919,3,2,3,0,3,0,1,0,0,0,0,0
62703417,62601981,0.0005188806,0.046350386,0.01698232,131607,0,0.14964502,0.15543295,0.07171952,4.0480537,21.87924,0.029333109,0.0,0.0,0.0,0.0,2490402,2490402,3997730,458770,0,3,1919,3,2,3,0,3,0,1,0,0,0,0,0
62905476,62804059,0.0004917572,0.04538298,0.018019553,537002519,0,0.1520939,0.15571143,0.048281696,4.0326285,22.173914,0.025592217,0.0,0.0,0.0,0.0,2490402,2490402,3997730,458770,0,3,1919,3,2,3,0,3,0,1,0,0,0,0,0
63107548,63006137,0.013763698,0.33292094,0.20201527,67240471,0,0.14874917,0.15405941,0.07885744,3.975532,22.739084,0.023463989,0.0,0.0,0.0,0.0,2490402,2490402,3997730,458770,0,3,1919,3,2,3,0,3,0,1,0,0,0,0,0
63309681,63208214,0.01002497,0.23167372,0.13514072,67240471,0,0.14874871,0.15346672,0.106806055,4.092491,23.112509,0.02981814,0.0,0.0,0.0,0.0,2490402,2490402,3997730,458770,0,3,1919,3,2,3,0,3,0,1,0,0,0,0,0
63501690,63400188,0.005214585,0.183716,0.08950662,67240471,0,0.14874882,0.15287967,0.10324601,4.102334,23.716383,0.020885896,0.0,0.0,0.0,0.0,2490402,2490402,3997730,458770,0,3,1919,3,2,3,0,3,0,1,0,0,0,0,0
63703757,63602266,0.0053191157,0.1561053,0.056987,67240471,0,0.14874865,0.15229954,0.04971217,4.117742,24.324263,0.026384788,0.0,0.0,0.0,0.0,2490402,2490402,3997730,458770,0,3,1919,3,2,3,0,3,0,1,0,0,0,0,0
63905831,63804343,0.0047748177,0.123679444,0.03601038,67240471,0,0.14875065,0.15172641,0.04047097,4.136044,24.629416,0.023756616,0.0,0.0,0.0,0.0,2490402,2490402,3997730,458770,0,3,1919,3,2,3,0,3,0,1,0,0,0,0,0
64107918,64006421,0.0031459897,0.08205808,0.020660525,67240471,0,0.14875285,0.1511602,0.04993305,4.15984,25.233713,0.016510066,0.0,0.0,0.0,0.0,2490402,2490402,3997730,458770,0,3,1919,3,2,3,0,3,0,1,0,0,0,0,0
64310490,64208498,0.001151568,0.029821998,0.010511417,67240471,0,0.14875656,0.15060045,0.05277871,4.1810756,25.843336,0.021918004,0.0,0.0,0.0,0.0,2490402,2490402,3997730,458770,0,3,1919,3,2,3,0,3,0,1,0,0,0,0,0
64501960,64400472,0.00017775875,0.017108165,0.014484393,67240471,0,0.14876853,0.150049,0.018076185,4.179835,26.152288,0.018622564,0.0,0.0,0.0,0.0,2490402,2490402,3997730,458770,0,3,1919,3,2,3,0,3,0,1,0,0,0,0,0
64704053,64602550,0.00048352595,0.020644626,0.020530479,67240471,0,0.14877404,0.14950235,0.050142832,4.1629043,26.761684,0.013014538,0.0,0.0,0.0,0.0,2490402,2490402,3997730,458770,0,3,1919,3,2,3,0,3,0,1,0,0,0,0,0
64906073,64804628,0.00063859794,0.034939487,0.028789945,67240471,0,0.14878024,0.14896129,0.06747151,4.142709,27.066349,0.024783082,0.0,0.0,0.0,0.0,2490402,2490402,3997730,458770,0,3,1919,3,2,3,0,3,0,1,0,0,0,0,0
65108149,65006705,0.0012381554,0.05070756,0.037153337,67240471,0,0.14878492,0.14842592,0.07573929,4.141436,27.671934,0.02078871,0.0,0.0,0.0,0.0,2490402,2490402,3997730,458770,0,3,1919,3,2,3,0,3,0,1,0,0,0,0,0
65310270,65208783,0.0011679329,0.054551262,0.041466385,67240471,0,0.14878799,0.1478968,0.07060031,4.090347,28.276896,0.022376085,0.0,0.0,0.0,0.0,2490402,2490402,3997730,458770,0,3,1919,3,2,3,0,3,0,1,0,0,0,0,0
65502171,65400756,0.0006180127,0.044025693,0.038718317,67240471,0,0.14879082,0.14750314,0.06963589,4.1070356,28.577164,0.022269038,0.0,0.0,0.0,0.0,2490402,2490402,3997730,458770,0,3,1919,3,2,3,0,3,0,1,0,0,0,0,0
65704377,65602834,0.0010421452,0.04406086,0.03648689,67240471,0,0.14879455,0.14698443,0.071269885,4.0557923,29.17353,0.022167796,0.0,0.0,0.0,0.0,2490402,2490402,3997730,458770,0,3,1919,3,2,3,0,3,0,1,0,0,0,0,0
65906357,65804912,0.0006399281,0.03386528,0.030842934,67240471,0,0.14879921,0.14647101,0.057488102,4.0558925,29.47386,0.012526401,0.0,0.0,0.0,0.0,2490402,2490402,3997730,458770,0,3,1919,3,2,3,0,3,0,1,0,0,0,0,0
66108442,66006989,0.00070026645,0.028549196,0.025657384,67240471,0,0.14880337,0.14596376,0.08721004,4.024343,30.065784,0.021876661,0.0,0.0,0.0,0.0,2490402,2490402,3997730,458770,0,3,1919,3,2,3,0,3,0,1,0,0,0,0,0
66300394,66198963,0.0007943124,0.026248962,0.020727398,67240471,0,0.14880405,0.14546162,0.08825985,4.0172496,30.361805,0.007470783,0.0,0.0,0.0,0.0,2490402,2490402,3997730,458770,0,3,1919,3,2,3,0,3,0,1,0,0,0,0,0
66502467,66401041,0.001278726,0.02802577,0.011370904,67240471,0,0.14880797,0.14496373,0.014040805,4.0087924,30.95761,0.0021389711,0.0,0.0,0.0,0.0,2490402,2490402,3997730,458770,0,3,1919,3,2,3,0,3,0,1,0,0,0,0,0
66704530,66603118,0.0023478884,0.04497411,0.008529353,67240471,0,0.14881046,0.14447325,0.0021254395,4.0357,31.552574,0.007357943,0.0,0.0,0.0,0.0,2490402,2490402,3997730,458770,0,3,1919,3,2,3,0,3,0,1,0,0,0,0,0
66906657,66805196,0.0030134432,0.06878903,0.021299446,67240471,0,0.14881389,0.14398673,0.07804332,4.0506744,31.854084,0.016791476,0.0,0.0,0.0,0.0,2490402,2490402,3997730,458770,0,3,1919,3,2,3,0,3,0,1,0,0,0,0,0
67108684,67007274,0.0029536951,0.07427205,0.0295255,67240471,0,0.14881878,0.14350328,0.04109342,4.084478,32.457863,0.012010548,0.0,0.0,0.0,0.0,2490402,2490402,3997730,458770,0,3,1919,3,2,3,0,3,0,1,0,0,0,0,0
67300663,67199248,0.0030553478,0.07455298,0.033126973,67240471,0,0.1488215,0.14302512,0.015695505,4.161274,32.763275,0.0071288324,0.0,0.0,0.0,0.0,2490402,2490402,3997730,458770,0,3,1919,3,2,3,0,3,0,1,0,0,0,0,0
67502823,67401325,0.0017445228,0.050510485,0.02746014,67240471,0,0.14882658,0.14255288,0.005472665,4.145656,33.37651,0.0119035235,0.0,0.0,0.0,0.0,2490402,2490402,3997730,458770,0,3,1919,3,2,3,0,3,0,1,0,0,0,0,0
67704837,67603403,0.0011476314,0.025545552,0.017194163,67240471,0,0.14883241,0.14208592,0.00879081,4.191578,33.989986,0.012179653,0.0,0.0,0.0,0.0,2490402,2490402,3997730,458770,0,3,1919,3,2,3,0,3,0,1,0,0,0,0,0
67906907,67805481,0.00078887044,0.017612142,0.0050350125,67240471,0,0.14883727,0.14162312,0.020375809,4.1828175,34.299213,0.021261064,0.0,0.0,0.0,0.0,2490402,2490402,3997730,458770,0,3,1919,3,2,3,0,3,0,1,0,0,0,0,0
68109188,68007558,0.00073365535,0.027774062,0.010597343,67240471,0,0.14884214,0.14116465,0.006526442,4.2019625,34.921616,0.001995097,0.0,0.0,0.0,0.0,2490402,2490402,3997730,458770,0,3,1919,3,2,3,0,3,0,1,0,0,0,0,0
68311072,68209636,0.0005624423,0.029054293,0.01555056,67240471,0,0.14884798,0.14071088,0.010871249,4.2248287,35.23076,0.011574781,0.0,0.0,0.0,0.0,2490402,2490402,3997730,458770,0,3,1919,3,2,3,0,3,0,1,0,0,0,0,0
68502964,68401610,0.0010725935,0.041915208,0.021314986,67240471,0,0.1488498,0.14026016,0.026895162,4.254286,35.85299,0.0028208264,0.0,0.0,0.0,0.0,2490402,2490402,3997730,458770,0,3,1919,3,2,3,0,3,0,1,0,0,0,0,0
68705038,68603688,0.001626541,0.056066032,0.02775724,67240471,0,0.14885522,0.1398146,0.022790149,4.233572,36.479977,0.0066603725,0.0,0.0,0.0,0.0,2490402,2490402,3997730,458770,0,3,1919,3,2,3,0,3,0,1,0,0,0,0,0
68907207,68805765,0.0026396287,0.076472946,0.036269944,67240471,0,0.14885886,0.13937369,0.023023989,4.2478704,36.79303,0.016159527,0.0,0.0,0.0,0.0,2490402,2490402,3997730,458770,0,3,1919,3,2,3,0,3,0,1,0,0,0,0,0
69109273,69007843,0.0027423366,0.08250926,0.3516183,67240471,0,0.41209406,0.13975583,0.025894668,4.2014556,37.415524,0.016189134,0.0,0.0,0.0,0.0,2490402,2490402,3997730,458770,0,3,1919,4,3,4,0,3,0,1,0,0,0,0,0
69301229,69199817,0.0008581906,4.0341535,0.72096175,67240471,0,0.35568643,0.13850334,0.024572203,4.202721,0.27260882,0.02084602,0.0,0.0,0.0,0.0,2490402,2490402,3997730,458770,0,1,1919,4,3,4,0,3,0,1,0,0,0,0,0
69503278,69401894,0.002471216,1.5042951,0.3948107,131607,0,0.28983596,0.13807486,0.034094628,4.204646,0.69359493,0.011274219,0.0,0.0,0.0,0.0,2490402,2490402,3997730,458770,0,1,1919,4,3,4,0,3,0,1,0,0,0,0,0
69705356,69603972,0.00039064794,0.32130557,0.10783076,131607,0,0.26823834,0.13770308,0.050634053,4.199277,1.0558909,0.012807568,0.0,0.0,0.0,0.0,2490402,2490402,3997730,458770,0,3,1919,4,3,4,0,3,0,1,0,0,0,0,0
69907476,69806050,0.00048233985,0.21257697,0.04271051,131607,0,0.26846075,0.1374781,0.08453351,4.202631,1.3511124,0.030251272,0.0,0.0,0.0,0.0,2490402,2490402,3997730,458770,0,3,1919,4,3,4,0,3,0,1,0,0,0,0,0
70109531,70008127,0.00036148558,0.43635103,0.05903087,131607,0,0.26898292,0.13750102,0.032665428,4.149008,1.9483227,0.003085777,0.0,0.0,0.0,0.0,2490402,2490402,3997730,458770,0,3,1919,4,3,4,0,3,0,1,0,0,0,0,0
70301467,70200101,0.00030692833,0.5128992,0.12738782,131607,0,0.26990688,0.13794358,0.030419968,4.1623273,2.240934,0.007935066,0.0,0.0,0.0,0.0,2490402,2490402,3997730,458770,0,3,1919,4,3,4,0,3,0,1,0,0,0,0,0
70503583,70402179,0.00042909922,0.5263518,0.16443609,131607,0,0.2715187,0.13876833,0.06581991,4.1035633,2.8240275,0.007350612,0.0,0.0,0.0,0.0,2490402,2490402,3997730,458770,0,3,1919,4,3,4,0,3,0,1,0,0,0,0,0
70706078,70604257,0.018870985,0.54243165,0.28239185,67240471,0,0.26911187,0.13653375,0.08606687,4.0637503,3.4054701,0.004122359,0.0,0.0,0.0,0.0,2490402,2490402,3997730,458770,0,3,1919,4,3,4,0,3,0,1,0,0,0,0,0
70907703,70806335,0.010863197,0.46654356,0.20254189,67240471,0,0.26911485,0.13612376,0.04789209,4.362663,3.8045492,0.0015145959,0.0,0.0,0.0,0.0,2490402,2490402,3997730,458770,0,3,1919,4,3,4,0,3,0,1,0,0,0,0,0
71109780,71008412,0.0024751953,0.43357992,0.15680392,67240471,0,0.26911706,0.13571675,0.043701444,4.400245,4.423052,0.0012690121,0.0,0.0,0.0,0.0,2490402,2490402,3997730,458770,0,3,1919,4,3,4,0,3,0,1,0,0,0,0,0
71301870,71200386,0.00023702954,0.40625644,0.13289356,67240471,0,0.26911974,0.1353134,0.018286308,4.411545,4.735143,0.0026029455,0.0,0.0,0.0,0.0,2490402,2490402,3997730,458770,0,3,1919,4,3,4,0,3,0,1,0,0,0,0,0
71503893,71402465,0.00110646,0.38445616,0.1195252,67240471,0,0.2691225,0.13491389,0.031770438,4.4319534,5.358817,0.0049239453,0.0,0.0,0.0,0.0,2490402,2490402,3997730,458770,0,3,1919,4,3,4,0,3,0,1,0,0,0,0,0
71706003,71604542,0.0022649204,0.3660124,0.11110678,67240471,0,0.26912546,0.13451786,0.030049488,4.412643,5.982928,0.0032433642,0.0,0.0,0.0,0.0,2490402,2490402,3997730,458770,0,3,1919,4,3,4,0,3,0,1,0,0,0,0,0
71908059,71806619,0.0023833525,0.3421862,0.103476495,67240471,0,0.26912835,0.13412523,0.033819757,4.4462857,6.294502,0.00055228913,0.0,0.0,0.0,0.0,2490402,2490402,3997730,458770,0,3,1919,4,3,4,0,3,0,1,0,0,0,0,0
72100166,71998593,0.0008779815,0.30840707,0.093453184,67240471,0,0.2691366,0.13374259,0.071273424,4.429222,6.9184394,0.0019399361,0.0,0.0,0.0,0.0,2490402,2490402,3997730,458770,0,3,1919,4,3,4,0,3,0,1,0,0,0,0,0
72302068,72200671,0.0010800861,0.28411698,0.08329703,67240471,0,0.26913974,0.13335656,0.05393229,4.428998,7.2300553,0.0040593757,0.0,0.0,0.0,0.0,2490402,2490402,3997730,458770,0,3,1919,4,3,4,0,3,0,1,0,0,0,0,0
72504137,72402749,0.0006562799,0.26079935,0.07207682,67240471,0,0.26914302,0.13297433,0.002486645,4.4067483,7.8540215,0.0013737155,0.0,0.0,0.0,0.0,2490402,2490402,3997730,458770,0,3,1919,4,3,4,0,3,0,1,0,0,0,0,0
