timestamp,accel_device_id_primary,accel_device_ids[0],accel_device_ids[1],accel_device_ids[2],accel_device_ids[3],accel_inconsistency_m_s_s[0],accel_inconsistency_m_s_s[1],accel_inconsistency_m_s_s[2],accel_inconsistency_m_s_s[3],gyro_device_id_primary,gyro_device_ids[0],gyro_device_ids[1],gyro_device_ids[2],gyro_device_ids[3],gyro_inconsistency_rad_s[0],gyro_inconsistency_rad_s[1],gyro_inconsistency_rad_s[2],gyro_inconsistency_rad_s[3],accel_healthy[0],accel_healthy[1],accel_healthy[2],accel_healthy[3],accel_priority[0],accel_priority[1],accel_priority[2],accel_priority[3],gyro_healthy[0],gyro_healthy[1],gyro_healthy[2],gyro_healthy[3],gyro_priority[0],gyro_priority[1],gyro_priority[2],gyro_priority[3]
16907495,2490402,3932170,2490402,3932210,0,0.04354444,0.05652232,0.07800834,0.0,2490402,3932170,2490402,3932210,0,0.0047356416,0.0051598083,0.006631609,0.0,1,1,1,0,50,50,50,0,1,1,1,0,50,50,50,0
16912633,2490402,3932170,2490402,3932210,0,0.043789692,0.056489155,0.07789289,0.0,2490402,3932170,2490402,3932210,0,0.0047862,0.0051894733,0.0066565718,0.0,1,1,1,0,50,50,50,0,1,1,1,0,50,50,50,0
17109568,2490402,3932170,2490402,3932210,0,0.046987984,0.059678655,0.080124,0.0,2490402,3932170,2490402,3932210,0,0.0046175784,0.005240538,0.0065857167,0.0,1,1,1,0,50,50,50,0,1,1,1,0,50,50,50,0
17306589,2490402,3932170,2490402,3932210,0,0.047191434,0.059323538,0.083477676,0.0,2490402,3932170,2490402,3932210,0,0.0045542703,0.0053122872,0.0067657745,0.0,1,1,1,0,50,50,50,0,1,1,1,0,50,50,50,0
17508694,2490402,3932170,2490402,3932210,0,0.045214813,0.056126013,0.081553094,0.0,2490402,3932170,2490402,3932210,0,0.00470163,0.005167687,0.0066497303,0.0,1,1,1,0,50,50,50,0,1,1,1,0,50,50,50,0
17705693,2490402,3932170,2490402,3932210,0,0.04575513,0.057352297,0.08197194,0.0,2490402,3932170,2490402,3932210,0,0.0046121487,0.0052029258,0.0066750487,0.0,1,1,1,0,50,50,50,0,1,1,1,0,50,50,50,0
17907773,2490402,3932170,2490402,3932210,0,0.0447845,0.05731106,0.08145441,0.0,2490402,3932170,2490402,3932210,0,0.0046439157,0.005183893,0.006725985,0.0,1,1,1,0,50,50,50,0,1,1,1,0,50,50,50,0
18109842,2490402,3932170,2490402,3932210,0,0.046312943,0.061094847,0.083118975,0.0,2490402,3932170,2490402,3932210,0,0.004995952,0.005051771,0.0069195637,0.0,1,1,1,0,50,50,50,0,1,1,1,0,50,50,50,0
18306867,2490402,3932170,2490402,3932210,0,0.04542517,0.058828942,0.07930362,0.0,2490402,3932170,2490402,3932210,0,0.0048172213,0.0050223013,0.0066671507,0.0,1,1,1,0,50,50,50,0,1,1,1,0,50,50,50,0
18508946,2490402,3932170,2490402,3932210,0,0.041112345,0.058521274,0.07913348,0.0,2490402,3932170,2490402,3932210,0,0.0048543857,0.0052837296,0.0066942074,0.0,1,1,1,0,50,50,50,0,1,1,1,0,50,50,50,0
18705999,2490402,3932170,2490402,3932210,0,0.044067223,0.060306307,0.082127795,0.0,2490402,3932170,2490402,3932210,0,0.0046287933,0.0051655243,0.0065287915,0.0,1,1,1,0,50,50,50,0,1,1,1,0,50,50,50,0
18908055,2490402,3932170,2490402,3932210,0,0.04258462,0.059362747,0.07983565,0.0,2490402,3932170,2490402,3932210,0,0.004856934,0.0051795584,0.006794078,0.0,1,1,1,0,50,50,50,0,1,1,1,0,50,50,50,0
19110132,2490402,3932170,2490402,3932210,0,0.04404538,0.057412554,0.079932176,0.0,2490402,3932170,2490402,3932210,0,0.0047553075,0.0051744017,0.006704569,0.0,1,1,1,0,50,50,50,0,1,1,1,0,50,50,50,0
19307239,2490402,3932170,2490402,3932210,0,0.042567488,0.058988735,0.0792841,0.0,2490402,3932170,2490402,3932210,0,0.0048476825,0.0051745456,0.006766135,0.0,1,1,1,0,50,50,50,0,1,1,1,0,50,50,50,0
19509229,2490402,3932170,2490402,3932210,0,0.043787356,0.058067445,0.079724476,0.0,2490402,3932170,2490402,3932210,0,0.0045362976,0.005276219,0.006707687,0.0,1,1,1,0,50,50,50,0,1,1,1,0,50,50,50,0
19706280,2490402,3932170,2490402,3932210,0,0.044957764,0.05988681,0.079643466,0.0,2490402,3932170,2490402,3932210,0,0.0048138876,0.005202931,0.006856383,0.0,1,1,1,0,50,50,50,0,1,1,1,0,50,50,50,0
19908337,2490402,3932170,2490402,3932210,0,0.045143172,0.058039352,0.081662185,0.0,2490402,3932170,2490402,3932210,0,0.004715114,0.0052933763,0.006601301,0.0,1,1,1,0,50,50,50,0,1,1,1,0,50,50,50,0
20105360,2490402,3932170,2490402,3932210,0,0.044087667,0.059064217,0.080401555,0.0,2490402,3932170,2490402,3932210,0,0.0048191985,0.005219922,0.0068229553,0.0,1,1,1,0,50,50,50,0,1,1,1,0,50,50,50,0
20307436,2490402,3932170,2490402,3932210,0,0.046424527,0.057973064,0.083451234,0.0,2490402,3932170,2490402,3932210,0,0.0047012493,0.0051332703,0.0068119676,0.0,1,1,1,0,50,50,50,0,1,1,1,0,50,50,50,0
20509511,2490402,3932170,2490402,3932210,0,0.04384892,0.05846195,0.08148559,0.0,2490402,3932170,2490402,3932210,0,0.004494729,0.005176979,0.0066602645,0.0,1,1,1,0,50,50,50,0,1,1,1,0,50,50,50,0
20706739,2490402,3932170,2490402,3932210,0,0.042300407,0.059602983,0.07935586,0.0,2490402,3932170,2490402,3932210,0,0.004732677,0.005393125,0.0068253637,0.0,1,1,1,0,50,50,50,0,1,1,1,0,50,50,50,0
20908638,2490402,3932170,2490402,3932210,0,0.044980053,0.05811452,0.07977405,0.0,2490402,3932170,2490402,3932210,0,0.004568902,0.005154134,0.006780224,0.0,1,1,1,0,50,50,50,0,1,1,1,0,50,50,50,0
21105642,2490402,3932170,2490402,3932210,0,0.044707958,0.061846066,0.07928052,0.0,2490402,3932170,2490402,3932210,0,0.004337561,0.0052314736,0.0065860124,0.0,1,1,1,0,50,50,50,0,1,1,1,0,50,50,50,0
21307719,2490402,3932170,2490402,3932210,0,0.046353206,0.060027618,0.083100155,0.0,2490402,3932170,2490402,3932210,0,0.004576685,0.0051621897,0.0066186464,0.0,1,1,1,0,50,50,50,0,1,1,1,0,50,50,50,0
21504768,2490402,3932170,2490402,3932210,0,0.047939807,0.059489824,0.08473103,0.0,2490402,3932170,2490402,3932210,0,0.004536727,0.0053021107,0.006813418,0.0,1,1,1,0,50,50,50,0,1,1,1,0,50,50,50,0
21706821,2490402,3932170,2490402,3932210,0,0.045350358,0.058120396,0.08069837,0.0,2490402,3932170,2490402,3932210,0,0.004788458,0.005239254,0.0068721166,0.0,1,1,1,0,50,50,50,0,1,1,1,0,50,50,50,0
21909106,2490402,3932170,2490402,3932210,0,0.04651973,0.059584178,0.08229367,0.0,2490402,3932170,2490402,3932210,0,0.0046747574,0.0051730266,0.0067575895,0.0,1,1,1,0,50,50,50,0,1,1,1,0,50,50,50,0
22110978,2490402,3932170,2490402,3932210,0,0.048019815,0.059619404,0.08030977,0.0,2490402,3932170,2490402,3932210,0,0.004889141,0.0051478613,0.006836538,0.0,1,1,1,0,50,50,50,0,1,1,1,0,50,50,50,0
22308007,2490402,3932170,2490402,3932210,0,0.04747637,0.059166513,0.08394049,0.0,2490402,3932170,2490402,3932210,0,0.004525374,0.005269386,0.006689619,0.0,1,1,1,0,50,50,50,0,1,1,1,0,50,50,50,0
22510083,2490402,3932170,2490402,3932210,0,0.04444913,0.060781837,0.07974117,0.0,2490402,3932170,2490402,3932210,0,0.004643457,0.0052122017,0.0067621702,0.0,1,1,1,0,50,50,50,0,1,1,1,0,50,50,50,0
22707107,2490402,3932170,2490402,3932210,0,0.04717858,0.059728593,0.085122354,0.0,2490402,3932170,2490402,3932210,0,0.0047716442,0.0053004827,0.006763181,0.0,1,1,1,0,50,50,50,0,1,1,1,0,50,50,50,0
22909190,2490402,3932170,2490402,3932210,0,0.044175595,0.05958857,0.0797792,0.0,2490402,3932170,2490402,3932210,0,0.004599761,0.005174561,0.0067127543,0.0,1,1,1,0,50,50,50,0,1,1,1,0,50,50,50,0
23106233,2490402,3932170,2490402,3932210,0,0.04277346,0.059061617,0.07972837,0.0,2490402,3932170,2490402,3932210,0,0.0046981317,0.0052711484,0.0068743355,0.0,1,1,1,0,50,50,50,0,1,1,1,0,50,50,50,0
23308308,2490402,3932170,2490402,3932210,0,0.041574612,0.05951439,0.07935778,0.0,2490402,3932170,2490402,3932210,0,0.004709991,0.005244298,0.0068240464,0.0,1,1,1,0,50,50,50,0,1,1,1,0,50,50,50,0
23510365,2490402,3932170,2490402,3932210,0,0.039271634,0.059400637,0.07626214,0.0,2490402,3932170,2490402,3932210,0,0.004448504,0.0052494383,0.00662773,0.0,1,1,1,0,50,50,50,0,1,1,1,0,50,50,50,0
23707388,2490402,3932170,2490402,3932210,0,0.040332172,0.061121702,0.08092466,0.0,2490402,3932170,2490402,3932210,0,0.004685744,0.00534546,0.006784466,0.0,1,1,1,0,50,50,50,0,1,1,1,0,50,50,50,0
23909506,2490402,3932170,2490402,3932210,0,0.041731637,0.06380786,0.08023392,0.0,2490402,3932170,2490402,3932210,0,0.0046976544,0.005285365,0.006864817,0.0,1,1,1,0,50,50,50,0,1,1,1,0,50,50,50,0
24106491,2490402,3932170,2490402,3932210,0,0.04112896,0.05947242,0.079740725,0.0,2490402,3932170,2490402,3932210,0,0.004587687,0.005412612,0.0067190807,0.0,1,1,1,0,50,50,50,0,1,1,1,0,50,50,50,0
24308567,2490402,3932170,2490402,3932210,0,0.04360941,0.06081464,0.08107372,0.0,2490402,3932170,2490402,3932210,0,0.004689444,0.005195726,0.006719726,0.0,1,1,1,0,50,50,50,0,1,1,1,0,50,50,50,0
24505594,2490402,3932170,2490402,3932210,0,0.04217151,0.060696002,0.08011358,0.0,2490402,3932170,2490402,3932210,0,0.0048607346,0.005285234,0.0068908357,0.0,1,1,1,0,50,50,50,0,1,1,1,0,50,50,50,0
24707670,2490402,3932170,2490402,3932210,0,0.045951508,0.061176855,0.0839079,0.0,2490402,3932170,2490402,3932210,0,0.0047348593,0.005265332,0.0068929964,0.0,1,1,1,0,50,50,50,0,1,1,1,0,50,50,50,0
24909764,2490402,3932170,2490402,3932210,0,0.0451738,0.05936169,0.0828712,0.0,2490402,3932170,2490402,3932210,0,0.004554038,0.005170148,0.0067950473,0.0,1,1,1,0,50,50,50,0,1,1,1,0,50,50,50,0
25107019,2490402,3932170,2490402,3932210,0,0.04396832,0.062113017,0.08200212,0.0,2490402,3932170,2490402,3932210,0,0.0046529504,0.0052942107,0.0069388533,0.0,1,1,1,0,50,50,50,0,1,1,1,0,50,50,50,0
25308871,2490402,3932170,2490402,3932210,0,0.044065565,0.060843796,0.08074568,0.0,2490402,3932170,2490402,3932210,0,0.00486777,0.0052253613,0.006814406,0.0,1,1,1,0,50,50,50,0,1,1,1,0,50,50,50,0
25505899,2490402,3932170,2490402,3932210,0,0.043115642,0.056319058,0.08009414,0.0,2490402,3932170,2490402,3932210,0,0.004740448,0.0050889854,0.006698113,0.0,1,1,1,0,50,50,50,0,1,1,1,0,50,50,50,0
25707954,2490402,3932170,2490402,3932210,0,0.040235408,0.058232654,0.07696791,0.0,2490402,3932170,2490402,3932210,0,0.0045008897,0.005183473,0.006812406,0.0,1,1,1,0,50,50,50,0,1,1,1,0,50,50,50,0
25904986,2490402,3932170,2490402,3932210,0,0.04463051,0.059322003,0.081927635,0.0,2490402,3932170,2490402,3932210,0,0.0048705973,0.0053422814,0.0068318313,0.0,1,1,1,0,50,50,50,0,1,1,1,0,50,50,50,0
26107060,2490402,3932170,2490402,3932210,0,0.040967748,0.057699118,0.07730885,0.0,2490402,3932170,2490402,3932210,0,0.004816311,0.005437691,0.0071162754,0.0,1,1,1,0,50,50,50,0,1,1,1,0,50,50,50,0
26309132,2490402,3932170,2490402,3932210,0,0.043923892,0.060511444,0.07938915,0.0,2490402,3932170,2490402,3932210,0,0.0049238116,0.0053340294,0.006947891,0.0,1,1,1,0,50,50,50,0,1,1,1,0,50,50,50,0
26506165,2490402,3932170,2490402,3932210,0,0.042687014,0.060991637,0.08018249,0.0,2490402,3932170,2490402,3932210,0,0.004912538,0.0053525977,0.006911204,0.0,1,1,1,0,50,50,50,0,1,1,1,0,50,50,50,0
26708239,2490402,3932170,2490402,3932210,0,0.045470566,0.059271697,0.0823466,0.0,2490402,3932170,2490402,3932210,0,0.004879837,0.005090632,0.0068696896,0.0,1,1,1,0,50,50,50,0,1,1,1,0,50,50,50,0
26905719,2490402,3932170,2490402,3932210,0,0.044442806,0.05614295,0.07908288,0.0,2490402,3932170,2490402,3932210,0,0.004679731,0.005135765,0.0068403813,0.0,1,1,1,0,50,50,50,0,1,1,1,0,50,50,50,0
27107367,2490402,3932170,2490402,3932210,0,0.0474426,0.05729813,0.081039764,0.0,2490402,3932170,2490402,3932210,0,0.004653302,0.0053487793,0.0067182984,0.0,1,1,1,0,50,50,50,0,1,1,1,0,50,50,50,0
27304364,2490402,3932170,2490402,3932210,0,0.04315497,0.061011124,0.08249829,0.0,2490402,3932170,2490402,3932210,0,0.0045806984,0.0054193493,0.00683216,0.0,1,1,1,0,50,50,50,0,1,1,1,0,50,50,50,0
27511495,2490402,3932170,2490402,3932210,0,0.047233373,0.062242452,0.085419916,0.0,2490402,3932170,2490402,3932210,0,0.0046855006,0.0053140223,0.0067823324,0.0,1,1,1,0,50,50,50,0,1,1,1,0,50,50,50,0
27708520,2490402,3932170,2490402,3932210,0,0.042439982,0.05964221,0.08136125,0.0,2490402,3932170,2490402,3932210,0,0.0044150557,0.0052065603,0.006782706,0.0,1,1,1,0,50,50,50,0,1,1,1,0,50,50,50,0
27910603,2490402,3932170,2490402,3932210,0,0.04226879,0.060792875,0.081306145,0.0,2490402,3932170,2490402,3932210,0,0.004613518,0.0052167755,0.0069102882,0.0,1,1,1,0,50,50,50,0,1,1,1,0,50,50,50,0
28107644,2490402,3932170,2490402,3932210,0,0.041466527,0.059187982,0.0791694,0.0,2490402,3932170,2490402,3932210,0,0.0044717756,0.0052266405,0.0066693407,0.0,1,1,1,0,50,50,50,0,1,1,1,0,50,50,50,0
28309707,2490402,3932170,2490402,3932210,0,0.042669076,0.06001867,0.08082613,0.0,2490402,3932170,2490402,3932210,0,0.0046670767,0.0053566853,0.0068258517,0.0,1,1,1,0,50,50,50,0,1,1,1,0,50,50,50,0
28506728,2490402,3932170,2490402,3932210,0,0.042082053,0.061366506,0.08124157,0.0,2490402,3932170,2490402,3932210,0,0.0047365692,0.005349054,0.0068798745,0.0,1,1,1,0,50,50,50,0,1,1,1,0,50,50,50,0
28703777,2490402,3932170,2490402,3932210,0,0.04522024,0.058071546,0.08351393,0.0,2490402,3932170,2490402,3932210,0,0.0049366625,0.0052484493,0.006935948,0.0,1,1,1,0,50,50,50,0,1,1,1,0,50,50,50,0
28910882,2490402,3932170,2490402,3932210,0,0.042552758,0.06002431,0.0817189,0.0,2490402,3932170,2490402,3932210,0,0.004559069,0.005336178,0.0066453265,0.0,1,1,1,0,50,50,50,0,1,1,1,0,50,50,50,0
29107908,2490402,3932170,2490402,3932210,0,0.045519624,0.06253176,0.08383869,0.0,2490402,3932170,2490402,3932210,0,0.0047811433,0.0053663184,0.006879346,0.0,1,1,1,0,50,50,50,0,1,1,1,0,50,50,50,0
29309985,2490402,3932170,2490402,3932210,0,0.04737826,0.05788622,0.08196771,0.0,2490402,3932170,2490402,3932210,0,0.0047376263,0.00540476,0.006987697,0.0,1,1,1,0,50,50,50,0,1,1,1,0,50,50,50,0
29507007,2490402,3932170,2490402,3932210,0,0.041927997,0.05928251,0.07718571,0.0,2490402,3932170,2490402,3932210,0,0.004595175,0.005380025,0.0069627594,0.0,1,1,1,0,50,50,50,0,1,1,1,0,50,50,50,0
29709086,2490402,3932170,2490402,3932210,0,0.045181777,0.058070302,0.07835403,0.0,2490402,3932170,2490402,3932210,0,0.004608914,0.00532019,0.007025908,0.0,1,1,1,0,50,50,50,0,1,1,1,0,50,50,50,0
29906114,2490402,3932170,2490402,3932210,0,0.04637719,0.05789421,0.08042217,0.0,2490402,3932170,2490402,3932210,0,0.0045471177,0.0052615837,0.0067673996,0.0,1,1,1,0,50,50,50,0,1,1,1,0,50,50,50,0
30108263,2490402,3932170,2490402,3932210,0,0.04293157,0.05621588,0.07921801,0.0,2490402,3932170,2490402,3932210,0,0.0045496714,0.0053857416,0.006784052,0.0,1,1,1,0,50,50,50,0,1,1,1,0,50,50,50,0
30310275,2490402,3932170,2490402,3932210,0,0.04316059,0.057070255,0.079953015,0.0,2490402,3932170,2490402,3932210,0,0.0046494706,0.0052743996,0.00690351,0.0,1,1,1,0,50,50,50,0,1,1,1,0,50,50,50,0
30507310,2490402,3932170,2490402,3932210,0,0.041699503,0.056876116,0.07803428,0.0,2490402,3932170,2490402,3932210,0,0.0043791127,0.005355745,0.006764305,0.0,1,1,1,0,50,50,50,0,1,1,1,0,50,50,50,0
30709387,2490402,3932170,2490402,3932210,0,0.046857275,0.0594864,0.07957281,0.0,2490402,3932170,2490402,3932210,0,0.0046868147,0.005300607,0.0069498606,0.0,1,1,1,0,50,50,50,0,1,1,1,0,50,50,50,0
30906397,2490402,3932170,2490402,3932210,0,0.046476103,0.058500037,0.08207203,0.0,2490402,3932170,2490402,3932210,0,0.0047909054,0.0053450153,0.0069108354,0.0,1,1,1,0,50,50,50,0,1,1,1,0,50,50,50,0
31108469,2490402,3932170,2490402,3932210,0,0.043512527,0.05962084,0.08148491,0.0,2490402,3932170,2490402,3932210,0,0.0046392493,0.005356394,0.0067335404,0.0,1,1,1,0,50,50,50,0,1,1,1,0,50,50,50,0
31305495,2490402,3932170,2490402,3932210,0,0.0456251,0.057988986,0.08264172,0.0,2490402,3932170,2490402,3932210,0,0.004722449,0.005296216,0.0067663137,0.0,1,1,1,0,50,50,50,0,1,1,1,0,50,50,50,0
31507572,2490402,3932170,2490402,3932210,0,0.04043438,0.059996855,0.0790087,0.0,2490402,3932170,2490402,3932210,0,0.0047323024,0.0054168445,0.007036574,0.0,1,1,1,0,50,50,50,0,1,1,1,0,50,50,50,0
31709659,2490402,3932170,2490402,3932210,0,0.04507563,0.059481133,0.079704106,0.0,2490402,3932170,2490402,3932210,0,0.004494818,0.005279795,0.0067568473,0.0,1,1,1,0,50,50,50,0,1,1,1,0,50,50,50,0
31906684,2490402,3932170,2490402,3932210,0,0.043618973,0.059124827,0.07901902,0.0,2490402,3932170,2490402,3932210,0,0.0045919525,0.005444202,0.0065479022,0.0,1,1,1,0,50,50,50,0,1,1,1,0,50,50,50,0
32108751,2490402,3932170,2490402,3932210,0,0.04332125,0.05752149,0.07695414,0.0,2490402,3932170,2490402,3932210,0,0.0045831157,0.0053698253,0.006798575,0.0,1,1,1,0,50,50,50,0,1,1,1,0,50,50,50,0
32305779,2490402,3932170,2490402,3932210,0,0.04203697,0.057583813,0.077553876,0.0,2490402,3932170,2490402,3932210,0,0.0047453353,0.005272371,0.0069214306,0.0,1,1,1,0,50,50,50,0,1,1,1,0,50,50,50,0
32507873,2490402,3932170,2490402,3932210,0,0.04498478,0.061476436,0.08276111,0.0,2490402,3932170,2490402,3932210,0,0.004872237,0.0053348304,0.006944015,0.0,1,1,1,0,50,50,50,0,1,1,1,0,50,50,50,0
32704902,2490402,3932170,2490402,3932210,0,0.04217513,0.058555435,0.07923624,0.0,2490402,3932170,2490402,3932210,0,0.0048524053,0.005314265,0.006825462,0.0,1,1,1,0,50,50,50,0,1,1,1,0,50,50,50,0
32906960,2490402,3932170,2490402,3932210,0,0.04657137,0.06114304,0.08516094,0.0,2490402,3932170,2490402,3932210,0,0.0048226584,0.0051530194,0.0068217632,0.0,1,1,1,0,50,50,50,0,1,1,1,0,50,50,50,0
33109069,2490402,3932170,2490402,3932210,0,0.04484699,0.06242659,0.084540285,0.0,2490402,3932170,2490402,3932210,0,0.004696193,0.005303318,0.0070236525,0.0,1,1,1,0,50,50,50,0,1,1,1,0,50,50,50,0
33311343,2490402,3932170,2490402,3932210,0,0.042853545,0.059113503,0.081068926,0.0,2490402,3932170,2490402,3932210,0,0.004669667,0.0052932897,0.0069881533,0.0,1,1,1,0,50,50,50,0,1,1,1,0,50,50,50,0
33508138,2490402,3932170,2490402,3932210,0,0.04574745,0.06045166,0.08428808,0.0,2490402,3932170,2490402,3932210,0,0.004824066,0.005439057,0.0071680127,0.0,1,1,1,0,50,50,50,0,1,1,1,0,50,50,50,0
33710218,2490402,3932170,2490402,3932210,0,0.043460086,0.061313465,0.08068421,0.0,2490402,3932170,2490402,3932210,0,0.004805278,0.0053367848,0.0071550347,0.0,1,1,1,0,50,50,50,0,1,1,1,0,50,50,50,0
33907241,2490402,3932170,2490402,3932210,0,0.046847075,0.06017418,0.082229234,0.0,2490402,3932170,2490402,3932210,0,0.004896717,0.0053187544,0.0070690466,0.0,1,1,1,0,50,50,50,0,1,1,1,0,50,50,50,0
34104272,2490402,3932170,2490402,3932210,0,0.041262764,0.061639972,0.07808419,0.0,2490402,3932170,2490402,3932210,0,0.004773254,0.005339415,0.0070759756,0.0,1,1,1,0,50,50,50,0,1,1,1,0,50,50,50,0
34306341,2490402,3932170,2490402,3932210,0,0.042736508,0.059640195,0.079995774,0.0,2490402,3932170,2490402,3932210,0,0.0046939678,0.005423755,0.0069661997,0.0,1,1,1,0,50,50,50,0,1,1,1,0,50,50,50,0
34508422,2490402,3932170,2490402,3932210,0,0.043695405,0.060042404,0.08125451,0.0,2490402,3932170,2490402,3932210,0,0.0046401336,0.0054566334,0.0069845347,0.0,1,1,1,0,50,50,50,0,1,1,1,0,50,50,50,0
34710501,2490402,3932170,2490402,3932210,0,0.045715023,0.06068244,0.083606206,0.0,2490402,3932170,2490402,3932210,0,0.0046642697,0.005342931,0.006918805,0.0,1,1,1,0,50,50,50,0,1,1,1,0,50,50,50,0
34907526,2490402,3932170,2490402,3932210,0,0.04663029,0.060959127,0.08523521,0.0,2490402,3932170,2490402,3932210,0,0.004667902,0.005432855,0.006924219,0.0,1,1,1,0,50,50,50,0,1,1,1,0,50,50,50,0
35109598,2490402,3932170,2490402,3932210,0,0.047445454,0.06112541,0.08451719,0.0,2490402,3932170,2490402,3932210,0,0.004568535,0.0053164414,0.006849487,0.0,1,1,1,0,50,50,50,0,1,1,1,0,50,50,50,0
35306625,2490402,3932170,2490402,3932210,0,0.047872104,0.06278716,0.089237675,0.0,2490402,3932170,2490402,3932210,0,0.0046591037,0.0052601337,0.00691335,0.0,1,1,1,0,50,50,50,0,1,1,1,0,50,50,50,0
35508701,2490402,3932170,2490402,3932210,0,0.042007655,0.059810303,0.08580887,0.0,2490402,3932170,2490402,3932210,0,0.0048484025,0.0052728704,0.006949488,0.0,1,1,1,0,50,50,50,0,1,1,1,0,50,50,50,0
35705730,2490402,3932170,2490402,3932210,0,0.04591466,0.06708311,0.095904686,0.0,2490402,3932170,2490402,3932210,0,0.0047424743,0.0048802625,0.00629861,0.0,1,1,1,0,50,50,50,0,1,1,1,0,50,50,50,0
35908006,2490402,3932170,2490402,3932210,0,0.052920733,0.06641604,0.09532862,0.0,2490402,3932170,2490402,3932210,0,0.0045051984,0.0051562493,0.0061592218,0.0,1,1,1,0,50,50,50,0,1,1,1,0,50,50,50,0
36109880,2490402,3932170,2490402,3932210,0,0.04403655,0.051959433,0.081746,0.0,2490402,3932170,2490402,3932210,0,0.0045541003,0.004900945,0.0062515764,0.0,1,1,1,0,50,50,50,0,1,1,1,0,50,50,50,0
36306907,2490402,3932170,2490402,3932210,0,0.048154656,0.076550566,0.10844433,0.0,2490402,3932170,2490402,3932210,0,0.0046251994,0.005059812,0.0066118035,0.0,1,1,1,0,50,50,50,0,1,1,1,0,50,50,50,0
36509178,2490402,3932170,2490402,3932210,0,0.051029142,0.07338122,0.10765076,0.0,2490402,3932170,2490402,3932210,0,0.0054955864,0.005094169,0.0071521695,0.0,1,1,1,0,50,50,50,0,1,1,1,0,50,50,50,0
36706008,2490402,3932170,2490402,3932210,0,0.052659415,0.07955574,0.12097966,0.0,2490402,3932170,2490402,3932210,0,0.0049183904,0.0050400454,0.0065437728,0.0,1,1,1,0,50,50,50,0,1,1,1,0,50,50,50,0
36908087,2490402,3932170,2490402,3932210,0,0.04092179,0.083513305,0.11825922,0.0,2490402,3932170,2490402,3932210,0,0.0048666736,0.005162366,0.0066435137,0.0,1,1,1,0,50,50,50,0,1,1,1,0,50,50,50,0
37105112,2490402,3932170,2490402,3932210,0,0.049069345,0.084890746,0.11868002,0.0,2490402,3932170,2490402,3932210,0,0.004795432,0.005186898,0.006767066,0.0,1,1,1,0,50,50,50,0,1,1,1,0,50,50,50,0
37307193,2490402,3932170,2490402,3932210,0,0.13682981,0.08685506,0.1645227,0.0,2490402,3932170,2490402,3932210,0,0.0056203166,0.0056657502,0.007863994,0.0,1,1,1,0,50,50,50,0,1,1,1,0,50,50,50,0
37509270,2490402,3932170,2490402,3932210,0,0.10014152,0.083535306,0.14520858,0.0,2490402,3932170,2490402,3932210,0,0.0049119205,0.005587812,0.007358615,0.0,1,1,1,0,50,50,50,0,1,1,1,0,50,50,50,0
37706293,2490402,3932170,2490402,3932210,0,0.19684632,0.124687724,0.12727937,0.0,2490402,3932170,2490402,3932210,0,0.0052437936,0.005258112,0.0062142825,0.0,1,1,1,0,50,50,50,0,1,1,1,0,50,50,50,0
37908375,2490402,3932170,2490402,3932210,0,0.37073487,0.14968334,0.2619759,0.0,2490402,3932170,2490402,3932210,0,0.005580919,0.0053576515,0.0067418516,0.0,1,1,1,0,50,50,50,0,1,1,1,0,50,50,50,0
38105425,2490402,3932170,2490402,3932210,0,0.14280622,0.22801065,0.24069355,0.0,2490402,3932170,2490402,3932210,0,0.005281151,0.005484973,0.007387989,0.0,1,1,1,0,50,50,50,0,1,1,1,0,50,50,50,0
38307474,2490402,3932170,2490402,3932210,0,0.13471214,0.1816195,0.1369876,0.0,2490402,3932170,2490402,3932210,0,0.0044326535,0.0061645824,0.0069719404,0.0,1,1,1,0,50,50,50,0,1,1,1,0,50,50,50,0
38504497,2490402,3932170,2490402,3932210,0,0.16948734,0.13320795,0.15538736,0.0,2490402,3932170,2490402,3932210,0,0.004254498,0.0056707966,0.007851291,0.0,1,1,1,0,50,50,50,0,1,1,1,0,50,50,50,0
38711638,2490402,3932170,2490402,3932210,0,0.051828764,0.03975737,0.035773218,0.0,2490402,3932170,2490402,3932210,0,0.0015222933,0.00083884335,0.0015618161,0.0,1,1,1,0,50,50,50,0,1,1,1,0,50,50,50,0
38908665,2490402,3932170,2490402,3932210,0,0.07034833,0.09073505,0.114867665,0.0,2490402,3932170,2490402,3932210,0,0.004526022,0.00455584,0.0063389447,0.0,1,1,1,0,50,50,50,0,1,1,1,0,50,50,50,0
39110746,2490402,3932170,2490402,3932210,0,0.1405419,0.11999523,0.14378951,0.0,2490402,3932170,2490402,3932210,0,0.004495465,0.0059091556,0.007011713,0.0,1,1,1,0,50,50,50,0,1,1,1,0,50,50,50,0
39307770,2490402,3932170,2490402,3932210,0,0.05689186,0.09968262,0.14261803,0.0,2490402,3932170,2490402,3932210,0,0.0038802782,0.0050499286,0.006711654,0.0,1,1,1,0,50,50,50,0,1,1,1,0,50,50,50,0
39504788,2490402,3932170,2490402,3932210,0,0.15032959,0.11476245,0.12294957,0.0,2490402,3932170,2490402,3932210,0,0.003862623,0.005326935,0.007320067,0.0,1,1,1,0,50,50,50,0,1,1,1,0,50,50,50,0
39707100,2490402,3932170,2490402,3932210,0,0.11129794,0.093701944,0.18668115,0.0,2490402,3932170,2490402,3932210,0,0.0054823537,0.0053384746,0.0075557893,0.0,1,1,1,0,50,50,50,0,1,1,1,0,50,50,50,0
39908957,2490402,3932170,2490402,3932210,0,0.10025581,0.08678002,0.18283442,0.0,2490402,3932170,2490402,3932210,0,0.005407173,0.0057657403,0.007378742,0.0,1,1,1,0,50,50,50,0,1,1,1,0,50,50,50,0
40111023,2490402,3932170,2490402,3932210,0,0.093414925,0.13936299,0.11395358,0.0,2490402,3932170,2490402,3932210,0,0.0041063316,0.0055716718,0.006820505,0.0,1,1,1,0,50,50,50,0,1,1,1,0,50,50,50,0
40308095,2490402,3932170,2490402,3932210,0,0.11123437,0.20752513,0.11532743,0.0,2490402,3932170,2490402,3932210,0,0.0046619787,0.005713745,0.006856193,0.0,1,1,1,0,50,50,50,0,1,1,1,0,50,50,50,0
40510272,2490402,3932170,2490402,3932210,0,0.06810553,0.0907331,0.12171467,0.0,2490402,3932170,2490402,3932210,0,0.0051709358,0.005368801,0.0075087026,0.0,1,1,1,0,50,50,50,0,1,1,1,0,50,50,50,0
40707155,2490402,3932170,2490402,3932210,0,0.03236182,0.060316987,0.08857238,0.0,2490402,3932170,2490402,3932210,0,0.005148355,0.0057391445,0.00748715,0.0,1,1,1,0,50,50,50,0,1,1,1,0,50,50,50,0
40909230,2490402,3932170,2490402,3932210,0,0.08613666,0.08570031,0.10827997,0.0,2490402,3932170,2490402,3932210,0,0.0044216504,0.0058324137,0.0076962216,0.0,1,1,1,0,50,50,50,0,1,1,1,0,50,50,50,0
41106257,2490402,3932170,2490402,3932210,0,0.059599686,0.07336414,0.11325901,0.0,2490402,3932170,2490402,3932210,0,0.004984374,0.005633194,0.0072395285,0.0,1,1,1,0,50,50,50,0,1,1,1,0,50,50,50,0
41308332,2490402,3932170,2490402,3932210,0,0.049436208,0.079684936,0.10471044,0.0,2490402,3932170,2490402,3932210,0,0.00493775,0.005558062,0.006837308,0.0,1,1,1,0,50,50,50,0,1,1,1,0,50,50,50,0
41510408,2490402,3932170,2490402,3932210,0,0.048698157,0.071389325,0.105145596,0.0,2490402,3932170,2490402,3932210,0,0.0045136083,0.0057679727,0.007068183,0.0,1,1,1,0,50,50,50,0,1,1,1,0,50,50,50,0
41707433,2490402,3932170,2490402,3932210,0,0.046553526,0.06637011,0.099517934,0.0,2490402,3932170,2490402,3932210,0,0.004861976,0.00576419,0.0075730793,0.0,1,1,1,0,50,50,50,0,1,1,1,0,50,50,50,0
41909512,2490402,3932170,2490402,3932210,0,0.04435486,0.06910307,0.096555516,0.0,2490402,3932170,2490402,3932210,0,0.0049053314,0.0055925776,0.0076371212,0.0,1,1,1,0,50,50,50,0,1,1,1,0,50,50,50,0
42106536,2490402,3932170,2490402,3932210,0,0.053535268,0.07119394,0.106097415,0.0,2490402,3932170,2490402,3932210,0,0.0050372556,0.005989723,0.008101234,0.0,1,1,1,0,50,50,50,0,1,1,1,0,50,50,50,0
42308614,2490402,3932170,2490402,3932210,0,0.0426136,0.07567377,0.10086688,0.0,2490402,3932170,2490402,3932210,0,0.005352255,0.0059086024,0.008560686,0.0,1,1,1,0,50,50,50,0,1,1,1,0,50,50,50,0
42505638,2490402,3932170,2490402,3932210,0,0.043146335,0.06722665,0.08996543,0.0,2490402,3932170,2490402,3932210,0,0.00508824,0.005281909,0.0075418144,0.0,1,1,1,0,50,50,50,0,1,1,1,0,50,50,50,0
42707716,2490402,3932170,2490402,3932210,0,0.04655727,0.05807045,0.08563557,0.0,2490402,3932170,2490402,3932210,0,0.0049555968,0.0054701855,0.007324955,0.0,1,1,1,0,50,50,50,0,1,1,1,0,50,50,50,0
42909794,2490402,3932170,2490402,3932210,0,0.039140034,0.067486815,0.08694457,0.0,2490402,3932170,2490402,3932210,0,0.0049292617,0.0054060677,0.00709913,0.0,1,1,1,0,50,50,50,0,1,1,1,0,50,50,50,0
43106822,2490402,3932170,2490402,3932210,0,0.044845123,0.058724884,0.07875506,0.0,2490402,3932170,2490402,3932210,0,0.004607535,0.0055997907,0.0070955534,0.0,1,1,1,0,50,50,50,0,1,1,1,0,50,50,50,0
43308919,2490402,3932170,2490402,3932210,0,0.041862033,0.055134814,0.08067339,0.0,2490402,3932170,2490402,3932210,0,0.004484566,0.0054179975,0.0066963886,0.0,1,1,1,0,50,50,50,0,1,1,1,0,50,50,50,0
43505775,3932210,3932170,2490402,3932210,0,0.021260878,0.034736596,0.042652987,0.0,3932210,3932170,2490402,3932210,0,0.0023915137,0.0031617775,0.003897239,0.0,1,1,1,0,50,50,50,0,1,1,1,0,50,50,50,0
43705585,3932210,3932170,2490402,3932210,0,0.03643357,0.05269736,0.06745496,0.0,3932210,3932170,2490402,3932210,0,0.004118115,0.005080384,0.0062203445,0.0,1,1,1,0,50,50,50,0,1,1,1,0,50,50,50,0
43905408,3932210,3932170,2490402,3932210,0,0.0457966,0.05677333,0.07947616,0.0,3932210,3932170,2490402,3932210,0,0.004697793,0.005464269,0.0069669494,0.0,1,1,1,0,50,50,50,0,1,1,1,0,50,50,50,0
44105233,3932210,3932170,2490402,3932210,0,0.04177955,0.059559535,0.07879361,0.0,3932210,3932170,2490402,3932210,0,0.004860732,0.0054403823,0.0070507145,0.0,1,1,1,0,50,50,50,0,1,1,1,0,50,50,50,0
44310053,3932210,3932170,2490402,3932210,0,0.039635204,0.059315953,0.07586154,0.0,3932210,3932170,2490402,3932210,0,0.004768716,0.0054362514,0.006968859,0.0,1,1,1,0,50,50,50,0,1,1,1,0,50,50,50,0
44509869,3932210,3932170,2490402,3932210,0,0.040730152,0.06179465,0.08218971,0.0,3932210,3932170,2490402,3932210,0,0.004750475,0.005404542,0.0069603594,0.0,1,1,1,0,50,50,50,0,1,1,1,0,50,50,50,0
44709696,3932210,3932170,2490402,3932210,0,0.041640885,0.06169004,0.08530396,0.0,3932210,3932170,2490402,3932210,0,0.0046158377,0.005318427,0.0068680956,0.0,1,1,1,0,50,50,50,0,1,1,1,0,50,50,50,0
44909517,3932210,3932170,2490402,3932210,0,0.04104085,0.056891255,0.076679796,0.0,3932210,3932170,2490402,3932210,0,0.0049019824,0.005524102,0.007175112,0.0,1,1,1,0,50,50,50,0,1,1,1,0,50,50,50,0
45109343,3932210,3932170,2490402,3932210,0,0.041922048,0.05784972,0.07992185,0.0,3932210,3932170,2490402,3932210,0,0.0044306237,0.005385681,0.006718686,0.0,1,1,1,0,50,50,50,0,1,1,1,0,50,50,50,0
45309164,3932210,3932170,2490402,3932210,0,0.039259546,0.06662722,0.083033904,0.0,3932210,3932170,2490402,3932210,0,0.00440752,0.005303093,0.0067743985,0.0,1,1,1,0,50,50,50,0,1,1,1,0,50,50,50,0
45503994,3932210,3932170,2490402,3932210,0,0.041521505,0.062562235,0.08233647,0.0,3932210,3932170,2490402,3932210,0,0.0044900444,0.0050673834,0.0068031,0.0,1,1,1,0,50,50,50,0,1,1,1,0,50,50,50,0
45708921,3932210,3932170,2490402,3932210,0,0.040910814,0.06210915,0.0790592,0.0,3932210,3932170,2490402,3932210,0,0.005068817,0.0056586913,0.007853476,0.0,1,1,1,0,50,50,50,0,1,1,1,0,50,50,50,0
45908634,3932210,3932170,2490402,3932210,0,0.043723304,0.059028424,0.080955364,0.0,3932210,3932170,2490402,3932210,0,0.004794779,0.00556151,0.0071703987,0.0,1,1,1,0,50,50,50,0,1,1,1,0,50,50,50,0
46108455,3932210,3932170,2490402,3932210,0,0.044299077,0.060310658,0.08251314,0.0,3932210,3932170,2490402,3932210,0,0.004878751,0.005515967,0.007264286,0.0,1,1,1,0,50,50,50,0,1,1,1,0,50,50,50,0
46308441,3932210,3932170,2490402,3932210,0,0.044837955,0.06335034,0.08607882,0.0,3932210,3932170,2490402,3932210,0,0.0049831416,0.0055970093,0.0074082916,0.0,1,1,1,0,50,50,50,0,1,1,1,0,50,50,50,0
46508103,3932210,3932170,2490402,3932210,0,0.043816827,0.059292153,0.08518907,0.0,3932210,3932170,2490402,3932210,0,0.0049204854,0.0056355395,0.007179238,0.0,1,1,1,0,50,50,50,0,1,1,1,0,50,50,50,0
46707924,3932210,3932170,2490402,3932210,0,0.043808565,0.06402663,0.08489843,0.0,3932210,3932170,2490402,3932210,0,0.0050301007,0.0056521096,0.007411528,0.0,1,1,1,0,50,50,50,0,1,1,1,0,50,50,50,0
46907745,3932210,3932170,2490402,3932210,0,0.04335321,0.06192842,0.08514409,0.0,3932210,3932170,2490402,3932210,0,0.0050680526,0.005680346,0.007342135,0.0,1,1,1,0,50,50,50,0,1,1,1,0,50,50,50,0
47107570,3932210,3932170,2490402,3932210,0,0.046502404,0.05641622,0.0834361,0.0,3932210,3932170,2490402,3932210,0,0.0049943323,0.0055352976,0.0074021122,0.0,1,1,1,0,50,50,50,0,1,1,1,0,50,50,50,0
47307442,3932210,3932170,2490402,3932210,0,0.04449588,0.06223288,0.086940415,0.0,3932210,3932170,2490402,3932210,0,0.0047905715,0.0056006345,0.0073775374,0.0,1,1,1,0,50,50,50,0,1,1,1,0,50,50,50,0
47507356,3932210,3932170,2490402,3932210,0,0.04741802,0.06576874,0.0911299,0.0,3932210,3932170,2490402,3932210,0,0.004819518,0.005516261,0.0073532304,0.0,1,1,1,0,50,50,50,0,1,1,1,0,50,50,50,0
47707041,3932210,3932170,2490402,3932210,0,0.049269754,0.06521769,0.09273728,0.0,3932210,3932170,2490402,3932210,0,0.0048558065,0.0054892357,0.0070444136,0.0,1,1,1,0,50,50,50,0,1,1,1,0,50,50,50,0
47907075,3932210,3932170,2490402,3932210,0,0.04587237,0.06517591,0.08714771,0.0,3932210,3932170,2490402,3932210,0,0.004952102,0.005671893,0.0072738533,0.0,1,1,1,0,50,50,50,0,1,1,1,0,50,50,50,0
48106685,3932210,3932170,2490402,3932210,0,0.04628844,0.06342842,0.08735481,0.0,3932210,3932170,2490402,3932210,0,0.004748003,0.005728477,0.007247892,0.0,1,1,1,0,50,50,50,0,1,1,1,0,50,50,50,0
48306511,3932210,3932170,2490402,3932210,0,0.04342504,0.06291778,0.08600365,0.0,3932210,3932170,2490402,3932210,0,0.004797252,0.0056682215,0.006989894,0.0,1,1,1,0,50,50,50,0,1,1,1,0,50,50,50,0
48511332,3932210,3932170,2490402,3932210,0,0.041323043,0.060512412,0.08416534,0.0,3932210,3932170,2490402,3932210,0,0.004826397,0.0052853064,0.0067877863,0.0,1,1,1,0,50,50,50,0,1,1,1,0,50,50,50,0
48709399,2490402,3932170,2490402,3932210,0,0.01076288,0.020875255,0.019390384,0.0,2490402,3932170,2490402,3932210,0,0.0010074176,0.001094747,0.0012891198,0.0,1,1,1,0,50,50,50,0,1,1,1,0,50,50,50,0
48906428,2490402,3932170,2490402,3932210,0,0.036337223,0.057859782,0.074210934,0.0,2490402,3932170,2490402,3932210,0,0.004198004,0.004995398,0.0063573155,0.0,1,1,1,0,50,50,50,0,1,1,1,0,50,50,50,0
49108503,2490402,3932170,2490402,3932210,0,0.043998253,0.05980433,0.08437432,0.0,2490402,3932170,2490402,3932210,0,0.004824551,0.0053305146,0.0068981415,0.0,1,1,1,0,50,50,50,0,1,1,1,0,50,50,50,0
49305550,2490402,3932170,2490402,3932210,0,0.044945102,0.06916308,0.093560085,0.0,2490402,3932170,2490402,3932210,0,0.0049029505,0.005294167,0.0067385654,0.0,1,1,1,0,50,50,50,0,1,1,1,0,50,50,50,0
49507622,2490402,3932170,2490402,3932210,0,0.043063678,0.064125784,0.08338153,0.0,2490402,3932170,2490402,3932210,0,0.004664834,0.005429606,0.00692349,0.0,1,1,1,0,50,50,50,0,1,1,1,0,50,50,50,0
49704652,2490402,3932170,2490402,3932210,0,0.044493463,0.04589365,0.075970404,0.0,2490402,3932170,2490402,3932210,0,0.0046301065,0.005285439,0.0071053696,0.0,1,1,1,0,50,50,50,0,1,1,1,0,50,50,50,0
49911788,2490402,3932170,2490402,3932210,0,0.04126712,0.06699173,0.08667411,0.0,2490402,3932170,2490402,3932210,0,0.0048820092,0.0051732347,0.006659511,0.0,1,1,1,0,50,50,50,0,1,1,1,0,50,50,50,0
50108812,2490402,3932170,2490402,3932210,0,0.04191995,0.07237871,0.08999379,0.0,2490402,3932170,2490402,3932210,0,0.0048725647,0.0053503057,0.0068040476,0.0,1,1,1,0,50,50,50,0,1,1,1,0,50,50,50,0
50305812,2490402,3932170,2490402,3932210,0,0.045128334,0.06436131,0.090203464,0.0,2490402,3932170,2490402,3932210,0,0.0048295846,0.005324993,0.0070863757,0.0,1,1,1,0,50,50,50,0,1,1,1,0,50,50,50,0
50507892,2490402,3932170,2490402,3932210,0,0.045138773,0.060159266,0.08844268,0.0,2490402,3932170,2490402,3932210,0,0.004544012,0.0052975174,0.0067884433,0.0,1,1,1,0,50,50,50,0,1,1,1,0,50,50,50,0
50709971,2490402,3932170,2490402,3932210,0,0.042503793,0.06118562,0.081304796,0.0,2490402,3932170,2490402,3932210,0,0.0047249463,0.005184313,0.006814515,0.0,1,1,1,0,50,50,50,0,1,1,1,0,50,50,50,0
50906996,2490402,3932170,2490402,3932210,0,0.04382963,0.064173445,0.082881495,0.0,2490402,3932170,2490402,3932210,0,0.004796033,0.0052996664,0.0070751198,0.0,1,1,1,0,50,50,50,0,1,1,1,0,50,50,50,0
51104092,2490402,3932170,2490402,3932210,0,0.043932024,0.0563372,0.07260418,0.0,2490402,3932170,2490402,3932210,0,0.004853388,0.0054894863,0.0073695686,0.0,1,1,1,0,50,50,50,0,1,1,1,0,50,50,50,0
51311173,2490402,3932170,2490402,3932210,0,0.043287627,0.063483365,0.08424354,0.0,2490402,3932170,2490402,3932210,0,0.0051378775,0.0054459996,0.007096865,0.0,1,1,1,0,50,50,50,0,1,1,1,0,50,50,50,0
51508261,2490402,3932170,2490402,3932210,0,0.04611692,0.068172425,0.0890247,0.0,2490402,3932170,2490402,3932210,0,0.0049610958,0.005645054,0.0073519256,0.0,1,1,1,0,50,50,50,0,1,1,1,0,50,50,50,0
51710253,2490402,3932170,2490402,3932210,0,0.05108584,0.06166374,0.09119327,0.0,2490402,3932170,2490402,3932210,0,0.0050965366,0.005495937,0.007327555,0.0,1,1,1,0,50,50,50,0,1,1,1,0,50,50,50,0
51907280,2490402,3932170,2490402,3932210,0,0.046399634,0.053270668,0.081088886,0.0,2490402,3932170,2490402,3932210,0,0.0050799446,0.0053309877,0.0070029106,0.0,1,1,1,0,50,50,50,0,1,1,1,0,50,50,50,0
52108306,3932170,3932170,2490402,3932210,0,0.021594876,0.014333769,0.0201207,0.0,3932170,3932170,2490402,3932210,0,0.0018129825,0.0021270546,0.0026004454,0.0,1,1,1,0,50,50,50,0,1,1,1,0,50,50,50,0
52308170,3932170,3932170,2490402,3932210,0,0.03752463,0.05646344,0.07346199,0.0,3932170,3932170,2490402,3932210,0,0.004424303,0.0048055425,0.005928215,0.0,1,1,1,0,50,50,50,0,1,1,1,0,50,50,50,0
52508035,3932170,3932170,2490402,3932210,0,0.042747848,0.05333615,0.07570461,0.0,3932170,3932170,2490402,3932210,0,0.0044874134,0.0053018327,0.0067769424,0.0,1,1,1,0,50,50,50,0,1,1,1,0,50,50,50,0
52707896,3932170,3932170,2490402,3932210,0,0.03830219,0.0708511,0.083807245,0.0,3932170,3932170,2490402,3932210,0,0.0047286227,0.005325591,0.0069989944,0.0,1,1,1,0,50,50,50,0,1,1,1,0,50,50,50,0
52907910,3932170,3932170,2490402,3932210,0,0.041059405,0.06297368,0.079919286,0.0,3932170,3932170,2490402,3932210,0,0.0045284173,0.005113073,0.0065402123,0.0,1,1,1,0,50,50,50,0,1,1,1,0,50,50,50,0
53107625,3932170,3932170,2490402,3932210,0,0.036408674,0.07443827,0.08475154,0.0,3932170,3932170,2490402,3932210,0,0.004619759,0.005511381,0.007329612,0.0,1,1,1,0,50,50,50,0,1,1,1,0,50,50,50,0
53307489,3932170,3932170,2490402,3932210,0,0.041856594,0.058588445,0.07933916,0.0,3932170,3932170,2490402,3932210,0,0.0045585576,0.005058862,0.0063817957,0.0,1,1,1,0,50,50,50,0,1,1,1,0,50,50,50,0
53507352,3932170,3932170,2490402,3932210,0,0.03985327,0.064611815,0.07880224,0.0,3932170,3932170,2490402,3932210,0,0.004990772,0.005515542,0.0071421987,0.0,1,1,1,0,50,50,50,0,1,1,1,0,50,50,50,0
53707216,3932170,3932170,2490402,3932210,0,0.045473967,0.058526702,0.08145634,0.0,3932170,3932170,2490402,3932210,0,0.00457065,0.0051667574,0.006530692,0.0,1,1,1,0,50,50,50,0,1,1,1,0,50,50,50,0
53907078,3932170,3932170,2490402,3932210,0,0.043282643,0.062850595,0.080512576,0.0,3932170,3932170,2490402,3932210,0,0.0047695795,0.0055495636,0.00726212,0.0,1,1,1,0,50,50,50,0,1,1,1,0,50,50,50,0
54106950,3932170,3932170,2490402,3932210,0,0.04390193,0.059781473,0.08213685,0.0,3932170,3932170,2490402,3932210,0,0.0044202297,0.004884364,0.006100828,0.0,1,1,1,0,50,50,50,0,1,1,1,0,50,50,50,0
54306815,3932170,3932170,2490402,3932210,0,0.042785294,0.06707085,0.08399571,0.0,3932170,3932170,2490402,3932210,0,0.0045823385,0.00543778,0.0071391994,0.0,1,1,1,0,50,50,50,0,1,1,1,0,50,50,50,0
54506670,3932170,3932170,2490402,3932210,0,0.045689285,0.059354212,0.08408903,0.0,3932170,3932170,2490402,3932210,0,0.0044216253,0.005284752,0.0065070377,0.0,1,1,1,0,50,50,50,0,1,1,1,0,50,50,50,0
54706534,3932170,3932170,2490402,3932210,0,0.04680229,0.059127983,0.08663201,0.0,3932170,3932170,2490402,3932210,0,0.004749406,0.0054978686,0.007296465,0.0,1,1,1,0,50,50,50,0,1,1,1,0,50,50,50,0
54906408,3932170,3932170,2490402,3932210,0,0.048327103,0.057593696,0.08856299,0.0,3932170,3932170,2490402,3932210,0,0.005138421,0.005459932,0.00700595,0.0,1,1,1,0,50,50,50,0,1,1,1,0,50,50,50,0
55106258,3932170,3932170,2490402,3932210,0,0.048661057,0.0629834,0.09213698,0.0,3932170,3932170,2490402,3932210,0,0.0047412175,0.0056008813,0.0070734546,0.0,1,1,1,0,50,50,50,0,1,1,1,0,50,50,50,0
55306127,3932170,3932170,2490402,3932210,0,0.04817134,0.06874374,0.0917952,0.0,3932170,3932170,2490402,3932210,0,0.0050317594,0.005478745,0.007157992,0.0,1,1,1,0,50,50,50,0,1,1,1,0,50,50,50,0
55510980,3932170,3932170,2490402,3932210,0,0.049982034,0.06478172,0.09016389,0.0,3932170,3932170,2490402,3932210,0,0.004889976,0.0054099257,0.0072536585,0.0,1,1,1,0,50,50,50,0,1,1,1,0,50,50,50,0
55710842,3932170,3932170,2490402,3932210,0,0.048644297,0.051938754,0.08091262,0.0,3932170,3932170,2490402,3932210,0,0.0052810274,0.0057131066,0.007218619,0.0,1,1,1,0,50,50,50,0,1,1,1,0,50,50,50,0
55910726,3932170,3932170,2490402,3932210,0,0.047508825,0.06169264,0.0859458,0.0,3932170,3932170,2490402,3932210,0,0.0048015052,0.0052572126,0.0069603007,0.0,1,1,1,0,50,50,50,0,1,1,1,0,50,50,50,0
56105573,3932170,3932170,2490402,3932210,0,0.04440685,0.062678315,0.0844337,0.0,3932170,3932170,2490402,3932210,0,0.0049454817,0.0056903907,0.00738313,0.0,1,1,1,0,50,50,50,0,1,1,1,0,50,50,50,0
56305452,3932170,3932170,2490402,3932210,0,0.031013146,0.045497667,0.06017462,0.0,3932170,3932170,2490402,3932210,0,0.0035459066,0.0036929839,0.0048620664,0.0,1,1,1,0,50,50,50,0,1,1,1,0,50,50,50,0
56505300,3932170,3932170,2490402,3932210,0,0.03662175,0.06400578,0.07958256,0.0,3932170,3932170,2490402,3932210,0,0.0046030525,0.0049507734,0.0065346495,0.0,1,1,1,0,50,50,50,0,1,1,1,0,50,50,50,0
56705163,3932170,3932170,2490402,3932210,0,0.03767879,0.069142975,0.0845683,0.0,3932170,3932170,2490402,3932210,0,0.004784807,0.0056906063,0.007146169,0.0,1,1,1,0,50,50,50,0,1,1,1,0,50,50,50,0
56910026,3932170,3932170,2490402,3932210,0,0.043871023,0.068235606,0.089878,0.0,3932170,3932170,2490402,3932210,0,0.004639364,0.0052285125,0.0067233895,0.0,1,1,1,0,50,50,50,0,1,1,1,0,50,50,50,0
57109886,3932170,3932170,2490402,3932210,0,0.046095543,0.06250251,0.085823335,0.0,3932170,3932170,2490402,3932210,0,0.004295797,0.0055827843,0.0072979312,0.0,1,1,1,0,50,50,50,0,1,1,1,0,50,50,50,0
57309749,3932170,3932170,2490402,3932210,0,0.042483978,0.06583395,0.08426288,0.0,3932170,3932170,2490402,3932210,0,0.0047331327,0.005314427,0.006785997,0.0,1,1,1,0,50,50,50,0,1,1,1,0,50,50,50,0
57509611,3932170,3932170,2490402,3932210,0,0.04485503,0.05944388,0.086105265,0.0,3932170,3932170,2490402,3932210,0,0.004507187,0.005495708,0.006900507,0.0,1,1,1,0,50,50,50,0,1,1,1,0,50,50,50,0
57709493,3932170,3932170,2490402,3932210,0,0.04334239,0.06751109,0.08879832,0.0,3932170,3932170,2490402,3932210,0,0.0047766357,0.0053187185,0.0070131742,0.0,1,1,1,0,50,50,50,0,1,1,1,0,50,50,50,0
57904349,3932170,3932170,2490402,3932210,0,0.046059463,0.064490445,0.09049105,0.0,3932170,3932170,2490402,3932210,0,0.0049214154,0.0051674168,0.0069621312,0.0,1,1,1,0,50,50,50,0,1,1,1,0,50,50,50,0
58104206,3932170,3932170,2490402,3932210,0,0.04825123,0.06305869,0.08962535,0.0,3932170,3932170,2490402,3932210,0,0.005078688,0.005763961,0.0074890754,0.0,1,1,1,0,50,50,50,0,1,1,1,0,50,50,50,0
58304072,3932170,3932170,2490402,3932210,0,0.047814433,0.063630946,0.09023186,0.0,3932170,3932170,2490402,3932210,0,0.004752259,0.005300552,0.0068104733,0.0,1,1,1,0,50,50,50,0,1,1,1,0,50,50,50,0
58508934,3932170,3932170,2490402,3932210,0,0.042225234,0.071857184,0.08910616,0.0,3932170,3932170,2490402,3932210,0,0.0049668415,0.005628049,0.007436069,0.0,1,1,1,0,50,50,50,0,1,1,1,0,50,50,50,0
58707186,2490402,3932170,2490402,3932210,0,0.008058499,0.012983907,0.01582941,0.0,2490402,3932170,2490402,3932210,0,0.00071186747,0.00074102636,0.000960675,0.0,1,1,1,0,50,50,50,0,1,1,1,0,50,50,50,0
58909296,2490402,3932170,2490402,3932210,0,0.039262272,0.05713476,0.07855346,0.0,2490402,3932170,2490402,3932210,0,0.004665404,0.004942583,0.006654401,0.0,1,1,1,0,50,50,50,0,1,1,1,0,50,50,50,0
59106287,2490402,3932170,2490402,3932210,0,0.043105803,0.068313085,0.087995715,0.0,2490402,3932170,2490402,3932210,0,0.0047627427,0.0054554655,0.0069819908,0.0,1,1,1,0,50,50,50,0,1,1,1,0,50,50,50,0
59308441,2490402,3932170,2490402,3932210,0,0.05362501,0.056862704,0.08511853,0.0,2490402,3932170,2490402,3932210,0,0.0048269383,0.0057275067,0.0074090525,0.0,1,1,1,0,50,50,50,0,1,1,1,0,50,50,50,0
59505435,2490402,3932170,2490402,3932210,0,0.04819243,0.055068865,0.08446313,0.0,2490402,3932170,2490402,3932210,0,0.0051678377,0.0054629184,0.007527102,0.0,1,1,1,0,50,50,50,0,1,1,1,0,50,50,50,0
59707488,2490402,3932170,2490402,3932210,0,0.04566211,0.06525119,0.08326665,0.0,2490402,3932170,2490402,3932210,0,0.005291786,0.0054917964,0.0073442063,0.0,1,1,1,0,50,50,50,0,1,1,1,0,50,50,50,0
59909564,2490402,3932170,2490402,3932210,0,0.045639586,0.06116962,0.08643306,0.0,2490402,3932170,2490402,3932210,0,0.005159534,0.005865934,0.0077478183,0.0,1,1,1,0,50,50,50,0,1,1,1,0,50,50,50,0
60106570,2490402,3932170,2490402,3932210,0,0.04730943,0.060722522,0.0874256,0.0,2490402,3932170,2490402,3932210,0,0.005090169,0.0054508257,0.007179573,0.0,1,1,1,0,50,50,50,0,1,1,1,0,50,50,50,0
60308647,2490402,3932170,2490402,3932210,0,0.04674244,0.060021706,0.087636776,0.0,2490402,3932170,2490402,3932210,0,0.005026586,0.0055538863,0.007331709,0.0,1,1,1,0,50,50,50,0,1,1,1,0,50,50,50,0
60505696,2490402,3932170,2490402,3932210,0,0.04734515,0.06653224,0.09298703,0.0,2490402,3932170,2490402,3932210,0,0.005068255,0.005754799,0.007502376,0.0,1,1,1,0,50,50,50,0,1,1,1,0,50,50,50,0
60707750,2490402,3932170,2490402,3932210,0,0.04540503,0.06812516,0.09134591,0.0,2490402,3932170,2490402,3932210,0,0.0052322587,0.0056409314,0.007239326,0.0,1,1,1,0,50,50,50,0,1,1,1,0,50,50,50,0
60904806,2490402,3932170,2490402,3932210,0,0.04645076,0.065621264,0.09187158,0.0,2490402,3932170,2490402,3932210,0,0.004904812,0.0055026496,0.0071872375,0.0,1,1,1,0,50,50,50,0,1,1,1,0,50,50,50,0
61106854,2490402,3932170,2490402,3932210,0,0.04433081,0.06751653,0.09321053,0.0,2490402,3932170,2490402,3932210,0,0.004907289,0.0053318692,0.0068340497,0.0,1,1,1,0,50,50,50,0,1,1,1,0,50,50,50,0
61308931,2490402,3932170,2490402,3932210,0,0.043076094,0.063922465,0.087502725,0.0,2490402,3932170,2490402,3932210,0,0.0046502138,0.0054819887,0.007123913,0.0,1,1,1,0,50,50,50,0,1,1,1,0,50,50,50,0
61505972,2490402,3932170,2490402,3932210,0,0.04469571,0.06563545,0.08975704,0.0,2490402,3932170,2490402,3932210,0,0.004742625,0.0054319715,0.007034883,0.0,1,1,1,0,50,50,50,0,1,1,1,0,50,50,50,0
61708035,2490402,3932170,2490402,3932210,0,0.04407054,0.06370426,0.08698986,0.0,2490402,3932170,2490402,3932210,0,0.0045285714,0.0053546587,0.0067143245,0.0,1,1,1,0,50,50,50,0,1,1,1,0,50,50,50,0
61905063,2490402,3932170,2490402,3932210,0,0.03999255,0.06598018,0.08310523,0.0,2490402,3932170,2490402,3932210,0,0.004644463,0.005568594,0.006996767,0.0,1,1,1,0,50,50,50,0,1,1,1,0,50,50,50,0
62107141,2490402,3932170,2490402,3932210,0,0.044534795,0.06266199,0.085531935,0.0,2490402,3932170,2490402,3932210,0,0.004769404,0.0055228067,0.007208897,0.0,1,1,1,0,50,50,50,0,1,1,1,0,50,50,50,0
62304175,2490402,3932170,2490402,3932210,0,0.046773523,0.06258362,0.08661622,0.0,2490402,3932170,2490402,3932210,0,0.004813853,0.0056231464,0.0074677104,0.0,1,1,1,0,50,50,50,0,1,1,1,0,50,50,50,0
62511578,2490402,3932170,2490402,3932210,0,0.050107844,0.06387427,0.09050233,0.0,2490402,3932170,2490402,3932210,0,0.0046422984,0.0053533954,0.0069526825,0.0,1,1,1,0,50,50,50,0,1,1,1,0,50,50,50,0
62708338,2490402,3932170,2490402,3932210,0,0.04417598,0.057873055,0.079026274,0.0,2490402,3932170,2490402,3932210,0,0.0047545764,0.0055091935,0.00735259,0.0,1,1,1,0,50,50,50,0,1,1,1,0,50,50,50,0
62910399,2490402,3932170,2490402,3932210,0,0.046901565,0.06496751,0.0884923,0.0,2490402,3932170,2490402,3932210,0,0.0047705397,0.0052604834,0.0069264486,0.0,1,1,1,0,50,50,50,0,1,1,1,0,50,50,50,0
63107424,2490402,3932170,2490402,3932210,0,0.047402877,0.06549772,0.091313176,0.0,2490402,3932170,2490402,3932210,0,0.004588676,0.0055399695,0.0072527924,0.0,1,1,1,0,50,50,50,0,1,1,1,0,50,50,50,0
63309501,2490402,3932170,2490402,3932210,0,0.047756486,0.062908635,0.090134576,0.0,2490402,3932170,2490402,3932210,0,0.004646204,0.0054832883,0.0070917313,0.0,1,1,1,0,50,50,50,0,1,1,1,0,50,50,50,0
63506525,2490402,3932170,2490402,3932210,0,0.046709288,0.06084963,0.08913309,0.0,2490402,3932170,2490402,3932210,0,0.0051262416,0.0056691766,0.0075953575,0.0,1,1,1,0,50,50,50,0,1,1,1,0,50,50,50,0
63708605,2490402,3932170,2490402,3932210,0,0.051126726,0.0641788,0.09410662,0.0,2490402,3932170,2490402,3932210,0,0.0047600493,0.005513188,0.0071903844,0.0,1,1,1,0,50,50,50,0,1,1,1,0,50,50,50,0
63905627,2490402,3932170,2490402,3932210,0,0.04814435,0.062448338,0.09095645,0.0,2490402,3932170,2490402,3932210,0,0.004913843,0.005627145,0.0073359977,0.0,1,1,1,0,50,50,50,0,1,1,1,0,50,50,50,0
64107714,2490402,3932170,2490402,3932210,0,0.044997405,0.064520836,0.08501812,0.0,2490402,3932170,2490402,3932210,0,0.004837403,0.005639977,0.007208896,0.0,1,1,1,0,50,50,50,0,1,1,1,0,50,50,50,0
64309809,2490402,3932170,2490402,3932210,0,0.045659367,0.064302444,0.08721811,0.0,2490402,3932170,2490402,3932210,0,0.005101901,0.005693698,0.0072994633,0.0,1,1,1,0,50,50,50,0,1,1,1,0,50,50,50,0
64506833,2490402,3932170,2490402,3932210,0,0.04612794,0.060120296,0.08130598,0.0,2490402,3932170,2490402,3932210,0,0.005084792,0.0056655216,0.0074074334,0.0,1,1,1,0,50,50,50,0,1,1,1,0,50,50,50,0
64708889,2490402,3932170,2490402,3932210,0,0.044079922,0.0635155,0.08082167,0.0,2490402,3932170,2490402,3932210,0,0.005106415,0.005211207,0.006843089,0.0,1,1,1,0,50,50,50,0,1,1,1,0,50,50,50,0
64905921,2490402,3932170,2490402,3932210,0,0.043411672,0.06297285,0.083632186,0.0,2490402,3932170,2490402,3932210,0,0.0049951966,0.0056338212,0.0073722904,0.0,1,1,1,0,50,50,50,0,1,1,1,0,50,50,50,0
65107990,2490402,3932170,2490402,3932210,0,0.04639106,0.061671857,0.086095795,0.0,2490402,3932170,2490402,3932210,0,0.0044778837,0.005379657,0.0068280725,0.0,1,1,1,0,50,50,50,0,1,1,1,0,50,50,50,0
65310070,2490402,3932170,2490402,3932210,0,0.0471476,0.060716767,0.08498208,0.0,2490402,3932170,2490402,3932210,0,0.0048213555,0.005468495,0.006913379,0.0,1,1,1,0,50,50,50,0,1,1,1,0,50,50,50,0
65507100,2490402,3932170,2490402,3932210,0,0.040989332,0.06536396,0.08543502,0.0,2490402,3932170,2490402,3932210,0,0.0044368925,0.005392298,0.0068768845,0.0,1,1,1,0,50,50,50,0,1,1,1,0,50,50,50,0
65709325,2490402,3932170,2490402,3932210,0,0.043158688,0.06493054,0.08767413,0.0,2490402,3932170,2490402,3932210,0,0.0047666244,0.0053917146,0.007082372,0.0,1,1,1,0,50,50,50,0,1,1,1,0,50,50,50,0
65906206,2490402,3932170,2490402,3932210,0,0.04339518,0.06545162,0.085532814,0.0,2490402,3932170,2490402,3932210,0,0.0047346805,0.0053566913,0.0069488403,0.0,1,1,1,0,50,50,50,0,1,1,1,0,50,50,50,0
66108318,2490402,3932170,2490402,3932210,0,0.045038406,0.06452132,0.08508708,0.0,2490402,3932170,2490402,3932210,0,0.0046757977,0.0055373837,0.007116531,0.0,1,1,1,0,50,50,50,0,1,1,1,0,50,50,50,0
66305312,2490402,3932170,2490402,3932210,0,0.047479805,0.06476632,0.09138409,0.0,2490402,3932170,2490402,3932210,0,0.004881087,0.005607983,0.007381471,0.0,1,1,1,0,50,50,50,0,1,1,1,0,50,50,50,0
66507379,2490402,3932170,2490402,3932210,0,0.049455162,0.063903384,0.087924145,0.0,2490402,3932170,2490402,3932210,0,0.0047314884,0.005486792,0.007056573,0.0,1,1,1,0,50,50,50,0,1,1,1,0,50,50,50,0
66709456,2490402,3932170,2490402,3932210,0,0.048681572,0.062261634,0.08872729,0.0,2490402,3932170,2490402,3932210,0,0.004879374,0.0057330523,0.0075431503,0.0,1,1,1,0,50,50,50,0,1,1,1,0,50,50,50,0
66906481,2490402,3932170,2490402,3932210,0,0.046064835,0.068853855,0.091075145,0.0,2490402,3932170,2490402,3932210,0,0.0050148903,0.005565557,0.0074276915,0.0,1,1,1,0,50,50,50,0,1,1,1,0,50,50,50,0
67108560,2490402,3932170,2490402,3932210,0,0.046076715,0.06671331,0.088605314,0.0,2490402,3932170,2490402,3932210,0,0.0048819976,0.0056194924,0.007190314,0.0,1,1,1,0,50,50,50,0,1,1,1,0,50,50,50,0
67305587,2490402,3932170,2490402,3932210,0,0.05032982,0.06114205,0.09088905,0.0,2490402,3932170,2490402,3932210,0,0.0047134147,0.0054230536,0.006919214,0.0,1,1,1,0,50,50,50,0,1,1,1,0,50,50,50,0
67507662,2490402,3932170,2490402,3932210,0,0.047744974,0.061007395,0.08796319,0.0,2490402,3932170,2490402,3932210,0,0.0050498135,0.00550161,0.007210733,0.0,1,1,1,0,50,50,50,0,1,1,1,0,50,50,50,0
67704692,2490402,3932170,2490402,3932210,0,0.047663227,0.06220728,0.087660536,0.0,2490402,3932170,2490402,3932210,0,0.0051783924,0.0056542563,0.007263504,0.0,1,1,1,0,50,50,50,0,1,1,1,0,50,50,50,0
67906764,2490402,3932170,2490402,3932210,0,0.04740281,0.06758759,0.09090004,0.0,2490402,3932170,2490402,3932210,0,0.00491903,0.005652547,0.007339734,0.0,1,1,1,0,50,50,50,0,1,1,1,0,50,50,50,0
68109066,2490402,3932170,2490402,3932210,0,0.046648208,0.06515741,0.08873084,0.0,2490402,3932170,2490402,3932210,0,0.0049718847,0.0055623758,0.0071848063,0.0,1,1,1,0,50,50,50,0,1,1,1,0,50,50,50,0
68310924,2490402,3932170,2490402,3932210,0,0.048351858,0.060539447,0.08698448,0.0,2490402,3932170,2490402,3932210,0,0.0048491824,0.0055031106,0.007015979,0.0,1,1,1,0,50,50,50,0,1,1,1,0,50,50,50,0
68508692,3932210,3932170,2490402,3932210,0,0.024697846,0.038585655,0.04855096,0.0,3932210,3932170,2490402,3932210,0,0.002419087,0.0028907252,0.0036207575,0.0,1,1,1,0,50,50,50,0,1,1,1,0,50,50,50,0
68708520,3932210,3932170,2490402,3932210,0,0.041843243,0.06406077,0.0838217,0.0,3932210,3932170,2490402,3932210,0,0.004361776,0.0051372414,0.0067644333,0.0,1,1,1,0,50,50,50,0,1,1,1,0,50,50,50,0
68908345,3932210,3932170,2490402,3932210,0,0.044061605,0.0639395,0.08363452,0.0,3932210,3932170,2490402,3932210,0,0.004658206,0.00523943,0.0068135345,0.0,1,1,1,0,50,50,50,0,1,1,1,0,50,50,50,0
69108167,3932210,3932170,2490402,3932210,0,0.046006255,0.060514517,0.08547518,0.0,3932210,3932170,2490402,3932210,0,0.004473023,0.0054021906,0.006871667,0.0,1,1,1,0,50,50,50,0,1,1,1,0,50,50,50,0
69306558,3932170,3932170,2490402,3932210,0,0.03228951,0.047313478,0.064643666,0.0,3932170,3932170,2490402,3932210,0,0.00326531,0.003879832,0.0049301377,0.0,1,1,1,0,50,50,50,0,1,1,1,0,50,50,50,0
69506435,3932170,3932170,2490402,3932210,0,0.045360688,0.060669143,0.08529628,0.0,3932170,3932170,2490402,3932210,0,0.0039995345,0.005150217,0.0064696907,0.0,1,1,1,0,50,50,50,0,1,1,1,0,50,50,50,0
69711281,3932170,3932170,2490402,3932210,0,0.047704294,0.060720235,0.08722206,0.0,3932170,3932170,2490402,3932210,0,0.0046716672,0.005880334,0.007502472,0.0,1,1,1,0,50,50,50,0,1,1,1,0,50,50,50,0
69906152,3932170,3932170,2490402,3932210,0,0.052219152,0.060803592,0.09222665,0.0,3932170,3932170,2490402,3932210,0,0.0048679104,0.0054378505,0.0069958325,0.0,1,1,1,0,50,50,50,0,1,1,1,0,50,50,50,0
70106013,3932170,3932170,2490402,3932210,0,0.051692225,0.06163257,0.094152816,0.0,3932170,3932170,2490402,3932210,0,0.004777754,0.0058692945,0.0074863527,0.0,1,1,1,0,50,50,50,0,1,1,1,0,50,50,50,0
70306083,3932170,3932170,2490402,3932210,0,0.04935886,0.06181485,0.08740342,0.0,3932170,3932170,2490402,3932210,0,0.0052742455,0.005540512,0.0071856505,0.0,1,1,1,0,50,50,50,0,1,1,1,0,50,50,50,0
70505970,3932170,3932170,2490402,3932210,0,0.042798243,0.053895593,0.07918902,0.0,3932170,3932170,2490402,3932210,0,0.0038609514,0.0047121323,0.0061961054,0.0,1,1,1,0,50,50,50,0,1,1,1,0,50,50,50,0
70705606,3932170,3932170,2490402,3932210,0,0.044120107,0.06349687,0.08451223,0.0,3932170,3932170,2490402,3932210,0,0.005137522,0.0056322934,0.007558552,0.0,1,1,1,0,50,50,50,0,1,1,1,0,50,50,50,0
70910464,3932170,3932170,2490402,3932210,0,0.048270702,0.06379646,0.08606074,0.0,3932170,3932170,2490402,3932210,0,0.0049635507,0.005401476,0.007073887,0.0,1,1,1,0,50,50,50,0,1,1,1,0,50,50,50,0
71110332,3932170,3932170,2490402,3932210,0,0.04444109,0.0672595,0.09044496,0.0,3932170,3932170,2490402,3932210,0,0.0050470987,0.0056205685,0.0072453762,0.0,1,1,1,0,50,50,50,0,1,1,1,0,50,50,50,0
71310193,3932170,3932170,2490402,3932210,0,0.04786531,0.06318969,0.08613735,0.0,3932170,3932170,2490402,3932210,0,0.0045656324,0.005416701,0.0068428298,0.0,1,1,1,0,50,50,50,0,1,1,1,0,50,50,50,0
71510053,3932170,3932170,2490402,3932210,0,0.044040922,0.06305228,0.0853404,0.0,3932170,3932170,2490402,3932210,0,0.0048629,0.005688499,0.007605422,0.0,1,1,1,0,50,50,50,0,1,1,1,0,50,50,50,0
71704921,3932170,3932170,2490402,3932210,0,0.040574335,0.06256551,0.08027633,0.0,3932170,3932170,2490402,3932210,0,0.0047867834,0.0053688185,0.0068663512,0.0,1,1,1,0,50,50,50,0,1,1,1,0,50,50,50,0
71904788,3932170,3932170,2490402,3932210,0,0.046688788,0.06606311,0.08867516,0.0,3932170,3932170,2490402,3932210,0,0.0048247343,0.005732662,0.007446347,0.0,1,1,1,0,50,50,50,0,1,1,1,0,50,50,50,0
72104650,3932170,3932170,2490402,3932210,0,0.04560102,0.06216786,0.086333245,0.0,3932170,3932170,2490402,3932210,0,0.004867102,0.005578497,0.007122655,0.0,1,1,1,0,50,50,50,0,1,1,1,0,50,50,50,0
72309536,3932170,3932170,2490402,3932210,0,0.044874504,0.06379619,0.08198039,0.0,3932170,3932170,2490402,3932210,0,0.0049017193,0.0055804593,0.0072187036,0.0,1,1,1,0,50,50,50,0,1,1,1,0,50,50,50,0
72509371,3932170,3932170,2490402,3932210,0,0.043218933,0.06573309,0.0846498,0.0,3932170,3932170,2490402,3932210,0,0.0049504037,0.0053145923,0.006981306,0.0,1,1,1,0,50,50,50,0,1,1,1,0,50,50,50,0
72709236,3932170,3932170,2490402,3932210,0,0.042717073,0.06474312,0.08380097,0.0,3932170,3932170,2490402,3932210,0,0.0045447494,0.0056678727,0.0073149647,0.0,1,1,1,0,50,50,50,0,1,1,1,0,50,50,50,0
72909107,3932170,3932170,2490402,3932210,0,0.044834346,0.06345629,0.08657824,0.0,3932170,3932170,2490402,3932210,0,0.0049450924,0.005586841,0.007302147,0.0,1,1,1,0,50,50,50,0,1,1,1,0,50,50,50,0
73108961,3932170,3932170,2490402,3932210,0,0.04763012,0.06168681,0.086799815,0.0,3932170,3932170,2490402,3932210,0,0.004661174,0.0055128504,0.007173828,0.0,1,1,1,0,50,50,50,0,1,1,1,0,50,50,50,0
73309027,3932170,3932170,2490402,3932210,0,0.046166353,0.06286926,0.08450725,0.0,3932170,3932170,2490402,3932210,0,0.0052245893,0.0055362796,0.0072272345,0.0,1,1,1,0,50,50,50,0,1,1,1,0,50,50,50,0
73508697,3932170,3932170,2490402,3932210,0,0.041282795,0.06232028,0.07954311,0.0,3932170,3932170,2490402,3932210,0,0.0047205063,0.0054255757,0.0071876757,0.0,1,1,1,0,50,50,50,0,1,1,1,0,50,50,50,0
73708556,3932170,3932170,2490402,3932210,0,0.045884386,0.06425373,0.08832805,0.0,3932170,3932170,2490402,3932210,0,0.0046518147,0.0054938146,0.007204,0.0,1,1,1,0,50,50,50,0,1,1,1,0,50,50,50,0
73908453,3932170,3932170,2490402,3932210,0,0.044713903,0.0655221,0.08616115,0.0,3932170,3932170,2490402,3932210,0,0.005209447,0.005748126,0.007589833,0.0,1,1,1,0,50,50,50,0,1,1,1,0,50,50,50,0
74108281,3932170,3932170,2490402,3932210,0,0.04843707,0.062960185,0.089814045,0.0,3932170,3932170,2490402,3932210,0,0.004901813,0.005269676,0.006940779,0.0,1,1,1,0,50,50,50,0,1,1,1,0,50,50,50,0
74308153,3932170,3932170,2490402,3932210,0,0.046485048,0.060432542,0.08233977,0.0,3932170,3932170,2490402,3932210,0,0.004702928,0.00545763,0.006979138,0.0,1,1,1,0,50,50,50,0,1,1,1,0,50,50,50,0
74508015,3932170,3932170,2490402,3932210,0,0.040848147,0.06544261,0.0822045,0.0,3932170,3932170,2490402,3932210,0,0.005013651,0.0052994066,0.006985771,0.0,1,1,1,0,50,50,50,0,1,1,1,0,50,50,50,0
74707876,3932170,3932170,2490402,3932210,0,0.04196485,0.06491886,0.08642043,0.0,3932170,3932170,2490402,3932210,0,0.0044073584,0.005343233,0.006651217,0.0,1,1,1,0,50,50,50,0,1,1,1,0,50,50,50,0
74907739,3932170,3932170,2490402,3932210,0,0.047033455,0.064302646,0.08901978,0.0,3932170,3932170,2490402,3932210,0,0.0048432136,0.0054946966,0.00716187,0.0,1,1,1,0,50,50,50,0,1,1,1,0,50,50,50,0
75107623,3932170,3932170,2490402,3932210,0,0.04318232,0.06210217,0.08232038,0.0,3932170,3932170,2490402,3932210,0,0.004382398,0.0052867862,0.006920682,0.0,1,1,1,0,50,50,50,0,1,1,1,0,50,50,50,0
75307489,3932170,3932170,2490402,3932210,0,0.041920565,0.060051285,0.07964822,0.0,3932170,3932170,2490402,3932210,0,0.0047827857,0.005639225,0.0073040565,0.0,1,1,1,0,50,50,50,0,1,1,1,0,50,50,50,0
75507424,3932170,3932170,2490402,3932210,0,0.04526431,0.062248968,0.08365525,0.0,3932170,3932170,2490402,3932210,0,0.004491548,0.005333969,0.006761215,0.0,1,1,1,0,50,50,50,0,1,1,1,0,50,50,50,0
75707208,3932170,3932170,2490402,3932210,0,0.052411593,0.065148875,0.095976025,0.0,3932170,3932170,2490402,3932210,0,0.005032926,0.0055281566,0.007702049,0.0,1,1,1,0,50,50,50,0,1,1,1,0,50,50,50,0
75907061,3932170,3932170,2490402,3932210,0,0.049682964,0.06154654,0.08804312,0.0,3932170,3932170,2490402,3932210,0,0.004978928,0.005247835,0.00698926,0.0,1,1,1,0,50,50,50,0,1,1,1,0,50,50,50,0
76106924,3932170,3932170,2490402,3932210,0,0.048757154,0.060478404,0.08585761,0.0,3932170,3932170,2490402,3932210,0,0.0045320266,0.005620747,0.007093458,0.0,1,1,1,0,50,50,50,0,1,1,1,0,50,50,50,0
76306784,3932170,3932170,2490402,3932210,0,0.047799572,0.062120873,0.088446446,0.0,3932170,3932170,2490402,3932210,0,0.0048421375,0.0055697025,0.007165193,0.0,1,1,1,0,50,50,50,0,1,1,1,0,50,50,50,0
76511645,3932170,3932170,2490402,3932210,0,0.047600124,0.060148016,0.08539935,0.0,3932170,3932170,2490402,3932210,0,0.0048224307,0.005652046,0.0072982805,0.0,1,1,1,0,50,50,50,0,1,1,1,0,50,50,50,0
76706511,3932170,3932170,2490402,3932210,0,0.04366073,0.06396513,0.084317185,0.0,3932170,3932170,2490402,3932210,0,0.0050535304,0.0053249695,0.0071107782,0.0,1,1,1,0,50,50,50,0,1,1,1,0,50,50,50,0
76906415,3932170,3932170,2490402,3932210,0,0.047013383,0.06460066,0.08666723,0.0,3932170,3932170,2490402,3932210,0,0.004973723,0.0055364342,0.0071265767,0.0,1,1,1,0,50,50,50,0,1,1,1,0,50,50,50,0
77106305,3932170,3932170,2490402,3932210,0,0.0459994,0.065777205,0.085348465,0.0,3932170,3932170,2490402,3932210,0,0.0050053117,0.0055340906,0.007182912,0.0,1,1,1,0,50,50,50,0,1,1,1,0,50,50,50,0
77306134,3932170,3932170,2490402,3932210,0,0.045937404,0.059497967,0.081854016,0.0,3932170,3932170,2490402,3932210,0,0.004837642,0.0056109326,0.0072247665,0.0,1,1,1,0,50,50,50,0,1,1,1,0,50,50,50,0
