timestamp,timestamp_sample,q[0],q[1],q[2],q[3],delta_q_reset[0],delta_q_reset[1],delta_q_reset[2],delta_q_reset[3],quat_reset_counter
17361788,17361391,0.4653894,0.00954131,-0.018853433,0.88485384,1.0,-5.8522194e-11,-4.383322e-09,-0.00020502185,3
17861444,17861049,0.46534917,0.009539885,-0.018796414,0.88487625,1.0,-5.8522194e-11,-4.383322e-09,-0.00020502185,3
18361101,18360708,0.46526995,0.0095488485,-0.018804627,0.8849176,1.0,-5.8522194e-11,-4.383322e-09,-0.00020502185,3
18860762,18860366,0.46512577,0.00950233,-0.018838825,0.88499314,1.0,-5.8522194e-11,-4.383322e-09,-0.00020502185,3
19360419,19360025,0.46500716,0.009480743,-0.0188076,0.8850564,1.0,-5.8522194e-11,-4.383322e-09,-0.00020502185,3
19860076,19859683,0.46495235,0.009205407,-0.019237688,0.88507885,1.0,-5.8522194e-11,-4.383322e-09,-0.00020502185,3
20364728,20364338,0.46477988,0.009234065,-0.019264234,0.88516855,1.0,-5.8522194e-11,-4.383322e-09,-0.00020502185,3
20864388,20863996,0.46470967,0.009238618,-0.019267496,0.8852053,1.0,-5.8522194e-11,-4.383322e-09,-0.00020502185,3
21364045,21363654,0.46470842,0.009450612,-0.018909032,0.88521147,1.0,-5.8522194e-11,-4.383322e-09,-0.00020502185,3
21858708,21858316,0.46473056,0.0093740225,-0.018945262,0.8851998,1.0,-5.8522194e-11,-4.383322e-09,-0.00020502185,3
22358369,22357974,0.46473268,0.009434323,-0.019095568,0.8851948,1.0,-5.8522194e-11,-4.383322e-09,-0.00020502185,3
22863021,22862629,0.4648147,0.009461704,-0.018971454,0.8851542,1.0,-5.8522194e-11,-4.383322e-09,-0.00020502185,3
23362678,23362287,0.46483245,0.009570626,-0.018869452,0.88514584,1.0,-5.8522194e-11,-4.383322e-09,-0.00020502185,3
23862336,23861945,0.46351483,0.009455076,-0.018975938,0.8858355,1.0,-5.8522194e-11,-4.383322e-09,-0.00020502185,3
24361997,24361604,0.4603458,0.009796184,-0.019041752,0.88748133,1.0,-5.8522194e-11,-4.383322e-09,-0.00020502185,3
24861651,24861261,0.4584854,0.009801889,-0.01914361,0.8884416,1.0,-5.8522194e-11,-4.383322e-09,-0.00020502185,3
25361313,25360919,0.4557694,0.009681631,-0.019161992,0.88983893,1.0,-5.8522194e-11,-4.383322e-09,-0.00020502185,3
25860993,25860580,0.45429197,0.010171275,-0.020076597,0.89056855,1.0,-5.8522194e-11,-4.383322e-09,-0.00020502185,3
26360629,26360235,0.45383042,0.010067821,-0.019828096,0.89081055,1.0,-5.8522194e-11,-4.383322e-09,-0.00020502185,3
26860282,26859893,0.4529299,0.010215243,-0.0201658,0.8912595,1.0,-5.8522194e-11,-4.383322e-09,-0.00020502185,3
27359967,27359550,0.452487,0.010278938,-0.019886164,0.8914901,1.0,-5.8522194e-11,-4.383322e-09,-0.00020502185,3
27864595,27864205,0.4519565,0.010519358,-0.019565394,0.8917634,1.0,-5.8522194e-11,-4.383322e-09,-0.00020502185,3
28364254,28363863,0.45145223,0.010508669,-0.019396536,0.89202255,1.0,-5.8522194e-11,-4.383322e-09,-0.00020502185,3
28858917,28858524,0.45117438,0.01069566,-0.019191986,0.89216536,1.0,-5.8522194e-11,-4.383322e-09,-0.00020502185,3
29358700,29358182,0.45074666,0.010872687,-0.018874206,0.89238614,1.0,-5.8522194e-11,-4.383322e-09,-0.00020502185,3
29863357,29862836,0.45035064,0.010991562,-0.018736482,0.89258754,1.0,-5.8522194e-11,-4.383322e-09,-0.00020502185,3
30363012,30362494,0.44976583,0.010830018,-0.019114163,0.8928764,1.0,-5.8522194e-11,-4.383322e-09,-0.00020502185,3
30862668,30862152,0.4493006,0.010711347,-0.019160684,0.89311093,1.0,-5.8522194e-11,-4.383322e-09,-0.00020502185,3
31362328,31361810,0.4488419,0.010433958,-0.019678306,0.8933337,1.0,-5.8522194e-11,-4.383322e-09,-0.00020502185,3
31861984,31861467,0.44861606,0.01033864,-0.019811127,0.89344513,1.0,-5.8522194e-11,-4.383322e-09,-0.00020502185,3
32361656,32361127,0.44834256,0.010112484,-0.020647282,0.89356613,1.0,-5.8522194e-11,-4.383322e-09,-0.00020502185,3
32861307,32860783,0.44817767,0.009690409,-0.021182762,0.89364105,1.0,-5.8522194e-11,-4.383322e-09,-0.00020502185,3
33360966,33360448,0.4481922,0.009810525,-0.020848908,0.8936403,1.0,-5.8522194e-11,-4.383322e-09,-0.00020502185,3
33860623,33860099,0.44801497,0.010103127,-0.02002604,0.89374465,1.0,-5.8522194e-11,-4.383322e-09,-0.00020502185,3
34360275,34359756,0.44773364,0.010558363,-0.019108243,0.89390045,1.0,-5.8522194e-11,-4.383322e-09,-0.00020502185,3
34864928,34864411,0.446284,0.011081544,-0.018889641,0.8946234,1.0,-5.8522194e-11,-4.383322e-09,-0.00020502185,3
35359656,35359072,0.4426711,0.0106063625,-0.018535478,0.8964297,1.0,-5.8522194e-11,-4.383322e-09,-0.00020502185,3
35859250,35858730,0.435758,0.00767977,-0.019672664,0.89981616,1.0,-5.8522194e-11,-4.383322e-09,-0.00020502185,3
36358906,36358388,0.42578146,0.0051718364,-0.021715598,0.90455073,1.0,-5.8522194e-11,-4.383322e-09,-0.00020502185,3
36863557,36863042,0.4128469,0.0053783045,-0.02420541,0.9104629,1.0,-5.8522194e-11,-4.383322e-09,-0.00020502185,3
37363344,37362950,0.42281625,-0.01859913,-0.02882721,0.9055659,1.0,-5.8522194e-11,-4.383322e-09,-0.00020502185,3
37863022,37862608,0.413346,-0.017640546,-0.028330857,0.90996224,1.0,-5.8522194e-11,-4.383322e-09,-0.00020502185,3
38362675,38362266,0.40439495,-0.017164804,-0.027755737,0.9140021,1.0,-5.8522194e-11,-4.383322e-09,-0.00020502185,3
38862323,38861923,0.39636984,-0.018502897,-0.028713077,0.9174553,1.0,-5.8522194e-11,-4.383322e-09,-0.00020502185,3
39361970,39361581,0.38860887,-0.019060524,-0.029273713,0.9207404,1.0,-5.8522194e-11,-4.383322e-09,-0.00020502185,3
39861631,39861239,0.38064912,-0.018925698,-0.031660035,0.92398363,1.0,-5.8522194e-11,-4.383322e-09,-0.00020502185,3
40361288,40360897,0.37394765,-0.018900309,-0.031109976,0.9267352,1.0,-5.8522194e-11,-4.383322e-09,-0.00020502185,3
40861048,40860560,0.36900827,-0.020350315,-0.030805087,0.9286926,1.0,-5.8522194e-11,-4.383322e-09,-0.00020502185,3
41360607,41360213,0.36249688,-0.016462225,-0.029401349,0.9313756,1.0,-5.8522194e-11,-4.383322e-09,-0.00020502185,3
41860260,41859871,0.3569703,-0.017530218,-0.027011119,0.9335606,1.0,-5.8522194e-11,-4.383322e-09,-0.00020502185,3
42364919,42364525,0.35396126,-0.030072149,-0.020748204,0.9345463,1.0,-5.8522194e-11,-4.383322e-09,-0.00020502185,3
42859595,42859187,0.35242143,-0.033518184,-0.018138822,0.93506503,1.0,-5.8522194e-11,-4.383322e-09,-0.00020502185,3
43359236,43358845,0.3513234,-0.03105902,-0.01639228,0.9355953,1.0,-5.8522194e-11,-4.383322e-09,-0.00020502185,3
43858894,43858503,0.37552077,-0.051360425,-0.001891762,0.9253879,1.0,-5.8522194e-11,-4.383322e-09,-0.00020502185,3
44363549,44363157,0.3875771,-0.03522051,-0.011446011,0.9210931,1.0,-5.8522194e-11,-4.383322e-09,-0.00020502185,3
44863207,44862815,0.39188743,-0.023492662,-0.01882798,0.9195205,1.0,-5.8522194e-11,-4.383322e-09,-0.00020502185,3
45362866,45362473,0.39055622,-0.014004012,-0.0225794,0.92019564,1.0,-5.8522194e-11,-4.383322e-09,-0.00020502185,3
45862525,45862131,0.3854065,-0.006800245,-0.018746758,0.92253137,1.0,-5.8522194e-11,-4.383322e-09,-0.00020502185,3
46362185,46361789,0.3881865,-0.005425307,-0.020916393,0.92132753,1.0,-5.8522194e-11,-4.383322e-09,-0.00020502185,3
46861845,46861447,0.39419046,-0.005482678,-0.025714649,0.9186526,1.0,-5.8522194e-11,-4.383322e-09,-0.00020502185,3
47361498,47361105,0.3976171,-0.004921862,-0.029403126,0.917067,1.0,-5.8522194e-11,-4.383322e-09,-0.00020502185,3
47861158,47860764,0.40024814,-0.0046040453,-0.03272806,0.9158106,1.0,-5.8522194e-11,-4.383322e-09,-0.00020502185,3
48360812,48360422,0.4026347,-0.0032592267,-0.035838984,0.91465306,1.0,-5.8522194e-11,-4.383322e-09,-0.00020502185,3
48860475,48860080,0.4025978,-0.00056411617,-0.038789216,0.9145546,1.0,-5.8522194e-11,-4.383322e-09,-0.00020502185,3
49365151,49364735,0.39874282,-0.0015135969,-0.036300573,0.9163428,1.0,-5.8522194e-11,-4.383322e-09,-0.00020502185,3
49859790,49859396,0.39414427,0.001025113,-0.03152007,0.91850746,1.0,-5.8522194e-11,-4.383322e-09,-0.00020502185,3
50359448,50359055,0.38771495,0.0026090601,-0.027689053,0.9213597,1.0,-5.8522194e-11,-4.383322e-09,-0.00020502185,3
50859121,50858713,0.38420475,0.0050554336,-0.02646572,0.92285466,1.0,-5.8522194e-11,-4.383322e-09,-0.00020502185,3
51363783,51363367,0.38542643,0.0060432917,-0.030776946,0.9222054,1.0,-5.8522194e-11,-4.383322e-09,-0.00020502185,3
51863419,51863026,0.39200974,0.0032443139,-0.03719159,0.91920334,1.0,-5.8522194e-11,-4.383322e-09,-0.00020502185,3
52363143,52362684,0.3958116,0.0015286212,-0.044267762,0.9172629,1.0,-5.8522194e-11,-4.383322e-09,-0.00020502185,3
52857810,52857346,0.3898984,0.0022729482,-0.0444117,0.9197835,1.0,-5.8522194e-11,-4.383322e-09,-0.00020502185,3
53362461,53362001,0.3790418,0.0038421594,-0.040216688,0.92449737,1.0,-5.8522194e-11,-4.383322e-09,-0.00020502185,3
53862122,53861659,0.36912847,0.0060047074,-0.035866518,0.9286667,1.0,-5.8522194e-11,-4.383322e-09,-0.00020502185,3
54361779,54361318,0.3624589,0.008386777,-0.033735268,0.9313513,1.0,-5.8522194e-11,-4.383322e-09,-0.00020502185,3
54861438,54860976,0.3603189,0.010448959,-0.032776594,0.93219465,1.0,-5.8522194e-11,-4.383322e-09,-0.00020502185,3
55361097,55360634,0.35506546,-0.100086376,-0.04232867,0.92850393,1.0,-5.8522194e-11,-4.383322e-09,-0.00020502185,3
55860754,55860293,0.37052432,-0.07530328,-0.041369226,0.92484045,1.0,-5.8522194e-11,-4.383322e-09,-0.00020502185,3
56365465,56364948,0.37620527,-0.0799625,-0.045420095,0.92196125,1.0,-5.8522194e-11,-4.383322e-09,-0.00020502185,3
56860078,56859610,0.3590974,-0.051762145,-0.04178648,0.93092626,1.0,-5.8522194e-11,-4.383322e-09,-0.00020502185,3
57359731,57359268,0.33238524,-0.018266374,-0.03032546,0.94247913,1.0,-5.8522194e-11,-4.383322e-09,-0.00020502185,3
57859386,57858927,0.32343236,-0.010087554,-0.02096069,0.9459654,1.0,-5.8522194e-11,-4.383322e-09,-0.00020502185,3
58364044,58363583,0.319305,-0.005204594,-0.013492564,0.9475417,1.0,-5.8522194e-11,-4.383322e-09,-0.00020502185,3
58863634,58863241,0.3248659,-0.00029150894,-0.009999077,0.94570726,1.0,-5.8522194e-11,-4.383322e-09,-0.00020502185,3
59363293,59362899,0.33564976,0.005788201,-0.009435086,0.94192183,1.0,-5.8522194e-11,-4.383322e-09,-0.00020502185,3
59862952,59862558,0.3520008,0.008155114,-0.016191237,0.93582416,1.0,-5.8522194e-11,-4.383322e-09,-0.00020502185,3
60362611,60362217,0.36414924,0.008386193,-0.02417535,0.9309891,1.0,-5.8522194e-11,-4.383322e-09,-0.00020502185,3
60862270,60861875,0.36911353,0.008800329,-0.026854448,0.92895466,1.0,-5.8522194e-11,-4.383322e-09,-0.00020502185,3
61362171,61361534,0.3650852,0.01259156,-0.024226267,0.9305737,1.0,-5.8522194e-11,-4.383322e-09,-0.00020502185,3
61861589,61861193,0.35462826,0.01811679,-0.016237956,0.9346909,1.0,-5.8522194e-11,-4.383322e-09,-0.00020502185,3
62361248,62360851,0.3457646,0.02177716,-0.008346025,0.9380315,1.0,-5.8522194e-11,-4.383322e-09,-0.00020502185,3
62860904,62860512,0.3411349,0.023793532,-0.0058571217,0.939695,1.0,-5.8522194e-11,-4.383322e-09,-0.00020502185,3
63365555,63365166,0.3437571,0.024707077,-0.011002574,0.9386691,1.0,-5.8522194e-11,-4.383322e-09,-0.00020502185,3
63860241,63859828,0.34857777,0.023156945,-0.015698545,0.93686223,1.0,-5.8522194e-11,-4.383322e-09,-0.00020502185,3
64359878,64359487,0.3541485,0.022072691,-0.019896766,0.93471694,1.0,-5.8522194e-11,-4.383322e-09,-0.00020502185,3
64859539,64859146,0.3566905,0.022411888,-0.022104762,0.93369216,1.0,-5.8522194e-11,-4.383322e-09,-0.00020502185,3
65364239,65363801,0.35566834,0.025378672,-0.019831076,0.9340572,1.0,-5.8522194e-11,-4.383322e-09,-0.00020502185,3
65863852,65863460,0.35130122,0.028216269,-0.016568674,0.9356906,1.0,-5.8522194e-11,-4.383322e-09,-0.00020502185,3
66363511,66363119,0.3459926,0.030210216,-0.011290012,0.93768287,1.0,-5.8522194e-11,-4.383322e-09,-0.00020502185,3
66863167,66862778,0.34372044,0.028002955,-0.011951295,0.93857837,1.0,-5.8522194e-11,-4.383322e-09,-0.00020502185,3
67357832,67357440,0.34593844,0.02466741,-0.018584097,0.93774885,1.0,-5.8522194e-11,-4.383322e-09,-0.00020502185,3
67862492,67862096,0.34893343,0.023490883,-0.022527386,0.9365822,1.0,-5.8522194e-11,-4.383322e-09,-0.00020502185,3
68362153,68361755,0.3518379,0.023334831,-0.024842912,0.93544024,1.0,-5.8522194e-11,-4.383322e-09,-0.00020502185,3
68861802,68861414,0.35112828,0.025031349,-0.023543209,0.93569654,1.0,-5.8522194e-11,-4.383322e-09,-0.00020502185,3
69361600,69361073,0.34464476,0.02727992,-0.019344443,0.9381373,1.0,-5.8522194e-11,-4.383322e-09,-0.00020502185,3
69861197,69860732,0.33636114,0.030487463,-0.013140476,0.9411477,1.0,-5.8522194e-11,-4.383322e-09,-0.00020502185,3
70360851,70360391,0.33431894,0.031266127,-0.012219544,0.941862,1.0,-5.8522194e-11,-4.383322e-09,-0.00020502185,3
70860518,70860051,0.33709848,0.027579293,-0.018299885,0.9408874,1.0,-5.8522194e-11,-4.383322e-09,-0.00020502185,3
71360170,71359710,0.34137028,0.024547407,-0.024846995,0.93927974,1.0,-5.8522194e-11,-4.383322e-09,-0.00020502185,3
71859899,71859369,0.34492245,0.024556886,-0.025511717,0.937963,1.0,-5.8522194e-11,-4.383322e-09,-0.00020502185,3
72359492,72359028,0.34602883,0.02526449,-0.024532719,0.9375628,1.0,-5.8522194e-11,-4.383322e-09,-0.00020502185,3
72864150,72863685,0.34491354,0.02603907,-0.023041584,0.93799025,1.0,-5.8522194e-11,-4.383322e-09,-0.00020502185,3
73363808,73363343,0.3433618,0.026061982,-0.022715101,0.93856674,1.0,-5.8522194e-11,-4.383322e-09,-0.00020502185,3
73863466,73863003,0.34203243,0.027072525,-0.02143419,0.9390535,1.0,-5.8522194e-11,-4.383322e-09,-0.00020502185,3
74358175,74357666,0.3415693,0.02679504,-0.023150826,0.93918926,1.0,-5.8522194e-11,-4.383322e-09,-0.00020502185,3
74862789,74862322,0.33793133,0.027381402,-0.021885654,0.9405178,1.0,-5.8522194e-11,-4.383322e-09,-0.00020502185,3
75362467,75361981,0.33162254,0.029352235,-0.014845234,0.9428386,1.0,-5.8522194e-11,-4.383322e-09,-0.00020502185,3
75862105,75861640,0.32744104,0.031205308,-0.014703039,0.94424176,1.0,-5.8522194e-11,-4.383322e-09,-0.00020502185,3
76361766,76361300,0.32728913,0.03128147,-0.018842863,0.94421834,1.0,-5.8522194e-11,-4.383322e-09,-0.00020502185,3
76861447,76860959,0.3295223,0.031635366,-0.023519784,0.9433245,1.0,-5.8522194e-11,-4.383322e-09,-0.00020502185,3
77361105,77360621,0.33306715,0.03196833,-0.025053388,0.942028,1.0,-5.8522194e-11,-4.383322e-09,-0.00020502185,3
77860747,77860278,0.3352485,0.032613527,-0.02653824,0.9411911,1.0,-5.8522194e-11,-4.383322e-09,-0.00020502185,3
78360398,78359938,0.33608994,0.033414334,-0.026384473,0.9408671,1.0,-5.8522194e-11,-4.383322e-09,-0.00020502185,3
78860105,78859598,0.33525917,0.034426965,-0.025904713,0.94114035,1.0,-5.8522194e-11,-4.383322e-09,-0.00020502185,3
79359717,79359257,0.3341625,0.030381532,-0.022897914,0.94174737,1.0,-5.8522194e-11,-4.383322e-09,-0.00020502185,3
79864383,79863914,0.33466184,0.026156284,-0.022707243,0.94170153,1.0,-5.8522194e-11,-4.383322e-09,-0.00020502185,3
80364041,80363574,0.33722132,0.023517665,-0.024774626,0.94080555,1.0,-5.8522194e-11,-4.383322e-09,-0.00020502185,3
80863701,80863233,0.34150568,0.022749837,-0.027920073,0.93918943,1.0,-5.8522194e-11,-4.383322e-09,-0.00020502185,3
81358368,81357896,0.344578,0.023539314,-0.028451465,0.93803114,1.0,-5.8522194e-11,-4.383322e-09,-0.00020502185,3
81863114,81862553,0.34331855,0.026836976,-0.024656279,0.9385117,1.0,-5.8522194e-11,-4.383322e-09,-0.00020502185,3
82362693,82362212,0.33817795,0.025882125,-0.015667366,0.9405958,1.0,-5.8522194e-11,-4.383322e-09,-0.00020502185,3
82862333,82861872,0.33570614,0.024413029,-0.012882682,0.9415623,1.0,-5.8522194e-11,-4.383322e-09,-0.00020502185,3
83361992,83361532,0.33589172,0.021069413,-0.018143667,0.9414901,1.0,-5.8522194e-11,-4.383322e-09,-0.00020502185,3
83861588,83861192,0.34020516,0.02087473,-0.02167998,0.9398695,1.0,-5.8522194e-11,-4.383322e-09,-0.00020502185,3
84361250,84360852,0.34301183,0.020408517,-0.023150332,0.93882406,1.0,-5.8522194e-11,-4.383322e-09,-0.00020502185,3
84860914,84860512,0.3431267,0.024979565,-0.02096236,0.9387229,1.0,-5.8522194e-11,-4.383322e-09,-0.00020502185,3
85360567,85360172,0.34056634,0.029731669,-0.019731482,0.9395431,1.0,-5.8522194e-11,-4.383322e-09,-0.00020502185,3
85860224,85859832,0.3387159,0.031043503,-0.01734749,0.9402165,1.0,-5.8522194e-11,-4.383322e-09,-0.00020502185,3
86359888,86359492,0.3372035,0.029217022,-0.018521935,0.94079596,1.0,-5.8522194e-11,-4.383322e-09,-0.00020502185,3
86864544,86864148,0.33679882,0.028256781,-0.018955823,0.9409616,1.0,-5.8522194e-11,-4.383322e-09,-0.00020502185,3
87364200,87363808,0.33512074,0.030171726,-0.018049607,0.941519,1.0,-5.8522194e-11,-4.383322e-09,-0.00020502185,3
87858863,87858472,0.33214933,0.032319617,-0.015811915,0.94254035,1.0,-5.8522194e-11,-4.383322e-09,-0.00020502185,3
88358548,88358132,0.33011696,0.03364747,-0.015766986,0.9432084,1.0,-5.8522194e-11,-4.383322e-09,-0.00020502185,3
88863189,88862789,0.33018857,0.034570884,-0.01792178,0.9431114,1.0,-5.8522194e-11,-4.383322e-09,-0.00020502185,3
89362841,89362449,0.33105034,0.03438124,-0.020472255,0.94276434,1.0,-5.8522194e-11,-4.383322e-09,-0.00020502185,3
89862561,89862109,0.3334172,0.032695122,-0.018249301,0.94203556,1.0,-5.8522194e-11,-4.383322e-09,-0.00020502185,3
90362163,90361769,0.3371043,0.028693175,-0.02192594,0.9407745,1.0,-5.8522194e-11,-4.383322e-09,-0.00020502185,3
90861822,90861430,0.340577,0.027236523,-0.024320226,0.93950737,1.0,-5.8522194e-11,-4.383322e-09,-0.00020502185,3
91361481,91361090,0.34158647,0.026953071,-0.02412959,0.93915385,1.0,-5.8522194e-11,-4.383322e-09,-0.00020502185,3
91861147,91860751,0.3400852,0.02839899,-0.020723227,0.93973726,1.0,-5.8522194e-11,-4.383322e-09,-0.00020502185,3
92360805,92360410,0.33821762,0.02902371,-0.019332036,0.94042164,1.0,-5.8522194e-11,-4.383322e-09,-0.00020502185,3
92860465,92860071,0.3359747,0.033101913,-0.021064851,0.9410535,1.0,-5.8522194e-11,-4.383322e-09,-0.00020502185,3
93360124,93359731,0.333076,0.034412723,-0.020583939,0.94204694,1.0,-5.8522194e-11,-4.383322e-09,-0.00020502185,3
93859784,93859392,0.33086303,0.032670174,-0.018688982,0.942928,1.0,-5.8522194e-11,-4.383322e-09,-0.00020502185,3
94364441,94364051,0.33102107,0.03183704,-0.020921422,0.94285405,1.0,-5.8522194e-11,-4.383322e-09,-0.00020502185,3
94864103,94863709,0.3356696,0.031396702,-0.024069002,0.9411487,1.0,-5.8522194e-11,-4.383322e-09,-0.00020502185,3
95358768,95358373,0.34248737,0.030969093,-0.030639617,0.9385119,1.0,-5.8522194e-11,-4.383322e-09,-0.00020502185,3
95858428,95858034,0.34854633,0.03037034,-0.03680648,0.93607605,1.0,-5.8522194e-11,-4.383322e-09,-0.00020502185,3
96363083,96362691,0.35088906,0.030378567,-0.03642653,0.935215,1.0,-5.8522194e-11,-4.383322e-09,-0.00020502185,3
96862741,96862351,0.34867638,0.033674967,-0.030764496,0.9361327,1.0,-5.8522194e-11,-4.383322e-09,-0.00020502185,3
97362404,97362012,0.34295923,0.034436982,-0.023497444,0.9384247,1.0,-5.8522194e-11,-4.383322e-09,-0.00020502185,3
97862076,97861673,0.33887905,0.034969762,-0.019717121,0.9399731,1.0,-5.8522194e-11,-4.383322e-09,-0.00020502185,3
98361723,98361333,0.3388132,0.03442727,-0.018764049,0.94003636,1.0,-5.8522194e-11,-4.383322e-09,-0.00020502185,3
98861386,98860994,0.34328523,0.031063795,-0.026181791,0.93835217,1.0,-5.8522194e-11,-4.383322e-09,-0.00020502185,3
99361047,99360655,0.34873316,0.030208375,-0.031912792,0.9361914,1.0,-5.8522194e-11,-4.383322e-09,-0.00020502185,3
99860707,99860316,0.34774005,0.033745658,-0.027601466,0.9365769,1.0,-5.8522194e-11,-4.383322e-09,-0.00020502185,3
100360366,100359976,0.3436673,0.03592339,-0.021902971,0.93814844,1.0,-5.8522194e-11,-4.383322e-09,-0.00020502185,3
100860031,100859637,0.3411465,0.037054304,-0.01892464,0.93908894,1.0,-5.8522194e-11,-4.383322e-09,-0.00020502185,3
101364701,101364294,0.3411557,0.036970492,-0.020625768,0.939053,1.0,-5.8522194e-11,-4.383322e-09,-0.00020502185,3
101864364,101863955,0.3439748,0.035196602,-0.024583869,0.93799686,1.0,-5.8522194e-11,-4.383322e-09,-0.00020502185,3
102359010,102358620,0.34781405,0.033540264,-0.027653454,0.93655527,1.0,-5.8522194e-11,-4.383322e-09,-0.00020502185,3
102858753,102858280,0.35061735,0.034516983,-0.028037073,0.9354625,1.0,-5.8522194e-11,-4.383322e-09,-0.00020502185,3
103363340,103362938,0.3512927,0.035961658,-0.024809105,0.9352458,1.0,-5.8522194e-11,-4.383322e-09,-0.00020502185,3
103862991,103862599,0.3502214,0.03591515,-0.024724917,0.9356516,1.0,-5.8522194e-11,-4.383322e-09,-0.00020502185,3
104362656,104362260,0.3481793,0.036828905,-0.020283401,0.9364846,1.0,-5.8522194e-11,-4.383322e-09,-0.00020502185,3
104862334,104861922,0.3449039,0.036423434,-0.019703522,0.93772405,1.0,-5.8522194e-11,-4.383322e-09,-0.00020502185,3
105361976,105361582,0.34318274,0.035283446,-0.016828291,0.93845487,1.0,-5.8522194e-11,-4.383322e-09,-0.00020502185,3
105861650,105861243,0.34362826,0.033167057,-0.018474458,0.9383381,1.0,-5.8522194e-11,-4.383322e-09,-0.00020502185,3
106361311,106360904,0.34593388,0.03243058,-0.019567834,0.9374941,1.0,-5.8522194e-11,-4.383322e-09,-0.00020502185,3
106860968,106860566,0.34883425,0.03337084,-0.02199268,0.93633187,1.0,-5.8522194e-11,-4.383322e-09,-0.00020502185,3
107360624,107360227,0.34999582,0.034569994,-0.024170276,0.9358011,1.0,-5.8522194e-11,-4.383322e-09,-0.00020502185,3
107860282,107859888,0.34870732,0.037497826,-0.022312218,0.9362154,1.0,-5.8522194e-11,-4.383322e-09,-0.00020502185,3
108364937,108364545,0.34550285,0.04034591,-0.020946842,0.937316,1.0,-5.8522194e-11,-4.383322e-09,-0.00020502185,3
108864600,108864207,0.34336793,0.04141112,-0.017354127,0.93812716,1.0,-5.8522194e-11,-4.383322e-09,-0.00020502185,3
109359266,109358871,0.34562346,0.03813232,-0.02099514,0.9373631,1.0,-5.8522194e-11,-4.383322e-09,-0.00020502185,3
109858928,109858534,0.35212407,0.03257604,-0.02837944,0.93495566,1.0,-5.8522194e-11,-4.383322e-09,-0.00020502185,3
110363584,110363191,0.35909453,0.030653372,-0.03269656,0.93222445,1.0,-5.8522194e-11,-4.383322e-09,-0.00020502185,3
110863244,110862852,0.36216158,0.031735547,-0.031275507,0.9310498,1.0,-5.8522194e-11,-4.383322e-09,-0.00020502185,3
111362908,111362513,0.36122972,0.033575177,-0.02770603,0.93146026,1.0,-5.8522194e-11,-4.383322e-09,-0.00020502185,3
111862565,111862175,0.3588964,0.035673246,-0.024632921,0.9323702,1.0,-5.8522194e-11,-4.383322e-09,-0.00020502185,3
112362228,112361836,0.35613975,0.036264133,-0.023940414,0.9334219,1.0,-5.8522194e-11,-4.383322e-09,-0.00020502185,3
112861895,112861498,0.35384923,0.036914915,-0.022436954,0.93430436,1.0,-5.8522194e-11,-4.383322e-09,-0.00020502185,3
113361552,113361159,0.35377356,0.037053704,-0.022389326,0.9343287,1.0,-5.8522194e-11,-4.383322e-09,-0.00020502185,3
113861216,113860820,0.3550675,0.035231873,-0.02533972,0.93383276,1.0,-5.8522194e-11,-4.383322e-09,-0.00020502185,3
114360876,114360482,0.35509565,0.034998786,-0.024271872,0.9338593,1.0,-5.8522194e-11,-4.383322e-09,-0.00020502185,3
114860538,114860143,0.35274306,0.03500522,-0.023213113,0.9347771,1.0,-5.8522194e-11,-4.383322e-09,-0.00020502185,3
115365204,115364802,0.3496684,0.03553786,-0.020231903,0.93598074,1.0,-5.8522194e-11,-4.383322e-09,-0.00020502185,3
115864942,115864463,0.34801286,0.03606735,-0.020210419,0.93657774,1.0,-5.8522194e-11,-4.383322e-09,-0.00020502185,3
116359520,116359128,0.35196218,0.03547862,-0.022853741,0.9350624,1.0,-5.8522194e-11,-4.383322e-09,-0.00020502185,3
116859182,116858790,0.35921222,0.03216678,-0.030286666,0.9322096,1.0,-5.8522194e-11,-4.383322e-09,-0.00020502185,3
117358841,117358452,0.36464676,0.032150164,-0.032718737,0.9300154,1.0,-5.8522194e-11,-4.383322e-09,-0.00020502185,3
117863503,117863110,0.36405548,0.035220444,-0.029844558,0.93023247,1.0,-5.8522194e-11,-4.383322e-09,-0.00020502185,3
118363163,118362772,0.36087936,0.03829133,-0.024882972,0.9314939,1.0,-5.8522194e-11,-4.383322e-09,-0.00020502185,3
118862825,118862433,0.3574137,0.03796902,-0.023553565,0.9328768,1.0,-5.8522194e-11,-4.383322e-09,-0.00020502185,3
119362493,119362095,0.3543811,0.03310285,-0.020623397,0.93428737,1.0,-5.8522194e-11,-4.383322e-09,-0.00020502185,3
119862154,119861757,0.35308716,0.03430315,-0.019845339,0.93475074,1.0,-5.8522194e-11,-4.383322e-09,-0.00020502185,3
120361809,120361419,0.35477498,0.03152193,-0.019654509,0.9342135,1.0,-5.8522194e-11,-4.383322e-09,-0.00020502185,3
120861476,120861081,0.35985613,0.033609178,-0.024307102,0.93208545,1.0,-5.8522194e-11,-4.383322e-09,-0.00020502185,3
121361139,121360743,0.36712548,0.033280462,-0.030508583,0.9290752,1.0,-5.8522194e-11,-4.383322e-09,-0.00020502185,3
121860798,121860405,0.37273163,0.029254457,-0.032392677,0.9269121,1.0,-5.8522194e-11,-4.383322e-09,-0.00020502185,3
122360458,122360067,0.37282756,0.025767189,-0.026844384,0.92715436,1.0,-5.8522194e-11,-4.383322e-09,-0.00020502185,3
122865120,122864728,0.368807,0.029840939,-0.023174962,0.9287378,1.0,-5.8522194e-11,-4.383322e-09,-0.00020502185,3
123359786,123359391,0.36504477,0.03240172,-0.020897929,0.9301912,1.0,-5.8522194e-11,-4.383322e-09,-0.00020502185,3
123859447,123859053,0.36426455,0.030286856,-0.020281574,0.9305819,1.0,-5.8522194e-11,-4.383322e-09,-0.00020502185,3
124359108,124358715,0.36519,0.029342992,-0.019533282,0.9302654,1.0,-5.8522194e-11,-4.383322e-09,-0.00020502185,3
124863764,124863373,0.3677229,0.028897475,-0.022007674,0.9292258,1.0,-5.8522194e-11,-4.383322e-09,-0.00020502185,3
125363427,125363035,0.37138867,0.02296221,-0.021307271,0.9279489,1.0,-5.8522194e-11,-4.383322e-09,-0.00020502185,3
125863091,125862698,0.374791,0.019360006,-0.021938976,0.92664754,1.0,-5.8522194e-11,-4.383322e-09,-0.00020502185,3
126362765,126362360,0.37485933,0.022779332,-0.025000641,0.9264646,1.0,-5.8522194e-11,-4.383322e-09,-0.00020502185,3
126862413,126862022,0.3724031,0.025229579,-0.024624953,0.9274013,1.0,-5.8522194e-11,-4.383322e-09,-0.00020502185,3
127362176,127361684,0.36876282,0.03127925,-0.02495126,0.928662,1.0,-5.8522194e-11,-4.383322e-09,-0.00020502185,3
127861826,127861346,0.36607462,0.04038614,-0.02653263,0.92933005,1.0,-5.8522194e-11,-4.383322e-09,-0.00020502185,3
128361469,128361009,0.365636,0.04186664,-0.024762925,0.92948616,1.0,-5.8522194e-11,-4.383322e-09,-0.00020502185,3
128861187,128860671,0.36739957,0.041194722,-0.022168472,0.928886,1.0,-5.8522194e-11,-4.383322e-09,-0.00020502185,3
129360823,129360333,0.37141934,0.039507452,-0.022738865,0.9273456,1.0,-5.8522194e-11,-4.383322e-09,-0.00020502185,3
129865455,129864992,0.37655297,0.037539657,-0.025685854,0.92527777,1.0,-5.8522194e-11,-4.383322e-09,-0.00020502185,3
130360123,130359658,0.3798799,0.03475148,-0.028299902,0.9239495,1.0,-5.8522194e-11,-4.383322e-09,-0.00020502185,3
130859792,130859320,0.3806529,0.034302253,-0.029901914,0.9235977,1.0,-5.8522194e-11,-4.383322e-09,-0.00020502185,3
131359450,131358983,0.3809213,0.03242395,-0.030617516,0.9235315,1.0,-5.8522194e-11,-4.383322e-09,-0.00020502185,3
131864106,131863642,0.38178438,0.031032532,-0.031124832,0.92320585,1.0,-5.8522194e-11,-4.383322e-09,-0.00020502185,3
132363769,132363305,0.38307607,0.029822359,-0.031479493,0.92269844,1.0,-5.8522194e-11,-4.383322e-09,-0.00020502185,3
132863430,132862967,0.38429576,0.028364258,-0.031998537,0.92221934,1.0,-5.8522194e-11,-4.383322e-09,-0.00020502185,3
133363094,133362630,0.38603273,0.02773149,-0.031500824,0.92152995,1.0,-5.8522194e-11,-4.383322e-09,-0.00020502185,3
133862772,133862292,0.3871564,0.027911108,-0.033191714,0.9209936,1.0,-5.8522194e-11,-4.383322e-09,-0.00020502185,3
134362418,134361955,0.3875719,0.026498988,-0.033450276,0.9208513,1.0,-5.8522194e-11,-4.383322e-09,-0.00020502185,3
134862082,134861617,0.38680318,0.026666954,-0.03441355,0.921134,1.0,-5.8522194e-11,-4.383322e-09,-0.00020502185,3
135361745,135361280,0.3851623,0.02524439,-0.033794113,0.92188436,1.0,-5.8522194e-11,-4.383322e-09,-0.00020502185,3
135861409,135860943,0.38225022,0.02572437,-0.03380016,0.9230821,1.0,-5.8522194e-11,-4.383322e-09,-0.00020502185,3
136361078,136360609,0.3791983,0.025802247,-0.03238199,0.92438865,1.0,-5.8522194e-11,-4.383322e-09,-0.00020502185,3
136865736,136865265,0.3759259,0.025123587,-0.03081233,0.9257965,1.0,-5.8522194e-11,-4.383322e-09,-0.00020502185,3
137360398,137359931,0.37236395,0.028033534,-0.03178544,0.92711866,1.0,-5.8522194e-11,-4.383322e-09,-0.00020502185,3
137860062,137859594,0.36774054,0.025957853,-0.030467112,0.92906666,1.0,-5.8522194e-11,-4.383322e-09,-0.00020502185,3
138359719,138359256,0.36288628,0.027318146,-0.029611213,0.93096215,1.0,-5.8522194e-11,-4.383322e-09,-0.00020502185,3
138859382,138858919,0.36093307,0.027889265,-0.024709351,0.93184716,1.0,-5.8522194e-11,-4.383322e-09,-0.00020502185,3
139364055,139363579,0.36217743,0.026930878,-0.025054974,0.93138313,1.0,-5.8522194e-11,-4.383322e-09,-0.00020502185,3
139863707,139863242,0.36585408,0.026837999,-0.024599232,0.92995995,1.0,-5.8522194e-11,-4.383322e-09,-0.00020502185,3
140363366,140362904,0.37133765,0.026201006,-0.02417896,0.92781323,1.0,-5.8522194e-11,-4.383322e-09,-0.00020502185,3
140858065,140857571,0.3782654,0.02618573,-0.025707848,0.92496955,1.0,-5.8522194e-11,-4.383322e-09,-0.00020502185,3
141362718,141362231,0.3871718,0.02572108,-0.027060254,0.9212515,1.0,-5.8522194e-11,-4.383322e-09,-0.00020502185,3
141862420,141861893,0.3955398,0.026466483,-0.029955678,0.91757864,1.0,-5.8522194e-11,-4.383322e-09,-0.00020502185,3
142362020,142361556,0.39936063,0.025885468,-0.030707736,0.9159138,1.0,-5.8522194e-11,-4.383322e-09,-0.00020502185,3
142861703,142861222,0.40148556,0.025213717,-0.03042978,0.91501236,1.0,-5.8522194e-11,-4.383322e-09,-0.00020502185,3
143361374,143360883,0.40298033,0.025682947,-0.031366546,0.9143104,1.0,-5.8522194e-11,-4.383322e-09,-0.00020502185,3
143861026,143860546,0.4053413,0.02479076,-0.032584164,0.91324824,1.0,-5.8522194e-11,-4.383322e-09,-0.00020502185,3
144360675,144360209,0.40537095,0.024770845,-0.03346811,0.91320354,1.0,-5.8522194e-11,-4.383322e-09,-0.00020502185,3
144860333,144859872,0.4040918,0.024004523,-0.033375017,0.9137942,1.0,-5.8522194e-11,-4.383322e-09,-0.00020502185,3
145359996,145359535,0.40186322,0.024937032,-0.034499507,0.91470975,1.0,-5.8522194e-11,-4.383322e-09,-0.00020502185,3
145859666,145859198,0.40119812,0.024770236,-0.031606384,0.9151107,1.0,-5.8522194e-11,-4.383322e-09,-0.00020502185,3
146364328,146363859,0.40075538,0.024984846,-0.032217856,0.9152775,1.0,-5.8522194e-11,-4.383322e-09,-0.00020502185,3
146863985,146863521,0.40182728,0.026187452,-0.02803197,0.91491157,1.0,-5.8522194e-11,-4.383322e-09,-0.00020502185,3
147363658,147363185,0.4022293,0.026293965,-0.030838912,0.91464156,1.0,-5.8522194e-11,-4.383322e-09,-0.00020502185,3
147858333,147857851,0.4042607,0.025328385,-0.029751213,0.9138089,1.0,-5.8522194e-11,-4.383322e-09,-0.00020502185,3
148362974,148362511,0.40545347,0.026404051,-0.03152685,0.9131903,1.0,-5.8522194e-11,-4.383322e-09,-0.00020502185,3
148862638,148862175,0.40734708,0.024917832,-0.031861477,0.91237736,1.0,-5.8522194e-11,-4.383322e-09,-0.00020502185,3
149362301,149361840,0.41079247,0.024966331,-0.03153736,0.91084117,1.0,-5.8522194e-11,-4.383322e-09,-0.00020502185,3
149861970,149861501,0.41408575,0.02494597,-0.032548096,0.9093137,1.0,-5.8522194e-11,-4.383322e-09,-0.00020502185,3
150361628,150361165,0.41741467,0.024611933,-0.030946502,0.9078555,1.0,-5.8522194e-11,-4.383322e-09,-0.00020502185,3
150861319,150860828,0.41964483,0.02469951,-0.031409957,0.9068085,1.0,-5.8522194e-11,-4.383322e-09,-0.00020502185,3
151361114,151360492,0.42176318,0.024339445,-0.031901024,0.9058178,1.0,-5.8522194e-11,-4.383322e-09,-0.00020502185,3
151860624,151860155,0.42268333,0.024288334,-0.03152002,0.9054035,1.0,-5.8522194e-11,-4.383322e-09,-0.00020502185,3
152360297,152359819,0.4229089,0.024400022,-0.032840118,0.9052482,1.0,-5.8522194e-11,-4.383322e-09,-0.00020502185,3
152859944,152859482,0.42270985,0.023536317,-0.032975506,0.905359,1.0,-5.8522194e-11,-4.383322e-09,-0.00020502185,3
153364608,153364143,0.42057204,0.022944942,-0.03398371,0.9063321,1.0,-5.8522194e-11,-4.383322e-09,-0.00020502185,3
153864266,153863806,0.41576576,0.02327375,-0.035114463,0.9084956,1.0,-5.8522194e-11,-4.383322e-09,-0.00020502185,3
154364149,154363470,0.41184574,0.023550825,-0.03281702,0.91035795,1.0,-5.8522194e-11,-4.383322e-09,-0.00020502185,3
154858654,154858137,0.4089764,0.0251597,-0.02894041,0.9117388,1.0,-5.8522194e-11,-4.383322e-09,-0.00020502185,3
155363294,155362797,0.40511692,0.023102002,-0.03310002,0.9133735,1.0,-5.8522194e-11,-4.383322e-09,-0.00020502185,3
155862927,155862461,0.40176415,0.015559322,-0.033763103,0.9149883,1.0,-5.8522194e-11,-4.383322e-09,-0.00020502185,3
156362584,156362125,0.39923066,0.01862446,-0.030517438,0.9161533,1.0,-5.8522194e-11,-4.383322e-09,-0.00020502185,3
156862287,156861789,0.39676663,0.021403918,-0.03085738,0.917151,1.0,-5.8522194e-11,-4.383322e-09,-0.00020502185,3
157361956,157361452,0.39769912,0.025929911,-0.026775554,0.9167585,1.0,-5.8522194e-11,-4.383322e-09,-0.00020502185,3
157861576,157861116,0.39740986,0.029015826,-0.025629962,0.9168242,1.0,-5.8522194e-11,-4.383322e-09,-0.00020502185,3
158361242,158360780,0.39736766,0.03048484,-0.024371076,0.9168291,1.0,-5.8522194e-11,-4.383322e-09,-0.00020502185,3
158860902,158860444,0.39801344,0.03156845,-0.023281936,0.9165407,1.0,-5.8522194e-11,-4.383322e-09,-0.00020502185,3
159360584,159360108,0.39842036,0.03305819,-0.02175608,0.9163489,1.0,-5.8522194e-11,-4.383322e-09,-0.00020502185,3
159860235,159859772,0.39857557,0.03195464,-0.022196766,0.91630983,1.0,-5.8522194e-11,-4.383322e-09,-0.00020502185,3
160359896,160359436,0.39882028,0.0314884,-0.01904134,0.91629046,1.0,-5.8522194e-11,-4.383322e-09,-0.00020502185,3
160864563,160864096,0.3985914,0.03095118,-0.01759454,0.9164373,1.0,-5.8522194e-11,-4.383322e-09,-0.00020502185,3
161364250,161363760,0.39863077,0.030428093,-0.017219368,0.9164449,1.0,-5.8522194e-11,-4.383322e-09,-0.00020502185,3
161858889,161858428,0.3988896,0.03007187,-0.016566874,0.91635597,1.0,-5.8522194e-11,-4.383322e-09,-0.00020502185,3
162358559,162358092,0.39909106,0.029647436,-0.016322661,0.9162865,1.0,-5.8522194e-11,-4.383322e-09,-0.00020502185,3
162863223,162862752,0.39927185,0.029858055,-0.015611245,0.9162133,1.0,-5.8522194e-11,-4.383322e-09,-0.00020502185,3
163362878,163362416,0.3996585,0.029760284,-0.014837213,0.9160607,1.0,-5.8522194e-11,-4.383322e-09,-0.00020502185,3
163862544,163862081,0.40008017,0.029139893,-0.01618521,0.9158738,1.0,-5.8522194e-11,-4.383322e-09,-0.00020502185,3
164362212,164361745,0.4004743,0.028767884,-0.01641555,0.91570914,1.0,-5.8522194e-11,-4.383322e-09,-0.00020502185,3
164861869,164861409,0.40143117,0.02919413,-0.014261739,0.91531265,1.0,-5.8522194e-11,-4.383322e-09,-0.00020502185,3
165361550,165361073,0.4016133,0.029340576,-0.014041165,0.9152315,1.0,-5.8522194e-11,-4.383322e-09,-0.00020502185,3
165861204,165860737,0.40203908,0.028984943,-0.014978095,0.91504115,1.0,-5.8522194e-11,-4.383322e-09,-0.00020502185,3
166360870,166360402,0.40252662,0.028977945,-0.015011919,0.9148264,1.0,-5.8522194e-11,-4.383322e-09,-0.00020502185,3
166860530,166860066,0.40333202,0.02862143,-0.014641343,0.91448885,1.0,-5.8522194e-11,-4.383322e-09,-0.00020502185,3
167360194,167359730,0.40386492,0.028942086,-0.012280585,0.9142782,1.0,-5.8522194e-11,-4.383322e-09,-0.00020502185,3
167864877,167864391,0.40461987,0.0294663,-0.010265248,0.91395247,1.0,-5.8522194e-11,-4.383322e-09,-0.00020502185,3
168364543,168364056,0.40493634,0.029960675,-0.007838352,0.91382027,1.0,-5.8522194e-11,-4.383322e-09,-0.00020502185,3
168859200,168858723,0.40527046,0.030592384,-0.008231113,0.91364783,1.0,-5.8522194e-11,-4.383322e-09,-0.00020502185,3
169358849,169358388,0.40576744,0.030629363,-0.0077579673,0.91343004,1.0,-5.8522194e-11,-4.383322e-09,-0.00020502185,3
169863533,169863049,0.40576103,0.030696621,-0.009858291,0.9134104,1.0,-5.8522194e-11,-4.383322e-09,-0.00020502185,3
170363372,170362713,0.40608132,0.030670715,-0.009312981,0.9132747,1.0,-5.8522194e-11,-4.383322e-09,-0.00020502185,3
170862838,170862378,0.40631282,0.031067152,-0.008248613,0.9131686,1.0,-5.8522194e-11,-4.383322e-09,-0.00020502185,3
171362504,171362042,0.40672788,0.030456323,-0.008196742,0.91300476,1.0,-5.8522194e-11,-4.383322e-09,-0.00020502185,3
171862173,171861707,0.4071201,0.03043479,-0.007910583,0.9128333,1.0,-5.8522194e-11,-4.383322e-09,-0.00020502185,3
172361840,172361372,0.4071134,0.029839765,-0.010046768,0.91283476,1.0,-5.8522194e-11,-4.383322e-09,-0.00020502185,3
172861498,172861036,0.4072557,0.030020362,-0.010085969,0.91276497,1.0,-5.8522194e-11,-4.383322e-09,-0.00020502185,3
173361165,173360701,0.40768495,0.030188605,-0.009572827,0.91257334,1.0,-5.8522194e-11,-4.383322e-09,-0.00020502185,3
173860825,173860365,0.40799484,0.030226704,-0.009043578,0.9124389,1.0,-5.8522194e-11,-4.383322e-09,-0.00020502185,3
174360493,174360030,0.40849137,0.030485978,-0.007598797,0.9122213,1.0,-5.8522194e-11,-4.383322e-09,-0.00020502185,3
174865152,174864691,0.40871242,0.030334773,-0.008317876,0.9121211,1.0,-5.8522194e-11,-4.383322e-09,-0.00020502185,3
175359819,175359360,0.4088917,0.030238235,-0.009495738,0.91203237,1.0,-5.8522194e-11,-4.383322e-09,-0.00020502185,3
175859489,175859024,0.40952715,0.030389495,-0.008889325,0.9117483,1.0,-5.8522194e-11,-4.383322e-09,-0.00020502185,3
176359150,176358689,0.4098641,0.030708551,-0.007882963,0.9115954,1.0,-5.8522194e-11,-4.383322e-09,-0.00020502185,3
176858814,176858354,0.41023302,0.030556211,-0.007814846,0.9114352,1.0,-5.8522194e-11,-4.383322e-09,-0.00020502185,3
177363481,177363015,0.41049963,0.030673526,-0.008091288,0.9113088,1.0,-5.8522194e-11,-4.383322e-09,-0.00020502185,3
177863142,177862680,0.41076633,0.030416802,-0.00877607,0.91119087,1.0,-5.8522194e-11,-4.383322e-09,-0.00020502185,3
178362819,178362345,0.410912,0.03029559,-0.009279846,0.9111243,1.0,-5.8522194e-11,-4.383322e-09,-0.00020502185,3
178862475,178862010,0.4110764,0.030131461,-0.009624563,0.9110519,1.0,-5.8522194e-11,-4.383322e-09,-0.00020502185,3
179362141,179361675,0.41120476,0.030280221,-0.009189553,0.9109936,1.0,-5.8522194e-11,-4.383322e-09,-0.00020502185,3
179861800,179861340,0.4113135,0.030687457,-0.008194969,0.9109404,1.0,-5.8522194e-11,-4.383322e-09,-0.00020502185,3
180361472,180361005,0.41150132,0.03130439,-0.006551371,0.91084784,1.0,-5.8522194e-11,-4.383322e-09,-0.00020502185,3
180861206,180860670,0.41160285,0.031422213,-0.0061893826,0.9108004,1.0,-5.8522194e-11,-4.383322e-09,-0.00020502185,3
181360831,181360335,0.41161966,0.031025741,-0.007895948,0.9107932,1.0,-5.8522194e-11,-4.383322e-09,-0.00020502185,3
181860485,181860000,0.41179898,0.031038161,-0.008036374,0.9107106,1.0,-5.8522194e-11,-4.383322e-09,-0.00020502185,3
182365137,182364662,0.4120645,0.031030037,-0.008020018,0.91059095,1.0,-5.8522194e-11,-4.383322e-09,-0.00020502185,3
182860020,182859331,0.41216427,0.031156465,-0.007669265,0.9105444,1.0,-5.8522194e-11,-4.383322e-09,-0.00020502185,3
183359502,183358995,0.41215086,0.031310465,-0.007726112,0.9105448,1.0,-5.8522194e-11,-4.383322e-09,-0.00020502185,3
183859123,183858661,0.41238996,0.031511437,-0.006855581,0.9104365,1.0,-5.8522194e-11,-4.383322e-09,-0.00020502185,3
184363784,184363322,0.41260687,0.03182584,-0.005842662,0.9103343,1.0,-5.8522194e-11,-4.383322e-09,-0.00020502185,3
184863457,184862988,0.412951,0.03160893,-0.0065584513,0.910181,1.0,-5.8522194e-11,-4.383322e-09,-0.00020502185,3
185363143,185362653,0.4128708,0.03152013,-0.008160623,0.91020745,1.0,-5.8522194e-11,-4.383322e-09,-0.00020502185,3
185862787,185862319,0.41297615,0.031500973,-0.008085873,0.9101611,1.0,-5.8522194e-11,-4.383322e-09,-0.00020502185,3
186362450,186361984,0.41295445,0.031686645,-0.007610156,0.91016847,1.0,-5.8522194e-11,-4.383322e-09,-0.00020502185,3
186862120,186861649,0.41290694,0.03159649,-0.00794986,0.91019034,1.0,-5.8522194e-11,-4.383322e-09,-0.00020502185,3
187361780,187361316,0.4129012,0.031702373,-0.007614819,0.91019213,1.0,-5.8522194e-11,-4.383322e-09,-0.00020502185,3
187861445,187860980,0.41292977,0.031559564,-0.007872035,0.91018194,1.0,-5.8522194e-11,-4.383322e-09,-0.00020502185,3
188361104,188360645,0.41303352,0.031676568,-0.007706473,0.9101322,1.0,-5.8522194e-11,-4.383322e-09,-0.00020502185,3
188860775,188860311,0.41314378,0.031571582,-0.007923591,0.91008395,1.0,-5.8522194e-11,-4.383322e-09,-0.00020502185,3
189365440,189364973,0.41331634,0.03172087,-0.007589419,0.9100032,1.0,-5.8522194e-11,-4.383322e-09,-0.00020502185,3
189860113,189859642,0.41339177,0.031724934,-0.0074573634,0.90997,1.0,-5.8522194e-11,-4.383322e-09,-0.00020502185,3
190359778,190359307,0.41357052,0.031956,-0.00715097,0.9098831,1.0,-5.8522194e-11,-4.383322e-09,-0.00020502185,3
