timestamp,timestamp_sample,gps_hvel[0],gps_hvel[1],gps_vvel,gps_hpos[0],gps_hpos[1],gps_vpos,ev_hvel[0],ev_hvel[1],ev_vvel,ev_hpos[0],ev_hpos[1],ev_vpos,rng_vpos,baro_vpos,aux_hvel[0],aux_hvel[1],aux_vvel,flow[0],flow[1],heading,mag_field[0],mag_field[1],mag_field[2],drag[0],drag[1],airspeed,beta,hagl,hagl_rate
17261955,17161527,0.017014313,-2.3214066e-05,0.006362698,0.06745401,0.002795742,0.0,0.0,0.0,0.0,0.0,0.0,0.0,0.0,0.17149353,0.0,0.0,nan,0.0,0.0,-0.00059723854,0.0,0.0,0.0,0.0,0.0,0.0,0.0,0.0,0.0
17761606,17661186,0.0028757863,0.014055388,0.0150851635,0.058099955,0.0024524885,0.0,0.0,0.0,0.0,0.0,0.0,0.0,0.0,0.079120636,0.0,0.0,nan,0.0,0.0,-8.940697e-05,0.0,0.0,0.0,0.0,0.0,0.0,0.0,0.0,0.0
18261288,18160845,0.009962241,-0.0015163658,-0.045002382,0.07190945,0.0022052084,0.0,0.0,0.0,0.0,0.0,0.0,0.0,0.0,0.10420799,0.0,0.0,nan,0.0,0.0,0.00010871887,0.0,0.0,0.0,0.0,0.0,0.0,0.0,0.0,0.0
18761122,18660503,-0.008317419,-0.019865114,-0.040582456,0.07468728,0.0019115824,0.0,0.0,0.0,0.0,0.0,0.0,0.0,0.0,0.019515991,0.0,0.0,nan,0.0,0.0,-0.0010001659,0.0,0.0,0.0,0.0,0.0,0.0,0.0,0.0,0.0
19260584,19160161,0.026797574,0.00097572687,0.00871671,0.07825787,0.01032583,0.0,0.0,0.0,0.0,0.0,0.0,0.0,0.0,0.07411003,0.0,0.0,nan,0.0,0.0,0.0010135174,0.0,0.0,0.0,0.0,0.0,0.0,0.0,0.0,0.0
19760291,19659820,-0.0060269847,0.0045167627,0.0071232654,0.08188248,0.009441015,0.0,0.0,0.0,0.0,0.0,0.0,0.0,0.0,0.14084053,0.0,0.0,nan,0.0,0.0,0.0011513233,0.0,0.0,0.0,0.0,0.0,0.0,0.0,0.0,0.0
20259900,20159478,0.0025846043,0.009187875,0.025118774,0.07505676,0.017084729,0.0,0.0,0.0,0.0,0.0,0.0,0.0,0.0,0.013633728,0.0,0.0,nan,0.0,0.0,0.00015974045,0.0,0.0,0.0,0.0,0.0,0.0,0.0,0.0,0.0
20759622,20659136,-0.0118608745,-0.01117109,0.01029077,0.08018222,0.024138477,0.0,0.0,0.0,0.0,0.0,0.0,0.0,0.0,0.023073196,0.0,0.0,nan,0.0,0.0,0.0024392605,0.0,0.0,0.0,0.0,0.0,0.0,0.0,0.0,0.0
21259301,21158795,-0.0024889223,0.019547062,0.014206533,0.08517903,0.031172357,0.0,0.0,0.0,0.0,0.0,0.0,0.0,0.0,-0.01966095,0.0,0.0,nan,0.0,0.0,0.0051584244,0.0,0.0,0.0,0.0,0.0,0.0,0.0,0.0,0.0
21758876,21658453,-0.007138859,-0.010352844,-0.03008544,0.09023754,0.03755032,0.0,0.0,0.0,0.0,0.0,0.0,0.0,0.0,0.018470764,0.0,0.0,nan,0.0,0.0,-0.0018358231,0.0,0.0,0.0,0.0,0.0,0.0,0.0,0.0,0.0
22258535,22158112,-0.007074969,0.0012454442,-0.0029994268,0.084735125,0.043832153,0.0,0.0,0.0,0.0,0.0,0.0,0.0,0.0,0.18269157,0.0,0.0,nan,0.0,0.0,0.0032236576,0.0,0.0,0.0,0.0,0.0,0.0,0.0,0.0,0.0
22758193,22657769,0.027156638,0.0055602374,0.10935452,0.06939012,0.058432855,0.0,0.0,0.0,0.0,0.0,0.0,0.0,0.0,0.09849167,0.0,0.0,nan,0.0,0.0,0.0010228157,0.0,0.0,0.0,0.0,0.0,0.0,0.0,0.0,0.0
23257895,23157427,-0.005760587,0.0024697126,-0.0034238175,0.06540175,0.063682675,0.0,0.0,0.0,0.0,0.0,0.0,0.0,0.0,-0.23571014,0.0,0.0,nan,0.0,0.0,0.0011503696,0.0,0.0,0.0,0.0,0.0,0.0,0.0,0.0,0.0
23757589,23657085,-0.001569395,-0.002161336,-0.024297768,0.061838314,0.06875842,0.0,0.0,0.0,0.0,0.0,0.0,0.0,0.0,0.0096645355,0.0,0.0,nan,0.0,0.0,-0.11124301,0.0,0.0,0.0,0.0,0.0,0.0,0.0,0.0,0.0
24267158,24166736,-0.00075749424,0.0005749465,-0.022409484,0.058628008,0.07400545,0.0,0.0,0.0,0.0,0.0,0.0,0.0,0.0,0.09465027,0.0,0.0,nan,0.0,0.0,-0.059069395,0.0,0.0,0.0,0.0,0.0,0.0,0.0,0.0,0.0
24767049,24666394,0.017727528,0.0094355475,0.012372317,0.066908926,0.07037659,0.0,0.0,0.0,0.0,0.0,0.0,0.0,0.0,-0.40890312,0.0,0.0,nan,0.0,0.0,-0.048507214,0.0,0.0,0.0,0.0,0.0,0.0,0.0,0.0,0.0
25256559,25156059,0.013077645,0.0072204135,-0.029675502,0.0638946,0.07598354,0.0,0.0,0.0,0.0,0.0,0.0,0.0,0.0,0.091630936,0.0,0.0,nan,0.0,0.0,-0.031761646,0.0,0.0,0.0,0.0,0.0,0.0,0.0,0.0,0.0
25756254,25655717,0.03296051,-0.046848837,-0.012184921,0.0714193,0.0640845,0.0,0.0,0.0,0.0,0.0,0.0,0.0,0.0,0.2609539,0.0,0.0,nan,0.0,0.0,0.0023128986,0.0,0.0,0.0,0.0,0.0,0.0,0.0,0.0,0.0
26265793,26165368,-0.033798613,0.030846845,0.075162716,0.06845467,0.06995763,0.0,0.0,0.0,0.0,0.0,0.0,0.0,0.0,0.2639885,0.0,0.0,nan,0.0,0.0,-0.0052218437,0.0,0.0,0.0,0.0,0.0,0.0,0.0,0.0,0.0
26765500,26665026,-0.004184611,0.0148087675,0.011265292,0.053713188,0.07725589,0.0,0.0,0.0,0.0,0.0,0.0,0.0,0.0,0.17611694,0.0,0.0,nan,0.0,0.0,-0.0053548813,0.0,0.0,0.0,0.0,0.0,0.0,0.0,0.0,0.0
27265131,27164684,0.0024522087,0.020307686,-0.008100806,0.04130885,0.081832,0.0,0.0,0.0,0.0,0.0,0.0,0.0,0.0,-0.02607727,0.0,0.0,nan,0.0,0.0,0.00334692,0.0,0.0,0.0,0.0,0.0,0.0,0.0,0.0,0.0
27764760,27664344,0.01663211,0.020777244,-0.036257323,0.03986737,0.08746298,0.0,0.0,0.0,0.0,0.0,0.0,0.0,0.0,0.036405563,0.0,0.0,nan,0.0,0.0,-0.0065352917,0.0,0.0,0.0,0.0,0.0,0.0,0.0,0.0,0.0
28264445,28164000,0.0072065303,-0.0014381718,-0.0013222625,0.027828544,0.09280226,0.0,0.0,0.0,0.0,0.0,0.0,0.0,0.0,-0.048828125,0.0,0.0,nan,0.0,0.0,0.0017886162,0.0,0.0,0.0,0.0,0.0,0.0,0.0,0.0,0.0
28764076,28663658,0.0022853122,0.005094983,0.015206705,0.0045986325,0.09777147,0.0,0.0,0.0,0.0,0.0,0.0,0.0,0.0,0.009267807,0.0,0.0,nan,0.0,0.0,-0.0037460327,0.0,0.0,0.0,0.0,0.0,0.0,0.0,0.0,0.0
29263862,29163315,-0.008236283,-0.0075812223,0.0057684355,0.0047052503,0.10310522,0.0,0.0,0.0,0.0,0.0,0.0,0.0,0.0,0.10322952,0.0,0.0,nan,0.0,0.0,-0.0026102066,0.0,0.0,0.0,0.0,0.0,0.0,0.0,0.0,0.0
29763533,29662973,0.0023985044,0.0074919704,-0.0040515256,-0.0061168373,0.09982952,0.0,0.0,0.0,0.0,0.0,0.0,0.0,0.0,-0.10221863,0.0,0.0,nan,0.0,0.0,0.00060892105,0.0,0.0,0.0,0.0,0.0,0.0,0.0,0.0,0.0
30263265,30162631,0.022733174,-0.01961727,-0.004549047,-0.017753124,0.096428975,0.0,0.0,0.0,0.0,0.0,0.0,0.0,0.0,0.054523468,0.0,0.0,nan,0.0,0.0,0.0033726692,0.0,0.0,0.0,0.0,0.0,0.0,0.0,0.0,0.0
30762891,30662289,-0.004945553,-0.0047614584,0.0014975576,-0.016471252,0.09401814,0.0,0.0,0.0,0.0,0.0,0.0,0.0,0.0,-0.050880432,0.0,0.0,nan,0.0,0.0,0.0032615662,0.0,0.0,0.0,0.0,0.0,0.0,0.0,0.0,0.0
31262613,31161947,-0.006974766,-0.018057302,0.008900967,-0.027174413,0.09100575,0.0,0.0,0.0,0.0,0.0,0.0,0.0,0.0,-0.07726097,0.0,0.0,nan,0.0,0.0,0.0025334358,0.0,0.0,0.0,0.0,0.0,0.0,0.0,0.0,0.0
31762212,31661604,-0.0061247093,-0.008523236,-0.018281918,-0.026879445,0.088037536,0.0,0.0,0.0,0.0,0.0,0.0,0.0,0.0,0.004671097,0.0,0.0,nan,0.0,0.0,0.0013217926,0.0,0.0,0.0,0.0,0.0,0.0,0.0,0.0,0.0
32261807,32161262,0.0050032386,-0.028668825,0.0029482215,-0.037024997,0.08573284,0.0,0.0,0.0,0.0,0.0,0.0,0.0,0.0,0.16950035,0.0,0.0,nan,0.0,0.0,0.0015993118,0.0,0.0,0.0,0.0,0.0,0.0,0.0,0.0,0.0
32761467,32660920,0.0037663626,0.0039006402,0.0380111,-0.035959147,0.083357416,0.0,0.0,0.0,0.0,0.0,0.0,0.0,0.0,0.0026073456,0.0,0.0,nan,0.0,0.0,0.0035517216,0.0,0.0,0.0,0.0,0.0,0.0,0.0,0.0,0.0
33261124,33160578,0.007868145,0.030993542,0.020937381,-0.035179578,0.08146077,0.0,0.0,0.0,0.0,0.0,0.0,0.0,0.0,-0.081422806,0.0,0.0,nan,0.0,0.0,0.0014226437,0.0,0.0,0.0,0.0,0.0,0.0,0.0,0.0,0.0
33760830,33660236,0.012100619,0.006837766,-0.029614504,-0.045511782,0.07912369,0.0,0.0,0.0,0.0,0.0,0.0,0.0,0.0,0.0033836365,0.0,0.0,nan,0.0,0.0,0.0037064552,0.0,0.0,0.0,0.0,0.0,0.0,0.0,0.0,0.0
34260437,34159893,0.007175295,0.012738541,-0.034975924,-0.033252202,0.08520027,0.0,0.0,0.0,0.0,0.0,0.0,0.0,0.0,-0.08180809,0.0,0.0,nan,0.0,0.0,0.0047130585,0.0,0.0,0.0,0.0,0.0,0.0,0.0,0.0,0.0
34760102,34659551,0.010790671,-0.017622001,0.0060175937,-0.04335037,0.082980625,0.0,0.0,0.0,0.0,0.0,0.0,0.0,0.0,-0.00079345703,0.0,0.0,nan,0.0,0.0,-0.062036276,0.0,0.0,0.0,0.0,0.0,0.0,0.0,0.0,0.0
35259756,35159209,0.0083171455,-0.027722698,-0.016180739,-0.04267308,0.07240572,0.0,0.0,0.0,0.0,0.0,0.0,0.0,0.0,0.3321724,0.0,0.0,nan,0.0,0.0,-0.074707985,0.0,0.0,0.0,0.0,0.0,0.0,0.0,0.0,0.0
35759445,35658867,0.14550136,-0.09816841,-0.02373497,-0.019094616,0.035531178,0.0,0.0,0.0,0.0,0.0,0.0,0.0,0.0,-0.004556656,0.0,0.0,nan,0.0,0.0,-0.12109995,0.0,0.0,0.0,0.0,0.0,0.0,0.0,0.0,0.0
36259252,36158525,0.26242462,-0.117356546,-0.0057637193,0.08902039,-0.03660839,0.0,0.0,0.0,0.0,0.0,0.0,0.0,0.0,0.081213,0.0,0.0,nan,0.0,0.0,-0.26548457,0.0,0.0,0.0,0.0,0.0,0.0,0.0,0.0,0.0
36758762,36658184,0.4317215,-0.024134427,0.07334979,0.24876279,-0.08857982,0.0,0.0,0.0,0.0,0.0,0.0,0.0,0.0,-0.038007736,0.0,0.0,nan,0.0,0.0,-0.28483057,0.0,0.0,0.0,0.0,0.0,0.0,0.0,0.0,0.0
37258512,37158090,1.4798054,-0.6687622,-0.120926976,1.0089542,-0.5314619,0.0,0.0,0.0,0.0,0.0,0.0,0.0,0.0,-0.092077255,0.0,0.0,nan,0.0,0.0,-0.35751724,0.0,0.0,0.0,0.0,0.0,0.0,0.0,0.0,0.0
37758196,37657748,1.8101199,-0.62716997,-0.09199432,1.8066213,-0.80856365,0.0,0.0,0.0,0.0,0.0,0.0,0.0,0.0,-0.1708889,0.0,0.0,nan,0.0,0.0,-0.3628595,0.0,0.0,0.0,0.0,0.0,0.0,0.0,0.0,0.0
38257848,38157406,2.1957707,-0.54041994,-0.12060931,2.780012,-1.0979755,0.0,0.0,0.0,0.0,0.0,0.0,0.0,0.0,-0.2227974,0.0,0.0,nan,0.0,0.0,-0.3546772,0.0,0.0,0.0,0.0,0.0,0.0,0.0,0.0,0.0
38767478,38667057,2.5833495,-0.56780505,-0.14182095,3.9732618,-1.379309,0.0,0.0,0.0,0.0,0.0,0.0,0.0,0.0,-0.41983604,0.0,0.0,nan,0.0,0.0,-0.3420267,0.0,0.0,0.0,0.0,0.0,0.0,0.0,0.0,0.0
39257146,39156721,2.9023154,-0.5473523,-0.19861168,5.322377,-1.6684113,0.0,0.0,0.0,0.0,0.0,0.0,0.0,0.0,-0.74024963,0.0,0.0,nan,0.0,0.0,-0.31880045,0.0,0.0,0.0,0.0,0.0,0.0,0.0,0.0,0.0
39756798,39656380,3.2512414,-0.6285248,-0.22510645,6.84915,-1.9877429,0.0,0.0,0.0,0.0,0.0,0.0,0.0,0.0,-0.5418415,0.0,0.0,nan,0.0,0.0,-0.29980016,0.0,0.0,0.0,0.0,0.0,0.0,0.0,0.0,0.0
40256490,40156037,3.6083088,-0.6772835,-0.23083958,8.524691,-2.3391662,0.0,0.0,0.0,0.0,0.0,0.0,0.0,0.0,-0.7188511,0.0,0.0,nan,0.0,0.0,-0.28231502,0.0,0.0,0.0,0.0,0.0,0.0,0.0,0.0,0.0
40766113,40665688,3.9360938,-0.75592875,-0.2183766,10.375086,-2.7342863,0.0,0.0,0.0,0.0,0.0,0.0,0.0,0.0,-0.6791916,0.0,0.0,nan,0.0,0.0,-0.2637074,0.0,0.0,0.0,0.0,0.0,0.0,0.0,0.0,0.0
41265800,41165346,4.278064,-0.8938582,-0.1585688,12.380692,-3.1703715,0.0,0.0,0.0,0.0,0.0,0.0,0.0,0.0,-0.9516125,0.0,0.0,nan,0.0,0.0,-0.21330118,0.0,0.0,0.0,0.0,0.0,0.0,0.0,0.0,0.0
41765534,41665004,4.582345,-0.9572947,-0.12817813,14.566201,-3.6542158,0.0,0.0,0.0,0.0,0.0,0.0,0.0,0.0,-0.9532623,0.0,0.0,nan,0.0,0.0,-0.084625244,0.0,0.0,0.0,0.0,0.0,0.0,0.0,0.0,0.0
42265128,42164662,4.7997723,-1.0242794,-0.07499659,16.893034,-4.1548014,0.0,0.0,0.0,0.0,0.0,0.0,0.0,0.0,-0.8389454,0.0,0.0,nan,0.0,0.0,-0.13175583,0.0,0.0,0.0,0.0,0.0,0.0,0.0,0.0,0.0
42764742,42664320,5.1180177,-1.4086564,0.115059435,19.38324,-4.727847,0.0,0.0,0.0,0.0,0.0,0.0,0.0,0.0,-0.8017578,0.0,0.0,nan,0.0,0.0,0.13990402,0.0,0.0,0.0,0.0,0.0,0.0,0.0,0.0,0.0
43264392,43163978,5.3790655,-1.4763908,0.015003741,22.082298,-5.38661,0.0,0.0,0.0,0.0,0.0,0.0,0.0,0.0,-0.7996311,0.0,0.0,nan,0.0,0.0,-0.004766941,0.0,0.0,0.0,0.0,0.0,0.0,0.0,0.0,0.0
43764056,43663636,7.177835,-4.7936225,0.41801172,30.518147,-15.601553,0.0,0.0,0.0,0.0,0.0,0.0,0.0,0.0,0.25971603,0.0,0.0,nan,0.0,0.0,0.1269207,0.0,0.0,0.0,0.0,0.0,0.0,0.0,0.0,0.0
44263744,44163294,7.144339,-4.6693406,0.3393315,34.85981,-18.548569,0.0,0.0,0.0,0.0,0.0,0.0,0.0,0.0,0.6416855,0.0,0.0,nan,0.0,0.0,0.0058584213,0.0,0.0,0.0,0.0,0.0,0.0,0.0,0.0,0.0
44763373,44662952,6.8895006,-4.433577,0.24650624,39.01225,-21.303886,0.0,0.0,0.0,0.0,0.0,0.0,0.0,0.0,1.0069103,0.0,0.0,nan,0.0,0.0,-0.050103188,0.0,0.0,0.0,0.0,0.0,0.0,0.0,0.0,0.0
45263033,45162610,6.806424,-4.421268,0.23924764,42.67177,-23.658436,0.0,0.0,0.0,0.0,0.0,0.0,0.0,0.0,1.0954533,0.0,0.0,nan,0.0,0.0,-0.049611807,0.0,0.0,0.0,0.0,0.0,0.0,0.0,0.0,0.0
45762724,45662268,6.712875,-4.3783097,0.14206143,46.236782,-25.928532,0.0,0.0,0.0,0.0,0.0,0.0,0.0,0.0,1.0985279,0.0,0.0,nan,0.0,0.0,-0.025115967,0.0,0.0,0.0,0.0,0.0,0.0,0.0,0.0,0.0
46262377,46161926,6.7372203,-4.151555,0.13125056,49.679863,-28.13931,0.0,0.0,0.0,0.0,0.0,0.0,0.0,0.0,0.6560879,0.0,0.0,nan,0.0,0.0,-0.069355965,0.0,0.0,0.0,0.0,0.0,0.0,0.0,0.0,0.0
46762006,46661584,6.7816105,-3.9596078,0.21873245,53.070145,-30.220013,0.0,0.0,0.0,0.0,0.0,0.0,0.0,0.0,1.1196785,0.0,0.0,nan,0.0,0.0,-0.14937425,0.0,0.0,0.0,0.0,0.0,0.0,0.0,0.0,0.0
47261666,47161242,6.792593,-3.7806594,0.21045789,56.466625,-32.169376,0.0,0.0,0.0,0.0,0.0,0.0,0.0,0.0,1.1568661,0.0,0.0,nan,0.0,0.0,-0.14843678,0.0,0.0,0.0,0.0,0.0,0.0,0.0,0.0,0.0
47761327,47660900,6.795019,-3.57539,0.26351672,59.845844,-34.038456,0.0,0.0,0.0,0.0,0.0,0.0,0.0,0.0,1.2615795,0.0,0.0,nan,0.0,0.0,-0.12297416,0.0,0.0,0.0,0.0,0.0,0.0,0.0,0.0,0.0
48260990,48160559,6.886419,-3.4507651,0.23751114,63.257103,-35.81835,0.0,0.0,0.0,0.0,0.0,0.0,0.0,0.0,1.41152,0.0,0.0,nan,0.0,0.0,-0.20837235,0.0,0.0,0.0,0.0,0.0,0.0,0.0,0.0,0.0
48760735,48660217,6.931183,-3.4416647,0.095579915,66.67603,-37.55526,0.0,0.0,0.0,0.0,0.0,0.0,0.0,0.0,1.4480972,0.0,0.0,nan,0.0,0.0,-0.2154572,0.0,0.0,0.0,0.0,0.0,0.0,0.0,0.0,0.0
49260394,49159875,7.026473,-3.5052986,0.16254044,70.161804,-39.276382,0.0,0.0,0.0,0.0,0.0,0.0,0.0,0.0,1.4630775,0.0,0.0,nan,0.0,0.0,-0.078603506,0.0,0.0,0.0,0.0,0.0,0.0,0.0,0.0,0.0
49759952,49659533,6.9987226,-3.5087733,0.10642699,73.67523,-41.036243,0.0,0.0,0.0,0.0,0.0,0.0,0.0,0.0,1.2834148,0.0,0.0,nan,0.0,0.0,-0.12406039,0.0,0.0,0.0,0.0,0.0,0.0,0.0,0.0,0.0
50259640,50159191,6.898291,-3.6053722,0.14701554,77.13353,-42.821102,0.0,0.0,0.0,0.0,0.0,0.0,0.0,0.0,1.3447113,0.0,0.0,nan,0.0,0.0,-0.07236147,0.0,0.0,0.0,0.0,0.0,0.0,0.0,0.0,0.0
50759406,50658849,6.88187,-3.598151,0.15280856,80.58389,-44.617653,0.0,0.0,0.0,0.0,0.0,0.0,0.0,0.0,1.5410862,0.0,0.0,nan,0.0,0.0,0.016468048,0.0,0.0,0.0,0.0,0.0,0.0,0.0,0.0,0.0
51258955,51158508,6.863012,-3.4289997,0.11486338,84.01405,-46.34827,0.0,0.0,0.0,0.0,0.0,0.0,0.0,0.0,1.322979,0.0,0.0,nan,0.0,0.0,-0.114569426,0.0,0.0,0.0,0.0,0.0,0.0,0.0,0.0,0.0
51758592,51658168,6.8713617,-3.2637665,0.02142764,87.4451,-48.01866,0.0,0.0,0.0,0.0,0.0,0.0,0.0,0.0,1.6285973,0.0,0.0,nan,0.0,0.0,-0.0466516,0.0,0.0,0.0,0.0,0.0,0.0,0.0,0.0,0.0
52258456,52157824,0.014903545,-0.025110722,0.0354506,0.07221985,-0.027980804,0.0,0.0,0.0,0.0,0.0,0.0,0.0,0.0,1.4809628,0.0,0.0,nan,0.0,0.0,-0.043777466,0.0,0.0,0.0,0.0,0.0,0.0,0.0,0.0,0.0
52768023,52667476,0.07460356,0.10769153,0.017655157,-0.06650543,0.05608368,0.0,0.0,0.0,0.0,0.0,0.0,0.0,0.0,1.6454315,0.0,0.0,nan,0.0,0.0,-0.06775808,0.0,0.0,0.0,0.0,0.0,0.0,0.0,0.0,0.0
53257754,53157141,0.07914686,0.090607405,-0.056450896,0.08579254,0.0027389526,0.0,0.0,0.0,0.0,0.0,0.0,0.0,0.0,1.053154,0.0,0.0,nan,0.0,0.0,0.015318632,0.0,0.0,0.0,0.0,0.0,0.0,0.0,0.0,0.0
53757407,53656800,0.0689311,0.14090109,-0.041109867,0.093421936,0.033123016,0.0,0.0,0.0,0.0,0.0,0.0,0.0,0.0,1.2214508,0.0,0.0,nan,0.0,0.0,-0.0067219734,0.0,0.0,0.0,0.0,0.0,0.0,0.0,0.0,0.0
54257007,54156458,0.049435616,0.156919,-0.03931138,0.031211853,0.10511398,0.0,0.0,0.0,0.0,0.0,0.0,0.0,0.0,1.1480427,0.0,0.0,nan,0.0,0.0,-0.016732693,0.0,0.0,0.0,0.0,0.0,0.0,0.0,0.0,0.0
54756754,54656116,-0.022920132,0.2007482,-0.09246907,0.04133606,0.121162415,0.0,0.0,0.0,0.0,0.0,0.0,0.0,0.0,1.2796974,0.0,0.0,nan,0.0,0.0,0.0011620522,0.0,0.0,0.0,0.0,0.0,0.0,0.0,0.0,0.0
55266326,55165768,6.61329,-3.3906012,-0.06527397,6.8828506,-3.6165657,0.0,0.0,0.0,0.0,0.0,0.0,0.0,0.0,1.0154591,0.0,0.0,nan,0.0,0.0,-0.046490192,0.0,0.0,0.0,0.0,0.0,0.0,0.0,0.0,0.0
55766031,55665426,6.798449,-3.357805,-0.11038075,10.642075,-5.4790535,0.0,0.0,0.0,0.0,0.0,0.0,0.0,0.0,1.33214,0.0,0.0,nan,0.0,0.0,0.06415415,0.0,0.0,0.0,0.0,0.0,0.0,0.0,0.0,0.0
56265606,56165084,7.685487,-3.6242278,-0.005685009,14.244171,-7.2243385,0.0,0.0,0.0,0.0,0.0,0.0,0.0,0.0,0.7462864,0.0,0.0,nan,0.0,0.0,0.09806347,0.0,0.0,0.0,0.0,0.0,0.0,0.0,0.0,0.0
56755336,56654750,8.531083,-3.8671331,0.09510203,18.29203,-9.0704155,0.0,0.0,0.0,0.0,0.0,0.0,0.0,0.0,1.0879631,0.0,0.0,nan,0.0,0.0,0.007741213,0.0,0.0,0.0,0.0,0.0,0.0,0.0,0.0,0.0
57264918,57164402,6.356164,-3.667474,-0.14425625,21.13253,-10.729126,0.0,0.0,0.0,0.0,0.0,0.0,0.0,0.0,0.48412514,0.0,0.0,nan,0.0,0.0,0.13205314,0.0,0.0,0.0,0.0,0.0,0.0,0.0,0.0,0.0
57764553,57664060,6.337603,-3.847791,-0.055613477,24.377739,-12.620041,0.0,0.0,0.0,0.0,0.0,0.0,0.0,0.0,0.5742874,0.0,0.0,nan,0.0,0.0,0.070644855,0.0,0.0,0.0,0.0,0.0,0.0,0.0,0.0,0.0
58264215,58163719,6.334747,-4.0169325,-0.06109467,27.564949,-14.579399,0.0,0.0,0.0,0.0,0.0,0.0,0.0,0.0,0.56837463,0.0,0.0,nan,0.0,0.0,0.23353386,0.0,0.0,0.0,0.0,0.0,0.0,0.0,0.0,0.0
58763798,58663377,6.3004007,-3.9759743,0.0082362,30.7342,-16.590626,0.0,0.0,0.0,0.0,0.0,0.0,0.0,0.0,0.71990585,0.0,0.0,nan,0.0,0.0,0.12220192,0.0,0.0,0.0,0.0,0.0,0.0,0.0,0.0,0.0
59263464,59163036,6.2933292,-3.9666948,0.09677279,33.902534,-18.572952,0.0,0.0,0.0,0.0,0.0,0.0,0.0,0.0,0.63988113,0.0,0.0,nan,0.0,0.0,0.15195799,0.0,0.0,0.0,0.0,0.0,0.0,0.0,0.0,0.0
59763250,59662694,6.284141,-3.8676848,0.007185774,37.06218,-20.51263,0.0,0.0,0.0,0.0,0.0,0.0,0.0,0.0,0.5385933,0.0,0.0,nan,0.0,0.0,0.07412648,0.0,0.0,0.0,0.0,0.0,0.0,0.0,0.0,0.0
60262858,60162353,6.2896476,-3.644696,-0.034024216,40.220695,-22.3611,0.0,0.0,0.0,0.0,0.0,0.0,0.0,0.0,0.4652233,0.0,0.0,nan,0.0,0.0,0.0022563934,0.0,0.0,0.0,0.0,0.0,0.0,0.0,0.0,0.0
60762463,60662012,6.357987,-3.6545057,-0.03178846,43.403366,-24.165264,0.0,0.0,0.0,0.0,0.0,0.0,0.0,0.0,0.5139656,0.0,0.0,nan,0.0,0.0,-0.04015112,0.0,0.0,0.0,0.0,0.0,0.0,0.0,0.0,0.0
61262093,61161670,6.2929235,-3.8046956,-0.008551894,46.58657,-26.003536,0.0,0.0,0.0,0.0,0.0,0.0,0.0,0.0,0.43043518,0.0,0.0,nan,0.0,0.0,0.04319954,0.0,0.0,0.0,0.0,0.0,0.0,0.0,0.0,0.0
61761778,61661329,6.2406645,-4.020797,0.017455228,49.740067,-27.945244,0.0,0.0,0.0,0.0,0.0,0.0,0.0,0.0,0.5976639,0.0,0.0,nan,0.0,0.0,0.06685734,0.0,0.0,0.0,0.0,0.0,0.0,0.0,0.0,0.0
62261417,62160988,6.17212,-4.11161,0.028894432,52.837433,-29.971947,0.0,0.0,0.0,0.0,0.0,0.0,0.0,0.0,0.846405,0.0,0.0,nan,0.0,0.0,0.10466719,0.0,0.0,0.0,0.0,0.0,0.0,0.0,0.0,0.0
62761070,62660647,6.129054,-4.2196527,0.005329447,55.93309,-32.053013,0.0,0.0,0.0,0.0,0.0,0.0,0.0,0.0,0.51205826,0.0,0.0,nan,0.0,0.0,0.08229208,0.0,0.0,0.0,0.0,0.0,0.0,0.0,0.0,0.0
63260752,63160305,6.139979,-4.041911,-0.038560793,59.07057,-34.00065,0.0,0.0,0.0,0.0,0.0,0.0,0.0,0.0,0.7435398,0.0,0.0,nan,0.0,0.0,0.12339139,0.0,0.0,0.0,0.0,0.0,0.0,0.0,0.0,0.0
63760406,63659964,6.1875997,-3.9510016,-0.060767762,62.166878,-35.988106,0.0,0.0,0.0,0.0,0.0,0.0,0.0,0.0,0.5708389,0.0,0.0,nan,0.0,0.0,0.062141657,0.0,0.0,0.0,0.0,0.0,0.0,0.0,0.0,0.0
64260047,64159623,6.218511,-3.8217134,-0.005154252,65.26892,-37.916077,0.0,0.0,0.0,0.0,0.0,0.0,0.0,0.0,0.23151016,0.0,0.0,nan,0.0,0.0,0.06352472,0.0,0.0,0.0,0.0,0.0,0.0,0.0,0.0,0.0
64759733,64659282,6.2521014,-3.8127708,-0.011459628,68.39361,-39.81684,0.0,0.0,0.0,0.0,0.0,0.0,0.0,0.0,-0.10978699,0.0,0.0,nan,0.0,0.0,0.06186557,0.0,0.0,0.0,0.0,0.0,0.0,0.0,0.0,0.0
65259405,65158941,6.179407,-3.8339064,0.020870488,71.4988,-41.723553,0.0,0.0,0.0,0.0,0.0,0.0,0.0,0.0,0.13876534,0.0,0.0,nan,0.0,0.0,0.07516718,0.0,0.0,0.0,0.0,0.0,0.0,0.0,0.0,0.0
65759024,65658600,6.0851994,-3.901327,-0.068688035,74.55537,-43.668427,0.0,0.0,0.0,0.0,0.0,0.0,0.0,0.0,0.27471542,0.0,0.0,nan,0.0,0.0,0.073744535,0.0,0.0,0.0,0.0,0.0,0.0,0.0,0.0,0.0
66258679,66158259,6.022134,-3.933383,-0.06011065,77.590675,-45.62912,0.0,0.0,0.0,0.0,0.0,0.0,0.0,0.0,0.35670853,0.0,0.0,nan,0.0,0.0,0.08986616,0.0,0.0,0.0,0.0,0.0,0.0,0.0,0.0,0.0
66758389,66657918,6.1060586,-3.8358018,-0.03707011,80.63804,-47.57372,0.0,0.0,0.0,0.0,0.0,0.0,0.0,0.0,0.21064758,0.0,0.0,nan,0.0,0.0,-0.02011633,0.0,0.0,0.0,0.0,0.0,0.0,0.0,0.0,0.0
67258016,67157577,6.2273183,-3.758097,-0.057722017,83.725784,-49.467213,0.0,0.0,0.0,0.0,0.0,0.0,0.0,0.0,0.2069664,0.0,0.0,nan,0.0,0.0,0.01345849,0.0,0.0,0.0,0.0,0.0,0.0,0.0,0.0,0.0
67757748,67657236,6.285731,-3.6486828,-0.0029008447,86.85976,-51.31456,0.0,0.0,0.0,0.0,0.0,0.0,0.0,0.0,0.048517227,0.0,0.0,nan,0.0,0.0,0.023039341,0.0,0.0,0.0,0.0,0.0,0.0,0.0,0.0,0.0
68257313,68156895,6.3378115,-3.6409087,0.022321636,90.03055,-53.128445,0.0,0.0,0.0,0.0,0.0,0.0,0.0,0.0,0.116140366,0.0,0.0,nan,0.0,0.0,0.027299404,0.0,0.0,0.0,0.0,0.0,0.0,0.0,0.0,0.0
68757113,68656554,6.357503,-3.6703422,0.03856066,93.22213,-54.967224,0.0,0.0,0.0,0.0,0.0,0.0,0.0,0.0,0.115148544,0.0,0.0,nan,0.0,0.0,0.0387249,0.0,0.0,0.0,0.0,0.0,0.0,0.0,0.0,0.0
69266754,69166206,0.0144610405,0.0034489632,-0.020594697,0.034835815,-0.02747345,0.0,0.0,0.0,0.0,0.0,0.0,0.0,0.0,0.12261963,0.0,0.0,nan,0.0,0.0,0.036905766,0.0,0.0,0.0,0.0,0.0,0.0,0.0,0.0,0.0
69766470,69665865,6.3328514,-3.77894,-0.052615173,2.8287506,-1.6985855,0.0,0.0,0.0,0.0,0.0,0.0,0.0,0.0,0.13776588,0.0,0.0,nan,0.0,0.0,0.08737826,0.0,0.0,0.0,0.0,0.0,0.0,0.0,0.0,0.0
70266146,70165524,6.3128557,-3.7963762,-0.055254113,6.008957,-3.5872803,0.0,0.0,0.0,0.0,0.0,0.0,0.0,0.0,0.14097404,0.0,0.0,nan,0.0,0.0,0.05081415,0.0,0.0,0.0,0.0,0.0,0.0,0.0,0.0,0.0
70755680,70655190,6.219574,-3.7953913,-0.022806056,9.154037,-5.488373,0.0,0.0,0.0,0.0,0.0,0.0,0.0,0.0,0.2853508,0.0,0.0,nan,0.0,0.0,0.05774641,0.0,0.0,0.0,0.0,0.0,0.0,0.0,0.0,0.0
71265338,71164843,6.6196413,-3.5388536,-0.017156381,12.704254,-7.113167,0.0,0.0,0.0,0.0,0.0,0.0,0.0,0.0,0.11851311,0.0,0.0,nan,0.0,0.0,0.028892279,0.0,0.0,0.0,0.0,0.0,0.0,0.0,0.0,0.0
71764989,71664502,6.623302,-3.4722533,-0.0064106877,16.041565,-8.855301,0.0,0.0,0.0,0.0,0.0,0.0,0.0,0.0,-0.04764366,0.0,0.0,nan,0.0,0.0,0.034371138,0.0,0.0,0.0,0.0,0.0,0.0,0.0,0.0,0.0
72264655,72164161,6.640319,-3.5087292,0.0048246025,19.378311,-10.606827,0.0,0.0,0.0,0.0,0.0,0.0,0.0,0.0,-0.21668053,0.0,0.0,nan,0.0,0.0,0.05945611,0.0,0.0,0.0,0.0,0.0,0.0,0.0,0.0,0.0
72764341,72663820,6.6119604,-3.5177572,-0.004874625,22.704544,-12.357948,0.0,0.0,0.0,0.0,0.0,0.0,0.0,0.0,-0.21544075,0.0,0.0,nan,0.0,0.0,0.09263301,0.0,0.0,0.0,0.0,0.0,0.0,0.0,0.0,0.0
73263974,73163480,6.5708055,-3.5564806,-0.063023135,25.996902,-14.120117,0.0,0.0,0.0,0.0,0.0,0.0,0.0,0.0,-0.0449028,0.0,0.0,nan,0.0,0.0,0.07311368,0.0,0.0,0.0,0.0,0.0,0.0,0.0,0.0,0.0
73763628,73663139,6.53195,-3.5297723,-0.014400851,29.255081,-15.880768,0.0,0.0,0.0,0.0,0.0,0.0,0.0,0.0,-0.04554367,0.0,0.0,nan,0.0,0.0,0.085519075,0.0,0.0,0.0,0.0,0.0,0.0,0.0,0.0,0.0
74263400,74162798,6.4706583,-3.4779992,0.03322456,32.502045,-17.616623,0.0,0.0,0.0,0.0,0.0,0.0,0.0,0.0,-0.13051987,0.0,0.0,nan,0.0,0.0,0.06554127,0.0,0.0,0.0,0.0,0.0,0.0,0.0,0.0,0.0
74763012,74662458,6.476713,-3.4723787,0.015546151,35.75209,-19.338364,0.0,0.0,0.0,0.0,0.0,0.0,0.0,0.0,-0.21343994,0.0,0.0,nan,0.0,0.0,0.02314639,0.0,0.0,0.0,0.0,0.0,0.0,0.0,0.0,0.0
75262660,75162117,6.40086,-3.5954208,-0.027385809,38.975327,-21.128265,0.0,0.0,0.0,0.0,0.0,0.0,0.0,0.0,0.20784569,0.0,0.0,nan,0.0,0.0,0.13504934,0.0,0.0,0.0,0.0,0.0,0.0,0.0,0.0,0.0
75762273,75661777,6.343187,-3.5702462,0.03312033,42.176727,-22.909454,0.0,0.0,0.0,0.0,0.0,0.0,0.0,0.0,-0.04273033,0.0,0.0,nan,0.0,0.0,0.06670833,0.0,0.0,0.0,0.0,0.0,0.0,0.0,0.0,0.0
76261954,76161436,6.423446,-3.4271529,-0.058263924,45.380203,-24.642876,0.0,0.0,0.0,0.0,0.0,0.0,0.0,0.0,-0.023967743,0.0,0.0,nan,0.0,0.0,0.104474306,0.0,0.0,0.0,0.0,0.0,0.0,0.0,0.0,0.0
76761626,76661096,6.441348,-3.2697606,0.012549344,48.592834,-26.310226,0.0,0.0,0.0,0.0,0.0,0.0,0.0,0.0,-0.046278,0.0,0.0,nan,0.0,0.0,0.0471344,0.0,0.0,0.0,0.0,0.0,0.0,0.0,0.0,0.0
77261273,77160755,6.423498,-3.2384512,-0.022801928,51.817215,-27.940285,0.0,0.0,0.0,0.0,0.0,0.0,0.0,0.0,-0.018440247,0.0,0.0,nan,0.0,0.0,0.1069026,0.0,0.0,0.0,0.0,0.0,0.0,0.0,0.0,0.0
77760902,77660415,6.4080057,-3.2283435,-0.114431344,55.042114,-29.546448,0.0,0.0,0.0,0.0,0.0,0.0,0.0,0.0,-0.10193634,0.0,0.0,nan,0.0,0.0,0.08736849,0.0,0.0,0.0,0.0,0.0,0.0,0.0,0.0,0.0
78260588,78160074,6.4008894,-3.2251835,-0.15429875,58.256256,-31.150475,0.0,0.0,0.0,0.0,0.0,0.0,0.0,0.0,-0.08398247,0.0,0.0,nan,0.0,0.0,0.09995794,0.0,0.0,0.0,0.0,0.0,0.0,0.0,0.0,0.0
78760222,78659734,6.4017143,-3.2437387,-0.17084455,61.470016,-32.77378,0.0,0.0,0.0,0.0,0.0,0.0,0.0,0.0,-0.31375122,0.0,0.0,nan,0.0,0.0,0.0038752556,0.0,0.0,0.0,0.0,0.0,0.0,0.0,0.0,0.0
79259972,79159393,6.4421573,-3.290253,-0.18796445,64.69403,-34.39511,0.0,0.0,0.0,0.0,0.0,0.0,0.0,0.0,-0.30522537,0.0,0.0,nan,0.0,0.0,0.092880964,0.0,0.0,0.0,0.0,0.0,0.0,0.0,0.0,0.0
79759576,79659053,6.461024,-3.3104699,-0.068865776,67.938934,-36.052437,0.0,0.0,0.0,0.0,0.0,0.0,0.0,0.0,-0.3645115,0.0,0.0,nan,0.0,0.0,0.030038834,0.0,0.0,0.0,0.0,0.0,0.0,0.0,0.0,0.0
80259207,80158713,6.5997586,-3.2749083,0.061728504,71.20969,-37.691444,0.0,0.0,0.0,0.0,0.0,0.0,0.0,0.0,-0.516592,0.0,0.0,nan,0.0,0.0,0.09079051,0.0,0.0,0.0,0.0,0.0,0.0,0.0,0.0,0.0
80758960,80658372,6.6552033,-3.2835915,0.088455774,74.51201,-39.31407,0.0,0.0,0.0,0.0,0.0,0.0,0.0,0.0,-0.26153755,0.0,0.0,nan,0.0,0.0,-0.0051596165,0.0,0.0,0.0,0.0,0.0,0.0,0.0,0.0,0.0
81258600,81158032,6.639418,-3.33407,0.028001409,77.83833,-40.967743,0.0,0.0,0.0,0.0,0.0,0.0,0.0,0.0,0.075538635,0.0,0.0,nan,0.0,0.0,0.020739317,0.0,0.0,0.0,0.0,0.0,0.0,0.0,0.0,0.0
81758269,81657692,6.63211,-3.5599809,0.025881168,81.1407,-42.71309,0.0,0.0,0.0,0.0,0.0,0.0,0.0,0.0,-0.17009735,0.0,0.0,nan,0.0,0.0,0.050471783,0.0,0.0,0.0,0.0,0.0,0.0,0.0,0.0,0.0
82257844,82157352,6.569258,-3.7491314,-0.034595188,84.44339,-44.533752,0.0,0.0,0.0,0.0,0.0,0.0,0.0,0.0,-0.4176197,0.0,0.0,nan,0.0,0.0,0.029245615,0.0,0.0,0.0,0.0,0.0,0.0,0.0,0.0,0.0
82757498,82657012,6.532844,-3.8050108,0.09692317,87.734695,-46.407684,0.0,0.0,0.0,0.0,0.0,0.0,0.0,0.0,-0.32716942,0.0,0.0,nan,0.0,0.0,0.024715424,0.0,0.0,0.0,0.0,0.0,0.0,0.0,0.0,0.0
83257258,83156671,6.605011,-3.68342,0.18007518,91.04709,-48.25728,0.0,0.0,0.0,0.0,0.0,0.0,0.0,0.0,-0.23937416,0.0,0.0,nan,0.0,0.0,0.013188124,0.0,0.0,0.0,0.0,0.0,0.0,0.0,0.0,0.0
83766819,83666324,-0.109202385,-0.1008451,-0.0032095164,-0.037872314,0.012924194,0.0,0.0,0.0,0.0,0.0,0.0,0.0,0.0,-0.06820297,0.0,0.0,nan,0.0,0.0,0.039144516,0.0,0.0,0.0,0.0,0.0,0.0,0.0,0.0,0.0
84266403,84165984,6.5624933,-3.738505,0.16562112,2.9140015,-1.6165009,0.0,0.0,0.0,0.0,0.0,0.0,0.0,0.0,-0.065223694,0.0,0.0,nan,0.0,0.0,0.04905939,0.0,0.0,0.0,0.0,0.0,0.0,0.0,0.0,0.0
84756156,84655651,6.490609,-3.8012638,0.110669285,6.185913,-3.4890442,0.0,0.0,0.0,0.0,0.0,0.0,0.0,0.0,-0.0900116,0.0,0.0,nan,0.0,0.0,0.12896109,0.0,0.0,0.0,0.0,0.0,0.0,0.0,0.0,0.0
85265757,85165304,6.343138,-3.8603945,0.07122285,9.408844,-5.398758,0.0,0.0,0.0,0.0,0.0,0.0,0.0,0.0,-0.14462662,0.0,0.0,nan,0.0,0.0,0.07799673,0.0,0.0,0.0,0.0,0.0,0.0,0.0,0.0,0.0
85765473,85664964,6.258013,-3.8786604,-0.059205525,12.578918,-7.332138,0.0,0.0,0.0,0.0,0.0,0.0,0.0,0.0,0.13533211,0.0,0.0,nan,0.0,0.0,0.10577488,0.0,0.0,0.0,0.0,0.0,0.0,0.0,0.0,0.0
86265049,86164624,6.22838,-3.921717,0.0020919945,15.712036,-9.268906,0.0,0.0,0.0,0.0,0.0,0.0,0.0,0.0,-0.048484802,0.0,0.0,nan,0.0,0.0,0.058496475,0.0,0.0,0.0,0.0,0.0,0.0,0.0,0.0,0.0
86764724,86664284,6.1866174,-3.9080925,0.007436341,18.816284,-11.210541,0.0,0.0,0.0,0.0,0.0,0.0,0.0,0.0,-0.030057907,0.0,0.0,nan,0.0,0.0,0.0695498,0.0,0.0,0.0,0.0,0.0,0.0,0.0,0.0,0.0
87264419,87163945,6.174012,-3.919799,0.0778673,21.90799,-13.153992,0.0,0.0,0.0,0.0,0.0,0.0,0.0,0.0,0.13022614,0.0,0.0,nan,0.0,0.0,0.11281419,0.0,0.0,0.0,0.0,0.0,0.0,0.0,0.0,0.0
87764102,87663604,6.042684,-3.9523637,0.05152485,24.97638,-15.105728,0.0,0.0,0.0,0.0,0.0,0.0,0.0,0.0,0.1483593,0.0,0.0,nan,0.0,0.0,0.08365083,0.0,0.0,0.0,0.0,0.0,0.0,0.0,0.0,0.0
88263711,88163265,5.96474,-3.8984215,-0.036851324,28.012299,-17.057571,0.0,0.0,0.0,0.0,0.0,0.0,0.0,0.0,0.18982506,0.0,0.0,nan,0.0,0.0,0.062740564,0.0,0.0,0.0,0.0,0.0,0.0,0.0,0.0,0.0
88763348,88662925,6.028325,-3.82163,-0.051510334,31.034546,-18.993195,0.0,0.0,0.0,0.0,0.0,0.0,0.0,0.0,-0.020792007,0.0,0.0,nan,0.0,0.0,0.10267067,0.0,0.0,0.0,0.0,0.0,0.0,0.0,0.0,0.0
89263087,89162585,6.105142,-3.7551785,-0.06841681,34.094147,-20.87561,0.0,0.0,0.0,0.0,0.0,0.0,0.0,0.0,0.020708084,0.0,0.0,nan,0.0,0.0,0.06727314,0.0,0.0,0.0,0.0,0.0,0.0,0.0,0.0,0.0
89762722,89662245,6.157561,-3.7399008,-0.1069014,37.184174,-22.757904,0.0,0.0,0.0,0.0,0.0,0.0,0.0,0.0,-0.12082672,0.0,0.0,nan,0.0,0.0,0.029449701,0.0,0.0,0.0,0.0,0.0,0.0,0.0,0.0,0.0
90262345,90161910,6.237088,-3.6687813,-0.057665337,40.30612,-24.615509,0.0,0.0,0.0,0.0,0.0,0.0,0.0,0.0,-0.39889717,0.0,0.0,nan,0.0,0.0,0.037372828,0.0,0.0,0.0,0.0,0.0,0.0,0.0,0.0,0.0
90761991,90661565,6.3584743,-3.5837548,-0.033609703,43.488068,-26.427979,0.0,0.0,0.0,0.0,0.0,0.0,0.0,0.0,0.100559235,0.0,0.0,nan,0.0,0.0,0.044081688,0.0,0.0,0.0,0.0,0.0,0.0,0.0,0.0,0.0
91261744,91161226,6.3532357,-3.6131418,0.015606756,46.668854,-28.240372,0.0,0.0,0.0,0.0,0.0,0.0,0.0,0.0,-0.3977337,0.0,0.0,nan,0.0,0.0,0.05410838,0.0,0.0,0.0,0.0,0.0,0.0,0.0,0.0,0.0
91761314,91660886,6.2760262,-3.6641448,-0.03407459,49.84851,-30.062653,0.0,0.0,0.0,0.0,0.0,0.0,0.0,0.0,-0.3956318,0.0,0.0,nan,0.0,0.0,0.086555004,0.0,0.0,0.0,0.0,0.0,0.0,0.0,0.0,0.0
92260966,92160549,6.2940784,-3.648441,-0.09312196,53.00708,-31.89273,0.0,0.0,0.0,0.0,0.0,0.0,0.0,0.0,-0.061195374,0.0,0.0,nan,0.0,0.0,0.07304382,0.0,0.0,0.0,0.0,0.0,0.0,0.0,0.0,0.0
92760631,92660207,6.2872305,-3.5922427,-0.10252115,56.166046,-33.69803,0.0,0.0,0.0,0.0,0.0,0.0,0.0,0.0,-0.14565659,0.0,0.0,nan,0.0,0.0,0.10542059,0.0,0.0,0.0,0.0,0.0,0.0,0.0,0.0,0.0
93260341,93159867,6.2456517,-3.5140343,-0.1608798,59.30081,-35.47647,0.0,0.0,0.0,0.0,0.0,0.0,0.0,0.0,-0.5608673,0.0,0.0,nan,0.0,0.0,0.03758073,0.0,0.0,0.0,0.0,0.0,0.0,0.0,0.0,0.0
93760077,93659527,6.2509665,-3.5460787,-0.17843229,62.4357,-37.220093,0.0,0.0,0.0,0.0,0.0,0.0,0.0,0.0,-0.39071083,0.0,0.0,nan,0.0,0.0,0.12596822,0.0,0.0,0.0,0.0,0.0,0.0,0.0,0.0,0.0
94259641,94159189,6.2816935,-3.4495773,-0.12680493,65.5918,-38.948975,0.0,0.0,0.0,0.0,0.0,0.0,0.0,0.0,-0.63645935,0.0,0.0,nan,0.0,0.0,0.08735323,0.0,0.0,0.0,0.0,0.0,0.0,0.0,0.0,0.0
94759276,94658848,6.333656,-3.3028724,-0.15538771,68.77286,-40.612915,0.0,0.0,0.0,0.0,0.0,0.0,0.0,0.0,-0.47714233,0.0,0.0,nan,0.0,0.0,0.08382583,0.0,0.0,0.0,0.0,0.0,0.0,0.0,0.0,0.0
95258988,95158509,6.425145,-3.13383,-0.15712075,71.98633,-42.19258,0.0,0.0,0.0,0.0,0.0,0.0,0.0,0.0,-0.67077065,0.0,0.0,nan,0.0,0.0,0.079452276,0.0,0.0,0.0,0.0,0.0,0.0,0.0,0.0,0.0
95758703,95658170,6.444986,-3.0469246,-0.16159548,75.2074,-43.714233,0.0,0.0,0.0,0.0,0.0,0.0,0.0,0.0,-0.65395546,0.0,0.0,nan,0.0,0.0,0.045998096,0.0,0.0,0.0,0.0,0.0,0.0,0.0,0.0,0.0
96258332,96157830,6.4832053,-2.9184847,-0.17084432,78.454315,-45.205826,0.0,0.0,0.0,0.0,0.0,0.0,0.0,0.0,-0.75745964,0.0,0.0,nan,0.0,0.0,0.0895381,0.0,0.0,0.0,0.0,0.0,0.0,0.0,0.0,0.0
96757911,96657491,6.402262,-3.2741873,-0.26221955,81.63971,-46.920395,0.0,0.0,0.0,0.0,0.0,0.0,0.0,0.0,-0.75730705,0.0,0.0,nan,0.0,0.0,0.039165974,0.0,0.0,0.0,0.0,0.0,0.0,0.0,0.0,0.0
97257572,97157151,6.322038,-3.4224591,-0.12626323,84.83469,-48.586304,0.0,0.0,0.0,0.0,0.0,0.0,0.0,0.0,-0.88705635,0.0,0.0,nan,0.0,0.0,0.1390965,0.0,0.0,0.0,0.0,0.0,0.0,0.0,0.0,0.0
97767286,97666805,6.3467665,-3.4827454,-0.15258883,88.02515,-50.321716,0.0,0.0,0.0,0.0,0.0,0.0,0.0,0.0,-1.1114082,0.0,0.0,nan,0.0,0.0,0.13163686,0.0,0.0,0.0,0.0,0.0,0.0,0.0,0.0,0.0
98267011,98166466,6.369773,-3.422155,-0.09047163,0.8005676,-0.43341064,0.0,0.0,0.0,0.0,0.0,0.0,0.0,0.0,-1.0767517,0.0,0.0,nan,0.0,0.0,0.10909033,0.0,0.0,0.0,0.0,0.0,0.0,0.0,0.0,0.0
98756698,98656133,6.380109,-3.3448312,-0.122767575,2.7960815,-1.466217,0.0,0.0,0.0,0.0,0.0,0.0,0.0,0.0,-0.97776604,0.0,0.0,nan,0.0,0.0,0.099039555,0.0,0.0,0.0,0.0,0.0,0.0,0.0,0.0,0.0
99256262,99155794,6.4170694,-3.2996097,-0.14634424,5.99881,-3.1048737,0.0,0.0,0.0,0.0,0.0,0.0,0.0,0.0,-1.2150383,0.0,0.0,nan,0.0,0.0,0.11652565,0.0,0.0,0.0,0.0,0.0,0.0,0.0,0.0,0.0
99755875,99655455,6.3113084,-3.391968,-0.16210444,9.191132,-4.760681,0.0,0.0,0.0,0.0,0.0,0.0,0.0,0.0,-1.1345215,0.0,0.0,nan,0.0,0.0,0.053994656,0.0,0.0,0.0,0.0,0.0,0.0,0.0,0.0,0.0
100265528,100165109,6.198108,-3.5311913,-0.23557597,12.316101,-6.5117035,0.0,0.0,0.0,0.0,0.0,0.0,0.0,0.0,-1.4604721,0.0,0.0,nan,0.0,0.0,0.12846422,0.0,0.0,0.0,0.0,0.0,0.0,0.0,0.0,0.0
100765220,100664769,6.200991,-3.5568154,-0.19086123,15.395813,-8.282333,0.0,0.0,0.0,0.0,0.0,0.0,0.0,0.0,-1.2822456,0.0,0.0,nan,0.0,0.0,0.122797966,0.0,0.0,0.0,0.0,0.0,0.0,0.0,0.0,0.0
101264891,101164430,6.1758933,-3.5409362,-0.2466549,18.507904,-10.05307,0.0,0.0,0.0,0.0,0.0,0.0,0.0,0.0,-1.2710972,0.0,0.0,nan,0.0,0.0,0.09580088,0.0,0.0,0.0,0.0,0.0,0.0,0.0,0.0,0.0
101764517,101664091,6.210858,-3.524546,-0.21311787,21.618317,-11.798035,0.0,0.0,0.0,0.0,0.0,0.0,0.0,0.0,-1.177784,0.0,0.0,nan,0.0,0.0,0.10601783,0.0,0.0,0.0,0.0,0.0,0.0,0.0,0.0,0.0
102264186,102163752,6.2864723,-3.4698417,-0.19625832,24.745972,-13.54039,0.0,0.0,0.0,0.0,0.0,0.0,0.0,0.0,-1.4989166,0.0,0.0,nan,0.0,0.0,0.09850335,0.0,0.0,0.0,0.0,0.0,0.0,0.0,0.0,0.0
102763891,102663413,6.200884,-3.5248606,-0.30955985,27.881989,-15.291946,0.0,0.0,0.0,0.0,0.0,0.0,0.0,0.0,-1.7375984,0.0,0.0,nan,0.0,0.0,0.10476017,0.0,0.0,0.0,0.0,0.0,0.0,0.0,0.0,0.0
103263537,103163074,6.2167544,-3.5948749,-0.24087621,30.983765,-17.06279,0.0,0.0,0.0,0.0,0.0,0.0,0.0,0.0,-1.8074074,0.0,0.0,nan,0.0,0.0,0.108707905,0.0,0.0,0.0,0.0,0.0,0.0,0.0,0.0,0.0
103763176,103662735,6.1918626,-3.6459863,-0.25871184,34.086212,-18.875107,0.0,0.0,0.0,0.0,0.0,0.0,0.0,0.0,-1.544632,0.0,0.0,nan,0.0,0.0,0.10424662,0.0,0.0,0.0,0.0,0.0,0.0,0.0,0.0,0.0
104262872,104162396,6.2189984,-3.7173893,-0.24181385,37.188965,-20.720764,0.0,0.0,0.0,0.0,0.0,0.0,0.0,0.0,-1.6974812,0.0,0.0,nan,0.0,0.0,0.097271204,0.0,0.0,0.0,0.0,0.0,0.0,0.0,0.0,0.0
104762493,104662057,6.2480235,-3.7532291,-0.20216532,40.290527,-22.605347,0.0,0.0,0.0,0.0,0.0,0.0,0.0,0.0,-2.1165543,0.0,0.0,nan,0.0,0.0,0.10420275,0.0,0.0,0.0,0.0,0.0,0.0,0.0,0.0,0.0
105262279,105161718,6.2047853,-3.8244405,-0.2682132,43.391693,-24.513885,0.0,0.0,0.0,0.0,0.0,0.0,0.0,0.0,-2.291233,0.0,0.0,nan,0.0,0.0,0.094554424,0.0,0.0,0.0,0.0,0.0,0.0,0.0,0.0,0.0
105761821,105661379,6.2350125,-3.8394182,-0.20926972,46.526337,-26.417297,0.0,0.0,0.0,0.0,0.0,0.0,0.0,0.0,-2.224928,0.0,0.0,nan,0.0,0.0,0.109772205,0.0,0.0,0.0,0.0,0.0,0.0,0.0,0.0,0.0
106261460,106161040,6.2822237,-3.72132,-0.099498376,49.67456,-28.288574,0.0,0.0,0.0,0.0,0.0,0.0,0.0,0.0,-2.3421574,0.0,0.0,nan,0.0,0.0,0.122579575,0.0,0.0,0.0,0.0,0.0,0.0,0.0,0.0,0.0
106761148,106660701,6.292269,-3.701041,-0.13635069,52.810577,-30.130478,0.0,0.0,0.0,0.0,0.0,0.0,0.0,0.0,-2.3183937,0.0,0.0,nan,0.0,0.0,0.086302996,0.0,0.0,0.0,0.0,0.0,0.0,0.0,0.0,0.0
107260810,107160363,6.3122582,-3.6017444,-0.068319015,55.956757,-31.942123,0.0,0.0,0.0,0.0,0.0,0.0,0.0,0.0,-2.5144844,0.0,0.0,nan,0.0,0.0,0.080414295,0.0,0.0,0.0,0.0,0.0,0.0,0.0,0.0,0.0
107760446,107660023,6.231531,-3.6898785,-0.2037166,59.115143,-33.76361,0.0,0.0,0.0,0.0,0.0,0.0,0.0,0.0,-2.508051,0.0,0.0,nan,0.0,0.0,0.07954478,0.0,0.0,0.0,0.0,0.0,0.0,0.0,0.0,0.0
108260106,108159685,6.2677765,-3.6791255,-0.2392586,62.24005,-35.593094,0.0,0.0,0.0,0.0,0.0,0.0,0.0,0.0,-2.6110058,0.0,0.0,nan,0.0,0.0,0.08361101,0.0,0.0,0.0,0.0,0.0,0.0,0.0,0.0,0.0
108760052,108659346,6.27993,-3.7105474,-0.25647303,65.36426,-37.441864,0.0,0.0,0.0,0.0,0.0,0.0,0.0,0.0,-2.7402973,0.0,0.0,nan,0.0,0.0,0.071912766,0.0,0.0,0.0,0.0,0.0,0.0,0.0,0.0,0.0
109259493,109159007,6.3204556,-3.6281989,-0.23948376,68.53067,-39.24817,0.0,0.0,0.0,0.0,0.0,0.0,0.0,0.0,-2.6502666,0.0,0.0,nan,0.0,0.0,0.081852674,0.0,0.0,0.0,0.0,0.0,0.0,0.0,0.0,0.0
109759092,109658668,6.530156,-3.353703,-0.24826348,71.75696,-40.99933,0.0,0.0,0.0,0.0,0.0,0.0,0.0,0.0,-3.112257,0.0,0.0,nan,0.0,0.0,0.054550648,0.0,0.0,0.0,0.0,0.0,0.0,0.0,0.0,0.0
110258756,110158329,6.585786,-3.3621,-0.1875476,75.01459,-42.691986,0.0,0.0,0.0,0.0,0.0,0.0,0.0,0.0,-3.0108356,0.0,0.0,nan,0.0,0.0,0.0655961,0.0,0.0,0.0,0.0,0.0,0.0,0.0,0.0,0.0
110758412,110657994,6.497044,-3.391966,-0.18305933,78.28702,-44.388763,0.0,0.0,0.0,0.0,0.0,0.0,0.0,0.0,-2.6586723,0.0,0.0,nan,0.0,0.0,0.08250713,0.0,0.0,0.0,0.0,0.0,0.0,0.0,0.0,0.0
111258080,111157652,6.4449,-3.4933486,-0.115276456,81.53021,-46.118866,0.0,0.0,0.0,0.0,0.0,0.0,0.0,0.0,-2.9744625,0.0,0.0,nan,0.0,0.0,0.07270002,0.0,0.0,0.0,0.0,0.0,0.0,0.0,0.0,0.0
111757764,111657313,6.3774037,-3.5469797,-0.20537755,84.71121,-47.89688,0.0,0.0,0.0,0.0,0.0,0.0,0.0,0.0,-3.2903233,0.0,0.0,nan,0.0,0.0,0.074447155,0.0,0.0,0.0,0.0,0.0,0.0,0.0,0.0,0.0
112267393,112166968,6.3717284,-3.5450451,-0.14514415,87.90228,-49.65724,0.0,0.0,0.0,0.0,0.0,0.0,0.0,0.0,-3.020689,0.0,0.0,nan,0.0,0.0,0.07598734,0.0,0.0,0.0,0.0,0.0,0.0,0.0,0.0,0.0
112757174,112656636,6.392026,-3.5640986,-0.18004915,0.80078125,-0.450531,0.0,0.0,0.0,0.0,0.0,0.0,0.0,0.0,-3.0868702,0.0,0.0,nan,0.0,0.0,0.07697272,0.0,0.0,0.0,0.0,0.0,0.0,0.0,0.0,0.0
113256749,113156298,6.321212,-3.577496,-0.15328076,2.77948,-1.563324,0.0,0.0,0.0,0.0,0.0,0.0,0.0,0.0,-3.2339573,0.0,0.0,nan,0.0,0.0,0.087727785,0.0,0.0,0.0,0.0,0.0,0.0,0.0,0.0,0.0
113756433,113655959,6.3927383,-3.517679,-0.19030829,5.971405,-3.3328247,0.0,0.0,0.0,0.0,0.0,0.0,0.0,0.0,-3.295683,0.0,0.0,nan,0.0,0.0,0.057835102,0.0,0.0,0.0,0.0,0.0,0.0,0.0,0.0,0.0
114266221,114165614,6.4316196,-3.5224621,-0.20787443,9.196259,-5.0932617,0.0,0.0,0.0,0.0,0.0,0.0,0.0,0.0,-3.859766,0.0,0.0,nan,0.0,0.0,0.056245565,0.0,0.0,0.0,0.0,0.0,0.0,0.0,0.0,0.0
114765777,114665276,6.427282,-3.5332582,-0.11112169,12.409546,-6.870941,0.0,0.0,0.0,0.0,0.0,0.0,0.0,0.0,-3.4232368,0.0,0.0,nan,0.0,0.0,0.08365154,0.0,0.0,0.0,0.0,0.0,0.0,0.0,0.0,0.0
115265359,115164937,6.4374146,-3.6105845,-0.13106297,15.634491,-8.693787,0.0,0.0,0.0,0.0,0.0,0.0,0.0,0.0,-3.5006542,0.0,0.0,nan,0.0,0.0,0.10024357,0.0,0.0,0.0,0.0,0.0,0.0,0.0,0.0,0.0
115765078,115664599,6.408837,-3.595404,-0.2017193,18.847107,-10.500122,0.0,0.0,0.0,0.0,0.0,0.0,0.0,0.0,-3.6327648,0.0,0.0,nan,0.0,0.0,0.07650781,0.0,0.0,0.0,0.0,0.0,0.0,0.0,0.0,0.0
116264715,116164260,6.5100546,-3.445497,-0.11232172,22.09491,-12.268616,0.0,0.0,0.0,0.0,0.0,0.0,0.0,0.0,-3.6256027,0.0,0.0,nan,0.0,0.0,0.04961586,0.0,0.0,0.0,0.0,0.0,0.0,0.0,0.0,0.0
116764340,116663922,6.5468345,-3.3114,-0.1997579,25.363068,-13.9618225,0.0,0.0,0.0,0.0,0.0,0.0,0.0,0.0,-3.7703266,0.0,0.0,nan,0.0,0.0,0.051316977,0.0,0.0,0.0,0.0,0.0,0.0,0.0,0.0,0.0
117264023,117163584,6.5642033,-3.2915754,-0.09831812,28.6344,-15.608704,0.0,0.0,0.0,0.0,0.0,0.0,0.0,0.0,-3.7502403,0.0,0.0,nan,0.0,0.0,0.05732131,0.0,0.0,0.0,0.0,0.0,0.0,0.0,0.0,0.0
117763668,117663245,6.457284,-3.4401066,-0.15025398,31.912354,-17.293793,0.0,0.0,0.0,0.0,0.0,0.0,0.0,0.0,-3.7724667,0.0,0.0,nan,0.0,0.0,0.068045855,0.0,0.0,0.0,0.0,0.0,0.0,0.0,0.0,0.0
118263380,118162907,6.430569,-3.4580512,-0.15820593,35.12726,-19.027649,0.0,0.0,0.0,0.0,0.0,0.0,0.0,0.0,-3.7442455,0.0,0.0,nan,0.0,0.0,0.052568674,0.0,0.0,0.0,0.0,0.0,0.0,0.0,0.0,0.0
118763077,118662569,6.3696055,-3.5048423,-0.13461412,38.3284,-20.771912,0.0,0.0,0.0,0.0,0.0,0.0,0.0,0.0,-3.9558678,0.0,0.0,nan,0.0,0.0,0.06937885,0.0,0.0,0.0,0.0,0.0,0.0,0.0,0.0,0.0
119262687,119162231,6.3779397,-3.4750595,-0.14223751,41.50894,-22.542084,0.0,0.0,0.0,0.0,0.0,0.0,0.0,0.0,-3.9278755,0.0,0.0,nan,0.0,0.0,0.09099531,0.0,0.0,0.0,0.0,0.0,0.0,0.0,0.0,0.0
119762347,119661892,6.3027477,-3.5248132,-0.14635473,44.689056,-24.296173,0.0,0.0,0.0,0.0,0.0,0.0,0.0,0.0,-4.294325,0.0,0.0,nan,0.0,0.0,0.08837819,0.0,0.0,0.0,0.0,0.0,0.0,0.0,0.0,0.0
120261975,120161554,6.272913,-3.4138563,-0.097012885,47.84665,-26.020538,0.0,0.0,0.0,0.0,0.0,0.0,0.0,0.0,-3.7679214,0.0,0.0,nan,0.0,0.0,0.06589913,0.0,0.0,0.0,0.0,0.0,0.0,0.0,0.0,0.0
120761662,120661216,6.3030562,-3.2770758,-0.079022616,51.0047,-27.696472,0.0,0.0,0.0,0.0,0.0,0.0,0.0,0.0,-4.2474117,0.0,0.0,nan,0.0,0.0,0.047009945,0.0,0.0,0.0,0.0,0.0,0.0,0.0,0.0,0.0
121261306,121160878,6.286191,-3.1774464,-0.06113651,54.15091,-29.286743,0.0,0.0,0.0,0.0,0.0,0.0,0.0,0.0,-4.2254677,0.0,0.0,nan,0.0,0.0,0.051793575,0.0,0.0,0.0,0.0,0.0,0.0,0.0,0.0,0.0
121760967,121660543,6.288536,-3.070536,-0.1746175,57.298615,-30.847351,0.0,0.0,0.0,0.0,0.0,0.0,0.0,0.0,-4.117628,0.0,0.0,nan,0.0,0.0,0.034806013,0.0,0.0,0.0,0.0,0.0,0.0,0.0,0.0,0.0
122260762,122160202,6.194268,-3.169794,-0.08762978,60.424927,-32.42395,0.0,0.0,0.0,0.0,0.0,0.0,0.0,0.0,-4.517271,0.0,0.0,nan,0.0,0.0,0.07495594,0.0,0.0,0.0,0.0,0.0,0.0,0.0,0.0,0.0
122760286,122659864,6.020466,-3.2961419,-0.06828215,63.470367,-34.056427,0.0,0.0,0.0,0.0,0.0,0.0,0.0,0.0,-4.2367496,0.0,0.0,nan,0.0,0.0,0.08907771,0.0,0.0,0.0,0.0,0.0,0.0,0.0,0.0,0.0
123260032,123159526,5.929746,-3.3321373,-0.08535226,66.4509,-35.711853,0.0,0.0,0.0,0.0,0.0,0.0,0.0,0.0,-3.9634151,0.0,0.0,nan,0.0,0.0,0.08757353,0.0,0.0,0.0,0.0,0.0,0.0,0.0,0.0,0.0
123759642,123659188,5.8775063,-3.2813516,-0.07123028,69.40726,-37.359924,0.0,0.0,0.0,0.0,0.0,0.0,0.0,0.0,-4.442951,0.0,0.0,nan,0.0,0.0,0.07900882,0.0,0.0,0.0,0.0,0.0,0.0,0.0,0.0,0.0
124259270,124158850,5.8251595,-3.2594743,-0.17300731,72.33258,-38.989746,0.0,0.0,0.0,0.0,0.0,0.0,0.0,0.0,-4.2904263,0.0,0.0,nan,0.0,0.0,0.08842778,0.0,0.0,0.0,0.0,0.0,0.0,0.0,0.0,0.0
124758964,124658512,5.706282,-3.214402,-0.15687707,75.22348,-40.596863,0.0,0.0,0.0,0.0,0.0,0.0,0.0,0.0,-4.493637,0.0,0.0,nan,0.0,0.0,0.089113,0.0,0.0,0.0,0.0,0.0,0.0,0.0,0.0,0.0
125258601,125158174,5.6009307,-3.1941237,-0.11211948,78.06189,-42.19046,0.0,0.0,0.0,0.0,0.0,0.0,0.0,0.0,-4.4411354,0.0,0.0,nan,0.0,0.0,0.082647085,0.0,0.0,0.0,0.0,0.0,0.0,0.0,0.0,0.0
125758257,125657836,5.525557,-3.1483994,-0.21832365,80.82916,-43.75531,0.0,0.0,0.0,0.0,0.0,0.0,0.0,0.0,-4.4624825,0.0,0.0,nan,0.0,0.0,0.07596302,0.0,0.0,0.0,0.0,0.0,0.0,0.0,0.0,0.0
126258159,126157498,5.4592147,-3.2312126,-0.20023543,83.57553,-45.35205,0.0,0.0,0.0,0.0,0.0,0.0,0.0,0.0,-4.5788784,0.0,0.0,nan,0.0,0.0,0.08268809,0.0,0.0,0.0,0.0,0.0,0.0,0.0,0.0,0.0
126757606,126657160,5.4179854,-3.1571898,-0.059393093,86.30771,-46.94568,0.0,0.0,0.0,0.0,0.0,0.0,0.0,0.0,-4.3602543,0.0,0.0,nan,0.0,0.0,0.07786608,0.0,0.0,0.0,0.0,0.0,0.0,0.0,0.0,0.0
127257382,127156823,0.0319376,0.0007109642,0.02018777,0.027282715,-0.016448975,0.0,0.0,0.0,0.0,0.0,0.0,0.0,0.0,-4.2904377,0.0,0.0,nan,0.0,0.0,0.0788908,0.0,0.0,0.0,0.0,0.0,0.0,0.0,0.0,0.0
127757105,127656485,-0.06352711,0.03597212,-0.020273466,-0.018310547,0.025421143,0.0,0.0,0.0,0.0,0.0,0.0,0.0,0.0,-4.197338,0.0,0.0,nan,0.0,0.0,0.078154325,0.0,0.0,0.0,0.0,0.0,0.0,0.0,0.0,0.0
128256751,128156147,-0.12457037,0.09788895,0.1838269,-0.034362793,0.029205322,0.0,0.0,0.0,0.0,0.0,0.0,0.0,0.0,-4.190218,0.0,0.0,nan,0.0,0.0,0.0800333,0.0,0.0,0.0,0.0,0.0,0.0,0.0,0.0,0.0
128766464,128665803,-0.17069197,0.04183173,0.13858901,-0.048095703,0.040008545,0.0,0.0,0.0,0.0,0.0,0.0,0.0,0.0,-4.0030823,0.0,0.0,nan,0.0,0.0,0.08305812,0.0,0.0,0.0,0.0,0.0,0.0,0.0,0.0,0.0
129266069,129165465,-0.23169947,0.023066998,0.14453758,-0.07067871,0.04220581,0.0,0.0,0.0,0.0,0.0,0.0,0.0,0.0,-3.7712498,0.0,0.0,nan,0.0,0.0,0.08198142,0.0,0.0,0.0,0.0,0.0,0.0,0.0,0.0,0.0
129765713,129665127,-0.23731947,0.007727623,0.16693953,-0.09326172,0.04067993,0.0,0.0,0.0,0.0,0.0,0.0,0.0,0.0,-3.3959694,0.0,0.0,nan,0.0,0.0,0.092911005,0.0,0.0,0.0,0.0,0.0,0.0,0.0,0.0,0.0
130255356,130154796,-0.17234993,0.037899017,0.32200944,-0.10192871,0.04663086,0.0,0.0,0.0,0.0,0.0,0.0,0.0,0.0,-4.022829,0.0,0.0,nan,0.0,0.0,0.07390809,0.0,0.0,0.0,0.0,0.0,0.0,0.0,0.0,0.0
130764998,130664452,-0.12405777,-0.00966835,0.24753414,-0.107666016,0.034057617,0.0,0.0,0.0,0.0,0.0,0.0,0.0,0.0,-2.7931042,0.0,0.0,nan,0.0,0.0,0.051402092,0.0,0.0,0.0,0.0,0.0,0.0,0.0,0.0,0.0
131264730,131164115,-0.13549948,0.03778124,0.26777065,-0.10369873,0.03970337,0.0,0.0,0.0,0.0,0.0,0.0,0.0,0.0,-2.976841,0.0,0.0,nan,0.0,0.0,0.037795305,0.0,0.0,0.0,0.0,0.0,0.0,0.0,0.0,0.0
131764331,131663777,-0.073250294,0.004683256,0.2794556,-0.10107422,0.033569336,0.0,0.0,0.0,0.0,0.0,0.0,0.0,0.0,-1.8248329,0.0,0.0,nan,0.0,0.0,0.040514946,0.0,0.0,0.0,0.0,0.0,0.0,0.0,0.0,0.0
132264190,132163440,-0.13439417,0.014712572,0.3088668,-0.08770752,0.037322998,0.0,0.0,0.0,0.0,0.0,0.0,0.0,0.0,-2.2604656,0.0,0.0,nan,0.0,0.0,0.042019844,0.0,0.0,0.0,0.0,0.0,0.0,0.0,0.0,0.0
132763686,132663102,-0.04776144,-0.020912409,0.38707718,-0.061706543,0.034942627,0.0,0.0,0.0,0.0,0.0,0.0,0.0,0.0,-2.3770332,0.0,0.0,nan,0.0,0.0,0.050441504,0.0,0.0,0.0,0.0,0.0,0.0,0.0,0.0,0.0
133263345,133162765,-0.04791546,0.0028128624,0.3263206,-0.057617188,0.03640747,0.0,0.0,0.0,0.0,0.0,0.0,0.0,0.0,-1.4205914,0.0,0.0,nan,0.0,0.0,0.055805445,0.0,0.0,0.0,0.0,0.0,0.0,0.0,0.0,0.0
133763004,133662427,-0.016358852,-0.026983023,0.30300707,-0.04815674,0.032226562,0.0,0.0,0.0,0.0,0.0,0.0,0.0,0.0,-2.1593933,0.0,0.0,nan,0.0,0.0,0.056544304,0.0,0.0,0.0,0.0,0.0,0.0,0.0,0.0,0.0
134262724,134162090,-0.037864685,-0.024524212,0.2390168,-0.03668213,0.030670166,0.0,0.0,0.0,0.0,0.0,0.0,0.0,0.0,-1.6512547,0.0,0.0,nan,0.0,0.0,0.051000595,0.0,0.0,0.0,0.0,0.0,0.0,0.0,0.0,0.0
134762304,134661752,0.027944565,-0.052040815,0.19128267,-0.028259277,0.027801514,0.0,0.0,0.0,0.0,0.0,0.0,0.0,0.0,-1.5276833,0.0,0.0,nan,0.0,0.0,0.050177097,0.0,0.0,0.0,0.0,0.0,0.0,0.0,0.0,0.0
135262059,135161415,-0.03360033,-0.0141375065,0.2131558,-0.028869629,0.02456665,0.0,0.0,0.0,0.0,0.0,0.0,0.0,0.0,-1.199501,0.0,0.0,nan,0.0,0.0,0.052223444,0.0,0.0,0.0,0.0,0.0,0.0,0.0,0.0,0.0
135761625,135661078,0.0731225,-0.00086688995,0.21792957,-0.015014648,0.036956787,0.0,0.0,0.0,0.0,0.0,0.0,0.0,0.0,-1.0738678,0.0,0.0,nan,0.0,0.0,0.054991007,0.0,0.0,0.0,0.0,0.0,0.0,0.0,0.0,0.0
136261297,136160740,0.019307137,-0.027220368,0.14537004,-0.016845703,0.036376953,0.0,0.0,0.0,0.0,0.0,0.0,0.0,0.0,-0.8035908,0.0,0.0,nan,0.0,0.0,0.05315876,0.0,0.0,0.0,0.0,0.0,0.0,0.0,0.0,0.0
136760956,136660403,0.008907795,-0.034882784,0.17059633,-0.0064697266,0.03869629,0.0,0.0,0.0,0.0,0.0,0.0,0.0,0.0,-0.8048248,0.0,0.0,nan,0.0,0.0,0.054190397,0.0,0.0,0.0,0.0,0.0,0.0,0.0,0.0,0.0
137260618,137160066,0.06467676,-0.05938852,0.17988765,-0.010009766,0.03125,0.0,0.0,0.0,0.0,0.0,0.0,0.0,0.0,-0.7628803,0.0,0.0,nan,0.0,0.0,0.049526215,0.0,0.0,0.0,0.0,0.0,0.0,0.0,0.0,0.0
137760360,137659728,-0.02932167,0.03518343,0.14812727,-0.015625,0.029449463,0.0,0.0,0.0,0.0,0.0,0.0,0.0,0.0,-0.69267845,0.0,0.0,nan,0.0,0.0,0.04810238,0.0,0.0,0.0,0.0,0.0,0.0,0.0,0.0,0.0
138259967,138159393,0.09255743,-0.030638814,0.11560045,-0.010925293,0.02255249,0.0,0.0,0.0,0.0,0.0,0.0,0.0,0.0,-0.60240555,0.0,0.0,nan,0.0,0.0,0.04489994,0.0,0.0,0.0,0.0,0.0,0.0,0.0,0.0,0.0
138759656,138659055,0.020220995,-0.016088843,0.1375739,-0.00592041,0.032043457,0.0,0.0,0.0,0.0,0.0,0.0,0.0,0.0,-0.5382023,0.0,0.0,nan,0.0,0.0,0.047230244,0.0,0.0,0.0,0.0,0.0,0.0,0.0,0.0,0.0
139259265,139158717,-7.104874e-05,0.008284807,0.05269397,0.0025634766,0.031280518,0.0,0.0,0.0,0.0,0.0,0.0,0.0,0.0,-0.47094536,0.0,0.0,nan,0.0,0.0,0.036873102,0.0,0.0,0.0,0.0,0.0,0.0,0.0,0.0,0.0
139758928,139658380,0.01773119,-0.05225694,0.056298945,0.012390137,0.032287598,0.0,0.0,0.0,0.0,0.0,0.0,0.0,0.0,-0.50647354,0.0,0.0,nan,0.0,0.0,0.026876926,0.0,0.0,0.0,0.0,0.0,0.0,0.0,0.0,0.0
140258638,140158043,0.026864767,-0.075073004,0.0072484706,-0.012268066,0.03878784,0.0,0.0,0.0,0.0,0.0,0.0,0.0,0.0,-0.46965218,0.0,0.0,nan,0.0,0.0,0.07112241,0.0,0.0,0.0,0.0,0.0,0.0,0.0,0.0,0.0
140758281,140657706,0.040209293,-0.07539427,0.07880418,0.019958496,0.02609253,0.0,0.0,0.0,0.0,0.0,0.0,0.0,0.0,-0.5959091,0.0,0.0,nan,0.0,0.0,0.03850007,0.0,0.0,0.0,0.0,0.0,0.0,0.0,0.0,0.0
141257999,141157369,0.030243158,-0.06767142,0.028722398,0.022216797,0.009338379,0.0,0.0,0.0,0.0,0.0,0.0,0.0,0.0,-0.22948456,0.0,0.0,nan,0.0,0.0,0.045106173,0.0,0.0,0.0,0.0,0.0,0.0,0.0,0.0,0.0
141757615,141657033,0.09148884,-0.07774079,-0.0617639,0.027893066,-0.00088500977,0.0,0.0,0.0,0.0,0.0,0.0,0.0,0.0,-0.37109375,0.0,0.0,nan,0.0,0.0,0.02839756,0.0,0.0,0.0,0.0,0.0,0.0,0.0,0.0,0.0
142257294,142156695,0.08307004,-0.08024812,-0.032959454,0.01373291,0.007904053,0.0,0.0,0.0,0.0,0.0,0.0,0.0,0.0,-0.17097473,0.0,0.0,nan,0.0,0.0,0.030483961,0.0,0.0,0.0,0.0,0.0,0.0,0.0,0.0,0.0
142766941,142666351,0.10047436,-0.03373313,-0.09484123,0.020141602,0.0063171387,0.0,0.0,0.0,0.0,0.0,0.0,0.0,0.0,-0.5662937,0.0,0.0,nan,0.0,0.0,0.03771639,0.0,0.0,0.0,0.0,0.0,0.0,0.0,0.0,0.0
143266599,143166015,0.11985397,0.0015895367,-0.016144335,0.041259766,-0.0036315918,0.0,0.0,0.0,0.0,0.0,0.0,0.0,0.0,-0.3753376,0.0,0.0,nan,0.0,0.0,0.027771473,0.0,0.0,0.0,0.0,0.0,0.0,0.0,0.0,0.0
143766283,143665677,0.10517359,-0.047794342,-0.050218355,0.048461914,-0.009063721,0.0,0.0,0.0,0.0,0.0,0.0,0.0,0.0,0.06069565,0.0,0.0,nan,0.0,0.0,0.020959139,0.0,0.0,0.0,0.0,0.0,0.0,0.0,0.0,0.0
144255902,144155347,0.09331989,-0.056210756,0.044575557,0.043945312,-0.009063721,0.0,0.0,0.0,0.0,0.0,0.0,0.0,0.0,-0.2830925,0.0,0.0,nan,0.0,0.0,0.024414062,0.0,0.0,0.0,0.0,0.0,0.0,0.0,0.0,0.0
144755553,144655010,0.046858788,-0.018715382,-0.026316117,0.037353516,-0.00079345703,0.0,0.0,0.0,0.0,0.0,0.0,0.0,0.0,-0.33203506,0.0,0.0,nan,0.0,0.0,0.030755043,0.0,0.0,0.0,0.0,0.0,0.0,0.0,0.0,0.0
145265215,145164666,0.056336403,-0.05134988,-0.009050642,0.015563965,0.027252197,0.0,0.0,0.0,0.0,0.0,0.0,0.0,0.0,-0.21442604,0.0,0.0,nan,0.0,0.0,0.036123514,0.0,0.0,0.0,0.0,0.0,0.0,0.0,0.0,0.0
145764942,145664330,0.019168139,0.02404499,-0.017568659,0.0368042,0.025421143,0.0,0.0,0.0,0.0,0.0,0.0,0.0,0.0,-0.17385864,0.0,0.0,nan,0.0,0.0,0.024143219,0.0,0.0,0.0,0.0,0.0,0.0,0.0,0.0,0.0
146264542,146163993,0.012851238,-0.0476889,0.038877096,0.044799805,0.0340271,0.0,0.0,0.0,0.0,0.0,0.0,0.0,0.0,-0.076257706,0.0,0.0,nan,0.0,0.0,0.024105549,0.0,0.0,0.0,0.0,0.0,0.0,0.0,0.0,0.0
146764209,146663656,0.012327313,0.004656136,-0.048939094,0.03125,0.05230713,0.0,0.0,0.0,0.0,0.0,0.0,0.0,0.0,-0.06540489,0.0,0.0,nan,0.0,0.0,0.03143215,0.0,0.0,0.0,0.0,0.0,0.0,0.0,0.0,0.0
147263869,147163319,-0.008086324,-0.023686409,-0.011564225,0.029785156,0.05319214,0.0,0.0,0.0,0.0,0.0,0.0,0.0,0.0,-0.070474625,0.0,0.0,nan,0.0,0.0,0.040833473,0.0,0.0,0.0,0.0,0.0,0.0,0.0,0.0,0.0
147763563,147662983,-0.03568709,0.019142807,0.0077504013,0.024719238,0.046813965,0.0,0.0,0.0,0.0,0.0,0.0,0.0,0.0,-0.22380066,0.0,0.0,nan,0.0,0.0,0.039247513,0.0,0.0,0.0,0.0,0.0,0.0,0.0,0.0,0.0
148263278,148162646,0.024499655,-0.042516828,-0.098422214,0.021484375,0.04510498,0.0,0.0,0.0,0.0,0.0,0.0,0.0,0.0,-0.15556335,0.0,0.0,nan,0.0,0.0,0.031958103,0.0,0.0,0.0,0.0,0.0,0.0,0.0,0.0,0.0
148762861,148662309,0.0030505657,-0.013535142,0.0072443075,0.028686523,0.045806885,0.0,0.0,0.0,0.0,0.0,0.0,0.0,0.0,0.09205055,0.0,0.0,nan,0.0,0.0,0.011035204,0.0,0.0,0.0,0.0,0.0,0.0,0.0,0.0,0.0
149262524,149161973,0.025660634,-0.06803936,-0.002174791,0.022033691,0.035186768,0.0,0.0,0.0,0.0,0.0,0.0,0.0,0.0,0.09496689,0.0,0.0,nan,0.0,0.0,-0.011713743,0.0,0.0,0.0,0.0,0.0,0.0,0.0,0.0,0.0
149762323,149661636,0.032603502,-0.04349333,-0.06332475,0.020446777,0.0357666,0.0,0.0,0.0,0.0,0.0,0.0,0.0,0.0,0.02147293,0.0,0.0,nan,0.0,0.0,-0.0323658,0.0,0.0,0.0,0.0,0.0,0.0,0.0,0.0,0.0
150261905,150161300,0.044510603,0.0050721765,-0.07630675,0.023803711,0.03186035,0.0,0.0,0.0,0.0,0.0,0.0,0.0,0.0,-0.3121891,0.0,0.0,nan,0.0,0.0,-0.04173112,0.0,0.0,0.0,0.0,0.0,0.0,0.0,0.0,0.0
150761582,150660963,0.025832772,-0.034939706,0.013982821,0.010375977,0.024047852,0.0,0.0,0.0,0.0,0.0,0.0,0.0,0.0,-0.3100891,0.0,0.0,nan,0.0,0.0,-0.04151678,0.0,0.0,0.0,0.0,0.0,0.0,0.0,0.0,0.0
151261182,151160627,0.04247117,-0.03855771,-0.023342762,0.009765625,0.02017212,0.0,0.0,0.0,0.0,0.0,0.0,0.0,0.0,-0.29911613,0.0,0.0,nan,0.0,0.0,-0.034672022,0.0,0.0,0.0,0.0,0.0,0.0,0.0,0.0,0.0
151760839,151660290,0.03475654,-0.0313074,-0.020728175,0.0067749023,0.013305664,0.0,0.0,0.0,0.0,0.0,0.0,0.0,0.0,-0.041181564,0.0,0.0,nan,0.0,0.0,-0.026166439,0.0,0.0,0.0,0.0,0.0,0.0,0.0,0.0,0.0
152260538,152159954,0.002820611,-0.053734362,-0.0013276935,0.004638672,0.0045166016,0.0,0.0,0.0,0.0,0.0,0.0,0.0,0.0,-0.37018394,0.0,0.0,nan,0.0,0.0,-0.024212599,0.0,0.0,0.0,0.0,0.0,0.0,0.0,0.0,0.0
152760205,152659617,0.025949597,0.010940969,0.07105108,0.00012207031,-0.0048828125,0.0,0.0,0.0,0.0,0.0,0.0,0.0,0.0,0.13734436,0.0,0.0,nan,0.0,0.0,-0.016662598,0.0,0.0,0.0,0.0,0.0,0.0,0.0,0.0,0.0
153259862,153159281,-0.03757775,-0.013438344,-0.019231454,-0.0078125,-0.0053100586,0.0,0.0,0.0,0.0,0.0,0.0,0.0,0.0,0.0011825562,0.0,0.0,nan,0.0,0.0,-0.0078547,0.0,0.0,0.0,0.0,0.0,0.0,0.0,0.0,0.0
153759493,153658944,-0.003836155,-0.027729392,-0.06664586,-0.00579834,-0.012573242,0.0,0.0,0.0,0.0,0.0,0.0,0.0,0.0,-0.16957474,0.0,0.0,nan,0.0,0.0,-0.005737543,0.0,0.0,0.0,0.0,0.0,0.0,0.0,0.0,0.0
154259235,154158608,0.026328683,-0.012652367,0.013351239,-0.0065307617,-0.0043029785,0.0,0.0,0.0,0.0,0.0,0.0,0.0,0.0,-0.054685593,0.0,0.0,nan,0.0,0.0,-0.0046052933,0.0,0.0,0.0,0.0,0.0,0.0,0.0,0.0,0.0
154758838,154658271,-0.0056527257,0.003344655,0.0090368055,-0.0052490234,-0.009887695,0.0,0.0,0.0,0.0,0.0,0.0,0.0,0.0,-0.030254364,0.0,0.0,nan,0.0,0.0,0.0026187897,0.0,0.0,0.0,0.0,0.0,0.0,0.0,0.0,0.0
155258505,155157935,-0.03878206,-0.050061345,-0.052504096,-0.0134887695,-0.009796143,0.0,0.0,0.0,0.0,0.0,0.0,0.0,0.0,-0.09276581,0.0,0.0,nan,0.0,0.0,0.0067021847,0.0,0.0,0.0,0.0,0.0,0.0,0.0,0.0,0.0
155758165,155657599,0.673589,-0.3078987,0.043073855,0.9351196,-0.4317932,0.0,0.0,0.0,0.0,0.0,0.0,0.0,0.0,0.10876465,0.0,0.0,nan,0.0,0.0,0.018435001,0.0,0.0,0.0,0.0,0.0,0.0,0.0,0.0,0.0
156257907,156157263,0.52566516,-0.24125104,0.010312328,1.15271,-0.4961548,0.0,0.0,0.0,0.0,0.0,0.0,0.0,0.0,0.093070984,0.0,0.0,nan,0.0,0.0,0.015004635,0.0,0.0,0.0,0.0,0.0,0.0,0.0,0.0,0.0
156757535,156656927,0.53680265,-0.25156018,0.065672606,1.3098145,-0.553772,0.0,0.0,0.0,0.0,0.0,0.0,0.0,0.0,-0.05126953,0.0,0.0,nan,0.0,0.0,0.012995005,0.0,0.0,0.0,0.0,0.0,0.0,0.0,0.0,0.0
157267160,157166583,0.3698082,-0.1435281,-0.010112906,1.4224854,-0.59259033,0.0,0.0,0.0,0.0,0.0,0.0,0.0,0.0,0.13007736,0.0,0.0,nan,0.0,0.0,0.009466648,0.0,0.0,0.0,0.0,0.0,0.0,0.0,0.0,0.0
157766902,157666247,0.30472788,-0.13232641,-0.045358986,1.461731,-0.59243774,0.0,0.0,0.0,0.0,0.0,0.0,0.0,0.0,0.10664177,0.0,0.0,nan,0.0,0.0,0.0067338943,0.0,0.0,0.0,0.0,0.0,0.0,0.0,0.0,0.0
158256539,158155918,0.19245076,-0.07146619,-0.03574261,1.475708,-0.57177734,0.0,0.0,0.0,0.0,0.0,0.0,0.0,0.0,0.02199173,0.0,0.0,nan,0.0,0.0,0.012035608,0.0,0.0,0.0,0.0,0.0,0.0,0.0,0.0,0.0
158756342,158655582,0.12128681,-0.019547476,0.0834392,1.4589233,-0.5348816,0.0,0.0,0.0,0.0,0.0,0.0,0.0,0.0,0.101177216,0.0,0.0,nan,0.0,0.0,0.008598328,0.0,0.0,0.0,0.0,0.0,0.0,0.0,0.0,0.0
159265795,159165239,0.06846417,-0.03186378,0.034211304,1.3990479,-0.49490356,0.0,0.0,0.0,0.0,0.0,0.0,0.0,0.0,0.18192863,0.0,0.0,nan,0.0,0.0,0.008903265,0.0,0.0,0.0,0.0,0.0,0.0,0.0,0.0,0.0
159765593,159664903,-0.025161032,0.032913353,0.09828361,1.3070679,-0.4446411,0.0,0.0,0.0,0.0,0.0,0.0,0.0,0.0,-0.15333366,0.0,0.0,nan,0.0,0.0,0.009394646,0.0,0.0,0.0,0.0,0.0,0.0,0.0,0.0,0.0
160265120,160164567,-0.030957174,0.05297703,0.0010603403,1.2261353,-0.3987732,0.0,0.0,0.0,0.0,0.0,0.0,0.0,0.0,0.26125336,0.0,0.0,nan,0.0,0.0,0.012084246,0.0,0.0,0.0,0.0,0.0,0.0,0.0,0.0,0.0
160764783,160664231,0.027352702,0.0045115124,-0.0076578874,1.15271,-0.35604858,0.0,0.0,0.0,0.0,0.0,0.0,0.0,0.0,-0.24154472,0.0,0.0,nan,0.0,0.0,0.015259743,0.0,0.0,0.0,0.0,0.0,0.0,0.0,0.0,0.0
161264488,161163895,-0.0039066067,0.0037814612,-0.059173632,1.0991821,-0.33590698,0.0,0.0,0.0,0.0,0.0,0.0,0.0,0.0,-0.1566658,0.0,0.0,nan,0.0,0.0,0.015020847,0.0,0.0,0.0,0.0,0.0,0.0,0.0,0.0,0.0
161764107,161663560,0.020723805,0.021709934,-0.024918718,1.0524902,-0.30065918,0.0,0.0,0.0,0.0,0.0,0.0,0.0,0.0,0.009727478,0.0,0.0,nan,0.0,0.0,0.014530897,0.0,0.0,0.0,0.0,0.0,0.0,0.0,0.0,0.0
162263805,162163223,-0.007622133,0.0019652594,-0.040959742,1.0102539,-0.2772522,0.0,0.0,0.0,0.0,0.0,0.0,0.0,0.0,-0.40683746,0.0,0.0,nan,0.0,0.0,0.015647888,0.0,0.0,0.0,0.0,0.0,0.0,0.0,0.0,0.0
162763474,162662887,0.04881745,0.017617747,-0.035493683,0.97320557,-0.24673462,0.0,0.0,0.0,0.0,0.0,0.0,0.0,0.0,0.1776619,0.0,0.0,nan,0.0,0.0,0.016830683,0.0,0.0,0.0,0.0,0.0,0.0,0.0,0.0,0.0
163263106,163162551,-0.008723836,0.018592753,-0.044024024,0.9400635,-0.22595215,0.0,0.0,0.0,0.0,0.0,0.0,0.0,0.0,0.1642685,0.0,0.0,nan,0.0,0.0,0.014586449,0.0,0.0,0.0,0.0,0.0,0.0,0.0,0.0,0.0
163763009,163662215,-0.012805898,0.0034315945,0.025955075,0.8987427,-0.19995117,0.0,0.0,0.0,0.0,0.0,0.0,0.0,0.0,0.062999725,0.0,0.0,nan,0.0,0.0,0.016282797,0.0,0.0,0.0,0.0,0.0,0.0,0.0,0.0,0.0
164262483,164161879,-0.006039367,-0.015591271,0.008407803,0.87194824,-0.18231201,0.0,0.0,0.0,0.0,0.0,0.0,0.0,0.0,0.1382389,0.0,0.0,nan,0.0,0.0,0.015815973,0.0,0.0,0.0,0.0,0.0,0.0,0.0,0.0,0.0
164762099,164661543,-0.032399163,0.0077443635,0.014237684,0.8477173,-0.15841675,0.0,0.0,0.0,0.0,0.0,0.0,0.0,0.0,-0.022447586,0.0,0.0,nan,0.0,0.0,0.014629602,0.0,0.0,0.0,0.0,0.0,0.0,0.0,0.0,0.0
165261825,165161208,0.036011405,0.009083154,0.06264282,0.8265381,-0.1343689,0.0,0.0,0.0,0.0,0.0,0.0,0.0,0.0,-0.031282425,0.0,0.0,nan,0.0,0.0,0.015248299,0.0,0.0,0.0,0.0,0.0,0.0,0.0,0.0,0.0
165761422,165660872,0.008565221,-0.010423299,-0.0047538504,0.8062744,-0.12097168,0.0,0.0,0.0,0.0,0.0,0.0,0.0,0.0,0.07687187,0.0,0.0,nan,0.0,0.0,0.013458252,0.0,0.0,0.0,0.0,0.0,0.0,0.0,0.0,0.0
166261181,166160542,-0.028213292,-0.019854724,0.012150965,0.7885132,-0.10006714,0.0,0.0,0.0,0.0,0.0,0.0,0.0,0.0,-0.056638718,0.0,0.0,nan,0.0,0.0,0.012793541,0.0,0.0,0.0,0.0,0.0,0.0,0.0,0.0,0.0
166760759,166660200,0.010807537,0.020481437,0.06892597,0.772583,-0.08761597,0.0,0.0,0.0,0.0,0.0,0.0,0.0,0.0,0.030094147,0.0,0.0,nan,0.0,0.0,0.01333046,0.0,0.0,0.0,0.0,0.0,0.0,0.0,0.0,0.0
167260474,167159865,-0.022330744,-0.0056492183,0.06964825,0.7462158,-0.06713867,0.0,0.0,0.0,0.0,0.0,0.0,0.0,0.0,-0.09303284,0.0,0.0,nan,0.0,0.0,0.010484219,0.0,0.0,0.0,0.0,0.0,0.0,0.0,0.0,0.0
167760130,167659529,0.013047475,0.020773482,-0.017529035,0.72265625,-0.056365967,0.0,0.0,0.0,0.0,0.0,0.0,0.0,0.0,-0.41594505,0.0,0.0,nan,0.0,0.0,0.010857105,0.0,0.0,0.0,0.0,0.0,0.0,0.0,0.0,0.0
168259914,168159193,-0.014371988,0.042677708,0.021189632,0.7098999,-0.04638672,0.0,0.0,0.0,0.0,0.0,0.0,0.0,0.0,-0.24827576,0.0,0.0,nan,0.0,0.0,0.007633209,0.0,0.0,0.0,0.0,0.0,0.0,0.0,0.0,0.0
168759410,168658858,0.0114790285,-0.006846607,-0.0061809234,0.68865967,-0.035858154,0.0,0.0,0.0,0.0,0.0,0.0,0.0,0.0,0.08471298,0.0,0.0,nan,0.0,0.0,0.0064008236,0.0,0.0,0.0,0.0,0.0,0.0,0.0,0.0,0.0
169259126,169158522,-0.0054840967,-0.012228523,-0.07547608,0.6793213,-0.026367188,0.0,0.0,0.0,0.0,0.0,0.0,0.0,0.0,0.16921616,0.0,0.0,nan,0.0,0.0,0.006083727,0.0,0.0,0.0,0.0,0.0,0.0,0.0,0.0,0.0
169758762,169658186,-0.009774776,-0.0152217215,-0.01678906,0.66064453,-0.02508545,0.0,0.0,0.0,0.0,0.0,0.0,0.0,0.0,0.08218002,0.0,0.0,nan,0.0,0.0,0.0023374557,0.0,0.0,0.0,0.0,0.0,0.0,0.0,0.0,0.0
170258422,170157851,0.0028325801,0.007579459,0.00041489833,0.64190674,-0.03189087,0.0,0.0,0.0,0.0,0.0,0.0,0.0,0.0,0.08172798,0.0,0.0,nan,0.0,0.0,0.0053374767,0.0,0.0,0.0,0.0,0.0,0.0,0.0,0.0,0.0
170758072,170657515,0.005572611,0.033739537,0.05389493,0.6246338,-0.031555176,0.0,0.0,0.0,0.0,0.0,0.0,0.0,0.0,-0.2528038,0.0,0.0,nan,0.0,0.0,0.003595829,0.0,0.0,0.0,0.0,0.0,0.0,0.0,0.0,0.0
171257725,171157180,-0.0019154382,-0.0049941055,0.01848351,0.6092529,-0.037628174,0.0,0.0,0.0,0.0,0.0,0.0,0.0,0.0,-0.08505249,0.0,0.0,nan,0.0,0.0,0.002434492,0.0,0.0,0.0,0.0,0.0,0.0,0.0,0.0,0.0
171767406,171666838,0.016562255,0.0041082813,0.007267572,0.5824585,-0.04550171,0.0,0.0,0.0,0.0,0.0,0.0,0.0,0.0,-0.25099754,0.0,0.0,nan,0.0,0.0,0.0007276535,0.0,0.0,0.0,0.0,0.0,0.0,0.0,0.0,0.0
172257064,172156509,0.008876934,-0.03048382,-0.065883234,0.5679321,-0.05279541,0.0,0.0,0.0,0.0,0.0,0.0,0.0,0.0,-0.057857513,0.0,0.0,nan,0.0,0.0,0.0016057491,0.0,0.0,0.0,0.0,0.0,0.0,0.0,0.0,0.0
172756776,172656174,-0.03745987,0.023359066,-0.035904918,0.5432739,-0.059539795,0.0,0.0,0.0,0.0,0.0,0.0,0.0,0.0,-0.06363869,0.0,0.0,nan,0.0,0.0,0.0016200542,0.0,0.0,0.0,0.0,0.0,0.0,0.0,0.0,0.0
173256387,173155838,0.002059034,0.023705296,0.058498677,0.51916504,-0.058166504,0.0,0.0,0.0,0.0,0.0,0.0,0.0,0.0,0.049928665,0.0,0.0,nan,0.0,0.0,-0.0012588501,0.0,0.0,0.0,0.0,0.0,0.0,0.0,0.0,0.0
173766057,173665496,0.01969101,0.010364637,-0.0049852463,0.5067749,-0.05606079,0.0,0.0,0.0,0.0,0.0,0.0,0.0,0.0,-0.0033302307,0.0,0.0,nan,0.0,0.0,-0.0012173653,0.0,0.0,0.0,0.0,0.0,0.0,0.0,0.0,0.0
174265753,174165161,-0.0018599893,0.0350527,-0.032860845,0.4944458,-0.054992676,0.0,0.0,0.0,0.0,0.0,0.0,0.0,0.0,0.06526947,0.0,0.0,nan,0.0,0.0,-0.0031297207,0.0,0.0,0.0,0.0,0.0,0.0,0.0,0.0,0.0
174765457,174664826,0.028446645,0.0074502537,0.06130631,0.48345947,-0.04522705,0.0,0.0,0.0,0.0,0.0,0.0,0.0,0.0,0.05303192,0.0,0.0,nan,0.0,0.0,-0.0017688274,0.0,0.0,0.0,0.0,0.0,0.0,0.0,0.0,0.0
175265042,175164490,0.012929395,-0.0101660695,-0.012799388,0.48461914,-0.04434204,0.0,0.0,0.0,0.0,0.0,0.0,0.0,0.0,0.008079529,0.0,0.0,nan,0.0,0.0,-0.004478216,0.0,0.0,0.0,0.0,0.0,0.0,0.0,0.0,0.0
175764787,175664155,-0.019263143,-0.008550319,-0.018750103,0.46276855,-0.051818848,0.0,0.0,0.0,0.0,0.0,0.0,0.0,0.0,-0.004770279,0.0,0.0,nan,0.0,0.0,-0.004064083,0.0,0.0,0.0,0.0,0.0,0.0,0.0,0.0,0.0
176264371,176163820,-0.0064573884,0.013708703,-0.014885171,0.45257568,-0.042419434,0.0,0.0,0.0,0.0,0.0,0.0,0.0,0.0,0.04732704,0.0,0.0,nan,0.0,0.0,-0.004958868,0.0,0.0,0.0,0.0,0.0,0.0,0.0,0.0,0.0
176764089,176663485,-0.028262366,0.009255186,0.022122456,0.44360352,-0.04107666,0.0,0.0,0.0,0.0,0.0,0.0,0.0,0.0,-0.1019001,0.0,0.0,nan,0.0,0.0,-0.0048820972,0.0,0.0,0.0,0.0,0.0,0.0,0.0,0.0,0.0
