timestamp,timestamp_sample,output_tracking_error[0],output_tracking_error[1],output_tracking_error[2],control_mode_flags,filter_fault_flags,pos_horiz_accuracy,pos_vert_accuracy,mag_test_ratio,vel_test_ratio,pos_test_ratio,hgt_test_ratio,tas_test_ratio,hagl_test_ratio,beta_test_ratio,time_slip,accel_device_id,gyro_device_id,baro_device_id,mag_device_id,gps_check_fail_flags,innovation_check_flags,solution_status_flags,reset_count_vel_ne,reset_count_vel_d,reset_count_pos_ne,reset_count_pod_d,reset_count_quat,pre_flt_fail_innov_heading,pre_flt_fail_innov_vel_horiz,pre_flt_fail_innov_vel_vert,pre_flt_fail_innov_height,pre_flt_fail_mag_field_disturbed,health_flags,timeout_flags
16899477,16798879,5.3222364e-05,0.0024072442,0.0017664308,67240471,0,0.14783627,0.21034655,0.003810835,0.0059268503,0.02052743,0.004702744,0.0,0.0,0.0,0.0,3932210,3932210,3997730,396809,0,0,895,2,1,2,0,3,0,0,0,0,0,0,0
16909531,16808872,5.2728843e-05,0.0023966527,0.0017512095,67240471,0,0.14783698,0.2103468,0.003810835,0.0059268503,0.02052743,0.004702744,0.0,0.0,0.0,0.0,3932210,3932210,3997730,396809,0,0,895,2,1,2,0,3,0,0,0,0,0,0,0
17109256,17008689,0.0001751605,0.0018516412,0.0015105412,67240471,0,0.14177553,0.20884563,0.0020789981,0.016720014,0.022967808,0.014157555,0.0,0.0,0.0,0.0,3932210,3932210,3997730,396809,0,0,895,2,1,2,0,3,0,0,0,0,0,0,0
17309546,17208507,0.00010197249,0.0011098192,0.0030427605,67240471,0,0.13640405,0.20737624,0.0032951192,0.02162092,0.025452927,0.0047395397,0.0,0.0,0.0,0.0,3932210,3932210,3997730,396809,0,0,895,2,1,2,0,3,0,0,0,0,0,0,0
17509470,17408326,0.0001878643,0.001366366,0.0009069769,67240471,0,0.1339412,0.20593755,0.005091047,0.013445356,0.024551565,0.00015384676,0.0,0.0,0.0,0.0,3932210,3932210,3997730,396809,0,0,895,2,1,2,0,3,0,0,0,0,0,0,0
17708770,17608144,0.00024529168,0.0008940987,0.0023172228,67240471,0,0.12938598,0.20452851,0.0035729762,0.008719879,0.022817511,0.019121299,0.0,0.0,0.0,0.0,3932210,3932210,3997730,396809,0,0,895,2,1,2,0,3,0,0,0,0,0,0,0
17908506,17807963,0.00021350513,0.0013617299,0.0015090298,67240471,0,0.12727995,0.20314807,0.0055144597,0.03341339,0.026401177,0.0045963596,0.0,0.0,0.0,0.0,3932210,3932210,3997730,396809,0,0,895,2,1,2,0,3,0,0,0,0,0,0,0
18108327,18007782,0.0001771446,0.0023522314,0.0019000819,67240471,0,0.123353444,0.2017953,0.0004552474,0.009775196,0.029104583,0.00024776047,0.0,0.0,0.0,0.0,3932210,3932210,3997730,396809,0,0,895,2,1,2,0,3,0,0,0,0,0,0,0
18308222,18207600,0.00020803836,0.0026263439,0.0011629951,67240471,0,0.121526025,0.20046929,0.0014791243,0.020055281,0.028311165,0.009744586,0.0,0.0,0.0,0.0,3932210,3932210,3997730,396809,0,0,895,2,1,2,0,3,0,0,0,0,0,0,0
18507959,18407419,0.0002006402,0.0009487822,0.00038475063,67240471,0,0.118095964,0.19916914,0.0015470524,0.02525619,0.031088365,0.00498045,0.0,0.0,0.0,0.0,3932210,3932210,3997730,396809,0,0,895,2,1,2,0,3,0,0,0,0,0,0,0
18707829,18607238,0.00023696883,0.0026521366,0.0014068511,67240471,0,0.11494159,0.19789405,0.0060988995,0.018231954,0.029490098,0.009724756,0.0,0.0,0.0,0.0,3932210,3932210,3997730,396809,0,0,895,2,1,2,0,3,0,0,0,0,0,0,0
18907689,18807057,0.00023012878,0.0012463507,0.0013210191,67240471,0,0.113460906,0.19664322,0.0009019334,0.016683687,0.028670127,0.004437102,0.0,0.0,0.0,0.0,3932210,3932210,3997730,396809,0,0,895,2,1,2,0,3,0,0,0,0,0,0,0
19107445,19006876,0.000106634165,0.001116217,0.0009086762,67240471,0,0.110676534,0.19542164,0.0019484217,0.0046745897,0.031655215,0.009900891,0.0,0.0,0.0,0.0,3932210,3932210,3997730,396809,0,0,895,2,1,2,0,3,0,0,0,0,0,0,0
19307787,19206695,9.733318e-05,0.0020284997,0.0013912868,67240471,0,0.10935122,0.19421586,0.0007174839,0.017597588,0.030931385,0.009881602,0.0,0.0,0.0,0.0,3932210,3932210,3997730,396809,0,0,895,2,1,2,0,3,0,0,0,0,0,0,0
19507082,19406514,6.389357e-05,0.0015067289,0.0019463123,67240471,0,0.10683259,0.19303226,0.0043838625,0.021186661,0.033879377,0.013694053,0.0,0.0,0.0,0.0,3932210,3932210,3997730,396809,0,0,895,2,1,2,0,3,0,0,0,0,0,0,0
19706937,19606333,0.00018431287,0.00073081057,0.0007445196,67240471,0,0.104480825,0.19187015,0.0033934845,0.003958328,0.032372884,0.0053546373,0.0,0.0,0.0,0.0,3932210,3932210,3997730,396809,0,0,895,2,1,2,0,3,0,0,0,0,0,0,0
19906698,19806153,0.00014438672,0.0010403817,0.001097525,67240471,0,0.10336544,0.19072895,0.008631906,0.013876345,0.031658463,0.019438347,0.0,0.0,0.0,0.0,3932210,3932210,3997730,396809,0,0,895,2,1,2,0,3,0,0,0,0,0,0,0
20106513,20005972,0.00019771804,0.0011189881,0.0014086206,67240471,0,0.10123209,0.189608,0.00059818267,0.012639344,0.030341659,0.014578714,0.0,0.0,0.0,0.0,3932210,3932210,3997730,396809,0,0,895,2,1,2,0,3,0,0,0,0,0,0,0
20306480,20205791,0.00010874307,0.0021949098,0.0021815517,67240471,0,0.10021782,0.18850671,0.00033743295,0.010926121,0.029741846,0.01925857,0.0,0.0,0.0,0.0,3932210,3932210,3997730,396809,0,0,895,2,1,2,0,3,0,0,0,0,0,0,0
20506371,20405735,0.00017541295,0.0016917312,0.0013590108,67240471,0,0.098271236,0.18742448,0.009777717,0.003282254,0.032912027,0.0046475795,0.0,0.0,0.0,0.0,3932210,3932210,3997730,396809,0,0,895,2,1,2,0,3,0,0,0,0,0,0,0
20706166,20605555,0.00016457388,0.0013098245,0.0013196407,67240471,0,0.0964345,0.1863608,0.0012443132,0.007374235,0.031712122,0.01409131,0.0,0.0,0.0,0.0,3932210,3932210,3997730,396809,0,0,895,2,1,2,0,3,0,0,0,0,0,0,0
20906333,20805374,0.00014661069,0.0013150523,0.0012266308,67240471,0,0.09555858,0.18531519,0.0037841273,0.004066324,0.031132676,0.009462307,0.0,0.0,0.0,0.0,3932210,3932210,3997730,396809,0,0,895,2,1,2,0,3,0,0,0,0,0,0,0
21106373,21005193,0.0001282543,0.0014919535,0.0012117629,67240471,0,0.09386859,0.18428709,0.0054770196,0.014739674,0.03437097,0.014080652,0.0,0.0,0.0,0.0,3932210,3932210,3997730,396809,0,0,895,2,1,2,0,3,0,0,0,0,0,0,0
21305616,21205013,0.00013073586,0.0022912263,0.0017895772,67240471,0,0.09306154,0.18327601,0.0019626413,0.012182448,0.033711746,0.023998097,0.0,0.0,0.0,0.0,3932210,3932210,3997730,396809,0,0,895,2,1,2,0,3,0,0,0,0,0,0,0
21505377,21404832,6.0793715e-05,0.0019364014,0.001491175,67240471,0,0.09149988,0.18252921,0.0070609795,0.015328979,0.03697857,0.0016048906,0.0,0.0,0.0,0.0,3932210,3932210,3997730,396809,0,0,895,2,1,2,0,3,0,0,0,0,0,0,0
21705211,21604652,5.819839e-05,0.00059539184,0.0011257812,67240471,0,0.09001498,0.18154684,0.00040345162,0.013156261,0.035768874,0.0047633676,0.0,0.0,0.0,0.0,3932210,3932210,3997730,396809,0,0,895,2,1,2,0,3,0,0,0,0,0,0,0
21905012,21804471,0.00023975068,0.0009928755,0.0013314587,67240471,0,0.08930456,0.18058026,0.0048815906,0.006380062,0.03524562,0.0038699175,0.0,0.0,0.0,0.0,3932210,3932210,3997730,396809,0,0,895,2,1,2,0,3,0,0,0,0,0,0,0
22104832,22004291,0.00026258937,0.00200886,0.0010543611,67240471,0,0.08792369,0.17962907,0.004665453,0.009333044,0.03411024,0.00071817724,0.0,0.0,0.0,0.0,3932210,3932210,3997730,396809,0,0,895,2,1,2,0,3,0,0,0,0,0,0,0
22304647,22204110,0.000141952,0.0015692846,0.001537122,67240471,0,0.08726261,0.17869282,0.0025966028,0.0051034987,0.03355076,0.0007230852,0.0,0.0,0.0,0.0,3932210,3932210,3997730,396809,0,0,895,2,1,2,0,3,0,0,0,0,0,0,0
22504555,22403931,0.000115740106,0.0011926617,0.0014767331,67240471,0,0.085974224,0.17777115,0.003957159,0.029745348,0.028175144,0.0024284583,0.0,0.0,0.0,0.0,3932210,3932210,3997730,396809,0,0,895,2,1,2,0,3,0,0,0,0,0,0,0
22704287,22603750,0.00013734988,0.0019461208,0.0011039373,67240471,0,0.08474188,0.17686367,0.00020742258,0.04841901,0.027475428,0.00078700064,0.0,0.0,0.0,0.0,3932210,3932210,3997730,396809,0,0,895,2,1,2,0,3,0,0,0,0,0,0,0
22904578,22803569,0.0001022876,0.0019453831,0.0010337484,67240471,0,0.08415127,0.17597003,0.005525978,0.008989564,0.02701871,0.0014598343,0.0,0.0,0.0,0.0,3932210,3932210,3997730,396809,0,0,895,2,1,2,0,3,0,0,0,0,0,0,0
23104027,23003389,9.56726e-05,0.0011753975,0.0009789866,67240471,0,0.08299572,0.17508988,0.0015140943,0.03788035,0.0262507,0.0063204407,0.0,0.0,0.0,0.0,3932210,3932210,3997730,396809,0,0,895,2,1,2,0,3,0,0,0,0,0,0,0
23303878,23203334,0.00012775017,0.00067237153,0.0016071667,67240471,0,0.08246916,0.17422938,0.00570427,0.0036015112,0.025878198,0.0024795271,0.0,0.0,0.0,0.0,3932210,3932210,3997730,396809,0,0,895,2,1,2,0,3,0,0,0,0,0,0,0
23503691,23403156,0.00010016106,0.00055065274,0.0014372153,67240471,0,0.081377044,0.17337383,0.00012983214,0.014002047,0.028064033,0.006962747,0.0,0.0,0.0,0.0,3932210,3932210,3997730,396809,0,0,895,2,1,2,0,3,0,0,0,0,0,0,0
23703524,23602974,7.169935e-05,0.00054287584,0.0012769669,67240471,0,0.080327764,0.17253093,0.0034887935,0.010280326,0.027326776,0.0054892073,0.0,0.0,0.0,0.0,3932210,3932210,3997730,396809,0,0,895,2,1,2,0,3,0,0,0,0,0,0,0
23903336,23802793,0.00011341472,0.001301545,0.001248229,67240471,0,0.07982262,0.17170034,0.0042595966,0.029611249,0.026896304,0.0032579657,0.0,0.0,0.0,0.0,3932210,3932210,3997730,396809,0,0,895,2,1,2,0,3,0,0,0,0,0,0,0
24103218,24002613,9.815087e-05,0.0008504673,0.0017200366,67240471,0,0.078833036,0.17088176,0.0028384284,0.008817378,0.029667497,0.0023302867,0.0,0.0,0.0,0.0,3932210,3932210,3997730,396809,0,0,895,2,1,2,0,3,0,0,0,0,0,0,0
24302982,24202433,0.0001756291,0.0020606956,0.0020490056,67240471,0,0.07835673,0.17007492,0.0001253202,0.010304428,0.029323895,0.008710314,0.0,0.0,0.0,0.0,3932210,3932210,3997730,396809,0,0,895,2,1,2,0,3,0,0,0,0,0,0,0
24502798,24402253,0.00020402101,0.003449808,0.0022652587,67240471,0,0.077421464,0.16927956,0.0025408259,0.014343554,0.02865519,0.0037923793,0.0,0.0,0.0,0.0,3932210,3932210,3997730,396809,0,0,895,2,1,2,0,3,0,0,0,0,0,0,0
24703109,24602074,0.00014146775,0.00059575436,0.0013224517,67240471,0,0.07651955,0.16849537,0.014847275,0.012642412,0.028012237,0.0016780447,0.0,0.0,0.0,0.0,3932210,3932210,3997730,396809,0,0,895,2,1,2,0,3,0,0,0,0,0,0,0
24902435,24801893,0.00015214615,0.0014057368,0.0008933219,67240471,0,0.07608589,0.16772212,0.00016965685,0.011798244,0.031107876,9.035889e-06,0.0,0.0,0.0,0.0,3932210,3932210,3997730,396809,0,0,895,2,1,2,0,3,0,0,0,0,0,0,0
25102414,25001714,0.00024292423,0.002749104,0.0012102426,67240471,0,0.075230785,0.16695955,0.007094582,0.012629028,0.030444818,0.002337707,0.0,0.0,0.0,0.0,3932210,3932210,3997730,396809,0,0,895,2,1,2,0,3,0,0,0,0,0,0,0
25302166,25201534,0.00037760125,0.0052795983,0.0021935957,67240471,0,0.07481989,0.1662074,0.0037602466,0.013147008,0.030221509,0.007880112,0.0,0.0,0.0,0.0,3932210,3932210,3997730,396809,0,0,895,2,1,2,0,3,0,0,0,0,0,0,0
25501970,25401354,0.0010941155,0.01718115,0.0048541175,67240471,0,0.07400769,0.16546543,0.0014139963,0.021319788,0.029302584,0.0007819006,0.0,0.0,0.0,0.0,3932210,3932210,3997730,396809,0,0,895,2,1,2,0,3,0,0,0,0,0,0,0
25701827,25601175,0.00014324096,0.006446167,0.004199545,67240471,0,0.07322201,0.16473342,0.002351268,0.031209186,0.028176915,0.0022455642,0.0,0.0,0.0,0.0,3932210,3932210,3997730,396809,0,0,895,2,1,2,0,3,0,0,0,0,0,0,0
25901594,25800994,0.0017320343,0.024561238,0.0025535643,67240471,0,0.07284499,0.16419153,0.0028338872,0.028508395,0.02845189,0.009302949,0.0,0.0,0.0,0.0,3932210,3932210,3997730,396809,0,0,895,2,1,2,0,3,0,0,0,0,0,0,0
26111402,26010806,0.00045559584,0.014942191,0.005073869,67240471,0,0.072097294,0.16329853,0.006153615,0.018708242,0.027319323,0.004451912,0.0,0.0,0.0,0.0,3932210,3932210,3997730,396809,0,0,895,2,1,2,0,3,0,0,0,0,0,0,0
26311752,26210626,0.0008149719,0.020453975,0.006390305,67240471,0,0.07137196,0.16259506,0.00047642723,0.018071631,0.027431423,0.0027934809,0.0,0.0,0.0,0.0,3932210,3932210,3997730,396809,0,0,895,2,1,2,0,3,0,0,0,0,0,0,0
26511699,26410446,0.00012949691,0.008212796,0.0050277766,67240471,0,0.07102427,0.16190068,0.001776427,0.010686428,0.02707136,0.011520575,0.0,0.0,0.0,0.0,3932210,3932210,3997730,396809,0,0,895,2,1,2,0,3,0,0,0,0,0,0,0
26700958,26600276,0.00117603,0.017705066,0.0004473267,67240471,0,0.07033152,0.16138645,0.0018640137,0.0058918335,0.03012289,0.00022395671,0.0,0.0,0.0,0.0,3932210,3932210,3997730,396809,0,0,895,2,1,2,0,3,0,0,0,0,0,0,0
26900733,26800096,0.0008112771,0.017130608,0.004075898,67240471,0,0.06999996,0.16070753,0.003065891,0.013717913,0.029943828,0.00017627087,0.0,0.0,0.0,0.0,3932210,3932210,3997730,396809,0,0,895,2,1,2,0,3,0,0,0,0,0,0,0
27100452,26999919,0.0003984147,0.003957244,0.0037938626,67240471,0,0.06933774,0.16003719,0.00041882394,0.011378157,0.02917591,0.00022907792,0.0,0.0,0.0,0.0,3932210,3932210,3997730,396809,0,0,895,2,1,2,0,3,0,0,0,0,0,0,0
27300447,27199737,0.0006518547,0.0089376,0.0018230408,67240471,0,0.0690209,0.15937524,0.0037179913,0.014622742,0.03255796,0.009695939,0.0,0.0,0.0,0.0,3932210,3932210,3997730,396809,0,0,895,2,1,2,0,3,0,0,0,0,0,0,0
27510497,27409548,0.000108607164,0.0030671768,0.00073850295,67240471,0,0.06838675,0.15872148,0.0063389908,0.010011544,0.03545595,0.009359693,0.0,0.0,0.0,0.0,3932210,3932210,3997730,396809,0,0,895,2,1,2,0,3,0,0,0,0,0,0,0
27709982,27609369,6.9534e-05,0.00081750785,0.0002536673,67240471,0,0.067802906,0.15808295,0.00050819514,0.015585071,0.034863833,0.00016974412,0.0,0.0,0.0,0.0,3932210,3932210,3997730,396809,0,0,895,2,1,2,0,3,0,0,0,0,0,0,0
27909817,27809189,0.00013813381,0.0014186403,0.0011675804,67240471,0,0.06750181,0.15744361,0.00082506164,0.012495871,0.038001075,0.00963608,0.0,0.0,0.0,0.0,3932210,3932210,3997730,396809,0,0,895,2,1,2,0,3,0,0,0,0,0,0,0
28109627,28009011,0.00026427564,0.0056145145,0.0027791818,67240471,0,0.06690387,0.15681213,0.00050977006,0.015033276,0.037220094,0.009338584,0.0,0.0,0.0,0.0,3932210,3932210,3997730,396809,0,0,895,2,1,2,0,3,0,0,0,0,0,0,0
28309473,28208831,8.121937e-05,0.0022037919,0.0023241902,67240471,0,0.066615984,0.15618835,0.0045686485,0.0054972223,0.036868393,0.0043653282,0.0,0.0,0.0,0.0,3932210,3932210,3997730,396809,0,0,895,2,1,2,0,3,0,0,0,0,0,0,0
28509410,28408652,0.0002457364,0.0029052417,0.0010006891,67240471,0,0.066042684,0.1555721,0.001073411,0.01641075,0.039592516,0.00517611,0.0,0.0,0.0,0.0,3932210,3932210,3997730,396809,0,0,895,2,1,2,0,3,0,0,0,0,0,0,0
28709305,28608472,5.4981094e-05,0.0013417266,0.0009596032,67240471,0,0.06548466,0.15496325,0.0019567206,0.007012427,0.038974054,0.014778019,0.0,0.0,0.0,0.0,3932210,3932210,3997730,396809,0,0,895,2,1,2,0,3,0,0,0,0,0,0,0
28908947,28808293,0.00016283414,0.0023207308,0.0016467836,67240471,0,0.06521698,0.15436165,0.0004375424,0.02529301,0.04217394,0.00041082426,0.0,0.0,0.0,0.0,3932210,3932210,3997730,396809,0,0,895,2,1,2,0,3,0,0,0,0,0,0,0
29108664,29008113,0.0002197692,0.0034973887,0.0017933105,67240471,0,0.064680986,0.15376712,0.0023549555,0.011800102,0.041508254,0.0003822992,0.0,0.0,0.0,0.0,3932210,3932210,3997730,396809,0,0,895,2,1,2,0,3,0,0,0,0,0,0,0
29308553,29207934,6.691059e-05,0.0013441375,0.0014633501,67240471,0,0.06442444,0.15317954,0.0038999834,0.006164845,0.041117527,0.0043269484,0.0,0.0,0.0,0.0,3932210,3932210,3997730,396809,0,0,895,2,1,2,0,3,0,0,0,0,0,0,0
29508324,29407755,0.00021191039,0.0023646634,0.0009141835,67240471,0,0.0639091,0.15259878,0.0087720575,0.032396752,0.040439423,0.00043631307,0.0,0.0,0.0,0.0,3932210,3932210,3997730,396809,0,0,895,2,1,2,0,3,0,0,0,0,0,0,0
29708151,29607576,8.69762e-05,0.0011973529,0.00058545783,67240471,0,0.063406594,0.1520247,6.169259e-05,0.004222414,0.039761167,0.009934332,0.0,0.0,0.0,0.0,3932210,3932210,3997730,396809,0,0,895,2,1,2,0,3,0,0,0,0,0,0,0
29907970,29807396,0.00020033422,0.0022980724,0.0010169601,67240471,0,0.06316698,0.15145718,0.00260579,0.008597377,0.0428841,0.019425953,0.0,0.0,0.0,0.0,3932210,3932210,3997730,396809,0,0,895,2,1,2,0,3,0,0,0,0,0,0,0
30107835,30007218,0.00027442307,0.0034733766,0.0014084807,67240471,0,0.062682986,0.15089607,0.011113401,0.013077453,0.04213794,0.0003519325,0.0,0.0,0.0,0.0,3932210,3932210,3997730,396809,0,0,895,2,1,2,0,3,0,0,0,0,0,0,0
30307609,30207038,9.876127e-05,0.001981919,0.0016429609,67240471,0,0.062452737,0.15034126,0.0013662194,0.015672715,0.03848496,0.009823144,0.0,0.0,0.0,0.0,3932210,3932210,3997730,396809,0,0,895,2,1,2,0,3,0,0,0,0,0,0,0
30507723,30406859,0.00028357055,0.004415549,0.00090609293,67240471,0,0.061986063,0.14979263,0.0056225588,0.006729187,0.03783395,0.004467273,0.0,0.0,0.0,0.0,3932210,3932210,3997730,396809,0,0,895,2,1,2,0,3,0,0,0,0,0,0,0
30707335,30606680,4.7939124e-05,0.0016443413,0.00037534197,67240471,0,0.061530277,0.14925005,0.00019271312,0.005879594,0.037330966,0.009736598,0.0,0.0,0.0,0.0,3932210,3932210,3997730,396809,0,0,895,2,1,2,0,3,0,0,0,0,0,0,0
30907294,30806501,0.000204681,0.002507672,0.0005979807,67240471,0,0.061314143,0.14871341,0.004294603,0.008174736,0.037009828,0.00030522686,0.0,0.0,0.0,0.0,3932210,3932210,3997730,396809,0,0,895,2,1,2,0,3,0,0,0,0,0,0,0
31107012,31006322,0.0002628368,0.0041095833,0.0010186353,67240471,0,0.060873944,0.14818259,0.00081469433,0.009913355,0.03607195,0.0051087444,0.0,0.0,0.0,0.0,3932210,3932210,3997730,396809,0,0,895,2,1,2,0,3,0,0,0,0,0,0,0
31306683,31206143,0.00016075082,0.0033464693,0.0011562502,67240471,0,0.0606656,0.14778906,0.008446612,0.011387079,0.035966903,0.004439505,0.0,0.0,0.0,0.0,3932210,3932210,3997730,396809,0,0,895,2,1,2,0,3,0,0,0,0,0,0,0
31506524,31405964,0.00019625254,0.003852339,0.0009247884,67240471,0,0.06024002,0.14726818,0.0016316364,0.005123169,0.035307948,0.003714838,0.0,0.0,0.0,0.0,3932210,3932210,3997730,396809,0,0,895,2,1,2,0,3,0,0,0,0,0,0,0
31706411,31605785,0.0001681263,0.0018136877,0.0008289876,67240471,0,0.059823662,0.1467528,0.0047324733,0.008827725,0.034781355,0.00096078496,0.0,0.0,0.0,0.0,3932210,3932210,3997730,396809,0,0,895,2,1,2,0,3,0,0,0,0,0,0,0
31906214,31805609,0.000117678464,0.00053502637,0.0008847183,67240471,0,0.05966474,0.14625064,0.009951962,0.010440564,0.034613896,0.004472583,0.0,0.0,0.0,0.0,3932210,3932210,3997730,396809,0,0,895,2,1,2,0,3,0,0,0,0,0,0,0
32105975,32005427,0.00013055642,0.0013211452,0.00043993734,67240471,0,0.059253644,0.1457444,0.0008783884,0.022256132,0.034144904,0.0042296615,0.0,0.0,0.0,0.0,3932210,3932210,3997730,396809,0,0,895,2,1,2,0,3,0,0,0,0,0,0,0
32306027,32205249,0.00010912109,0.0009637649,0.0009009261,67240471,0,0.059056733,0.14524357,0.002567776,0.020070676,0.03395052,0.0073184543,0.0,0.0,0.0,0.0,3932210,3932210,3997730,396809,0,0,895,2,1,2,0,3,0,0,0,0,0,0,0
32505644,32405070,7.353334e-05,0.0012325641,0.0003965244,67240471,0,0.058659773,0.14474805,0.004981524,0.018770356,0.033444095,0.005006046,0.0,0.0,0.0,0.0,3932210,3932210,3997730,396809,0,0,895,2,1,2,0,3,0,0,0,0,0,0,0
32705576,32604891,7.6710974e-05,0.0013806525,0.0005145153,67240471,0,0.05827152,0.14425772,0.0030593236,0.016992893,0.032801516,0.005975056,0.0,0.0,0.0,0.0,3932210,3932210,3997730,396809,0,0,895,2,1,2,0,3,0,0,0,0,0,0,0
32905284,32804712,0.00020874415,0.002688741,0.0011625459,67240471,0,0.05808679,0.14377251,0.00056864833,0.011276124,0.03268403,0.006827445,0.0,0.0,0.0,0.0,3932210,3932210,3997730,396809,0,0,895,2,1,2,0,3,0,0,0,0,0,0,0
33105085,33004534,0.000119331286,0.0025000307,0.0008955475,67240471,0,0.057711415,0.14329232,0.0066746394,0.010391338,0.0322509,0.003308599,0.0,0.0,0.0,0.0,3932210,3932210,3997730,396809,0,0,895,2,1,2,0,3,0,0,0,0,0,0,0
33304915,33204355,0.00019160629,0.0020735948,0.00025489976,67240471,0,0.057533514,0.14281705,0.00096341455,0.018616343,0.031989526,0.0040859496,0.0,0.0,0.0,0.0,3932210,3932210,3997730,396809,0,0,895,2,1,2,0,3,0,0,0,0,0,0,0
33504722,33404176,0.00028774468,0.0027112714,0.0013130332,67240471,0,0.05717026,0.14234662,0.011320873,0.012227978,0.031486783,0.00018186496,0.0,0.0,0.0,0.0,3932210,3932210,3997730,396809,0,0,895,2,1,2,0,3,0,0,0,0,0,0,0
33704536,33603998,0.00028949822,0.004016311,0.0013504769,67240471,0,0.056814533,0.14188094,0.0066409307,0.013112014,0.03109331,0.006369773,0.0,0.0,0.0,0.0,3932210,3932210,3997730,396809,0,0,895,2,1,2,0,3,0,0,0,0,0,0,0
33904370,33803819,0.00019415727,0.0014764096,0.0007775946,67240471,0,0.056647018,0.14141995,0.00046867627,0.014439833,0.030800167,0.0022347851,0.0,0.0,0.0,0.0,3932210,3932210,3997730,396809,0,0,895,2,1,2,0,3,0,0,0,0,0,0,0
34104423,34003640,5.5972578e-05,0.0007821267,0.00051337434,67240471,0,0.056302354,0.14096352,0.0036589142,0.014569642,0.03379509,0.0062301178,0.0,0.0,0.0,0.0,3932210,3932210,3997730,396809,0,0,895,2,1,2,0,3,0,0,0,0,0,0,0
34304134,34203462,0.00012313336,0.0022873934,0.0005833191,67240471,0,0.056140646,0.14051162,0.0071908613,0.015527601,0.033647936,0.0067911125,0.0,0.0,0.0,0.0,3932210,3932210,3997730,396809,0,0,895,2,1,2,0,3,0,0,0,0,0,0,0
34504203,34403283,0.00020042145,0.0029919764,0.00090822077,67240471,0,0.05580636,0.14006414,0.0027551346,0.008034686,0.03300284,0.0006530975,0.0,0.0,0.0,0.0,3932210,3932210,3997730,396809,0,0,895,2,1,2,0,3,0,0,0,0,0,0,0
34703650,34603105,0.00020337301,0.0029829887,0.00016067283,67240471,0,0.055478565,0.139621,0.006765505,0.011664483,0.032682735,0.0027730376,0.0,0.0,0.0,0.0,3932210,3932210,3997730,396809,0,0,895,2,1,2,0,3,0,0,0,0,0,0,0
34903577,34802926,0.00041645282,0.007001598,0.0010814148,67240471,0,0.055325616,0.13918214,0.00493758,0.011698402,0.032515112,0.0020052702,0.0,0.0,0.0,0.0,3932210,3932210,3997730,396809,0,0,895,2,1,2,0,3,0,0,0,0,0,0,0
35103410,35002748,0.00065773184,0.01278473,0.0027749105,67240471,0,0.055007245,0.13874745,0.0010059717,0.023543993,0.028653411,0.0027847183,0.0,0.0,0.0,0.0,3932210,3932210,3997730,396809,0,0,895,2,1,2,0,3,0,0,0,0,0,0,0
35303262,35202569,0.0012283296,0.02524752,0.0051058982,67240471,0,0.054859146,0.1383169,0.009215925,0.01987008,0.028451536,0.0020388332,0.0,0.0,0.0,0.0,3932210,3932210,3997730,396809,0,0,895,2,1,2,0,3,0,0,0,0,0,0,0
35503062,35402391,0.003276745,0.066939265,0.01190018,67240471,0,0.054549653,0.1378904,0.0037469082,0.02087728,0.024800556,0.0012267255,0.0,0.0,0.0,0.0,3932210,3932210,3997730,396809,0,0,895,2,1,2,0,3,0,0,0,0,0,0,0
35702817,35602212,0.0029921979,0.066642225,0.017166989,67240471,0,0.054245666,0.13746786,0.00010131089,0.08166641,0.014637311,0.008368977,0.0,0.0,0.0,0.0,3932210,3932210,3997730,396809,0,0,895,2,1,2,0,3,0,0,0,0,0,0,0
35902950,35802034,0.003114453,0.07646356,0.019304434,67240471,0,0.054104846,0.13715445,0.0094475625,0.10309481,0.0074979938,0.00019167742,0.0,0.0,0.0,0.0,3932210,3932210,3997730,396809,0,0,895,2,1,2,0,3,0,0,0,0,0,0,0
36102555,36001856,0.0011146666,0.028258108,0.015170561,131607,0,0.05385206,0.13674723,0.015298533,0.13412376,0.023044884,0.0097380215,0.0,0.0,0.0,0.0,3932210,3932210,3997730,396809,0,0,895,2,1,2,0,3,0,0,0,0,0,0,0
36302644,36201677,0.00038872295,0.002975111,0.00649638,131607,0,0.054179713,0.13642405,0.01355352,0.13594641,0.029949255,0.004713345,0.0,0.0,0.0,0.0,3932210,3932210,3997730,396809,0,0,895,2,1,2,0,3,0,0,0,0,0,0,0
36502043,36401499,0.0005272125,0.011205635,0.0028754135,131607,0,0.055284392,0.13628243,0.012396135,0.17290173,0.049998946,0.02858529,0.0,0.0,0.0,0.0,3932210,3932210,3997730,396809,0,0,895,2,1,2,0,3,0,0,0,0,0,0,0
36701922,36601321,0.00093810045,0.021199917,0.011435933,131607,0,0.057820097,0.13643467,0.016694054,0.1839756,0.07492759,0.009502823,0.0,0.0,0.0,0.0,3932210,3932210,3997730,396809,0,0,895,2,1,2,0,3,0,0,0,0,0,0,0
36901683,36801143,0.0008433815,0.022186521,0.0146865165,131607,0,0.06254553,0.13701813,0.015713913,0.17826569,0.08390128,0.028512338,0.0,0.0,0.0,0.0,3932210,3932210,3997730,396809,0,0,895,2,1,2,0,3,0,0,0,0,0,0,0
37101686,37000964,0.058944263,1.1570764,0.6463582,67240471,0,0.055871647,0.13533466,0.01246814,0.17915319,0.10675181,0.028457336,0.0,0.0,0.0,0.0,3932210,3932210,3997730,396809,0,0,895,2,1,2,0,3,0,0,0,0,0,0,0
37311321,37210777,0.02632771,0.51210755,0.40159678,131607,0,0.055848613,0.13494742,0.035860248,0.9603596,0.40646076,0.0075474847,0.0,0.0,0.0,0.0,3932210,3932210,3997730,396809,0,0,895,2,1,2,0,3,0,1,0,0,0,0,0
37511141,37410602,0.0031200352,0.17517215,0.19966193,131607,0,0.0560664,0.1346477,0.038885396,1.0588708,0.5528977,0.0027312627,0.0,0.0,0.0,0.0,3932210,3932210,3997730,396809,0,1,1919,2,1,2,0,3,0,1,0,0,0,0,0
37710966,37610421,0.0019150046,0.010206414,0.049218625,131607,0,0.05725513,0.13454434,0.056199264,1.0921869,0.7023756,0.022638213,0.0,0.0,0.0,0.0,3932210,3932210,3997730,396809,0,1,1919,2,1,2,0,3,0,1,0,0,0,0,0
37900997,37800252,0.0005967301,0.058878046,0.031506933,131607,0,0.0600192,0.13472742,0.041019578,1.1676857,0.7878844,0.023438992,0.0,0.0,0.0,0.0,3932210,3932210,3997730,396809,0,1,1919,2,1,2,0,3,0,1,0,0,0,0,0
38101149,38000074,0.0006828161,0.09649863,0.093498215,131607,0,0.06478684,0.13538525,0.044115964,1.2162014,0.95273954,0.014817633,0.0,0.0,0.0,0.0,3932210,3932210,3997730,396809,0,1,1919,2,1,2,0,3,0,1,0,0,0,0,0
38300750,38199897,0.00064036815,0.09881515,0.09511131,131607,0,0.07261773,0.13666628,0.046189837,1.2610755,1.0426564,0.01098037,0.0,0.0,0.0,0.0,3932210,3932210,3997730,396809,0,3,1919,2,1,2,0,3,0,1,0,0,0,0,0
38500334,38399719,0.0007030987,0.09535102,0.09176129,131607,0,0.08323232,0.13864522,0.044176836,1.3350697,1.2407718,0.03113241,0.0,0.0,0.0,0.0,3932210,3932210,3997730,396809,0,3,1919,2,1,2,0,3,0,1,0,0,0,0,0
38710210,38609533,0.00068619,0.0896829,0.086048275,131607,0,0.09739859,0.14161335,0.043971363,1.4247187,1.4464257,0.02724133,0.0,0.0,0.0,0.0,3932210,3932210,3997730,396809,0,3,1919,2,1,2,0,3,0,1,0,0,0,0,0
38909929,38809355,0.0007092179,0.08322292,0.07895875,131607,0,0.11360167,0.14548436,0.044098925,1.4173535,1.5477347,0.023472704,0.0,0.0,0.0,0.0,3932210,3932210,3997730,396809,0,3,1919,2,1,2,0,3,0,1,0,0,0,0,0
39109743,39009178,0.0007793962,0.07718069,0.072127655,537002519,0,0.13235915,0.15003668,0.040923055,1.4865088,1.7632875,0.03412838,0.0,0.0,0.0,0.0,3932210,3932210,3997730,396809,0,3,1919,2,1,2,0,3,0,1,0,0,0,0,0
39309652,39209000,0.00086759543,0.07176066,0.0663099,537002519,0,0.15353331,0.1553094,0.037270177,1.5881602,1.9899864,0.04486589,0.0,0.0,0.0,0.0,3932210,3932210,3997730,396809,0,3,1919,2,1,2,0,3,0,1,0,0,0,0,0
39509441,39408823,0.00085414236,0.06573615,0.060186498,537002519,0,0.17692974,0.16188717,0.034889363,1.6314131,2.1073496,0.08338487,0.0,0.0,0.0,0.0,3932210,3932210,3997730,396809,0,3,1919,2,1,2,0,3,0,1,0,0,0,0,0
39709231,39608645,0.0010066163,0.06142541,0.055730708,537002519,0,0.20254795,0.16842534,0.04000445,1.6880224,2.3428345,0.017121103,0.0,0.0,0.0,0.0,3932210,3932210,3997730,396809,0,3,1919,2,1,2,0,3,0,1,0,0,0,0,0
39909538,39808468,0.0007493335,0.055649124,0.049701057,537002519,0,0.23044214,0.17644903,0.034267634,1.7111633,2.4515114,0.055793338,0.0,0.0,0.0,0.0,3932210,3932210,3997730,396809,0,3,1919,2,1,2,0,3,0,1,0,0,0,0,0
40108853,40008290,0.00092310837,0.052503925,0.04880328,537002519,0,0.2604257,0.18371612,0.03999251,1.7629201,2.681136,0.08404867,0.0,0.0,0.0,0.0,3932210,3932210,3997730,396809,0,3,1919,2,1,2,0,3,0,1,0,0,0,0,0
40308901,40208113,0.0011147852,0.049917985,0.049822632,537002519,0,0.29253873,0.19100001,0.03306681,1.8331146,2.9112153,0.055086598,0.0,0.0,0.0,0.0,3932210,3932210,3997730,396809,0,3,1919,2,1,2,0,3,0,1,0,0,0,0,0
40508570,40407935,0.00074378675,0.043888174,0.041044727,537002519,0,0.32692173,0.20011854,0.031559248,1.8902133,3.0147927,0.055386383,0.0,0.0,0.0,0.0,3932210,3932210,3997730,396809,0,3,1919,2,1,2,0,3,0,1,0,0,0,0,0
40708382,40607758,0.0010493676,0.0428458,0.046671003,537002519,0,0.3633065,0.20735647,0.023379928,1.951884,3.2445107,0.073342346,0.0,0.0,0.0,0.0,3932210,3932210,3997730,396809,0,3,1919,2,1,2,0,3,0,1,0,0,0,0,0
40908218,40807580,0.0007548619,0.0369723,0.03583541,537002519,0,0.40192983,0.21676521,0.03204487,1.9283153,3.3360808,0.05430001,0.0,0.0,0.0,0.0,3932210,3932210,3997730,396809,0,3,1919,2,1,2,0,3,0,1,0,0,0,0,0
41108163,41007403,0.0007174162,0.034068014,0.032885417,537002519,0,0.44290656,0.22406773,0.03257906,2.0389764,3.527856,0.046220277,0.0,0.0,0.0,0.0,3932210,3932210,3997730,396809,0,3,1919,2,1,2,0,3,0,1,0,0,0,0,0
41308009,41207225,0.00071956374,0.03159594,0.03278936,537002519,0,0.4858774,0.23057224,0.023221789,2.1037996,3.7068248,0.049884945,0.0,0.0,0.0,0.0,3932210,3932210,3997730,396809,0,3,1919,2,1,2,0,3,0,1,0,0,0,0,0
41507752,41407173,0.00067421654,0.027431408,0.02535452,537002519,0,0.53109497,0.23969607,0.030972164,2.1165109,3.780663,0.06264513,0.0,0.0,0.0,0.0,3932210,3932210,3997730,396809,0,3,1919,2,1,2,0,3,0,1,0,0,0,0,0
41708106,41606996,0.00066652236,0.02595683,0.027429575,537002519,0,0.578777,0.24552731,0.032161318,2.1365433,3.9278438,0.051727302,0.0,0.0,0.0,0.0,3932210,3932210,3997730,396809,0,3,1919,2,1,2,0,3,0,1,0,0,0,0,0
41907404,41806818,0.000579672,0.022641025,0.020291226,537002519,0,0.6285798,0.25426847,0.029979529,2.1315198,4.0018024,0.05398492,0.0,0.0,0.0,0.0,3932210,3932210,3997730,396809,0,3,1919,2,1,2,0,3,0,1,0,0,0,0,0
42107263,42006641,0.00051283336,0.019975374,0.012096457,537002519,0,0.68063545,0.259347,0.036082316,2.1909504,4.0937905,0.043990973,0.0,0.0,0.0,0.0,3932210,3932210,3997730,396809,0,3,1919,2,1,2,0,3,0,1,0,0,0,0,0
42307037,42206464,0.0005162259,0.018211652,0.0101023195,537002519,0,0.7352621,0.2675198,0.040506613,2.1684089,4.147155,0.047892652,0.0,0.0,0.0,0.0,3932210,3932210,3997730,396809,0,3,1919,2,1,2,0,3,0,1,0,0,0,0,0
42506843,42406286,0.0007026486,0.017057896,0.010028316,537002519,0,0.79205936,0.27184868,0.052967,2.150063,4.2220516,0.045811206,0.0,0.0,0.0,0.0,3932210,3932210,3997730,396809,0,3,1919,2,1,2,0,3,0,1,0,0,0,0,0
42706657,42606113,0.0007462137,0.018882519,0.023823915,537002519,0,0.85116786,0.27585793,0.05122045,2.2607481,4.2843904,0.036473464,0.0,0.0,0.0,0.0,3932210,3932210,3997730,396809,0,3,1919,2,1,2,0,3,0,1,0,0,0,0,0
42906475,42805932,0.0005714271,0.013804242,0.008154906,537002519,0,0.91280377,0.28301066,0.050974034,2.2474148,4.3186274,0.041610353,0.0,0.0,0.0,0.0,3932210,3932210,3997730,396809,0,3,1919,2,1,2,0,3,0,1,0,0,0,0,0
43106350,43005757,0.0006630254,0.014470144,0.015516538,537002519,0,19.873413,0.2863396,0.049252044,2.3241932,4.35673,0.038142003,0.0,0.0,0.0,0.0,3932210,3932210,3997730,396809,0,3,1919,2,1,2,0,3,0,1,0,0,0,0,0
43306126,43205577,0.0008922689,0.012335484,0.011661806,537002519,0,20.484838,0.29285118,0.05952631,2.3185525,4.3632116,0.041196514,0.0,0.0,0.0,0.0,3932210,3932210,3997730,396809,0,3,1919,2,1,2,0,3,0,1,0,0,0,0,0
43506418,43405400,0.069585286,2.4090474,6.7285504,67240471,0,0.35469005,0.19563793,0.0032470245,4.9038153,9.730705,0.01655743,0.0,0.0,0.0,0.0,3932210,3932210,3997730,396809,0,3,1919,2,1,2,0,3,0,1,0,0,0,0,0
43705928,43605223,0.038779773,0.7474928,3.3126438,67240471,0,0.3309973,0.19393508,0.04789868,4.798008,10.725563,0.024553172,0.0,0.0,0.0,0.0,3932210,3932210,3997730,396809,0,3,1919,2,1,2,0,3,0,1,0,0,0,0,0
43905726,43805046,0.023840062,0.1535442,1.4819372,67240471,0,0.31862077,0.19221446,0.045321397,4.943428,11.065571,0.036328148,0.0,0.0,0.0,0.0,3932210,3932210,3997730,396809,0,3,1919,2,1,2,0,3,0,1,0,0,0,0,0
44105546,44004869,0.016840346,0.4324345,0.39735487,67240471,0,0.3115509,0.19070888,0.046757862,4.6630254,12.041432,0.032860395,0.0,0.0,0.0,0.0,3932210,3932210,3997730,396809,0,3,1919,2,1,2,0,3,0,1,0,0,0,0,0
44305366,44204691,0.015870407,0.5381248,0.19555765,67240471,0,0.30590945,0.1892597,0.054666586,4.7820425,12.37517,0.045078058,0.0,0.0,0.0,0.0,3932210,3932210,3997730,396809,0,3,1919,2,1,2,0,3,0,1,0,0,0,0,0
44505201,44404514,0.016297601,0.55544484,0.47262907,67240471,0,0.3015486,0.18787295,0.07199621,4.7111483,13.154999,0.048190158,0.0,0.0,0.0,0.0,3932210,3932210,3997730,396809,0,3,1919,2,1,2,0,3,0,1,0,0,0,0,0
44705126,44604337,0.0113561405,0.49016502,0.6564346,67240471,0,0.299021,0.18662113,0.07198527,4.5918264,13.973191,0.056706436,0.0,0.0,0.0,0.0,3932210,3932210,3997730,396809,0,3,1919,2,1,2,0,3,0,1,0,0,0,0,0
44904897,44804160,0.008702002,0.41670597,0.7309961,67240471,0,0.2972293,0.18544273,0.07278631,4.603707,14.293339,0.057025477,0.0,0.0,0.0,0.0,3932210,3932210,3997730,396809,0,3,1919,2,1,2,0,3,0,1,0,0,0,0,0
45104736,45003983,0.010343773,0.37979117,0.7097219,67240471,0,0.29536915,0.18426348,0.081748754,4.620422,14.983537,0.053909425,0.0,0.0,0.0,0.0,3932210,3932210,3997730,396809,0,3,1919,2,1,2,0,3,0,1,0,0,0,0,0
45305049,45203806,0.010503151,0.3503782,0.67479265,67240471,0,0.2938778,0.18311974,0.09644516,4.54157,15.350275,0.060913578,0.0,0.0,0.0,0.0,3932210,3932210,3997730,396809,0,3,1919,2,1,2,0,3,0,1,0,0,0,0,0
45504581,45403629,0.00830604,0.28043824,0.66502124,67240471,0,0.29296124,0.18204248,0.088506155,4.516981,16.03019,0.061236586,0.0,0.0,0.0,0.0,3932210,3932210,3997730,396809,0,3,1919,2,1,2,0,3,0,1,0,0,0,0,0
45704130,45603452,0.0026030447,0.14314483,0.6838944,67240471,0,0.29269373,0.18128403,0.0860846,4.465137,16.689213,0.06523246,0.0,0.0,0.0,0.0,3932210,3932210,3997730,396809,0,3,1919,2,1,2,0,3,0,1,0,0,0,0,0
45904002,45803275,0.0016385585,0.10213962,0.6354714,67240471,0,0.2920208,0.18027337,0.091549024,4.492708,17.01623,0.06970312,0.0,0.0,0.0,0.0,3932210,3932210,3997730,396809,0,3,1919,2,1,2,0,3,0,1,0,0,0,0,0
46103791,46003098,0.0036401926,0.10392432,0.579891,67240471,0,0.2913751,0.17928101,0.10961406,4.4510236,17.65703,0.0645037,0.0,0.0,0.0,0.0,3932210,3932210,3997730,396809,0,3,1919,2,1,2,0,3,0,1,0,0,0,0,0
46303615,46202923,0.005208913,0.11908023,0.5309111,67240471,0,0.2907145,0.17831555,0.120560646,4.4913177,17.982403,0.045139357,0.0,0.0,0.0,0.0,3932210,3932210,3997730,396809,0,3,1919,2,1,2,0,3,0,1,0,0,0,0,0
46503545,46402744,0.003672166,0.10765287,0.4877548,67240471,0,0.29022077,0.17737028,0.13168123,4.462337,18.6156,0.073437504,0.0,0.0,0.0,0.0,3932210,3932210,3997730,396809,0,3,1919,2,1,2,0,3,0,1,0,0,0,0,0
46703256,46602567,0.0036764445,0.099862054,0.4462824,67240471,0,0.2898235,0.17644364,0.14735244,4.5206356,19.252975,0.07760113,0.0,0.0,0.0,0.0,3932210,3932210,3997730,396809,0,3,1919,2,1,2,0,3,0,1,0,0,0,0,0
46903072,46802390,0.0037506188,0.08854029,0.40802315,67240471,0,0.28944582,0.17553651,0.15540648,4.5135365,19.573372,0.057932198,0.0,0.0,0.0,0.0,3932210,3932210,3997730,396809,0,3,1919,2,1,2,0,3,0,1,0,0,0,0,0
47103312,47002213,0.0025248444,0.058207516,0.37187782,67240471,0,0.28914207,0.17464535,0.16010542,4.4824915,20.20844,0.07168401,0.0,0.0,0.0,0.0,3932210,3932210,3997730,396809,0,3,1919,2,1,2,0,3,0,1,0,0,0,0,0
47302885,47202036,0.0026602733,0.03769312,0.33778068,67240471,0,0.28890494,0.1737687,0.15622577,4.5229373,20.524446,0.061342295,0.0,0.0,0.0,0.0,3932210,3932210,3997730,396809,0,3,1919,2,1,2,0,3,0,1,0,0,0,0,0
47502530,47401859,0.0022995346,0.022288233,0.30822378,67240471,0,0.28866917,0.17291111,0.16396531,4.4660015,21.157322,0.0797856,0.0,0.0,0.0,0.0,3932210,3932210,3997730,396809,0,3,1919,2,1,2,0,3,0,1,0,0,0,0,0
47702413,47601683,0.0020153017,0.02755916,0.2833464,67240471,0,0.28848046,0.1720717,0.16391963,4.523746,21.790531,0.07415284,0.0,0.0,0.0,0.0,3932210,3932210,3997730,396809,0,3,1919,2,1,2,0,3,0,1,0,0,0,0,0
47902191,47801507,0.0019222319,0.044190664,0.25744963,67240471,0,0.28834596,0.17124403,0.16118914,4.5358777,22.108763,0.063778505,0.0,0.0,0.0,0.0,3932210,3932210,3997730,396809,0,3,1919,2,1,2,0,3,0,1,0,0,0,0,0
48102210,48001329,0.0013951237,0.038214047,0.22823057,67240471,0,0.2881609,0.17042652,0.16184764,4.553243,22.746195,0.077396244,0.0,0.0,0.0,0.0,3932210,3932210,3997730,396809,0,3,1919,2,1,2,0,3,0,1,0,0,0,0,0
48301891,48201152,0.0014379818,0.030516336,0.20593889,67240471,0,0.2879947,0.1696201,0.1731349,4.5841475,23.065125,0.08613361,0.0,0.0,0.0,0.0,3932210,3932210,3997730,396809,0,3,1919,2,1,2,0,3,0,1,0,0,0,0,0
48511649,48410967,0.001262838,0.039194096,0.18718633,67240471,0,0.2878619,0.16882356,0.17296676,4.5752544,23.70344,0.07583838,0.0,0.0,0.0,0.0,3932210,3932210,3997730,396809,0,3,1919,2,1,2,0,3,0,1,0,0,0,0,0
48711336,48610792,0.0036299168,0.07979098,0.1710107,67240471,0,0.28764737,0.16803814,0.14477827,4.6167917,24.343906,0.060988832,0.0,0.0,0.0,0.0,3932210,3932210,3997730,396809,0,3,1919,2,1,2,0,3,0,1,0,0,0,0,0
48911164,48810613,0.0070523606,0.13351765,0.15162924,67240471,0,0.28734526,0.1672631,0.12921074,4.61607,24.670471,0.08931804,0.0,0.0,0.0,0.0,3932210,3932210,3997730,396809,0,3,1919,2,1,2,0,3,0,1,0,0,0,0,0
49101062,49000445,0.006231558,0.13774644,0.13181737,67240471,0,0.2871673,0.1665003,0.13417917,4.6465507,25.318954,0.0649921,0.0,0.0,0.0,0.0,3932210,3932210,3997730,396809,0,3,1919,2,1,2,0,3,0,1,0,0,0,0,0
49301115,49200268,0.0051066605,0.12597473,0.115573026,67240471,0,0.28696507,0.16574834,0.12246112,4.674355,25.646185,0.088336036,0.0,0.0,0.0,0.0,3932210,3932210,3997730,396809,0,3,1919,2,1,2,0,3,0,1,0,0,0,0,0
49501061,49400091,0.0068970323,0.1486448,0.10307055,67240471,0,0.28666615,0.16500473,0.101851285,4.6639614,26.301632,0.08314414,0.0,0.0,0.0,0.0,3932210,3932210,3997730,396809,0,3,1919,2,1,2,0,3,0,1,0,0,0,0,0
49701280,49599915,0.005985566,0.13405132,0.0993483,67240471,0,0.28648067,0.1642642,0.097119555,4.6568675,26.955996,0.0966155,0.0,0.0,0.0,0.0,3932210,3932210,3997730,396809,0,3,1919,2,1,2,0,3,0,1,0,0,0,0,0
49910654,49809729,0.0029093972,0.08338726,0.101503454,67240471,0,0.28634173,0.16353929,0.10294448,4.6221642,27.280487,0.072150216,0.0,0.0,0.0,0.0,3932210,3932210,3997730,396809,0,3,1919,2,1,2,0,3,0,1,0,0,0,0,0
50110304,50009552,0.0010251149,0.029670695,0.100041874,67240471,0,0.28622755,0.16283077,0.10500616,4.6123476,27.924288,0.08583421,0.0,0.0,0.0,0.0,3932210,3932210,3997730,396809,0,3,1919,2,1,2,0,3,0,1,0,0,0,0,0
50310152,50209376,0.0016546198,0.029076872,0.09367728,67240471,0,0.28611085,0.162129,0.08965349,4.5952773,28.248148,0.080342956,0.0,0.0,0.0,0.0,3932210,3932210,3997730,396809,0,3,1919,2,1,2,0,3,0,1,0,0,0,0,0
50510037,50409199,0.0012842448,0.01973331,0.086882435,67240471,0,0.28599045,0.16143869,0.09426777,4.6080933,28.891409,0.10818932,0.0,0.0,0.0,0.0,3932210,3932210,3997730,396809,0,3,1919,2,1,2,0,3,0,1,0,0,0,0,0
50710602,50609023,0.00086784695,0.014568981,0.08149465,67240471,0,0.2858728,0.16075058,0.10061027,4.586499,29.534765,0.08816316,0.0,0.0,0.0,0.0,3932210,3932210,3997730,396809,0,3,1919,2,1,2,0,3,0,1,0,0,0,0,0
50910026,50808846,0.0017196191,0.044244185,0.08411836,67240471,0,0.28576702,0.16007274,0.096410334,4.579388,29.859188,0.09695884,0.0,0.0,0.0,0.0,3932210,3932210,3997730,396809,0,3,1919,2,1,2,0,3,0,1,0,0,0,0,0
51099675,50998678,0.0015732097,0.054231733,0.08403416,67240471,0,0.28565606,0.1595711,0.09831089,4.5452337,30.49833,0.09791237,0.0,0.0,0.0,0.0,3932210,3932210,3997730,396809,0,3,1919,2,1,2,0,3,0,1,0,0,0,0,0
51309333,51208493,0.002506227,0.073826924,0.08134964,67240471,0,0.28551692,0.15891352,0.10112022,4.5741506,30.81379,0.084260985,0.0,0.0,0.0,0.0,3932210,3932210,3997730,396809,0,3,1919,2,1,2,0,3,0,1,0,0,0,0,0
51509378,51408316,0.001981685,0.06749671,0.07491407,67240471,0,0.2854384,0.15826476,0.10872847,4.5740075,31.451878,0.085553445,0.0,0.0,0.0,0.0,3932210,3932210,3997730,396809,0,3,1919,2,1,2,0,3,0,1,0,0,0,0,0
51708976,51608140,0.0020112796,0.06315448,0.06661129,67240471,0,0.28533193,0.15762334,0.10588684,4.5802355,32.094246,0.093809925,0.0,0.0,0.0,0.0,3932210,3932210,3997730,396809,0,3,1919,2,1,2,0,3,0,1,0,0,0,0,0
51908817,51807963,0.00092141196,0.030306088,0.054001767,131607,0,0.285285,0.15702416,0.0995341,4.5505033,32.416607,0.097841784,0.0,0.0,0.0,0.0,3932210,3932210,3997730,396809,0,3,1919,2,1,2,0,3,0,1,0,0,0,0,0
52108845,52007787,0.00069951033,0.015493196,0.043953687,131607,0,0.28539217,0.15654112,0.085046284,4.536611,33.054268,0.0960267,0.0,0.0,0.0,0.0,3932210,3932210,3997730,396809,0,3,1919,2,1,2,0,3,0,1,0,0,0,0,0
52308743,52207610,0.00069064257,0.010724086,0.5562373,131607,0,0.3131874,0.16078311,0.09238479,4.533409,33.3704,0.098364055,0.0,0.0,0.0,0.0,3932210,3932210,3997730,396809,0,3,1919,3,2,3,0,3,0,1,0,0,0,0,0
52508771,52407434,0.0007972802,0.03216646,0.22314921,131607,0,0.2708483,0.17105773,0.085037075,0.048047546,0.018725242,0.09568163,0.0,0.0,0.0,0.0,3932210,3932210,3997730,396809,0,0,895,3,2,3,0,3,0,1,0,0,0,0,0
52708324,52607257,0.00056236464,0.048699398,0.061594952,131607,0,0.24357264,0.18122558,0.0798623,0.079742625,0.041492037,0.08958528,0.0,0.0,0.0,0.0,3932210,3932210,3997730,396809,0,0,895,3,2,3,0,3,0,1,0,0,0,0,0
52908352,52807081,0.0006245589,0.033049006,0.011423753,131607,0,0.23929903,0.1953162,0.078975625,0.051040743,0.008128645,0.091425754,0.0,0.0,0.0,0.0,3932210,3932210,3997730,396809,0,0,895,3,2,3,0,3,0,1,0,0,0,0,0
53108202,53006904,0.0006771705,0.04051457,0.036767434,131607,0,0.22246325,0.20412639,0.075480185,0.09832443,0.010343587,0.08721416,0.0,0.0,0.0,0.0,3932210,3932210,3997730,396809,0,0,895,3,2,3,0,3,0,1,0,0,0,0,0
53307351,53206728,0.0007877226,0.023997368,0.03630479,131607,0,0.22205412,0.21723916,0.08348683,0.077554405,0.018072216,0.08524786,0.0,0.0,0.0,0.0,3932210,3932210,3997730,396809,0,0,895,3,2,3,0,3,0,1,0,0,0,0,0
53507120,53406551,0.00056338793,0.03019153,0.05086647,131607,0,0.21022752,0.22459298,0.08448307,0.12735425,0.024485586,0.08057791,0.0,0.0,0.0,0.0,3932210,3932210,3997730,396809,0,0,895,3,2,3,0,3,0,1,0,0,0,0,0
53706996,53606375,0.0006815118,0.03166302,0.051279575,131607,0,0.20080057,0.231493,0.0808647,0.11251441,0.022021504,0.08582918,0.0,0.0,0.0,0.0,3932210,3932210,3997730,396809,0,0,895,3,2,3,0,3,0,1,0,0,0,0,0
53906821,53806198,0.00081687304,0.020590777,0.042533807,131607,0,0.2028933,0.24247622,0.09013249,0.14427748,0.026646959,0.07721702,0.0,0.0,0.0,0.0,3932210,3932210,3997730,396809,0,0,895,3,2,3,0,3,0,1,0,0,0,0,0
54106591,54006022,0.00074531545,0.02522485,0.049212098,131607,0,0.19542581,0.24824943,0.091577865,0.13453077,0.033158876,0.07540991,0.0,0.0,0.0,0.0,3932210,3932210,3997730,396809,0,0,895,3,2,3,0,3,0,1,0,0,0,0,0
54306436,54205846,0.0008361193,0.01346226,0.038261533,131607,0,0.19839557,0.25803217,0.09039755,0.1195705,0.04395325,0.0714596,0.0,0.0,0.0,0.0,3932210,3932210,3997730,396809,0,0,895,3,2,3,0,3,0,1,0,0,0,0,0
54506310,54405670,0.0010065425,0.018582627,0.0437253,131607,0,0.19218428,0.26285124,0.09797498,0.13828646,0.048546974,0.06861062,0.0,0.0,0.0,0.0,3932210,3932210,3997730,396809,0,0,895,3,2,3,0,3,0,1,0,0,0,0,0
54706997,54605493,0.0010093825,0.024319934,0.050317056,131607,0,0.18674697,0.26737303,0.096723534,0.13906816,0.050292104,0.067321315,0.0,0.0,0.0,0.0,3932210,3932210,3997730,396809,0,0,895,3,2,3,0,3,0,1,0,0,0,0,0
54905922,54805317,0.0011007609,0.012603927,0.03291131,131607,0,0.190548,0.27549723,0.09579051,0.14737453,0.045714762,0.073766924,0.0,0.0,0.0,0.0,3932210,3932210,3997730,396809,0,0,895,3,2,3,0,3,0,1,0,0,0,0,0
55106010,55005140,0.0013433405,0.019010454,0.03874796,131607,0,0.1858449,0.2792439,0.08693386,0.14401554,0.050088268,0.068522476,0.0,0.0,0.0,0.0,3932210,3932210,3997730,396809,0,0,895,3,2,3,0,3,0,1,0,0,0,0,0
55305573,55204964,0.12255425,3.5222306,4.1152787,67240471,0,0.15199634,0.18240592,0.0746058,4.4000654,2.6545825,0.06343254,0.0,0.0,0.0,0.0,3932210,3932210,3997730,396809,0,3,1919,3,2,3,0,3,0,1,0,0,0,0,0
55505344,55404788,0.0387987,1.0723207,2.0291383,67240471,0,0.15106231,0.1809889,0.09637391,4.425504,3.387787,0.07673399,0.0,0.0,0.0,0.0,3932210,3932210,3997730,396809,0,3,1919,3,2,3,0,3,0,1,0,0,0,0,0
55705214,55604612,0.023199234,0.08149435,0.6558954,131607,0,0.15039597,0.17944467,0.11864234,4.506761,4.105903,0.05548666,0.0,0.0,0.0,0.0,3932210,3932210,3997730,396809,0,3,1919,3,2,3,0,3,0,1,0,0,0,0,0
55904980,55804435,0.0031743918,0.37651846,0.17902218,131607,0,0.15002686,0.17823595,0.11464659,4.6155143,4.4427238,0.06914642,0.0,0.0,0.0,0.0,3932210,3932210,3997730,396809,0,3,1919,3,2,3,0,3,0,1,0,0,0,0,0
56104804,56004259,0.0018513872,0.4817753,0.57421494,131607,0,0.14961678,0.17691751,0.11238802,4.8071,5.137062,0.06866813,0.0,0.0,0.0,0.0,3932210,3932210,3997730,396809,0,3,1919,3,2,3,0,3,0,1,0,0,0,0,0
56304674,56204083,0.00096502574,0.5096308,0.7382559,131607,0,0.14944965,0.17558196,0.10484906,4.990337,5.499422,0.049585167,0.0,0.0,0.0,0.0,3932210,3932210,3997730,396809,0,3,1919,3,2,3,0,3,0,1,0,0,0,0,0
56504556,56403907,0.00077451736,0.4998713,0.7816167,131607,0,0.1498773,0.17433503,0.09725065,5.2013316,6.253752,0.045298245,0.0,0.0,0.0,0.0,3932210,3932210,3997730,396809,0,3,1919,3,2,3,0,3,0,1,0,0,0,0,0
56704340,56603730,0.0009044569,0.47346264,0.76461565,537002519,0,0.15132853,0.17328097,0.10044978,5.413078,7.038331,0.0604823,0.0,0.0,0.0,0.0,3932210,3932210,3997730,396809,0,3,1919,3,2,3,0,3,0,1,0,0,0,0,0
56904250,56803554,0.08676379,1.5859083,1.2330017,67240471,0,0.14987783,0.17232007,0.048764072,4.2692714,7.1922407,0.079498746,0.0,0.0,0.0,0.0,3932210,3932210,3997730,396809,0,3,1919,3,2,3,0,3,0,1,0,0,0,0,0
57103916,57003378,0.013380417,0.961957,1.0149144,67240471,0,0.14972275,0.17125157,0.016271645,4.280589,7.842163,0.04266102,0.0,0.0,0.0,0.0,3932210,3932210,3997730,396809,0,3,1919,3,2,3,0,3,0,1,0,0,0,0,0
57303747,57203202,0.0038862904,0.5963805,0.7836428,67240471,0,0.14958616,0.17023388,0.009606907,4.236271,8.166139,0.037826832,0.0,0.0,0.0,0.0,3932210,3932210,3997730,396809,0,3,1919,3,2,3,0,3,0,1,0,0,0,0,0
57503618,57403026,0.0059068566,0.407463,0.6017136,67240471,0,0.14947297,0.16926214,9.823758e-05,4.2265697,8.802633,0.047149897,0.0,0.0,0.0,0.0,3932210,3932210,3997730,396809,0,3,1919,3,2,3,0,3,0,1,0,0,0,0,0
57703394,57602849,0.0060394024,0.30302495,0.47137722,67240471,0,0.14937645,0.16833346,0.003412987,4.216255,9.432113,0.051471584,0.0,0.0,0.0,0.0,3932210,3932210,3997730,396809,0,3,1919,3,2,3,0,3,0,1,0,0,0,0,0
57903221,57802673,0.0065564206,0.22766463,0.38020205,67240471,0,0.14929175,0.16744971,0.011238113,4.253921,9.740157,0.03672689,0.0,0.0,0.0,0.0,3932210,3932210,3997730,396809,0,3,1919,3,2,3,0,3,0,1,0,0,0,0,0
58103105,58002497,0.0029560553,0.16699106,0.3133084,67240471,0,0.14921613,0.16660853,0.0028293834,4.21621,10.366601,0.012681683,0.0,0.0,0.0,0.0,3932210,3932210,3997730,396809,0,3,1919,3,2,3,0,3,0,1,0,0,0,0,0
58303030,58202321,0.0104781855,0.17710678,0.2623879,67240471,0,0.14915651,0.16577743,0.012482781,4.2144446,10.677093,0.035975225,0.0,0.0,0.0,0.0,3932210,3932210,3997730,396809,0,3,1919,3,2,3,0,3,0,1,0,0,0,0,0
58502797,58402145,0.010216961,0.17870867,0.2295492,67240471,0,0.1491094,0.1649679,0.020118047,4.2248406,11.299941,0.049827065,0.0,0.0,0.0,0.0,3932210,3932210,3997730,396809,0,3,1919,3,2,3,0,3,0,1,0,0,0,0,0
58702864,58601969,0.0085192835,0.1707562,0.2045601,67240471,0,0.14907132,0.1641814,0.038550187,4.1990356,11.917091,0.044759195,0.0,0.0,0.0,0.0,3932210,3932210,3997730,396809,0,3,1919,3,2,3,0,3,0,1,0,0,0,0,0
58902412,58801793,0.008986409,0.1674483,0.18292342,67240471,0,0.14904149,0.16341485,0.04290114,4.210663,12.227358,0.015660763,0.0,0.0,0.0,0.0,3932210,3932210,3997730,396809,0,3,1919,3,2,3,0,3,0,1,0,0,0,0,0
59102252,59001617,0.0095486725,0.17349732,0.16436099,67240471,0,0.14901868,0.16266042,0.06160196,4.2433763,12.847929,0.02024036,0.0,0.0,0.0,0.0,3932210,3932210,3997730,396809,0,3,1919,3,2,3,0,3,0,1,0,0,0,0,0
59302134,59201441,0.010010676,0.18400428,0.14956293,67240471,0,0.14900173,0.16191831,0.08017393,4.194698,13.157542,0.029526262,0.0,0.0,0.0,0.0,3932210,3932210,3997730,396809,0,3,1919,3,2,3,0,3,0,1,0,0,0,0,0
59501892,59401265,0.013967807,0.20790748,0.13648061,67240471,0,0.14898649,0.16120072,0.07992735,4.1863875,13.776948,0.034362473,0.0,0.0,0.0,0.0,3932210,3932210,3997730,396809,0,3,1919,3,2,3,0,3,0,1,0,0,0,0,0
59711622,59611080,0.011233268,0.19176424,0.123422384,67240471,0,0.14897665,0.16049151,0.10002695,4.1908956,14.395456,0.029339006,0.0,0.0,0.0,0.0,3932210,3932210,3997730,396809,0,3,1919,3,2,3,0,3,0,1,0,0,0,0,0
59911576,59810904,0.0059331255,0.14535733,0.1108566,67240471,0,0.14896996,0.15979683,0.1091226,4.2230444,14.704554,0.048161287,0.0,0.0,0.0,0.0,3932210,3932210,3997730,396809,0,3,1919,3,2,3,0,3,0,1,0,0,0,0,0
60101314,60000737,0.0011680429,0.06154575,0.09503445,67240471,0,0.14896621,0.15928617,0.11294358,4.2134585,15.323188,0.040111028,0.0,0.0,0.0,0.0,3932210,3932210,3997730,396809,0,3,1919,3,2,3,0,3,0,1,0,0,0,0,0
60301258,60200565,0.0023814293,0.056414135,0.08062306,67240471,0,0.148962,0.1586173,0.1168853,4.192251,15.632013,0.034931656,0.0,0.0,0.0,0.0,3932210,3932210,3997730,396809,0,3,1919,3,2,3,0,3,0,1,0,0,0,0,0
60501272,60400384,0.0012304968,0.040921252,0.065155774,67240471,0,0.1489597,0.15795884,0.11869162,4.242251,16.254498,0.04394474,0.0,0.0,0.0,0.0,3932210,3932210,3997730,396809,0,3,1919,3,2,3,0,3,0,1,0,0,0,0,0
60700764,60600209,0.0027111887,0.02885806,0.048972756,67240471,0,0.14895888,0.15730937,0.11283246,4.229354,16.877563,0.029626686,0.0,0.0,0.0,0.0,3932210,3932210,3997730,396809,0,3,1919,3,2,3,0,3,0,1,0,0,0,0,0
60900582,60800033,0.0033040864,0.050348163,0.039180785,67240471,0,0.14895834,0.15666951,0.10434856,4.2282887,17.186705,0.035843223,0.0,0.0,0.0,0.0,3932210,3932210,3997730,396809,0,3,1919,3,2,3,0,3,0,1,0,0,0,0,0
61110457,61009848,0.003370248,0.06545216,0.035649884,67240471,0,0.14896058,0.15603605,0.089615196,4.235083,17.809738,0.0388979,0.0,0.0,0.0,0.0,3932210,3932210,3997730,396809,0,3,1919,3,2,3,0,3,0,1,0,0,0,0,0
61310298,61209672,0.006257416,0.09386659,0.042373203,67240471,0,0.1489616,0.15541063,0.07847271,4.193849,18.12338,0.038117733,0.0,0.0,0.0,0.0,3932210,3932210,3997730,396809,0,3,1919,3,2,3,0,3,0,1,0,0,0,0,0
61510039,61409496,0.0058717555,0.10416668,0.048241526,67240471,0,0.14896366,0.15479276,0.05769967,4.1955824,18.742321,0.029577658,0.0,0.0,0.0,0.0,3932210,3932210,3997730,396809,0,3,1919,3,2,3,0,3,0,1,0,0,0,0,0
61709857,61609320,0.0047571263,0.09458768,0.049077637,67240471,0,0.14896658,0.154182,0.05831604,4.153431,19.35714,0.03274439,0.0,0.0,0.0,0.0,3932210,3932210,3997730,396809,0,3,1919,3,2,3,0,3,0,1,0,0,0,0,0
61909696,61809144,0.0042012986,0.08086938,0.046038855,67240471,0,0.14897028,0.15358013,0.05567428,4.102171,19.662037,0.028608914,0.0,0.0,0.0,0.0,3932210,3932210,3997730,396809,0,3,1919,3,2,3,0,3,0,1,0,0,0,0,0
62109693,62008968,0.0003956715,0.027563386,0.031989593,131607,0,0.1490429,0.15299807,0.052927773,4.0956206,20.265522,0.04037678,0.0,0.0,0.0,0.0,3932210,3932210,3997730,396809,0,3,1919,3,2,3,0,3,0,1,0,0,0,0,0
62299758,62198801,0.00048434088,0.025624823,0.020737952,131607,0,0.14933221,0.15250234,0.060400125,4.0990443,20.567999,0.03554481,0.0,0.0,0.0,0.0,3932210,3932210,3997730,396809,0,3,1919,3,2,3,0,3,0,1,0,0,0,0,0
62509214,62408617,0.0006040634,0.033585638,0.01750244,131607,0,0.15012659,0.15220957,0.062976,4.0746865,21.174444,0.03617531,0.0,0.0,0.0,0.0,3932210,3932210,3997730,396809,0,3,1919,3,2,3,0,3,0,1,0,0,0,0,0
62709004,62608440,0.00051088457,0.036172144,0.018834,131607,0,0.15161006,0.15219176,0.07453489,4.070701,21.767675,0.03698132,0.0,0.0,0.0,0.0,3932210,3932210,3997730,396809,0,3,1919,3,2,3,0,3,0,1,0,0,0,0,0
62909035,62808265,0.0005860711,0.035834543,0.01973319,537002519,0,0.1541015,0.15256916,0.074447915,4.062428,22.063911,0.033108458,0.0,0.0,0.0,0.0,3932210,3932210,3997730,396809,0,3,1919,3,2,3,0,3,0,1,0,0,0,0,0
63108698,63008089,0.012241936,0.29503462,0.18875161,67240471,0,0.15052955,0.15079637,0.08591111,4.017327,22.633837,0.0308386,0.0,0.0,0.0,0.0,3932210,3932210,3997730,396809,0,3,1919,3,2,3,0,3,0,1,0,0,0,0,0
63308503,63207913,0.008432814,0.21062993,0.12785141,67240471,0,0.15053149,0.15024121,0.08404462,4.0939455,22.993114,0.037506923,0.0,0.0,0.0,0.0,3932210,3932210,3997730,396809,0,3,1919,3,2,3,0,3,0,1,0,0,0,0,0
63508454,63407739,0.004699112,0.16915412,0.08428595,67240471,0,0.15053295,0.14969109,0.09449576,4.107524,23.596931,0.028567715,0.0,0.0,0.0,0.0,3932210,3932210,3997730,396809,0,3,1919,3,2,3,0,3,0,1,0,0,0,0,0
63708178,63607561,0.0015594361,0.07331153,0.05101887,67240471,0,0.15054055,0.14914984,0.09985266,4.125081,24.204802,0.03405216,0.0,0.0,0.0,0.0,3932210,3932210,3997730,396809,0,3,1919,3,2,3,0,3,0,1,0,0,0,0,0
63908051,63807387,0.0019101887,0.062366053,0.03298995,67240471,0,0.1505431,0.14861146,0.10660444,4.141237,24.509686,0.03142338,0.0,0.0,0.0,0.0,3932210,3932210,3997730,396809,0,3,1919,3,2,3,0,3,0,1,0,0,0,0,0
64108440,64007210,0.0016173626,0.046509843,0.019943437,67240471,0,0.15054591,0.14807974,0.105534256,4.164764,25.113897,0.024140658,0.0,0.0,0.0,0.0,3932210,3932210,3997730,396809,0,3,1919,3,2,3,0,3,0,1,0,0,0,0,0
64307746,64207034,0.0011518629,0.026123662,0.009709764,67240471,0,0.15054996,0.14755322,0.10297892,4.1833053,25.723091,0.029486548,0.0,0.0,0.0,0.0,3932210,3932210,3997730,396809,0,3,1919,3,2,3,0,3,0,1,0,0,0,0,0
64507480,64406858,0.00078395987,0.017522218,0.012000088,67240471,0,0.15055346,0.14703341,0.09260185,4.182374,26.031847,0.02615378,0.0,0.0,0.0,0.0,3932210,3932210,3997730,396809,0,3,1919,3,2,3,0,3,0,1,0,0,0,0,0
64707374,64606682,0.0008077834,0.02166274,0.017995073,67240471,0,0.15055774,0.14651851,0.09334311,4.163146,26.640852,0.020493865,0.0,0.0,0.0,0.0,3932210,3932210,3997730,396809,0,3,1919,3,2,3,0,3,0,1,0,0,0,0,0
64907193,64806506,0.001594788,0.044373017,0.027471153,67240471,0,0.15056178,0.14600888,0.09416784,4.1382375,26.945232,0.032192193,0.0,0.0,0.0,0.0,3932210,3932210,3997730,396809,0,3,1919,3,2,3,0,3,0,1,0,0,0,0,0
65106962,65006331,0.002101455,0.063373975,0.036302224,67240471,0,0.15056612,0.14550452,0.091703355,4.1357064,27.55013,0.028158838,0.0,0.0,0.0,0.0,3932210,3932210,3997730,396809,0,3,1919,3,2,3,0,3,0,1,0,0,0,0,0
65306863,65206155,0.0017526221,0.062310852,0.039298076,67240471,0,0.15057038,0.14513037,0.08388934,4.089012,28.155016,0.015381461,0.0,0.0,0.0,0.0,3932210,3932210,3997730,396809,0,3,1919,3,2,3,0,3,0,1,0,0,0,0,0
65506602,65405979,0.0016250896,0.0565216,0.03793445,67240471,0,0.15057492,0.14463577,0.09640351,4.103576,28.455055,0.02959114,0.0,0.0,0.0,0.0,3932210,3932210,3997730,396809,0,3,1919,3,2,3,0,3,0,1,0,0,0,0,0
65706469,65605803,0.001982997,0.057321716,0.035832465,67240471,0,0.15057981,0.14414641,0.07343194,4.054311,29.051178,0.029448327,0.0,0.0,0.0,0.0,3932210,3932210,3997730,396809,0,3,1919,3,2,3,0,3,0,1,0,0,0,0,0
65906733,65805628,0.0012244359,0.04368108,0.030506289,67240471,0,0.15058476,0.1436623,0.08229,4.0522738,29.35132,0.019736074,0.0,0.0,0.0,0.0,3932210,3932210,3997730,396809,0,3,1919,3,2,3,0,3,0,1,0,0,0,0,0
66106073,66005452,0.0014137159,0.0400097,0.025289407,67240471,0,0.15058978,0.14318325,0.08655318,4.0264573,29.942995,0.029039085,0.0,0.0,0.0,0.0,3932210,3932210,3997730,396809,0,3,1919,3,2,3,0,3,0,1,0,0,0,0,0
66305986,66205276,0.0013571099,0.034351386,0.018130898,67240471,0,0.15059546,0.14270899,0.09043033,4.009904,30.238443,0.0145553425,0.0,0.0,0.0,0.0,3932210,3932210,3997730,396809,0,3,1919,3,2,3,0,3,0,1,0,0,0,0,0
66505673,66405101,0.002851524,0.045057368,0.008116467,67240471,0,0.1506004,0.14224002,0.09826774,3.9965281,30.833324,0.004970147,0.0,0.0,0.0,0.0,3932210,3932210,3997730,396809,0,3,1919,3,2,3,0,3,0,1,0,0,0,0,0
66705703,66604925,0.0053681135,0.09382721,0.014345196,67240471,0,0.15060525,0.14177468,0.099394344,4.0713234,31.430532,0.014409899,0.0,0.0,0.0,0.0,3932210,3932210,3997730,396809,0,3,1919,3,2,3,0,3,0,1,0,0,0,0,0
66905369,66804749,0.0065195058,0.1299748,0.028662028,67240471,0,0.15060975,0.14131464,0.09658948,4.0285444,31.728867,0.023903767,0.0,0.0,0.0,0.0,3932210,3932210,3997730,396809,0,3,1919,3,2,3,0,3,0,1,0,0,0,0,0
67105147,67004573,0.006299657,0.13844194,0.03769387,67240471,0,0.15061435,0.14085938,0.10673063,4.07266,32.332397,0.019134156,0.0,0.0,0.0,0.0,3932210,3932210,3997730,396809,0,3,1919,3,2,3,0,3,0,1,0,0,0,0,0
67305041,67204398,0.004898355,0.117695495,0.03838253,67240471,0,0.15061969,0.14040793,0.103162155,4.1514587,32.638462,0.014046169,0.0,0.0,0.0,0.0,3932210,3932210,3997730,396809,0,3,1919,3,2,3,0,3,0,1,0,0,0,0,0
67504836,67404222,0.0031600997,0.08114668,0.031116234,67240471,0,0.15062532,0.13996178,0.11298319,4.138133,33.25124,0.01881461,0.0,0.0,0.0,0.0,3932210,3932210,3997730,396809,0,3,1919,3,2,3,0,3,0,1,0,0,0,0,0
67705320,67604047,0.0017895764,0.039717976,0.017974015,67240471,0,0.15063077,0.13951974,0.10710129,4.1824055,33.864193,0.005236792,0.0,0.0,0.0,0.0,3932210,3932210,3997730,396809,0,3,1919,3,2,3,0,3,0,1,0,0,0,0,0
67904536,67803871,0.00088627974,0.016610827,0.005439756,67240471,0,0.15065193,0.13909006,0.09627367,4.178624,34.17365,0.02817869,0.0,0.0,0.0,0.0,3932210,3932210,3997730,396809,0,3,1919,3,2,3,0,3,0,1,0,0,0,0,0
68104240,68003695,0.0007377215,0.026639532,0.009524739,67240471,0,0.15065491,0.13865474,0.09968949,4.1966314,34.795467,0.008898801,0.0,0.0,0.0,0.0,3932210,3932210,3997730,396809,0,3,1919,3,2,3,0,3,0,1,0,0,0,0,0
68304321,68203520,0.00086140604,0.027719878,0.014040652,67240471,0,0.15065831,0.13822347,0.09768664,4.2224684,35.104675,0.018456245,0.0,0.0,0.0,0.0,3932210,3932210,3997730,396809,0,3,1919,3,2,3,0,3,0,1,0,0,0,0,0
68504075,68403345,0.0010590813,0.041400515,0.020428976,67240471,0,0.15066102,0.1377967,0.08997044,4.25222,35.72643,0.0040188804,0.0,0.0,0.0,0.0,3932210,3932210,3997730,396809,0,3,1919,3,2,3,0,3,0,1,0,0,0,0,0
68703838,68603170,0.0013603003,0.052806735,0.026321704,67240471,0,0.15066531,0.13737282,0.08090472,4.22867,36.353046,0.013455831,0.0,0.0,0.0,0.0,3932210,3932210,3997730,396809,0,3,1919,3,2,3,0,3,0,1,0,0,0,0,0
68903720,68802994,0.002809708,0.07799338,0.03570615,67240471,0,0.1506681,0.13695422,0.08177822,4.246182,36.666042,0.022913782,0.0,0.0,0.0,0.0,3932210,3932210,3997730,396809,0,3,1919,3,2,3,0,3,0,1,0,0,0,0,0
69103610,69002819,0.0031056,0.087339774,0.27831033,67240471,0,0.41188532,0.1370611,0.07571257,4.197329,37.28808,0.022883696,0.0,0.0,0.0,0.0,3932210,3932210,3997730,396809,0,3,1919,4,3,4,0,3,0,1,0,0,0,0,0
69303255,69202644,0.00055396155,4.2560987,0.7485602,67240471,0,0.3556858,0.13612892,0.08250648,4.2019124,0.27265096,0.027492957,0.0,0.0,0.0,0.0,3932210,3932210,3997730,396809,0,1,1919,4,3,4,0,3,0,1,0,0,0,0,0
69503460,69402469,0.0007472897,1.6199523,0.43940568,131607,0,0.2898705,0.13576704,0.087966844,4.2026677,0.6940949,0.017937364,0.0,0.0,0.0,0.0,3932210,3932210,3997730,396809,0,1,1919,4,3,4,0,3,0,1,0,0,0,0,0
69702953,69602294,0.00087877305,0.3815547,0.1407481,131607,0,0.26837716,0.13554198,0.09021766,4.19107,1.0563353,0.006143154,0.0,0.0,0.0,0.0,3932210,3932210,3997730,396809,0,3,1919,4,3,4,0,3,0,1,0,0,0,0,0
69902699,69802119,0.00063840323,0.18266648,0.06323732,131607,0,0.26882643,0.1356589,0.09069202,4.196311,1.3514893,0.0062758056,0.0,0.0,0.0,0.0,3932210,3932210,3997730,396809,0,3,1919,4,3,4,0,3,0,1,0,0,0,0,0
70102482,70001943,0.00078593433,0.42389572,0.0483619,131607,0,0.2697084,0.13601832,0.097489774,4.1564426,1.9497533,0.0123231895,0.0,0.0,0.0,0.0,3932210,3932210,3997730,396809,0,3,1919,4,3,4,0,3,0,1,0,0,0,0,0
70302373,70201768,0.0008732861,0.5117467,0.12712175,131607,0,0.27120745,0.1368466,0.095363736,4.1756,2.243024,0.014601563,0.0,0.0,0.0,0.0,3932210,3932210,3997730,396809,0,3,1919,4,3,4,0,3,0,1,0,0,0,0,0
70502198,70401593,0.0006752246,0.5279369,0.16759148,131607,0,0.27353898,0.13821556,0.094564684,4.1311374,2.8297439,0.014001828,0.0,0.0,0.0,0.0,3932210,3932210,3997730,396809,0,3,1919,4,3,4,0,3,0,1,0,0,0,0,0
70701967,70601418,0.014922073,0.5021631,0.25156522,67240471,0,0.2694866,0.13468303,0.09251059,4.1005387,3.4144683,0.0107181445,0.0,0.0,0.0,0.0,3932210,3932210,3997730,396809,0,3,1919,4,3,4,0,3,0,1,0,0,0,0,0
70911788,70811234,0.008550209,0.4647537,0.18668915,67240471,0,0.26948887,0.13428946,0.108461685,4.3641367,3.8075325,0.005168158,0.0,0.0,0.0,0.0,3932210,3932210,3997730,396809,0,3,1919,4,3,4,0,3,0,1,0,0,0,0,0
71101613,71001067,0.0011102395,0.43408144,0.15623325,67240471,0,0.26949283,0.13390626,0.1130748,4.4038343,4.425883,0.007930177,0.0,0.0,0.0,0.0,3932210,3932210,3997730,396809,0,3,1919,4,3,4,0,3,0,1,0,0,0,0,0
71301506,71200898,0.0012908311,0.4114513,0.1395,67240471,0,0.2694951,0.13351743,0.09947938,4.4104943,4.737665,0.009247937,0.0,0.0,0.0,0.0,3932210,3932210,3997730,396809,0,3,1919,4,3,4,0,3,0,1,0,0,0,0,0
71501311,71400717,0.00089878537,0.38102686,0.1248233,67240471,0,0.26949677,0.13313286,0.10757498,4.4307833,5.3611174,0.0016744204,0.0,0.0,0.0,0.0,3932210,3932210,3997730,396809,0,3,1919,4,3,4,0,3,0,1,0,0,0,0,0
71701085,71600543,0.00073437183,0.35314244,0.112577565,67240471,0,0.26949918,0.13275169,0.09711645,4.4075203,5.9847846,0.009805758,0.0,0.0,0.0,0.0,3932210,3932210,3997730,396809,0,3,1919,4,3,4,0,3,0,1,0,0,0,0,0
71900958,71800366,0.0014048204,0.3266027,0.10143848,67240471,0,0.26950118,0.1323739,0.08764916,4.443293,6.2964177,0.007039834,0.0,0.0,0.0,0.0,3932210,3932210,3997730,396809,0,3,1919,4,3,4,0,3,0,1,0,0,0,0,0
72100741,72000191,0.0012110997,0.30036977,0.09021427,67240471,0,0.2695036,0.13199954,0.08943984,4.425364,6.920034,0.008377324,0.0,0.0,0.0,0.0,3932210,3932210,3997730,396809,0,3,1919,4,3,4,0,3,0,1,0,0,0,0,0
72310720,72210007,0.0013961893,0.27687022,0.07901562,67240471,0,0.26950666,0.13162926,0.07978599,4.4261622,7.543671,0.010451629,0.0,0.0,0.0,0.0,3932210,3932210,3997730,396809,0,3,1919,4,3,4,0,3,0,1,0,0,0,0,0
72510379,72409832,0.0011133004,0.25560263,0.06824998,67240471,0,0.2695093,0.13126135,0.07680432,4.402525,7.855275,0.004983718,0.0,0.0,0.0,0.0,3932210,3932210,3997730,396809,0,3,1919,4,3,4,0,3,0,1,0,0,0,0,0
