timestamp,timestamp_sample,q[0],q[1],q[2],q[3],delta_q_reset[0],delta_q_reset[1],delta_q_reset[2],delta_q_reset[3],quat_reset_counter
17353771,17353375,0.47591943,0.007896011,-0.013208951,0.87935424,1.0,4.081458e-10,-1.9418405e-09,-7.498589e-05,3
17858314,17857918,0.4758654,0.0079230815,-0.013137205,0.8793843,1.0,4.081458e-10,-1.9418405e-09,-7.498589e-05,3
18352862,18352469,0.4758031,0.00799233,-0.013043577,0.8794188,1.0,4.081458e-10,-1.9418405e-09,-7.498589e-05,3
18852968,18852018,0.47573885,0.007948874,-0.013035121,0.87945414,1.0,4.081458e-10,-1.9418405e-09,-7.498589e-05,3
19351957,19351564,0.47565225,0.007967958,-0.013032072,0.87950087,1.0,4.081458e-10,-1.9418405e-09,-7.498589e-05,3
19856502,19856107,0.47561938,0.0077339164,-0.013532013,0.8795132,1.0,4.081458e-10,-1.9418405e-09,-7.498589e-05,3
20356175,20355780,0.47544733,0.0078117843,-0.013579486,0.87960476,1.0,4.081458e-10,-1.9418405e-09,-7.498589e-05,3
20855731,20855329,0.47539026,0.007771312,-0.013587967,0.8796358,1.0,4.081458e-10,-1.9418405e-09,-7.498589e-05,3
21355272,21354877,0.47540534,0.007939447,-0.0133621255,0.8796296,1.0,4.081458e-10,-1.9418405e-09,-7.498589e-05,3
21855029,21854426,0.47540373,0.007856677,-0.013304556,0.8796322,1.0,4.081458e-10,-1.9418405e-09,-7.498589e-05,3
22354371,22353975,0.4753744,0.007850507,-0.013388082,0.8796468,1.0,4.081458e-10,-1.9418405e-09,-7.498589e-05,3
22854060,22853528,0.47543627,0.007897055,-0.013225152,0.87961537,1.0,4.081458e-10,-1.9418405e-09,-7.498589e-05,3
23353593,23353199,0.47546506,0.008046082,-0.013139172,0.87959975,1.0,4.081458e-10,-1.9418405e-09,-7.498589e-05,3
23853143,23852748,0.47417638,0.008011962,-0.013280202,0.88029325,1.0,4.081458e-10,-1.9418405e-09,-7.498589e-05,3
24357687,24357294,0.47080272,0.0083421795,-0.0134084085,0.8820971,1.0,4.081458e-10,-1.9418405e-09,-7.498589e-05,3
24857241,24856844,0.46884498,0.008375625,-0.013554961,0.88313687,1.0,4.081458e-10,-1.9418405e-09,-7.498589e-05,3
25352039,25351399,0.46604958,0.008302061,-0.013532597,0.88461614,1.0,4.081458e-10,-1.9418405e-09,-7.498589e-05,3
25856491,25855947,0.46452725,0.008736612,-0.014451896,0.8853979,1.0,4.081458e-10,-1.9418405e-09,-7.498589e-05,3
26355928,26355496,0.4640305,0.00876901,-0.014173745,0.88566244,1.0,4.081458e-10,-1.9418405e-09,-7.498589e-05,3
26855584,26855047,0.46311334,0.008968465,-0.014464529,0.88613564,1.0,4.081458e-10,-1.9418405e-09,-7.498589e-05,3
27355393,27354598,0.4626051,0.008970335,-0.014226457,0.8864049,1.0,4.081458e-10,-1.9418405e-09,-7.498589e-05,3
27854542,27854149,0.4620237,0.009202551,-0.013965377,0.88670987,1.0,4.081458e-10,-1.9418405e-09,-7.498589e-05,3
28354095,28353701,0.4614509,0.009204927,-0.013852992,0.88700986,1.0,4.081458e-10,-1.9418405e-09,-7.498589e-05,3
28853645,28853252,0.46110785,0.009434362,-0.01354913,0.8871906,1.0,4.081458e-10,-1.9418405e-09,-7.498589e-05,3
29353277,29352804,0.46065298,0.009585021,-0.013231826,0.88743,1.0,4.081458e-10,-1.9418405e-09,-7.498589e-05,3
29852750,29852356,0.4602481,0.009678946,-0.013094912,0.887641,1.0,4.081458e-10,-1.9418405e-09,-7.498589e-05,3
30352302,30351908,0.45970553,0.009501064,-0.013473856,0.8879185,1.0,4.081458e-10,-1.9418405e-09,-7.498589e-05,3
30856865,30856456,0.45917827,0.009414712,-0.0136081455,0.88819003,1.0,4.081458e-10,-1.9418405e-09,-7.498589e-05,3
31356406,31356009,0.45870632,0.009053172,-0.014062601,0.88843054,1.0,4.081458e-10,-1.9418405e-09,-7.498589e-05,3
31855967,31855562,0.4584639,0.008930233,-0.014154013,0.8885555,1.0,4.081458e-10,-1.9418405e-09,-7.498589e-05,3
32355525,32355115,0.45821732,0.008658414,-0.015016949,0.8886713,1.0,4.081458e-10,-1.9418405e-09,-7.498589e-05,3
32855064,32854668,0.45798257,0.008290213,-0.015503774,0.8887873,1.0,4.081458e-10,-1.9418405e-09,-7.498589e-05,3
33354616,33354221,0.45801094,0.008479515,-0.0151563445,0.8887769,1.0,4.081458e-10,-1.9418405e-09,-7.498589e-05,3
33854377,33853774,0.4578139,0.008856118,-0.014310158,0.8888887,1.0,4.081458e-10,-1.9418405e-09,-7.498589e-05,3
34353723,34353328,0.45750397,0.009332498,-0.013412923,0.8890575,1.0,4.081458e-10,-1.9418405e-09,-7.498589e-05,3
34853275,34852881,0.45611033,0.0098517295,-0.013183124,0.88977104,1.0,4.081458e-10,-1.9418405e-09,-7.498589e-05,3
35357825,35357431,0.4523877,0.009363736,-0.012869642,0.89167935,1.0,4.081458e-10,-1.9418405e-09,-7.498589e-05,3
35852398,35851990,0.44561306,0.006213472,-0.013802613,0.8950978,1.0,4.081458e-10,-1.9418405e-09,-7.498589e-05,3
36351937,36351544,0.4354002,0.0034937582,-0.01575359,0.90009236,1.0,4.081458e-10,-1.9418405e-09,-7.498589e-05,3
36856484,36856093,0.4219877,0.0035156102,-0.018106036,0.906414,1.0,4.081458e-10,-1.9418405e-09,-7.498589e-05,3
37356039,37355648,0.43042284,-0.020504717,-0.022545148,0.90211284,1.0,4.081458e-10,-1.9418405e-09,-7.498589e-05,3
37855649,37855203,0.42073354,-0.019513428,-0.02194403,0.90670884,1.0,4.081458e-10,-1.9418405e-09,-7.498589e-05,3
38355180,38354759,0.4110104,-0.018855743,-0.021484492,0.9111824,1.0,4.081458e-10,-1.9418405e-09,-7.498589e-05,3
38854708,38854315,0.40260005,-0.020214794,-0.022297814,0.91488117,1.0,4.081458e-10,-1.9418405e-09,-7.498589e-05,3
39354266,39353871,0.39446366,-0.020859415,-0.02285504,0.91839045,1.0,4.081458e-10,-1.9418405e-09,-7.498589e-05,3
39853819,39853428,0.38611832,-0.020808375,-0.02517798,0.92187077,1.0,4.081458e-10,-1.9418405e-09,-7.498589e-05,3
40353377,40352984,0.37898257,-0.02079949,-0.02435396,0.9248495,1.0,4.081458e-10,-1.9418405e-09,-7.498589e-05,3
40852936,40852540,0.3734816,-0.02220854,-0.024178214,0.92705655,1.0,4.081458e-10,-1.9418405e-09,-7.498589e-05,3
41357629,41357217,0.3665041,-0.018286254,-0.022718906,0.92995924,1.0,4.081458e-10,-1.9418405e-09,-7.498589e-05,3
41857170,41856774,0.36074126,-0.019209048,-0.020265507,0.93224794,1.0,4.081458e-10,-1.9418405e-09,-7.498589e-05,3
42356739,42356331,0.35768825,-0.031238254,-0.013591962,0.9332195,1.0,4.081458e-10,-1.9418405e-09,-7.498589e-05,3
42851285,42850892,0.3562298,-0.034688484,-0.01069567,0.9336931,1.0,4.081458e-10,-1.9418405e-09,-7.498589e-05,3
43355842,43355444,0.35530466,-0.032155864,-0.00888841,0.93415505,1.0,4.081458e-10,-1.9418405e-09,-7.498589e-05,3
43855470,43855001,0.3806936,-0.052849267,0.0042695543,0.92317986,1.0,4.081458e-10,-1.9418405e-09,-7.498589e-05,3
44355034,44354559,0.3936079,-0.037023023,-0.00481534,0.91852,1.0,4.081458e-10,-1.9418405e-09,-7.498589e-05,3
44854597,44854116,0.3985021,-0.025206292,-0.012871956,0.91673064,1.0,4.081458e-10,-1.9418405e-09,-7.498589e-05,3
45354282,45353673,0.39759055,-0.015894648,-0.01699609,0.91726786,1.0,4.081458e-10,-1.9418405e-09,-7.498589e-05,3
45858834,45858226,0.39232612,-0.008240189,-0.013456276,0.9196909,1.0,4.081458e-10,-1.9418405e-09,-7.498589e-05,3
46353255,46352788,0.39489478,-0.006861798,-0.015423571,0.9185713,1.0,4.081458e-10,-1.9418405e-09,-7.498589e-05,3
46852887,46852346,0.40079197,-0.007095066,-0.019870993,0.9159262,1.0,4.081458e-10,-1.9418405e-09,-7.498589e-05,3
47352376,47351903,0.40428331,-0.006611498,-0.023446593,0.91430944,1.0,4.081458e-10,-1.9418405e-09,-7.498589e-05,3
47856923,47856457,0.40686035,-0.00631903,-0.02655647,0.91308236,1.0,4.081458e-10,-1.9418405e-09,-7.498589e-05,3
48356483,48356015,0.40926078,-0.005174798,-0.029560601,0.9119239,1.0,4.081458e-10,-1.9418405e-09,-7.498589e-05,3
48856279,48855573,0.40914956,-0.0024892094,-0.0326054,0.91188127,1.0,4.081458e-10,-1.9418405e-09,-7.498589e-05,3
49355523,49355131,0.40547696,-0.0032790725,-0.029803468,0.91361344,1.0,4.081458e-10,-1.9418405e-09,-7.498589e-05,3
49855080,49854689,0.40103316,-0.0006298175,-0.02487335,0.9157255,1.0,4.081458e-10,-1.9418405e-09,-7.498589e-05,3
50354639,50354248,0.39463308,0.0010047558,-0.02116747,0.9185944,1.0,4.081458e-10,-1.9418405e-09,-7.498589e-05,3
50854217,50853806,0.3910709,0.0034168626,-0.01989672,0.92013913,1.0,4.081458e-10,-1.9418405e-09,-7.498589e-05,3
51353873,51353365,0.392129,0.004331125,-0.024082622,0.91958475,1.0,4.081458e-10,-1.9418405e-09,-7.498589e-05,3
51853317,51852923,0.39870495,0.00144163,-0.030119196,0.9165835,1.0,4.081458e-10,-1.9418405e-09,-7.498589e-05,3
52357873,52357478,0.4027223,-0.0005647247,-0.037095085,0.9145701,1.0,4.081458e-10,-1.9418405e-09,-7.498589e-05,3
52852436,52852041,0.39695412,0.00011978877,-0.037266143,0.9170816,1.0,4.081458e-10,-1.9418405e-09,-7.498589e-05,3
53351995,53351600,0.38616255,0.0017142761,-0.03320594,0.92183125,1.0,4.081458e-10,-1.9418405e-09,-7.498589e-05,3
53851553,53851159,0.37619102,0.0039200634,-0.028897244,0.9260831,1.0,4.081458e-10,-1.9418405e-09,-7.498589e-05,3
54356111,54355713,0.3695172,0.0063669095,-0.026820106,0.92881495,1.0,4.081458e-10,-1.9418405e-09,-7.498589e-05,3
54855668,54855273,0.36728758,0.008498105,-0.02600377,0.929705,1.0,4.081458e-10,-1.9418405e-09,-7.498589e-05,3
55355227,55354832,0.35791904,-0.09918863,-0.03784001,0.92769814,1.0,4.081458e-10,-1.9418405e-09,-7.498589e-05,3
55854792,55854391,0.37073773,-0.074402384,-0.03421375,0.9251202,1.0,4.081458e-10,-1.9418405e-09,-7.498589e-05,3
56354346,56353951,0.3767518,-0.07897892,-0.038199093,0.92215043,1.0,4.081458e-10,-1.9418405e-09,-7.498589e-05,3
56853906,56853510,0.35949492,-0.05303233,-0.033033114,0.93105316,1.0,4.081458e-10,-1.9418405e-09,-7.498589e-05,3
57353462,57353070,0.32985952,-0.019640654,-0.019263437,0.9436291,1.0,4.081458e-10,-1.9418405e-09,-7.498589e-05,3
57853025,57852629,0.3197576,-0.011912959,-0.00914051,0.9473805,1.0,4.081458e-10,-1.9418405e-09,-7.498589e-05,3
58352585,58352189,0.31474465,-0.007305432,-0.001272753,0.94914746,1.0,4.081458e-10,-1.9418405e-09,-7.498589e-05,3
58857139,58856744,0.31983462,-0.0022342412,0.0024383215,0.9474677,1.0,4.081458e-10,-1.9418405e-09,-7.498589e-05,3
59356704,59356304,0.33035052,0.003958038,0.0032151868,0.94384456,1.0,4.081458e-10,-1.9418405e-09,-7.498589e-05,3
59856271,59855864,0.34674612,0.006476385,-0.0030593434,0.9379318,1.0,4.081458e-10,-1.9418405e-09,-7.498589e-05,3
60350824,60350428,0.35901386,0.0065672165,-0.010589345,0.9332491,1.0,4.081458e-10,-1.9418405e-09,-7.498589e-05,3
60855386,60854984,0.3647253,0.0067207585,-0.01329514,0.930996,1.0,4.081458e-10,-1.9418405e-09,-7.498589e-05,3
61354937,61354544,0.3613172,0.010405035,-0.010809181,0.9323223,1.0,4.081458e-10,-1.9418405e-09,-7.498589e-05,3
61854944,61854104,0.35153836,0.016036158,-0.0030935232,0.93603104,1.0,4.081458e-10,-1.9418405e-09,-7.498589e-05,3
62354058,62353665,0.3429677,0.019916594,0.004825961,0.93912375,1.0,4.081458e-10,-1.9418405e-09,-7.498589e-05,3
62853616,62853225,0.33854684,0.021998037,0.007364369,0.94066364,1.0,4.081458e-10,-1.9418405e-09,-7.498589e-05,3
63358183,63357781,0.34115797,0.022508007,0.002186975,0.939734,1.0,4.081458e-10,-1.9418405e-09,-7.498589e-05,3
63852759,63852346,0.34618342,0.02078656,-0.0024558222,0.9379334,1.0,4.081458e-10,-1.9418405e-09,-7.498589e-05,3
64352407,64351906,0.35206547,0.019344583,-0.006639997,0.93575186,1.0,4.081458e-10,-1.9418405e-09,-7.498589e-05,3
64851859,64851467,0.35493246,0.019538179,-0.008913295,0.93464524,1.0,4.081458e-10,-1.9418405e-09,-7.498589e-05,3
65356427,65356023,0.35430297,0.022512445,-0.0068544904,0.9348346,1.0,4.081458e-10,-1.9418405e-09,-7.498589e-05,3
65856203,65855584,0.3503544,0.025470657,-0.003688372,0.93626356,1.0,4.081458e-10,-1.9418405e-09,-7.498589e-05,3
66355561,66355145,0.34533888,0.027635239,0.001500185,0.9380699,1.0,4.081458e-10,-1.9418405e-09,-7.498589e-05,3
66855107,66854705,0.34329426,0.025420818,0.0011169766,0.9388832,1.0,4.081458e-10,-1.9418405e-09,-7.498589e-05,3
67354668,67354266,0.34589216,0.021745771,-0.005394435,0.9380067,1.0,4.081458e-10,-1.9418405e-09,-7.498589e-05,3
67854235,67853827,0.34919876,0.020375738,-0.009258256,0.93678147,1.0,4.081458e-10,-1.9418405e-09,-7.498589e-05,3
68353895,68353389,0.35245937,0.020120353,-0.011488486,0.9355403,1.0,4.081458e-10,-1.9418405e-09,-7.498589e-05,3
68853413,68852951,0.35216367,0.021845168,-0.010398128,0.93562573,1.0,4.081458e-10,-1.9418405e-09,-7.498589e-05,3
69352917,69352513,0.34600455,0.024267497,-0.0062428215,0.93789816,1.0,4.081458e-10,-1.9418405e-09,-7.498589e-05,3
69857465,69857071,0.33788034,0.02761396,-0.00011433769,0.94078386,1.0,4.081458e-10,-1.9418405e-09,-7.498589e-05,3
70357026,70356632,0.33606693,0.028439544,0.00083667453,0.94140834,1.0,4.081458e-10,-1.9418405e-09,-7.498589e-05,3
70851602,70851199,0.33921614,0.024571527,-0.0049101184,0.94037473,1.0,4.081458e-10,-1.9418405e-09,-7.498589e-05,3
71356150,71355756,0.34381297,0.021102633,-0.011574758,0.9387297,1.0,4.081458e-10,-1.9418405e-09,-7.498589e-05,3
71855711,71855318,0.3476278,0.02114807,-0.012257084,0.93731403,1.0,4.081458e-10,-1.9418405e-09,-7.498589e-05,3
72355274,72354881,0.34900028,0.021916281,-0.011325316,0.9367979,1.0,4.081458e-10,-1.9418405e-09,-7.498589e-05,3
72854841,72854442,0.34821755,0.02287352,-0.0099019185,0.93708235,1.0,4.081458e-10,-1.9418405e-09,-7.498589e-05,3
73354523,73354004,0.34700444,0.022901105,-0.00952354,0.93753546,1.0,4.081458e-10,-1.9418405e-09,-7.498589e-05,3
73854085,73853691,0.34585053,0.023997137,-0.008413027,0.937945,1.0,4.081458e-10,-1.9418405e-09,-7.498589e-05,3
74354017,74353254,0.34577212,0.023638526,-0.010094194,0.9379664,1.0,4.081458e-10,-1.9418405e-09,-7.498589e-05,3
74853418,74852816,0.34247637,0.02418691,-0.00893416,0.93917257,1.0,4.081458e-10,-1.9418405e-09,-7.498589e-05,3
75352874,75352379,0.33645546,0.026435034,-0.0020218508,0.9413261,1.0,4.081458e-10,-1.9418405e-09,-7.498589e-05,3
75852517,75851940,0.33252066,0.028372973,-0.0017570767,0.9426675,1.0,4.081458e-10,-1.9418405e-09,-7.498589e-05,3
76356908,76356497,0.33260694,0.02810682,-0.0059702764,0.9426277,1.0,4.081458e-10,-1.9418405e-09,-7.498589e-05,3
76856564,76856060,0.33505943,0.028271839,-0.010708121,0.94171184,1.0,4.081458e-10,-1.9418405e-09,-7.498589e-05,3
77356243,77355622,0.33892006,0.0285627,-0.01222225,0.9403021,1.0,4.081458e-10,-1.9418405e-09,-7.498589e-05,3
77855580,77855184,0.3414884,0.029142778,-0.013762717,0.93933326,1.0,4.081458e-10,-1.9418405e-09,-7.498589e-05,3
78355142,78354747,0.3427166,0.029993322,-0.013718885,0.93885976,1.0,4.081458e-10,-1.9418405e-09,-7.498589e-05,3
78854703,78854309,0.34214538,0.031090997,-0.013332759,0.9390379,1.0,4.081458e-10,-1.9418405e-09,-7.498589e-05,3
79354954,79353871,0.34119245,0.027310543,-0.010308564,0.93954015,1.0,4.081458e-10,-1.9418405e-09,-7.498589e-05,3
79853828,79853434,0.34184262,0.023141256,-0.009953412,0.9394195,1.0,4.081458e-10,-1.9418405e-09,-7.498589e-05,3
80353390,80352996,0.34456235,0.020410648,-0.011824278,0.93846714,1.0,4.081458e-10,-1.9418405e-09,-7.498589e-05,3
80857945,80857554,0.3491217,0.019591687,-0.014951773,0.9367533,1.0,4.081458e-10,-1.9418405e-09,-7.498589e-05,3
81352517,81352121,0.3522625,0.020432634,-0.015610669,0.93554795,1.0,4.081458e-10,-1.9418405e-09,-7.498589e-05,3
81852084,81851684,0.35106766,0.024046946,-0.012243146,0.9359612,1.0,4.081458e-10,-1.9418405e-09,-7.498589e-05,3
82356636,82356242,0.3460328,0.023808245,-0.0032708202,0.93791467,1.0,4.081458e-10,-1.9418405e-09,-7.498589e-05,3
82856212,82855805,0.34378356,0.022728499,-0.00047911372,0.93877375,1.0,4.081458e-10,-1.9418405e-09,-7.498589e-05,3
83355865,83355367,0.34410778,0.019451616,-0.0056135566,0.93871194,1.0,4.081458e-10,-1.9418405e-09,-7.498589e-05,3
83855324,83854930,0.34861606,0.019588334,-0.00929471,0.9370148,1.0,4.081458e-10,-1.9418405e-09,-7.498589e-05,3
84354886,84354493,0.35159174,0.019320061,-0.01090081,0.9358906,1.0,4.081458e-10,-1.9418405e-09,-7.498589e-05,3
84854449,84854056,0.35173896,0.024051763,-0.009006493,0.93574584,1.0,4.081458e-10,-1.9418405e-09,-7.498589e-05,3
85354011,85353619,0.34921724,0.029189805,-0.008303682,0.93655026,1.0,4.081458e-10,-1.9418405e-09,-7.498589e-05,3
85853589,85853181,0.347544,0.030759566,-0.0059881196,0.93714,1.0,4.081458e-10,-1.9418405e-09,-7.498589e-05,3
86353136,86352744,0.34622675,0.028963082,-0.0070770737,0.937677,1.0,4.081458e-10,-1.9418405e-09,-7.498589e-05,3
86857700,86857303,0.34606618,0.027988391,-0.0074951807,0.9377626,1.0,4.081458e-10,-1.9418405e-09,-7.498589e-05,3
87357317,87356866,0.34453782,0.029912544,-0.006790477,0.9382712,1.0,4.081458e-10,-1.9418405e-09,-7.498589e-05,3
87857038,87856429,0.34169722,0.032208174,-0.004691172,0.9392464,1.0,4.081458e-10,-1.9418405e-09,-7.498589e-05,3
88351394,88350996,0.33986664,0.03351427,-0.0046471935,0.9398649,1.0,4.081458e-10,-1.9418405e-09,-7.498589e-05,3
88855949,88855555,0.33995113,0.034386747,-0.0069881477,0.93978834,1.0,4.081458e-10,-1.9418405e-09,-7.498589e-05,3
89355511,89355118,0.34097892,0.034056783,-0.009595981,0.93940485,1.0,4.081458e-10,-1.9418405e-09,-7.498589e-05,3
89855122,89854682,0.34344104,0.032551922,-0.0073073907,0.9385815,1.0,4.081458e-10,-1.9418405e-09,-7.498589e-05,3
90354662,90354245,0.34724313,0.028353108,-0.010696898,0.9372855,1.0,4.081458e-10,-1.9418405e-09,-7.498589e-05,3
90854206,90853808,0.35080966,0.026766904,-0.013108735,0.93597245,1.0,4.081458e-10,-1.9418405e-09,-7.498589e-05,3
91353766,91353371,0.35208276,0.026594903,-0.012806132,0.9355033,1.0,4.081458e-10,-1.9418405e-09,-7.498589e-05,3
91853530,91852936,0.3507324,0.02821252,-0.009522294,0.9360022,1.0,4.081458e-10,-1.9418405e-09,-7.498589e-05,3
92352894,92352498,0.34899208,0.028970104,-0.008080295,0.93664294,1.0,4.081458e-10,-1.9418405e-09,-7.498589e-05,3
92852458,92852062,0.34696814,0.032991085,-0.010012495,0.937243,1.0,4.081458e-10,-1.9418405e-09,-7.498589e-05,3
93357016,93356621,0.34425554,0.03448647,-0.009617526,0.9381932,1.0,4.081458e-10,-1.9418405e-09,-7.498589e-05,3
93856578,93856185,0.3421534,0.032811135,-0.007762893,0.93903905,1.0,4.081458e-10,-1.9418405e-09,-7.498589e-05,3
94356195,94355748,0.34245113,0.03183102,-0.009849126,0.93894464,1.0,4.081458e-10,-1.9418405e-09,-7.498589e-05,3
94855706,94855311,0.3471537,0.031261522,-0.012897629,0.93719834,1.0,4.081458e-10,-1.9418405e-09,-7.498589e-05,3
95355268,95354875,0.35411537,0.030588072,-0.019599078,0.934496,1.0,4.081458e-10,-1.9418405e-09,-7.498589e-05,3
95854834,95854439,0.36039132,0.029790616,-0.025712246,0.9319708,1.0,4.081458e-10,-1.9418405e-09,-7.498589e-05,3
96354454,96354002,0.36294106,0.029875994,-0.02526563,0.93099034,1.0,4.081458e-10,-1.9418405e-09,-7.498589e-05,3
96853958,96853566,0.3608803,0.033483256,-0.01975439,0.93180156,1.0,4.081458e-10,-1.9418405e-09,-7.498589e-05,3
97353527,97353130,0.35526383,0.034632254,-0.0124950055,0.9340408,1.0,4.081458e-10,-1.9418405e-09,-7.498589e-05,3
97858086,97857689,0.3513171,0.035257272,-0.008613561,0.93555284,1.0,4.081458e-10,-1.9418405e-09,-7.498589e-05,3
98357707,98357253,0.35113573,0.034672756,-0.008347355,0.93564516,1.0,4.081458e-10,-1.9418405e-09,-7.498589e-05,3
98852288,98851821,0.3555449,0.031026203,-0.0141544035,0.9340369,1.0,4.081458e-10,-1.9418405e-09,-7.498589e-05,3
99351852,99351385,0.36120832,0.029826667,-0.020123053,0.9317907,1.0,4.081458e-10,-1.9418405e-09,-7.498589e-05,3
99856415,99855945,0.36044165,0.033682752,-0.016158521,0.9320335,1.0,4.081458e-10,-1.9418405e-09,-7.498589e-05,3
100355987,100355510,0.35648513,0.036024302,-0.010645831,0.9335456,1.0,4.081458e-10,-1.9418405e-09,-7.498589e-05,3
100856103,100855074,0.3540381,0.03718708,-0.007879922,0.9344582,1.0,4.081458e-10,-1.9418405e-09,-7.498589e-05,3
101355134,101354639,0.3540991,0.037008166,-0.009487777,0.93442726,1.0,4.081458e-10,-1.9418405e-09,-7.498589e-05,3
101854731,101854203,0.3569549,0.03515125,-0.013432325,0.9333634,1.0,4.081458e-10,-1.9418405e-09,-7.498589e-05,3
102354393,102353768,0.36097836,0.03325758,-0.016525803,0.9318345,1.0,4.081458e-10,-1.9418405e-09,-7.498589e-05,3
102854153,102853332,0.3639258,0.03420489,-0.01698107,0.9306448,1.0,4.081458e-10,-1.9418405e-09,-7.498589e-05,3
103353809,103352897,0.36469278,0.035789717,-0.013975096,0.9303349,1.0,4.081458e-10,-1.9418405e-09,-7.498589e-05,3
103852929,103852461,0.3638071,0.03569122,-0.013887712,0.9306867,1.0,4.081458e-10,-1.9418405e-09,-7.498589e-05,3
104357488,104357022,0.36191946,0.03678064,-0.009497575,0.93143517,1.0,4.081458e-10,-1.9418405e-09,-7.498589e-05,3
104857143,104856586,0.3587718,0.036403738,-0.008932454,0.93267244,1.0,4.081458e-10,-1.9418405e-09,-7.498589e-05,3
105356651,105356151,0.357124,0.035439808,-0.0059501845,0.9333655,1.0,4.081458e-10,-1.9418405e-09,-7.498589e-05,3
105851187,105850720,0.3575899,0.0331874,-0.007452952,0.9332591,1.0,4.081458e-10,-1.9418405e-09,-7.498589e-05,3
106355743,106355280,0.36008012,0.032385565,-0.008498735,0.9323204,1.0,4.081458e-10,-1.9418405e-09,-7.498589e-05,3
106855307,106854844,0.36304885,0.03322277,-0.011011782,0.9311126,1.0,4.081458e-10,-1.9418405e-09,-7.498589e-05,3
107354952,107354409,0.36439943,0.03435027,-0.013298171,0.93051404,1.0,4.081458e-10,-1.9418405e-09,-7.498589e-05,3
107854438,107853974,0.363288,0.03733066,-0.011625035,0.9308561,1.0,4.081458e-10,-1.9418405e-09,-7.498589e-05,3
108354006,108353538,0.36023504,0.040230524,-0.01053319,0.9319342,1.0,4.081458e-10,-1.9418405e-09,-7.498589e-05,3
108858572,108858099,0.35806537,0.041420057,-0.006936279,0.93275166,1.0,4.081458e-10,-1.9418405e-09,-7.498589e-05,3
109353304,109352668,0.36028585,0.038059026,-0.010363446,0.9320076,1.0,4.081458e-10,-1.9418405e-09,-7.498589e-05,3
109852721,109852232,0.366853,0.03225205,-0.017336488,0.9295581,1.0,4.081458e-10,-1.9418405e-09,-7.498589e-05,3
110352261,110351797,0.3738466,0.030067487,-0.021685624,0.9267494,1.0,4.081458e-10,-1.9418405e-09,-7.498589e-05,3
110856827,110856357,0.37710667,0.031299237,-0.020491445,0.9254141,1.0,4.081458e-10,-1.9418405e-09,-7.498589e-05,3
111356390,111355922,0.37636495,0.033357017,-0.01696428,0.92571545,1.0,4.081458e-10,-1.9418405e-09,-7.498589e-05,3
111855955,111855487,0.37415674,0.035579994,-0.013976466,0.9265773,1.0,4.081458e-10,-1.9418405e-09,-7.498589e-05,3
112355525,112355052,0.37144837,0.036099374,-0.013395782,0.92765486,1.0,4.081458e-10,-1.9418405e-09,-7.498589e-05,3
112855044,112854617,0.3692845,0.036721043,-0.01226725,0.9285096,1.0,4.081458e-10,-1.9418405e-09,-7.498589e-05,3
113354645,113354182,0.36920664,0.036845483,-0.01237737,0.92853415,1.0,4.081458e-10,-1.9418405e-09,-7.498589e-05,3
113854145,113853747,0.3705717,0.034891795,-0.015121752,0.9280251,1.0,4.081458e-10,-1.9418405e-09,-7.498589e-05,3
114353788,114353312,0.3707649,0.034770723,-0.013983109,0.9279703,1.0,4.081458e-10,-1.9418405e-09,-7.498589e-05,3
114853466,114852877,0.36853382,0.03486788,-0.0129415095,0.92887014,1.0,4.081458e-10,-1.9418405e-09,-7.498589e-05,3
115358033,115357437,0.3656241,0.035491407,-0.009909779,0.9300329,1.0,4.081458e-10,-1.9418405e-09,-7.498589e-05,3
115857454,115857002,0.36392465,0.035905547,-0.009881791,0.9306837,1.0,4.081458e-10,-1.9418405e-09,-7.498589e-05,3
116352112,116351572,0.36777133,0.035302307,-0.012292585,0.9291647,1.0,4.081458e-10,-1.9418405e-09,-7.498589e-05,3
116851608,116851137,0.3750559,0.031738512,-0.019550659,0.92625237,1.0,4.081458e-10,-1.9418405e-09,-7.498589e-05,3
117356154,117355698,0.38070786,0.031616308,-0.022009606,0.9238926,1.0,4.081458e-10,-1.9418405e-09,-7.498589e-05,3
117855740,117855263,0.38028193,0.03492038,-0.019248731,0.9240107,1.0,4.081458e-10,-1.9418405e-09,-7.498589e-05,3
118355303,118354828,0.37728417,0.03811845,-0.014512616,0.9251989,1.0,4.081458e-10,-1.9418405e-09,-7.498589e-05,3
118854847,118854393,0.37390637,0.037894167,-0.013226986,0.9265976,1.0,4.081458e-10,-1.9418405e-09,-7.498589e-05,3
119354415,119353958,0.37098145,0.033127245,-0.010068144,0.9279946,1.0,4.081458e-10,-1.9418405e-09,-7.498589e-05,3
119853978,119853524,0.36973387,0.034329742,-0.009401321,0.92845577,1.0,4.081458e-10,-1.9418405e-09,-7.498589e-05,3
120353576,120353089,0.37142697,0.031568516,-0.008898992,0.9278827,1.0,4.081458e-10,-1.9418405e-09,-7.498589e-05,3
120853107,120852654,0.37649128,0.033469252,-0.013615026,0.92571527,1.0,4.081458e-10,-1.9418405e-09,-7.498589e-05,3
121352674,121352220,0.38375288,0.032813124,-0.01969636,0.9226425,1.0,4.081458e-10,-1.9418405e-09,-7.498589e-05,3
121857236,121856781,0.38958013,0.02884427,-0.02150941,0.9202895,1.0,4.081458e-10,-1.9418405e-09,-7.498589e-05,3
122357064,122356346,0.38987297,0.025642289,-0.015842328,0.92037535,1.0,4.081458e-10,-1.9418405e-09,-7.498589e-05,3
122856373,122855911,0.38604936,0.0297674,-0.012544184,0.9219124,1.0,4.081458e-10,-1.9418405e-09,-7.498589e-05,3
123350943,123350481,0.38224974,0.03245019,-0.010335647,0.9234313,1.0,4.081458e-10,-1.9418405e-09,-7.498589e-05,3
123855502,123855042,0.38146257,0.030445794,-0.009478463,0.92383426,1.0,4.081458e-10,-1.9418405e-09,-7.498589e-05,3
124355064,124354608,0.38252503,0.029450186,-0.008742349,0.92343426,1.0,4.081458e-10,-1.9418405e-09,-7.498589e-05,3
124854627,124854173,0.38518864,0.028956262,-0.011242174,0.922315,1.0,4.081458e-10,-1.9418405e-09,-7.498589e-05,3
125354203,125353739,0.38887095,0.023283536,-0.010205871,0.92094153,1.0,4.081458e-10,-1.9418405e-09,-7.498589e-05,3
125853760,125853304,0.39230245,0.01947779,-0.0106528625,0.91956836,1.0,4.081458e-10,-1.9418405e-09,-7.498589e-05,3
126358442,126357866,0.39259833,0.022774002,-0.013819088,0.91932416,1.0,4.081458e-10,-1.9418405e-09,-7.498589e-05,3
126852884,126852436,0.3903046,0.025243966,-0.013425701,0.9202418,1.0,4.081458e-10,-1.9418405e-09,-7.498589e-05,3
127352522,127352001,0.386859,0.031083131,-0.014145946,0.9215063,1.0,4.081458e-10,-1.9418405e-09,-7.498589e-05,3
127857491,127856687,0.38424107,0.04018269,-0.016161697,0.92221636,1.0,4.081458e-10,-1.9418405e-09,-7.498589e-05,3
128356927,128356253,0.3838993,0.041927688,-0.014505358,0.9223085,1.0,4.081458e-10,-1.9418405e-09,-7.498589e-05,3
128856603,128855819,0.3856588,0.041518413,-0.011816311,0.92163116,1.0,4.081458e-10,-1.9418405e-09,-7.498589e-05,3
129356262,129355385,0.38972864,0.04005275,-0.0124386065,0.91997427,1.0,4.081458e-10,-1.9418405e-09,-7.498589e-05,3
129855800,129854950,0.39492866,0.038166728,-0.015211262,0.91779256,1.0,4.081458e-10,-1.9418405e-09,-7.498589e-05,3
130354911,130354516,0.39839238,0.035206046,-0.017888715,0.91636467,1.0,4.081458e-10,-1.9418405e-09,-7.498589e-05,3
130854485,130854082,0.3992783,0.034560144,-0.019592624,0.9159687,1.0,4.081458e-10,-1.9418405e-09,-7.498589e-05,3
131354074,131353648,0.39963406,0.03257823,-0.020276146,0.9158712,1.0,4.081458e-10,-1.9418405e-09,-7.498589e-05,3
131853605,131853214,0.4005875,0.031237476,-0.020962145,0.915486,1.0,4.081458e-10,-1.9418405e-09,-7.498589e-05,3
132353297,132352779,0.401896,0.02982427,-0.021151092,0.91495514,1.0,4.081458e-10,-1.9418405e-09,-7.498589e-05,3
132857861,132857466,0.40314236,0.028236963,-0.021774592,0.9144424,1.0,4.081458e-10,-1.9418405e-09,-7.498589e-05,3
133357430,133357032,0.40485668,0.0275694,-0.021437844,0.913713,1.0,4.081458e-10,-1.9418405e-09,-7.498589e-05,3
133851996,133851602,0.40599188,0.027555963,-0.023235518,0.91316557,1.0,4.081458e-10,-1.9418405e-09,-7.498589e-05,3
134351562,134351168,0.40645087,0.026206782,-0.023487033,0.9129946,1.0,4.081458e-10,-1.9418405e-09,-7.498589e-05,3
134856151,134855730,0.40577313,0.026223095,-0.024557179,0.9132675,1.0,4.081458e-10,-1.9418405e-09,-7.498589e-05,3
135355688,135355295,0.40423357,0.02483123,-0.023998508,0.9140038,1.0,4.081458e-10,-1.9418405e-09,-7.498589e-05,3
135855274,135854861,0.40146017,0.025233522,-0.024065783,0.9152126,1.0,4.081458e-10,-1.9418405e-09,-7.498589e-05,3
136354822,136354427,0.3984151,0.025298305,-0.0226992,0.9165753,1.0,4.081458e-10,-1.9418405e-09,-7.498589e-05,3
136854389,136853993,0.3953121,0.024648963,-0.021394394,0.9179669,1.0,4.081458e-10,-1.9418405e-09,-7.498589e-05,3
137353955,137353559,0.39174503,0.027333574,-0.022308787,0.9193972,1.0,4.081458e-10,-1.9418405e-09,-7.498589e-05,3
137853520,137853125,0.387221,0.025240181,-0.020919235,0.92140394,1.0,4.081458e-10,-1.9418405e-09,-7.498589e-05,3
138353087,138352692,0.38244754,0.026593642,-0.020191928,0.92337376,1.0,4.081458e-10,-1.9418405e-09,-7.498589e-05,3
138852651,138852258,0.38054425,0.0273861,-0.015244949,0.9242314,1.0,4.081458e-10,-1.9418405e-09,-7.498589e-05,3
139357211,139356819,0.38182363,0.026376758,-0.015559578,0.9237278,1.0,4.081458e-10,-1.9418405e-09,-7.498589e-05,3
139857051,139856385,0.3854608,0.026249941,-0.014994576,0.92222893,1.0,4.081458e-10,-1.9418405e-09,-7.498589e-05,3
140356343,140355952,0.39081952,0.02556639,-0.01461017,0.91999626,1.0,4.081458e-10,-1.9418405e-09,-7.498589e-05,3
140850921,140850527,0.3977124,0.025490928,-0.016091561,0.9170148,1.0,4.081458e-10,-1.9418405e-09,-7.498589e-05,3
141355513,141355084,0.4066136,0.025132338,-0.017223073,0.9130921,1.0,4.081458e-10,-1.9418405e-09,-7.498589e-05,3
141855044,141854650,0.41492537,0.025649335,-0.02030285,0.90926725,1.0,4.081458e-10,-1.9418405e-09,-7.498589e-05,3
142354608,142354216,0.41878018,0.025165886,-0.020907337,0.9074981,1.0,4.081458e-10,-1.9418405e-09,-7.498589e-05,3
142854177,142853782,0.42096996,0.024500828,-0.020522559,0.9065114,1.0,4.081458e-10,-1.9418405e-09,-7.498589e-05,3
143353810,143353349,0.4225056,0.02511711,-0.021315156,0.90576154,1.0,4.081458e-10,-1.9418405e-09,-7.498589e-05,3
143858483,143858036,0.4249061,0.024275996,-0.022546742,0.90463096,1.0,4.081458e-10,-1.9418405e-09,-7.498589e-05,3
144353380,144352606,0.42502907,0.024172744,-0.02335486,0.9045554,1.0,4.081458e-10,-1.9418405e-09,-7.498589e-05,3
144852566,144852172,0.42383355,0.023644844,-0.023195539,0.9051343,1.0,4.081458e-10,-1.9418405e-09,-7.498589e-05,3
145352133,145351739,0.42169255,0.024398899,-0.024265006,0.9060857,1.0,4.081458e-10,-1.9418405e-09,-7.498589e-05,3
145856821,145856426,0.42103252,0.024388442,-0.021438425,0.90646416,1.0,4.081458e-10,-1.9418405e-09,-7.498589e-05,3
146356423,146355992,0.4206384,0.024595637,-0.022005118,0.9066279,1.0,4.081458e-10,-1.9418405e-09,-7.498589e-05,3
146855957,146855558,0.42167187,0.026071973,-0.01792151,0.90619636,1.0,4.081458e-10,-1.9418405e-09,-7.498589e-05,3
147355520,147355125,0.42208698,0.025900537,-0.020652935,0.9059499,1.0,4.081458e-10,-1.9418405e-09,-7.498589e-05,3
147855085,147854691,0.42415982,0.025139129,-0.01956248,0.905027,1.0,4.081458e-10,-1.9418405e-09,-7.498589e-05,3
148354656,148354258,0.42536864,0.026161557,-0.021431396,0.90438807,1.0,4.081458e-10,-1.9418405e-09,-7.498589e-05,3
148854219,148853824,0.42727748,0.024709597,-0.021630915,0.903524,1.0,4.081458e-10,-1.9418405e-09,-7.498589e-05,3
149353787,149353391,0.43072468,0.024939166,-0.02133855,0.90188634,1.0,4.081458e-10,-1.9418405e-09,-7.498589e-05,3
149853386,149852957,0.43400243,0.0248221,-0.02221604,0.9002957,1.0,4.081458e-10,-1.9418405e-09,-7.498589e-05,3
150357911,150357519,0.43735132,0.024592143,-0.020645155,0.89871734,1.0,4.081458e-10,-1.9418405e-09,-7.498589e-05,3
150857479,150857086,0.4396007,0.024619548,-0.02121768,0.89760506,1.0,4.081458e-10,-1.9418405e-09,-7.498589e-05,3
151352054,151351657,0.4416884,0.024286961,-0.02159663,0.8965797,1.0,4.081458e-10,-1.9418405e-09,-7.498589e-05,3
151851620,151851224,0.4426258,0.024258295,-0.021200081,0.8961276,1.0,4.081458e-10,-1.9418405e-09,-7.498589e-05,3
152356181,152355786,0.4429006,0.02433147,-0.02253862,0.89595705,1.0,4.081458e-10,-1.9418405e-09,-7.498589e-05,3
152855746,152855352,0.44269547,0.023440704,-0.022683427,0.8960785,1.0,4.081458e-10,-1.9418405e-09,-7.498589e-05,3
153355320,153354919,0.4407811,0.022890702,-0.02348967,0.8970153,1.0,4.081458e-10,-1.9418405e-09,-7.498589e-05,3
153854880,153854486,0.43595272,0.023053015,-0.024826009,0.89933175,1.0,4.081458e-10,-1.9418405e-09,-7.498589e-05,3
154354445,154354052,0.43210027,0.023327947,-0.022701329,0.90123796,1.0,4.081458e-10,-1.9418405e-09,-7.498589e-05,3
154854011,154853619,0.42919222,0.0251737,-0.018846352,0.9026657,1.0,4.081458e-10,-1.9418405e-09,-7.498589e-05,3
155353592,155353187,0.42549258,0.02291327,-0.022846935,0.9043833,1.0,4.081458e-10,-1.9418405e-09,-7.498589e-05,3
155853144,155852752,0.4222047,0.015279536,-0.023859004,0.9060577,1.0,4.081458e-10,-1.9418405e-09,-7.498589e-05,3
156352739,156352319,0.41965997,0.018191582,-0.020643044,0.9072643,1.0,4.081458e-10,-1.9418405e-09,-7.498589e-05,3
156857705,156856881,0.41706166,0.020824103,-0.02078344,0.90840185,1.0,4.081458e-10,-1.9418405e-09,-7.498589e-05,3
157357699,157356448,0.41791996,0.025570644,-0.01665679,0.90797114,1.0,4.081458e-10,-1.9418405e-09,-7.498589e-05,3
157856412,157856015,0.41761434,0.028441867,-0.0153748365,0.908049,1.0,4.081458e-10,-1.9418405e-09,-7.498589e-05,3
158350981,158350587,0.41766417,0.030136423,-0.014153377,0.90799123,1.0,4.081458e-10,-1.9418405e-09,-7.498589e-05,3
158855542,158855149,0.41822976,0.031429563,-0.012961032,0.9077049,1.0,4.081458e-10,-1.9418405e-09,-7.498589e-05,3
159355134,159354716,0.4186055,0.032795157,-0.0112771075,0.9075058,1.0,4.081458e-10,-1.9418405e-09,-7.498589e-05,3
159854679,159854283,0.41882554,0.031741563,-0.01163407,0.90743726,1.0,4.081458e-10,-1.9418405e-09,-7.498589e-05,3
160354245,160353850,0.41907084,0.031535275,-0.008506846,0.9073659,1.0,4.081458e-10,-1.9418405e-09,-7.498589e-05,3
160853813,160853417,0.4188614,0.031012043,-0.006905693,0.9074943,1.0,4.081458e-10,-1.9418405e-09,-7.498589e-05,3
161358411,161357979,0.41899148,0.030460984,-0.006524314,0.9074557,1.0,4.081458e-10,-1.9418405e-09,-7.498589e-05,3
161852950,161852551,0.41927865,0.030246926,-0.005786827,0.9073352,1.0,4.081458e-10,-1.9418405e-09,-7.498589e-05,3
162352517,162352118,0.41951993,0.029818883,-0.005614991,0.90723884,1.0,4.081458e-10,-1.9418405e-09,-7.498589e-05,3
162852081,162851685,0.41974953,0.030113332,-0.004899807,0.9071271,1.0,4.081458e-10,-1.9418405e-09,-7.498589e-05,3
163356639,163356248,0.42017433,0.03002779,-0.0040634973,0.90693736,1.0,4.081458e-10,-1.9418405e-09,-7.498589e-05,3
163856237,163855815,0.42063752,0.029425975,-0.0053540645,0.9067357,1.0,4.081458e-10,-1.9418405e-09,-7.498589e-05,3
164355776,164355382,0.42102697,0.02905104,-0.0055998876,0.90656555,1.0,4.081458e-10,-1.9418405e-09,-7.498589e-05,3
164855384,164854949,0.42199314,0.029592777,-0.0035010008,0.9061092,1.0,4.081458e-10,-1.9418405e-09,-7.498589e-05,3
165354910,165354516,0.42220357,0.029763935,-0.0032690712,0.90600646,1.0,4.081458e-10,-1.9418405e-09,-7.498589e-05,3
165854531,165854084,0.4226464,0.02931719,-0.0041778465,0.9058108,1.0,4.081458e-10,-1.9418405e-09,-7.498589e-05,3
166354045,166353651,0.4231559,0.029320903,-0.004285769,0.90557224,1.0,4.081458e-10,-1.9418405e-09,-7.498589e-05,3
166853625,166853218,0.42398646,0.029002206,-0.003930632,0.9051956,1.0,4.081458e-10,-1.9418405e-09,-7.498589e-05,3
167353178,167352785,0.4244766,0.029409735,-0.001597775,0.9049598,1.0,4.081458e-10,-1.9418405e-09,-7.498589e-05,3
167857755,167857348,0.42522287,0.030138608,0.00031065446,0.9045867,1.0,4.081458e-10,-1.9418405e-09,-7.498589e-05,3
168357358,168356915,0.42548826,0.030743832,0.0027456852,0.9044374,1.0,4.081458e-10,-1.9418405e-09,-7.498589e-05,3
168851880,168851487,0.42581412,0.031298652,0.0022742175,0.9042663,1.0,4.081458e-10,-1.9418405e-09,-7.498589e-05,3
169351447,169351054,0.42633957,0.031342316,0.0027472626,0.90401596,1.0,4.081458e-10,-1.9418405e-09,-7.498589e-05,3
169856013,169855618,0.42640755,0.03135224,0.00068406406,0.90398747,1.0,4.081458e-10,-1.9418405e-09,-7.498589e-05,3
170355683,170355185,0.42676136,0.031322736,0.0011417028,0.903821,1.0,4.081458e-10,-1.9418405e-09,-7.498589e-05,3
170855151,170854752,0.42697236,0.03190369,0.002227013,0.903699,1.0,4.081458e-10,-1.9418405e-09,-7.498589e-05,3
171354718,171354320,0.42735693,0.03125081,0.0023474565,0.90353966,1.0,4.081458e-10,-1.9418405e-09,-7.498589e-05,3
171854407,171854012,0.427739,0.03126672,0.0027195355,0.9033574,1.0,4.081458e-10,-1.9418405e-09,-7.498589e-05,3
172354005,172353579,0.42771792,0.03056008,0.0005860041,0.9033954,1.0,4.081458e-10,-1.9418405e-09,-7.498589e-05,3
172853566,172853147,0.4278771,0.030739443,0.0005371678,0.90331393,1.0,4.081458e-10,-1.9418405e-09,-7.498589e-05,3
173353110,173352714,0.42832398,0.030971847,0.0010949653,0.9030937,1.0,4.081458e-10,-1.9418405e-09,-7.498589e-05,3
173852674,173852282,0.42865515,0.031017123,0.001660665,0.90293413,1.0,4.081458e-10,-1.9418405e-09,-7.498589e-05,3
174357238,174356845,0.42911053,0.031430572,0.003156158,0.9026995,1.0,4.081458e-10,-1.9418405e-09,-7.498589e-05,3
174856813,174856413,0.42932045,0.031191224,0.0023495418,0.9026104,1.0,4.081458e-10,-1.9418405e-09,-7.498589e-05,3
175356374,175355980,0.4295684,0.031012043,0.001158543,0.90250087,1.0,4.081458e-10,-1.9418405e-09,-7.498589e-05,3
175850955,175850557,0.43019316,0.031165676,0.0017754999,0.90219694,1.0,4.081458e-10,-1.9418405e-09,-7.498589e-05,3
176355508,176355116,0.430524,0.031580217,0.0027683855,0.9020223,1.0,4.081458e-10,-1.9418405e-09,-7.498589e-05,3
176855075,176854683,0.43092686,0.03139915,0.0028272362,0.901836,1.0,4.081458e-10,-1.9418405e-09,-7.498589e-05,3
177354644,177354251,0.43120334,0.03154975,0.0025899084,0.90169936,1.0,4.081458e-10,-1.9418405e-09,-7.498589e-05,3
177854219,177853819,0.43144247,0.031211747,0.001917383,0.90159833,1.0,4.081458e-10,-1.9418405e-09,-7.498589e-05,3
178353783,178353387,0.43163493,0.031090187,0.0013751438,0.9015115,1.0,4.081458e-10,-1.9418405e-09,-7.498589e-05,3
178858371,178857950,0.43179023,0.030848604,0.00096900243,0.90144587,1.0,4.081458e-10,-1.9418405e-09,-7.498589e-05,3
179352917,179352523,0.4319225,0.03097695,0.0013434512,0.9013777,1.0,4.081458e-10,-1.9418405e-09,-7.498589e-05,3
179852500,179852091,0.4319803,0.031441398,0.0023484137,0.9013317,1.0,4.081458e-10,-1.9418405e-09,-7.498589e-05,3
180352054,180351658,0.43219316,0.032111865,0.00405665,0.9012001,1.0,4.081458e-10,-1.9418405e-09,-7.498589e-05,3
180856626,180856223,0.43230346,0.03223262,0.004365464,0.90114135,1.0,4.081458e-10,-1.9418405e-09,-7.498589e-05,3
181356195,181355790,0.432362,0.031813703,0.0027182393,0.90113467,1.0,4.081458e-10,-1.9418405e-09,-7.498589e-05,3
181855797,181855360,0.43255627,0.03180013,0.0024970588,0.9010426,1.0,4.081458e-10,-1.9418405e-09,-7.498589e-05,3
182355329,182354926,0.43287858,0.03179693,0.002560873,0.90088767,1.0,4.081458e-10,-1.9418405e-09,-7.498589e-05,3
182854959,182854494,0.43300578,0.03188168,0.0029066002,0.9008226,1.0,4.081458e-10,-1.9418405e-09,-7.498589e-05,3
183354852,183354062,0.43298173,0.031965155,0.002882322,0.9008312,1.0,4.081458e-10,-1.9418405e-09,-7.498589e-05,3
183854244,183853630,0.43318704,0.03229757,0.0037585539,0.9007174,1.0,4.081458e-10,-1.9418405e-09,-7.498589e-05,3
184353602,184353198,0.43339577,0.032660123,0.004754953,0.9005992,1.0,4.081458e-10,-1.9418405e-09,-7.498589e-05,3
184853168,184852766,0.43375215,0.03235992,0.00400806,0.9004421,1.0,4.081458e-10,-1.9418405e-09,-7.498589e-05,3
185357726,185357330,0.43370682,0.03210796,0.0023725533,0.90047866,1.0,4.081458e-10,-1.9418405e-09,-7.498589e-05,3
185852306,185851902,0.43379638,0.03207855,0.0023804076,0.90043664,1.0,4.081458e-10,-1.9418405e-09,-7.498589e-05,3
186351875,186351470,0.43377072,0.032292623,0.0029205675,0.9004398,1.0,4.081458e-10,-1.9418405e-09,-7.498589e-05,3
186851443,186851039,0.4337305,0.032207113,0.0026031584,0.9004631,1.0,4.081458e-10,-1.9418405e-09,-7.498589e-05,3
187355997,187355603,0.43369955,0.032306794,0.002935864,0.9004734,1.0,4.081458e-10,-1.9418405e-09,-7.498589e-05,3
187855565,187855171,0.43371773,0.032178175,0.0026522253,0.9004702,1.0,4.081458e-10,-1.9418405e-09,-7.498589e-05,3
188355132,188354739,0.43380597,0.03229322,0.002746884,0.9004232,1.0,4.081458e-10,-1.9418405e-09,-7.498589e-05,3
188854840,188854307,0.43390986,0.032189224,0.0024888993,0.9003777,1.0,4.081458e-10,-1.9418405e-09,-7.498589e-05,3
189354393,189354001,0.43407497,0.03237659,0.002862493,0.9002903,1.0,4.081458e-10,-1.9418405e-09,-7.498589e-05,3
189854043,189853569,0.43420082,0.032452814,0.0029423232,0.90022665,1.0,4.081458e-10,-1.9418405e-09,-7.498589e-05,3
190353534,190353137,0.43434805,0.03264859,0.0032335196,0.9001475,1.0,4.081458e-10,-1.9418405e-09,-7.498589e-05,3
