timestamp,timestamp_sample,states[0],states[1],states[2],states[3],states[4],states[5],states[6],states[7],states[8],states[9],states[10],states[11],states[12],states[13],states[14],states[15],states[16],states[17],states[18],states[19],states[20],states[21],states[22],states[23],covariances[0],covariances[1],covariances[2],covariances[3],covariances[4],covariances[5],covariances[6],covariances[7],covariances[8],covariances[9],covariances[10],covariances[11],covariances[12],covariances[13],covariances[14],covariances[15],covariances[16],covariances[17],covariances[18],covariances[19],covariances[20],covariances[21],covariances[22],covariances[23],n_states
17658614,17558190,0.47584105,0.007806046,-0.013295142,0.8793962,0.00029374025,-0.0024280574,0.0009076097,-0.06411817,-0.006420646,-0.9411027,5.0425613e-05,-4.170008e-05,-7.766891e-06,2.708805e-05,3.2950487e-05,0.00011546483,0.1832185,-0.03303607,0.37075096,0.0,0.0,0.0,0.0,0.0,0.00036456797,3.927821e-05,3.920272e-05,0.00010726758,0.00025848058,0.00025848224,0.0002509389,0.00866218,0.008662179,0.03928959,3.325657e-11,3.197863e-11,2.9513598e-09,1.4142147e-06,1.4146984e-06,5.0000896e-08,0.0,0.0,0.0,0.0,0.0,0.0,0.0,0.0,24
18657696,18557284,0.47584403,0.008050274,-0.012936796,0.8793978,0.0012477313,-0.001215379,-1.1628029e-05,-0.08097785,-0.006832613,-0.9415503,5.0460956e-05,-4.157854e-05,-7.607446e-06,2.8447179e-05,3.2897136e-05,0.0001294568,0.1832185,-0.03303607,0.37075096,0.0,0.0,0.0,0.0,0.0,0.0003383426,3.911791e-05,3.9052098e-05,9.951256e-05,0.00018548648,0.00018549223,0.00018180412,0.0067853015,0.0067853,0.03692443,3.0307177e-11,2.9266624e-11,2.3923616e-09,1.4138592e-06,1.4143366e-06,5.000106e-08,0.0,0.0,0.0,0.0,0.0,0.0,0.0,0.0,24
19656795,19556379,0.47564155,0.007971825,-0.013168812,0.87950456,-8.637353e-05,9.435063e-05,0.00017110491,-0.096066765,-0.0079176305,-0.94282526,5.049222e-05,-4.1447893e-05,-7.464738e-06,3.006551e-05,3.3119763e-05,0.00013873099,0.1832185,-0.03303607,0.37075096,0.0,0.0,0.0,0.0,0.0,0.00032156796,3.89873e-05,3.8920673e-05,9.444259e-05,0.00011643629,0.00011643744,0.00011505325,0.0055783666,0.0055783647,0.034828905,2.8024258e-11,2.7152352e-11,1.9934032e-09,1.4135554e-06,1.4140254e-06,5.0000807e-08,0.0,0.0,0.0,0.0,0.0,0.0,0.0,0.0,24
20656262,20555600,0.47538555,0.007877744,-0.013577853,0.87963754,0.00033121154,-0.00016219768,0.00017042187,-0.10906252,-0.010547813,-0.949194,5.047891e-05,-4.141487e-05,-7.4400195e-06,3.0334822e-05,3.3330856e-05,0.00014174735,0.1832185,-0.03303607,0.37075096,0.0,0.0,0.0,0.0,0.0,0.00030106748,3.8864782e-05,3.8798284e-05,8.829994e-05,5.098078e-05,5.098132e-05,5.0727398e-05,0.004737425,0.004737423,0.032959357,2.617935e-11,2.5454205e-11,1.6573848e-09,1.4132818e-06,1.4137489e-06,5.000036e-08,0.0,0.0,0.0,0.0,0.0,0.0,0.0,0.0,24
21655134,21554697,0.4753744,0.0079092905,-0.013286931,0.87964773,0.0010398028,-0.00071428873,0.0006445148,-0.1211074,-0.014521626,-0.9520655,5.055769e-05,-4.1567542e-05,-7.288519e-06,2.9077804e-05,3.236704e-05,0.0001437801,0.1832185,-0.03303607,0.37075096,0.0,0.0,0.0,0.0,0.0,0.00028320207,3.896324e-05,3.8903505e-05,8.302333e-05,0.00027163854,0.0002716501,0.0002650725,0.0041203597,0.0041203587,0.031363282,2.5117467e-11,2.4522998e-11,1.394338e-09,1.413119e-06,1.4135867e-06,5.0000896e-08,0.0,0.0,0.0,0.0,0.0,0.0,0.0,0.0,24
22664337,22563786,0.47540742,0.007924639,-0.01323386,0.8796305,0.0013618227,-0.00063703104,-0.00022104895,-0.13106339,-0.019728549,-0.9551774,5.0537645e-05,-4.1554784e-05,-7.1015215e-06,2.9207526e-05,3.2648895e-05,0.00014835224,0.1832185,-0.03303607,0.37075096,0.0,0.0,0.0,0.0,0.0,0.0002716845,3.8876056e-05,3.8819268e-05,7.962367e-05,0.00021316789,0.00021317754,0.00020918463,0.0036436894,0.003643688,0.029838862,2.3875773e-11,2.336479e-11,1.1970426e-09,1.4129605e-06,1.4134228e-06,5.0001134e-08,0.0,0.0,0.0,0.0,0.0,0.0,0.0,0.0,24
23663477,23563010,0.47470117,0.008097266,-0.013097765,0.88001233,0.0012533781,-0.0005428216,0.0001752553,-0.13859756,-0.026722377,-0.9576443,5.0483497e-05,-4.1436575e-05,-8.286518e-06,3.0043355e-05,3.2941556e-05,0.00014965101,0.1832185,-0.03303607,0.37075096,0.0,0.0,0.0,0.0,0.0,0.00025668225,3.8781614e-05,3.8729017e-05,7.523041e-05,0.00014325675,0.000143262,0.0001414934,0.003266753,0.0032667515,0.028456436,2.2832763e-11,2.2391847e-11,1.0239632e-09,1.412818e-06,1.4132819e-06,5.000099e-08,0.0,0.0,0.0,0.0,0.0,0.0,0.0,0.0,24
24662786,24562113,0.46965298,0.008429322,-0.013334453,0.8827102,0.00031131314,-0.0010283367,-8.909044e-05,-0.1447075,-0.034016214,-0.9585088,5.0340688e-05,-4.145801e-05,-1.589537e-05,2.9765783e-05,3.0886724e-05,0.00014639227,0.1832185,-0.03303607,0.37075096,0.0,0.0,0.0,0.0,0.0,0.0002469402,3.8696176e-05,3.864277e-05,7.2080176e-05,7.666567e-05,7.666505e-05,7.616644e-05,0.0029616798,0.0029616791,0.02719737,2.1958943e-11,2.1583315e-11,8.9236446e-10,1.4124805e-06,1.4129517e-06,5.0000537e-08,0.0,0.0,0.0,0.0,0.0,0.0,0.0,0.0,24
25661623,25561210,0.46497157,0.008007294,-0.013540127,0.88518584,0.00042667476,-0.0006345811,0.00025398517,-0.15093726,-0.040170822,-0.9586363,5.0114268e-05,-4.2181517e-05,-2.1534543e-05,2.1688507e-05,1.3479742e-05,0.00014455803,0.1832185,-0.03303607,0.37075096,0.0,0.0,0.0,0.0,0.0,0.00023433809,3.8588445e-05,3.8536265e-05,6.778875e-05,1.3299224e-05,1.3298871e-05,1.3284365e-05,0.002709738,0.0027097382,0.026045691,2.1194952e-11,2.0896021e-11,7.736005e-10,1.4110631e-06,1.4120163e-06,5.000009e-08,0.0,0.0,0.0,0.0,0.0,0.0,0.0,0.0,24
26660809,26560311,0.46350846,0.008801026,-0.014315035,0.88593316,-0.010834919,0.013920601,-0.0012035538,-0.15745832,-0.044875015,-0.96080285,5.020296e-05,-4.0667077e-05,-2.2471637e-05,3.696996e-05,5.1210485e-05,0.00015189445,0.1832185,-0.03303607,0.37075096,0.0,0.0,0.0,0.0,0.0,0.0002224119,3.8670412e-05,3.863168e-05,6.386384e-05,0.00022736005,0.00022725649,0.0002230217,0.002499069,0.0024990714,0.024989035,2.0935429e-11,2.0622636e-11,6.743603e-10,1.4088043e-06,1.4111441e-06,5.0001088e-08,0.0,0.0,0.0,0.0,0.0,0.0,0.0,0.0,24
27659913,27559416,0.4623167,0.009021304,-0.013931406,0.88655955,-0.0008461538,0.0020373326,0.0003243261,-0.16051419,-0.051504884,-0.9615657,5.0425682e-05,-4.0999163e-05,-2.2990027e-05,3.941809e-05,4.212475e-05,0.0001479061,0.1832185,-0.03303607,0.37075096,0.0,0.0,0.0,0.0,0.0,0.00021262682,3.857133e-05,3.8545008e-05,6.0593968e-05,0.00015675549,0.00015675373,0.00015479678,0.0023174968,0.0023174982,0.024060197,2.0376529e-11,2.0116983e-11,5.9375044e-10,1.4076782e-06,1.4104294e-06,5.0001063e-08,0.0,0.0,0.0,0.0,0.0,0.0,0.0,0.0,24
28658996,28558517,0.46133325,0.009266677,-0.013735909,0.8870723,-0.0020109434,-0.00029369895,0.00010212002,-0.16227718,-0.05846707,-0.9602542,5.039615e-05,-4.1150237e-05,-2.3340603e-05,3.8188602e-05,3.9610506e-05,0.000151456,0.1832185,-0.03303607,0.37075096,0.0,0.0,0.0,0.0,0.0,0.00020413197,3.8501075e-05,3.847896e-05,5.7776804e-05,8.965396e-05,8.965859e-05,8.902048e-05,0.0021616016,0.0021616025,0.023155022,1.9905222e-11,1.9676758e-11,5.2672616e-10,1.40721e-06,1.4100287e-06,5.000063e-08,0.0,0.0,0.0,0.0,0.0,0.0,0.0,0.0,24
29658038,29557621,0.46044618,0.009493943,-0.013270524,0.88753766,-0.0016635524,-0.00036526,-9.628493e-05,-0.16183715,-0.06512129,-0.96106964,5.051052e-05,-4.1274172e-05,-2.3632945e-05,3.8835347e-05,3.718109e-05,0.00014896924,0.1832185,-0.03303607,0.37075096,0.0,0.0,0.0,0.0,0.0,0.00019858363,3.843247e-05,3.8414844e-05,5.584816e-05,2.5716681e-05,2.571926e-05,2.5664775e-05,0.0020262564,0.002026256,0.022316184,1.9501128e-11,1.929775e-11,4.7364973e-10,1.4069652e-06,1.4097874e-06,5.000018e-08,0.0,0.0,0.0,0.0,0.0,0.0,0.0,0.0,24
30657167,30556725,0.45950764,0.009392598,-0.013758149,0.8880176,0.00068215746,0.0021418654,-0.000509128,-0.16130063,-0.071144484,-0.9622179,5.0693663e-05,-4.1214767e-05,-2.3651128e-05,4.0772746e-05,3.6637786e-05,0.00014938919,0.1832185,-0.03303607,0.37075096,0.0,0.0,0.0,0.0,0.0,0.00019130058,3.8553022e-05,3.8530907e-05,5.339305e-05,0.00024123705,0.00024124142,0.00023686819,0.0019088634,0.0019088624,0.021537812,1.9411254e-11,1.9227009e-11,4.2440057e-10,1.4068139e-06,1.4096632e-06,5.0000896e-08,0.0,0.0,0.0,0.0,0.0,0.0,0.0,0.0,24
31666274,31565696,0.45868298,0.009165682,-0.013819551,0.88844526,-0.0016570034,-1.3151821e-06,-6.6147084e-05,-0.1603778,-0.07697537,-0.9625187,5.078451e-05,-4.1363543e-05,-2.3625073e-05,4.0753537e-05,3.494499e-05,0.00014938884,0.1832185,-0.03303607,0.37075096,0.0,0.0,0.0,0.0,0.0,0.00018660583,3.8503615e-05,3.8480164e-05,5.171724e-05,0.00018431005,0.00018431565,0.00018177394,0.0018025495,0.001802549,0.020809798,1.910481e-11,1.8938823e-11,3.847459e-10,1.4066889e-06,1.4095048e-06,5.0001145e-08,0.0,0.0,0.0,0.0,0.0,0.0,0.0,0.0,24
32655348,32554936,0.4581519,0.008459008,-0.015304882,0.888702,4.312778e-05,-0.0021756815,-0.0004952452,-0.1584272,-0.0814974,-0.9631759,5.089201e-05,-4.1464595e-05,-2.3427096e-05,4.090234e-05,3.3576405e-05,0.00015033057,0.1832185,-0.03303607,0.37075096,0.0,0.0,0.0,0.0,0.0,0.00017981468,3.8451715e-05,3.8416933e-05,4.954081e-05,0.00010278699,0.00010278396,0.00010198181,0.0017081011,0.0017081008,0.020163065,1.881529e-11,1.8665782e-11,3.4745318e-10,1.406615e-06,1.409371e-06,5.000072e-08,0.0,0.0,0.0,0.0,0.0,0.0,0.0,0.0,24
33664522,33564033,0.4579094,0.0084278835,-0.015015294,0.8888321,0.00013238497,-0.0016857666,0.00057777984,-0.15688635,-0.08573799,-0.96244925,5.0965544e-05,-4.1538962e-05,-2.3165472e-05,4.090975e-05,3.360636e-05,0.00014895205,0.1832185,-0.03303607,0.37075096,0.0,0.0,0.0,0.0,0.0,0.00017384722,3.8400198e-05,3.8370585e-05,4.7678586e-05,5.09102e-05,5.0907885e-05,5.0715415e-05,0.0016240901,0.001624091,0.019525075,1.8576909e-11,1.8441762e-11,3.1511707e-10,1.4065504e-06,1.4092109e-06,5.000036e-08,0.0,0.0,0.0,0.0,0.0,0.0,0.0,0.0,24
34663612,34563140,0.45678943,0.0095476825,-0.013083381,0.88942736,0.0016417864,0.0050425315,-0.000111466026,-0.154757,-0.09018699,-0.96395105,5.1175182e-05,-4.1388652e-05,-2.352042e-05,4.1714706e-05,3.2781772e-05,0.00015138897,0.1832185,-0.03303607,0.37075096,0.0,0.0,0.0,0.0,0.0,0.00016969489,3.850913e-05,3.849661e-05,4.625189e-05,0.0002702579,0.0002702493,0.00026496817,0.0015507726,0.0015507728,0.018928926,1.8599353e-11,1.8473804e-11,2.886989e-10,1.4065257e-06,1.409154e-06,5.0000896e-08,0.0,0.0,0.0,0.0,0.0,0.0,0.0,0.0,24
35662681,35562248,0.4493466,0.006147583,-0.012359758,0.8932509,-0.0029122904,0.009127532,-0.0077104396,-0.1524696,-0.095182605,-0.9648603,5.1027957e-05,-4.4907156e-05,-2.7921425e-05,2.7551374e-05,-2.9809096e-05,0.0001689,0.1832185,-0.03303607,0.37075096,0.0,0.0,0.0,0.0,0.0,0.00016330634,3.8368456e-05,3.8403963e-05,4.356885e-05,0.000198468,0.0001984651,0.00019550102,0.0014804766,0.0014804733,0.018364495,1.8338909e-11,1.8285136e-11,2.6210914e-10,1.4015365e-06,1.4087584e-06,5.000103e-08,0.0,0.0,0.0,0.0,0.0,0.0,0.0,0.0,24
36661775,36561356,0.42682257,0.0039583645,-0.016291264,0.90418,-0.40017852,0.45897996,0.0107997,-0.28142583,0.045705196,-0.9598457,5.0741124e-05,-4.688628e-05,-4.188868e-05,2.0490397e-05,-0.00013235299,0.00012654068,0.1832185,-0.03303607,0.37075096,0.0,0.0,0.0,0.0,0.0,0.00015830058,3.867887e-05,3.877161e-05,4.0012554e-05,0.0013803258,0.0013282134,0.0011995308,0.0016162855,0.0016127211,0.01804609,1.8817715e-11,1.8796948e-11,2.3885416e-10,1.3965243e-06,1.4076093e-06,5.000079e-08,0.0,0.0,0.0,0.0,0.0,0.0,0.0,0.0,24
37661159,37560465,0.42400566,-0.019993871,-0.021996137,0.9051716,-0.41273096,0.6899875,-0.106728174,-0.26708132,0.18022661,-1.0147622,5.4523895e-05,-7.052521e-05,-4.1474894e-05,0.00038951868,-0.002849072,7.45966e-05,0.1832185,-0.03303607,0.37075096,0.0,0.0,0.0,0.0,0.0,0.00011325977,3.5197812e-05,3.82628e-05,2.7717044e-05,0.0009792973,0.0010702951,0.000915477,0.00157839,0.0016566494,0.01759077,1.8753528e-11,1.8606503e-11,1.8069268e-10,1.2670369e-06,1.3905969e-06,5.000081e-08,0.0,0.0,0.0,0.0,0.0,0.0,0.0,0.0,24
38660019,38559577,0.40503666,-0.018862056,-0.0212922,0.9138579,-1.3170732,1.677578,-0.12663455,-1.1978707,1.386452,-1.09618,5.481965e-05,-6.984669e-05,-5.550947e-05,0.0005710849,-0.0028083157,5.122056e-05,0.1832185,-0.03303607,0.37075096,0.0,0.0,0.0,0.0,0.0,0.00011518335,3.568116e-05,3.9093018e-05,2.7273149e-05,0.0045019654,0.00474801,0.003503755,0.004241937,0.0046670134,0.01934591,1.9735583e-11,1.9596174e-11,1.724608e-10,1.2545472e-06,1.3895454e-06,5.0000178e-08,0.0,0.0,0.0,0.0,0.0,0.0,0.0,0.0,24
39659172,39558690,0.3880471,-0.020126926,-0.023862036,0.9211108,-2.0455875,2.512709,-0.13834436,-2.9484026,3.4782941,-1.1794698,5.521317e-05,-6.952367e-05,-6.846719e-05,0.00087713765,-0.0027427247,-7.021874e-06,0.1832185,-0.03303607,0.37075096,0.0,0.0,0.0,0.0,0.0,0.00011601938,3.5521207e-05,4.002257e-05,2.667831e-05,0.010748541,0.011119644,0.006309206,0.018907292,0.020295214,0.027365588,2.0718384e-11,2.0585054e-11,1.6389984e-10,1.2178361e-06,1.3864106e-06,5.000007e-08,0.0,0.0,0.0,0.0,0.0,0.0,0.0,0.0,24
40658332,40557802,0.37388477,-0.02061817,-0.025693724,0.92688996,-2.579574,3.2062058,-0.10616858,-5.3672915,6.282982,-1.1779808,5.5509605e-05,-6.918786e-05,-7.962421e-05,0.0012602666,-0.002645844,-9.9893725e-05,0.1832185,-0.03303607,0.37075096,0.0,0.0,0.0,0.0,0.0,0.000116514304,3.5083405e-05,4.1037787e-05,2.6134854e-05,0.02033608,0.020651223,0.008178453,0.0626406,0.06578852,0.042017564,2.1702336e-11,2.1571042e-11,1.557434e-10,1.170708e-06,1.3820287e-06,5e-08,0.0,0.0,0.0,0.0,0.0,0.0,0.0,0.0,24
41657462,41557040,0.36270067,-0.016674867,-0.022271458,0.9314903,-2.852419,3.7710514,-0.10481462,-8.200353,9.723177,-1.1321963,5.572661e-05,-6.892341e-05,-8.788325e-05,0.0015473028,-0.0025729344,-0.00018126446,0.1832185,-0.03303607,0.37075096,0.0,0.0,0.0,0.0,0.0,0.00011762308,3.497835e-05,4.2092466e-05,2.5700898e-05,0.034156974,0.03406359,0.008909586,0.16273528,0.16753091,0.059684373,2.2689585e-11,2.2556602e-11,1.4862042e-10,1.1318374e-06,1.3786389e-06,5.000036e-08,0.0,0.0,0.0,0.0,0.0,0.0,0.0,0.0,24
42656568,42556153,0.3571468,-0.034016035,-0.011997273,0.9333516,-2.3977733,3.6313317,-0.6109145,-10.972862,13.507558,-1.3245001,5.5752585e-05,-6.884628e-05,-8.957166e-05,0.0016621114,-0.0025399604,-0.00021172002,0.1832185,-0.03303607,0.37075096,0.0,0.0,0.0,0.0,0.0,0.00011774508,3.5574893e-05,4.3558746e-05,2.4816878e-05,0.052897003,0.052689165,0.0087722065,0.35757226,0.36350742,0.0759422,2.3678127e-11,2.3546002e-11,1.4128014e-10,1.1114474e-06,1.3767616e-06,5.000027e-08,0.0,0.0,0.0,0.0,0.0,0.0,0.0,0.0,24
43655785,43555267,0.38223752,-0.05353227,0.0039671906,0.92250377,0.042329706,-0.076036416,0.027890602,-7.1976514,7.432617,-0.75014806,4.6579513e-05,-8.7717905e-05,-6.67918e-05,0.0009516286,-0.0032009974,-0.00077297084,0.1832185,-0.03303607,0.37075096,0.0,0.0,0.0,0.0,0.0,8.949849e-05,2.890833e-05,3.6098023e-05,1.8080422e-05,5.191852e-05,5.736234e-05,5.0828072e-05,0.05524506,0.056373715,0.036949925,1.8856396e-11,1.8962573e-11,1.1508656e-10,1.031164e-06,1.3083618e-06,5.000018e-08,0.0,0.0,0.0,0.0,0.0,0.0,0.0,0.0,24
44664942,44564373,0.40028378,-0.025039356,-0.014176068,0.9159394,0.00039851593,-0.0010898899,-0.00013921323,-5.7233086,6.266708,-0.67615974,5.073629e-05,-4.639271e-05,-4.685891e-05,0.00021350996,-0.004323557,-0.00019303746,0.1832185,-0.03303607,0.37075096,0.0,0.0,0.0,0.0,0.0,6.827793e-05,2.7682632e-05,3.5565918e-05,1.3416019e-05,1e-06,1.0067015e-06,1e-06,0.044703357,0.046461772,0.03438095,1.8414478e-11,1.8457966e-11,9.780967e-11,9.617047e-07,1.2971523e-06,5e-08,0.0,0.0,0.0,0.0,0.0,0.0,0.0,0.0,24
45653984,45553496,0.39440608,-0.010772007,-0.01827607,0.91869134,0.041425664,-0.010247781,0.02031185,-5.3059144,6.0049324,-0.6776967,4.860888e-05,-3.0615494e-05,-4.4458222e-05,0.0003767935,-0.003996476,2.0001211e-05,0.1832185,-0.03303607,0.37075096,0.0,0.0,0.0,0.0,0.0,6.996942e-05,2.7320228e-05,3.539299e-05,1.3025592e-05,0.00019877813,0.00019876409,0.00019546782,0.042897083,0.044601668,0.0324999,1.8430651e-11,1.8374953e-11,9.543538e-11,9.4011006e-07,1.2927602e-06,5.000042e-08,0.0,0.0,0.0,0.0,0.0,0.0,0.0,0.0,24
46663091,46562603,0.39846903,-0.006597357,-0.018924702,0.91696286,-0.0027892457,-0.04176179,-0.0015725653,-5.2032127,5.8399053,-0.7286913,5.5245175e-05,-2.2145816e-05,-3.6823923e-05,0.00028316127,-0.003996463,3.3004046e-05,0.1832185,-0.03303607,0.37075096,0.0,0.0,0.0,0.0,0.0,7.072872e-05,2.7011014e-05,3.483749e-05,1.2900465e-05,0.00014328545,0.00014330994,0.00014145533,0.04172771,0.043963388,0.030820038,1.821245e-11,1.8331522e-11,9.210649e-11,9.3090864e-07,1.2839635e-06,5.000063e-08,0.0,0.0,0.0,0.0,0.0,0.0,0.0,0.0,24
47662216,47561718,0.40474916,-0.006282757,-0.024698198,0.91407263,-0.007138386,0.0024077701,-0.002430608,-5.190294,5.7571282,-0.78819835,5.8097412e-05,-1.7316079e-05,-3.6883863e-05,0.0001570571,-0.003989565,-1.5963504e-05,0.1832185,-0.03303607,0.37075096,0.0,0.0,0.0,0.0,0.0,7.217818e-05,2.6679996e-05,3.4554672e-05,1.3716152e-05,7.668567e-05,7.672147e-05,7.610588e-05,0.041325472,0.04362053,0.029327469,1.7972e-11,1.8195162e-11,9.003358e-11,9.238665e-07,1.2786427e-06,5.00005e-08,0.0,0.0,0.0,0.0,0.0,0.0,0.0,0.0,24
48661577,48560834,0.40779024,-0.0039206212,-0.030333817,0.9125632,-0.00048221316,0.0045550144,0.00030375505,-5.225114,5.735589,-0.8434035,5.6253528e-05,-1.9001956e-05,-4.1701485e-05,0.00020386642,-0.0038714812,0.00012187363,0.1832185,-0.03303607,0.37075096,0.0,0.0,0.0,0.0,0.0,7.229863e-05,2.6423786e-05,3.4314395e-05,1.4392308e-05,1.3308506e-05,1.3298673e-05,1.3283549e-05,0.04114261,0.043306578,0.027979767,1.7690786e-11,1.7948323e-11,8.7300556e-11,9.1480587e-07,1.2676763e-06,5.0000093e-08,0.0,0.0,0.0,0.0,0.0,0.0,0.0,0.0,24
49660390,49559951,0.40399158,-0.0013954164,-0.025674243,0.91440135,0.061185103,0.030149214,-0.0015811931,-5.229023,5.7525797,-0.8832988,4.8266807e-05,-2.362542e-05,-4.624548e-05,0.0005523835,-0.0033274002,0.00016740525,0.1832185,-0.03303607,0.37075096,0.0,0.0,0.0,0.0,0.0,7.10927e-05,2.624159e-05,3.386658e-05,1.4162119e-05,0.0002271205,0.00022786784,0.00022325032,0.040937085,0.042874966,0.026751444,1.7701144e-11,1.7855292e-11,8.3637285e-11,9.06731e-07,1.2507954e-06,5.0000583e-08,0.0,0.0,0.0,0.0,0.0,0.0,0.0,0.0,24
50660327,50559067,0.39218837,0.0013717859,-0.020211998,0.91966194,0.014224651,-0.028664393,-0.008336114,-5.2258625,5.7463202,-0.94210345,4.3013893e-05,-2.2223729e-05,-4.7817703e-05,0.0006174271,-0.0033391905,6.468381e-05,0.1832185,-0.03303607,0.37075096,0.0,0.0,0.0,0.0,0.0,7.3126685e-05,2.5955116e-05,3.3460612e-05,1.371073e-05,0.00015700406,0.00015669531,0.00015490684,0.040777408,0.04263287,0.025628952,1.7606442e-11,1.770224e-11,8.169728e-11,9.021412e-07,1.2445884e-06,5.0000995e-08,0.0,0.0,0.0,0.0,0.0,0.0,0.0,0.0,24
51659011,51558184,0.39453354,0.0033509803,-0.026826799,0.91848373,-0.01596447,-0.020590402,-0.0013193162,-5.225112,5.736382,-0.9969375,4.8691472e-05,-1.9474932e-05,-4.758631e-05,0.0006164146,-0.0033188064,0.00026791415,0.1832185,-0.03303607,0.37075096,0.0,0.0,0.0,0.0,0.0,7.346203e-05,2.5928675e-05,3.3380853e-05,1.38869245e-05,8.972783e-05,8.9717316e-05,8.90669e-05,0.040583134,0.042424396,0.024649546,1.7564727e-11,1.7736508e-11,7.9148035e-11,8.9688183e-07,1.2372229e-06,5.00006e-08,0.0,0.0,0.0,0.0,0.0,0.0,0.0,0.0,24
52657716,52557302,0.40141565,-0.00041736427,-0.037665255,0.91512114,-6.625307,3.5025923,-0.08632227,-99.57193,56.669594,-1.1188455,4.8693928e-05,-1.9418216e-05,-4.8373608e-05,0.0005325562,-0.0033462746,0.0002715235,0.1832185,-0.03303607,0.37075096,0.0,0.0,0.0,0.0,0.0,7.489435e-05,2.6689308e-05,3.4266133e-05,1.4785897e-05,0.022516098,0.02251266,0.038847934,0.033559393,0.03355937,0.032477412,1.8556118e-11,1.8721635e-11,7.778043e-11,8.9509996e-07,1.2369469e-06,5.000069e-08,0.0,0.0,0.0,0.0,0.0,0.0,0.0,0.0,24
53656859,53556419,0.3828272,0.0026786362,-0.03072439,0.9233051,-6.3224273,3.8058624,-0.07716054,-106.04299,60.28819,-1.2887534,4.8437803e-05,-1.943928e-05,-4.8578157e-05,0.00046745976,-0.0033641371,0.0002701639,0.1832185,-0.03303607,0.37075096,0.0,0.0,0.0,0.0,0.0,7.757641e-05,2.751351e-05,3.498992e-05,1.3692339e-05,0.008043194,0.008033158,0.015956668,0.02172243,0.021721557,0.0537231,1.9467832e-11,1.9614112e-11,7.6064495e-11,8.934358e-07,1.2360877e-06,5.0000477e-08,0.0,0.0,0.0,0.0,0.0,0.0,0.0,0.0,24
54656008,54555537,0.3666373,0.0070789573,-0.026733993,0.92995286,-6.3874664,3.695943,-0.021092916,-112.40872,63.93094,-1.410393,4.782067e-05,-1.9910094e-05,-4.83776e-05,0.00040416856,-0.0033857708,0.0002605375,0.1832185,-0.03303607,0.37075096,0.0,0.0,0.0,0.0,0.0,8.0025835e-05,2.8169286e-05,3.555703e-05,1.2735661e-05,0.0062893797,0.0062831556,0.01080381,0.018532882,0.01853046,0.07183961,2.0083065e-11,2.0208675e-11,7.441461e-11,8.919323e-07,1.2355097e-06,5e-08,0.0,0.0,0.0,0.0,0.0,0.0,0.0,0.0,24
55665112,55564647,0.36678603,-0.0732718,-0.030664526,0.92690825,0.18070981,-0.063462116,0.0025928107,-108.539825,61.86132,-1.510161,6.99366e-05,-0.00010209974,-6.0891725e-05,0.0019967728,-0.0014994722,-0.0002841719,0.1832185,-0.03303607,0.37075096,0.0,0.0,0.0,0.0,0.0,7.636027e-05,2.5916326e-05,3.395861e-05,1.2799582e-05,0.0001751814,0.00017632944,0.00016815214,0.011299832,0.011348191,0.031930868,1.8437668e-11,1.8469426e-11,7.044779e-11,8.854972e-07,1.2217567e-06,5e-08,0.0,0.0,0.0,0.0,0.0,0.0,0.0,0.0,24
56654194,56553774,0.37651724,-0.08067097,-0.039261516,0.92205507,2.0071552,-0.27363884,0.19202408,-107.49502,61.65885,-1.4759524,7.0046306e-05,-0.00010215266,-5.9447877e-05,0.0019471016,-0.0015025624,-0.00030013465,0.1832185,-0.03303607,0.37075096,0.0,0.0,0.0,0.0,0.0,7.702293e-05,2.669572e-05,3.489214e-05,1.3579393e-05,0.002617917,0.0029346568,0.00195385,0.011298826,0.011525731,0.029872965,1.9414963e-11,1.9451147e-11,6.913124e-11,8.8421524e-07,1.2215568e-06,5.0000267e-08,0.0,0.0,0.0,0.0,0.0,0.0,0.0,0.0,24
57663309,57562885,0.32579812,-0.013469628,-0.012016308,0.9452671,0.03601104,-0.004839112,0.004671595,-107.717995,61.78606,-1.7725646,2.1187805e-05,-4.5994268e-05,-8.513282e-05,0.0015211699,-0.0012968732,-0.0005503696,0.1832185,-0.03303607,0.37075096,0.0,0.0,0.0,0.0,0.0,6.932781e-05,2.4781353e-05,3.3139542e-05,1.1310993e-05,8.982595e-05,8.994342e-05,8.9053974e-05,0.011119608,0.011229994,0.02820302,1.7909825e-11,1.7809806e-11,6.342727e-11,8.7479805e-07,1.1934874e-06,5.0000267e-08,0.0,0.0,0.0,0.0,0.0,0.0,0.0,0.0,24
58662433,58562004,0.32260332,-0.001835786,0.00053214905,0.94653237,0.004729024,-0.0040804115,-0.0010831184,-107.662254,61.740116,-1.8075241,2.0213654e-05,-3.6295234e-05,-7.6641256e-05,0.0013645807,-0.00013378583,-0.0005732365,0.1832185,-0.03303607,0.37075096,0.0,0.0,0.0,0.0,0.0,6.964505e-05,2.4333678e-05,3.2241882e-05,1.0175983e-05,2.5725009e-05,2.5734984e-05,2.5668807e-05,0.011084806,0.011166125,0.02683713,1.779757e-11,1.7838292e-11,6.153573e-11,8.619367e-07,1.1759746e-06,5.0000178e-08,0.0,0.0,0.0,0.0,0.0,0.0,0.0,0.0,24
59661547,59561124,0.33954617,0.0053130817,-0.0010400657,0.9405738,0.008694408,-0.08635917,0.023674594,-107.65382,61.67283,-1.821848,2.7078917e-05,-2.874574e-05,-6.361224e-05,0.0015454515,0.0004295973,-0.0004454034,0.1832185,-0.03303607,0.37075096,0.0,0.0,0.0,0.0,0.0,6.9017005e-05,2.4412046e-05,3.2236643e-05,9.840346e-06,0.00024145668,0.00024155095,0.00023703332,0.01107452,0.011139677,0.02565381,1.7981143e-11,1.8090092e-11,5.97274e-11,8.568234e-07,1.1703564e-06,5.000056e-08,0.0,0.0,0.0,0.0,0.0,0.0,0.0,0.0,24
60660721,60560244,0.36243072,0.00677882,-0.012030304,0.9319085,0.014762875,0.01850711,-0.0035572152,-107.65202,61.652287,-1.8380283,3.1808308e-05,-2.3837161e-05,-5.8219015e-05,0.0013921285,0.0003598888,-0.00012668896,0.1832185,-0.03303607,0.37075096,0.0,0.0,0.0,0.0,0.0,6.823343e-05,2.4399777e-05,3.209926e-05,1.0638343e-05,0.00017128568,0.00017076977,0.00016839938,0.011073545,0.011130925,0.024599899,1.7826107e-11,1.7976566e-11,5.848342e-11,8.5257165e-07,1.1627438e-06,5.0000924e-08,0.0,0.0,0.0,0.0,0.0,0.0,0.0,0.0,24
61659785,61559364,0.35668147,0.014595344,-0.005960348,0.9340931,0.026157033,0.022992026,0.005220244,-107.64291,61.670113,-1.8356761,2.0542711e-05,-2.4520206e-05,-6.1965875e-05,0.002213095,0.0005655519,-0.00014225442,0.1832185,-0.03303607,0.37075096,0.0,0.0,0.0,0.0,0.0,6.678193e-05,2.4044486e-05,3.0996718e-05,1.0386209e-05,0.0001029174,0.00010281179,0.000102224076,0.011076366,0.0111297,0.023688667,1.7622622e-11,1.770677e-11,5.6694677e-11,8.440887e-07,1.1290501e-06,5.000071e-08,0.0,0.0,0.0,0.0,0.0,0.0,0.0,0.0,24
62658908,62558484,0.3405945,0.020808287,0.0059363064,0.93996125,-0.02406015,-0.13404539,0.0334567,-107.61123,61.660152,-1.840622,1.8369654e-05,-2.421293e-05,-6.039319e-05,0.0022960405,0.0005590992,-0.000103461825,0.1832185,-0.03303607,0.37075096,0.0,0.0,0.0,0.0,0.0,6.9194815e-05,2.468965e-05,3.1485244e-05,9.528863e-06,0.0015873471,0.001587855,0.001419103,0.011406824,0.011453974,0.023050955,1.8398283e-11,1.8477789e-11,5.6177125e-11,8.429002e-07,1.1241469e-06,5.0000587e-08,0.0,0.0,0.0,0.0,0.0,0.0,0.0,0.0,24
63658238,63557605,0.34438515,0.021892127,8.7240354e-05,0.9385732,-0.03676363,-0.045754787,-0.0057925708,-107.565056,61.72917,-1.8651314,2.885144e-05,-2.2613e-05,-5.7232082e-05,0.0024042637,0.00050368137,-4.3491524e-05,0.1832185,-0.03303607,0.37075096,0.0,0.0,0.0,0.0,0.0,6.8943984e-05,2.4069812e-05,3.0790143e-05,9.327383e-06,0.0001988237,0.00019882247,0.00019564961,0.01130944,0.011373025,0.022183955,1.7704624e-11,1.782056e-11,5.4962174e-11,8.413055e-07,1.1230607e-06,5.000103e-08,0.0,0.0,0.0,0.0,0.0,0.0,0.0,0.0,24
64657214,64556726,0.35441354,0.019153362,-0.007905285,0.9348593,0.0063842162,0.00569323,0.0037706958,-107.56614,61.72411,-1.8795172,3.4224788e-05,-2.1992933e-05,-5.5875378e-05,0.0023471585,0.00043915224,-0.00010668647,0.1832185,-0.03303607,0.37075096,0.0,0.0,0.0,0.0,0.0,6.938753e-05,2.3925319e-05,3.061075e-05,9.826643e-06,0.00012945019,0.0001294203,0.00012825755,0.011313066,0.011373542,0.021410873,1.761657e-11,1.7744979e-11,5.43028e-11,8.397402e-07,1.1207869e-06,5.000087e-08,0.0,0.0,0.0,0.0,0.0,0.0,0.0,0.0,24
65656348,65555847,0.35348645,0.024059875,-0.005176585,0.9351159,0.0019103197,0.0033878242,0.002244883,-107.56409,61.723408,-1.8854208,3.0040716e-05,-2.1722859e-05,-5.404646e-05,0.002528457,0.00045438518,0.00010853619,0.1832185,-0.03303607,0.37075096,0.0,0.0,0.0,0.0,0.0,7.0146154e-05,2.3891147e-05,3.0511335e-05,9.712395e-06,6.36812e-05,6.3676576e-05,6.340007e-05,0.011317504,0.011375458,0.020725636,1.7519331e-11,1.7591822e-11,5.3552596e-11,8.370833e-07,1.1136913e-06,5.0000423e-08,0.0,0.0,0.0,0.0,0.0,0.0,0.0,0.0,24
66665378,66564960,0.34371194,0.025909165,-0.0004374977,0.9387176,-0.004851473,-0.0026193867,0.000751982,-107.563255,61.721443,-1.894804,3.3446526e-05,-2.3731229e-05,-5.288243e-05,0.0025664405,0.0004289604,0.00018994886,0.1832185,-0.03303607,0.37075096,0.0,0.0,0.0,0.0,0.0,7.1454684e-05,2.383507e-05,3.034856e-05,9.138322e-06,1.32973355e-05,1.3302601e-05,1.3285834e-05,0.011322231,0.011377866,0.02005126,1.7464046e-11,1.7548428e-11,5.289574e-11,8.362229e-07,1.1107414e-06,5.000009e-08,0.0,0.0,0.0,0.0,0.0,0.0,0.0,0.0,24
67654905,67554090,0.34717205,0.02043031,-0.008668673,0.9375389,-0.015913513,0.0069146445,0.00088260137,-107.56791,61.718533,-1.9022208,4.1719995e-05,-2.5708174e-05,-5.2993884e-05,0.002604976,0.00031908203,-5.475575e-05,0.1832185,-0.03303607,0.37075096,0.0,0.0,0.0,0.0,0.0,7.103023e-05,2.3738345e-05,3.0149902e-05,9.236459e-06,0.00021237181,0.00021229671,0.00020918278,0.01132765,0.011379883,0.019420905,1.760435e-11,1.7738e-11,5.194655e-11,8.350991e-07,1.1055764e-06,5.0000914e-08,0.0,0.0,0.0,0.0,0.0,0.0,0.0,0.0,24
68663681,68563205,0.35301852,0.020248234,-0.011583193,0.93532556,0.024537493,0.041206453,0.0075725084,-107.56637,61.717266,-1.9062096,4.0913146e-05,-2.8470104e-05,-5.1427993e-05,0.0026434357,0.000402846,8.1007915e-05,0.1832185,-0.03303607,0.37075096,0.0,0.0,0.0,0.0,0.0,7.1855175e-05,2.3747061e-05,3.0188527e-05,9.565582e-06,0.00015708662,0.00015683855,0.0001550846,0.011331482,0.011381968,0.018827535,1.7543977e-11,1.7637055e-11,5.1526377e-11,8.337028e-07,1.1035459e-06,5.000097e-08,0.0,0.0,0.0,0.0,0.0,0.0,0.0,0.0,24
69662753,69562329,0.341962,0.025306167,-0.004402793,0.9393627,0.036791522,0.11225829,-0.0015407181,-204.19194,118.73347,-1.9095999,3.715737e-05,-2.9834067e-05,-4.943803e-05,0.0027579379,0.00045792476,0.00014628259,0.1832185,-0.03303607,0.37075096,0.0,0.0,0.0,0.0,0.0,7.260305e-05,2.4210918e-05,3.0518702e-05,8.817495e-06,0.00077367644,0.0007715966,0.00071659783,0.03599922,0.03599911,0.018319748,1.8109693e-11,1.81689e-11,5.0760156e-11,8.328455e-07,1.0989331e-06,5.0000722e-08,0.0,0.0,0.0,0.0,0.0,0.0,0.0,0.0,24
70661869,70561453,0.33835232,0.028456112,0.00070603215,0.9405889,-0.34098208,-0.1843568,0.007870497,-204.33469,118.70813,-1.9003115,3.7158225e-05,-2.986332e-05,-4.807857e-05,0.0027516787,0.00044857746,0.00013152297,0.1832185,-0.03303607,0.37075096,0.0,0.0,0.0,0.0,0.0,7.3862626e-05,2.5046464e-05,3.1346626e-05,8.642446e-06,0.0036730098,0.0036738508,0.002765357,0.03813002,0.038130596,0.01950709,1.9106085e-11,1.9164599e-11,5.037797e-11,8.3247215e-07,1.0988197e-06,5.000045e-08,0.0,0.0,0.0,0.0,0.0,0.0,0.0,0.0,24
71661001,71560580,0.3463065,0.02109661,-0.011684717,0.9378114,0.016054697,0.019802038,0.0014153295,-204.09436,118.837776,-1.9027824,4.6893074e-05,-3.2640535e-05,-4.8790964e-05,0.0028962349,0.00033885485,-2.936863e-05,0.1832185,-0.03303607,0.37075096,0.0,0.0,0.0,0.0,0.0,7.3622694e-05,2.358509e-05,2.9901717e-05,9.110668e-06,0.00017066092,0.00017072255,0.00016830741,0.036314934,0.036313042,0.017597903,1.7588582e-11,1.7687777e-11,4.9754097e-11,8.3092044e-07,1.0952642e-06,5.0000992e-08,0.0,0.0,0.0,0.0,0.0,0.0,0.0,0.0,24
72660118,72559701,0.34889832,0.022695685,-0.010555731,0.9368263,0.0039815963,0.0061525097,-0.0024604774,-204.09161,118.83935,-1.9017084,4.2443586e-05,-3.2512915e-05,-4.688524e-05,0.0030388362,0.0003060253,-4.296832e-05,0.1832185,-0.03303607,0.37075096,0.0,0.0,0.0,0.0,0.0,7.360934e-05,2.3476881e-05,2.978875e-05,9.122924e-06,0.00010280437,0.0001028145,0.00010197811,0.036318596,0.036316875,0.017110325,1.7485069e-11,1.7532694e-11,4.9099204e-11,8.291878e-07,1.0920037e-06,5.0000654e-08,0.0,0.0,0.0,0.0,0.0,0.0,0.0,0.0,24
73659371,73558825,0.34674957,0.023649713,-0.009304742,0.93761337,0.00085866795,-6.4423075e-06,-0.00032986063,-204.09015,118.838554,-1.9016085,4.125736e-05,-3.091553e-05,-4.5295965e-05,0.0030623032,0.00024676914,-6.947739e-05,0.1832185,-0.03303607,0.37075096,0.0,0.0,0.0,0.0,0.0,7.464615e-05,2.3412973e-05,2.971913e-05,8.988098e-06,3.824998e-05,3.825078e-05,3.8139035e-05,0.036322806,0.03632126,0.016649755,1.7413702e-11,1.7440323e-11,4.8743055e-11,8.277066e-07,1.0908698e-06,5.0000235e-08,0.0,0.0,0.0,0.0,0.0,0.0,0.0,0.0,24
74658555,74558074,0.3446862,0.023281543,-0.011259385,0.93836176,0.03144366,0.045346804,-0.0026892412,-204.08717,118.84078,-1.9013736,4.234532e-05,-3.0253628e-05,-4.4157106e-05,0.0030492654,0.00023454175,-7.1143695e-05,0.1832185,-0.03303607,0.37075096,0.0,0.0,0.0,0.0,0.0,7.542399e-05,2.3543338e-05,2.9819661e-05,8.860781e-06,0.00025638586,0.00025603716,0.00025100846,0.036328956,0.036327448,0.016215783,1.7568638e-11,1.7590299e-11,4.834826e-11,8.2714433e-07,1.0900808e-06,5.000081e-08,0.0,0.0,0.0,0.0,0.0,0.0,0.0,0.0,24
75657664,75557198,0.33426452,0.027565517,-0.0019177793,0.9420742,-0.030315466,-0.038970254,0.007210622,-204.08868,118.83709,-1.9012326,3.8555263e-05,-3.0565338e-05,-4.2366082e-05,0.0030638578,0.00025224185,2.5825962e-05,0.1832185,-0.03303607,0.37075096,0.0,0.0,0.0,0.0,0.0,7.598186e-05,2.3546922e-05,2.9707871e-05,8.176857e-06,0.00018472961,0.00018441181,0.00018183126,0.03633174,0.036330458,0.01582064,1.7532469e-11,1.7546208e-11,4.7773834e-11,8.2628895e-07,1.085023e-06,5.0000992e-08,0.0,0.0,0.0,0.0,0.0,0.0,0.0,0.0,24
76657175,76556322,0.3342293,0.028150631,-0.008824899,0.94203,-0.011373098,-0.00994366,0.0029854276,-204.08896,118.83597,-1.8940609,4.717183e-05,-3.0447318e-05,-4.201245e-05,0.0033670473,0.00027098396,0.00012835451,0.1832185,-0.03303607,0.37075096,0.0,0.0,0.0,0.0,0.0,7.513358e-05,2.3509707e-05,2.9615472e-05,8.027099e-06,0.00011600551,0.000115997245,0.00011499073,0.036335662,0.036334444,0.01542597,1.7520036e-11,1.7563827e-11,4.6987716e-11,8.245367e-07,1.0783403e-06,5.000073e-08,0.0,0.0,0.0,0.0,0.0,0.0,0.0,0.0,24
77656071,77555447,0.34049112,0.028479014,-0.013034398,0.939726,-0.00029927696,0.006188092,-0.0017035431,-204.08914,118.83502,-1.8921213,4.7838086e-05,-3.1920717e-05,-4.052294e-05,0.0033914724,0.00025958352,0.00023625851,0.1832185,-0.03303607,0.37075096,0.0,0.0,0.0,0.0,0.0,7.5422635e-05,2.3471453e-05,2.9633946e-05,8.313545e-06,5.093268e-05,5.0918024e-05,5.070547e-05,0.036340088,0.036339,0.015051527,1.7466526e-11,1.7507086e-11,4.670469e-11,8.240434e-07,1.0777879e-06,5.000032e-08,0.0,0.0,0.0,0.0,0.0,0.0,0.0,0.0,24
78654985,78554571,0.3427517,0.030782446,-0.013625143,0.9388227,-0.0007839983,0.01522782,0.012905667,-204.0881,118.83655,-1.8871826,4.5650424e-05,-3.3035794e-05,-3.866028e-05,0.0034548491,0.00028388549,0.000318453,0.1832185,-0.03303607,0.37075096,0.0,0.0,0.0,0.0,0.0,7.597635e-05,2.3572426e-05,2.9754663e-05,8.383641e-06,0.0002701109,0.00027005095,0.00026457466,0.0363471,0.03634601,0.014697123,1.7605932e-11,1.7629903e-11,4.6458542e-11,8.231575e-07,1.0766216e-06,5.0000807e-08,0.0,0.0,0.0,0.0,0.0,0.0,0.0,0.0,24
79664159,79563688,0.34180245,0.025205579,-0.009786,0.93938285,-0.026706817,-0.005388384,-0.023078064,-204.09023,118.83592,-1.8842491,4.503225e-05,-3.8262933e-05,-3.7836766e-05,0.003410489,0.00043030528,2.1624033e-05,0.1832185,-0.03303607,0.37075096,0.0,0.0,0.0,0.0,0.0,7.608386e-05,2.324215e-05,2.9287241e-05,8.298567e-06,0.00021281923,0.00021287629,0.00020901799,0.036350153,0.03634914,0.014355859,1.7517177e-11,1.7541578e-11,4.6080452e-11,8.204983e-07,1.0733808e-06,5.0000903e-08,0.0,0.0,0.0,0.0,0.0,0.0,0.0,0.0,24
80663227,80562687,0.3468563,0.020220583,-0.0129132895,0.93761146,0.0003763988,0.0017442511,0.00511202,-204.0891,118.83583,-1.8763938,4.7642538e-05,-3.9533395e-05,-3.7652517e-05,0.0033712601,0.00048752103,-0.0002446444,0.1832185,-0.03303607,0.37075096,0.0,0.0,0.0,0.0,0.0,7.640665e-05,2.307507e-05,2.9097688e-05,8.64405e-06,0.00014280982,0.00014281517,0.00014138155,0.036353827,0.036352918,0.014046613,1.745338e-11,1.7473445e-11,4.5867844e-11,8.1932257e-07,1.071019e-06,5.000093e-08,0.0,0.0,0.0,0.0,0.0,0.0,0.0,0.0,24
81662371,81561937,0.35291845,0.023025531,-0.014100594,0.93526447,0.025500068,0.04046432,0.0062308707,-204.08774,118.83694,-1.8671468,4.1989137e-05,-4.123758e-05,-3.636293e-05,0.0036722005,0.00049881166,-4.100547e-05,0.1832185,-0.03303607,0.37075096,0.0,0.0,0.0,0.0,0.0,7.545021e-05,2.3128523e-05,2.9104784e-05,8.853518e-06,7.702678e-05,7.675669e-05,7.635461e-05,0.03635813,0.03635728,0.013735328,1.7383319e-11,1.738515e-11,4.532729e-11,8.157674e-07,1.0636707e-06,5.0000516e-08,0.0,0.0,0.0,0.0,0.0,0.0,0.0,0.0,24
82661477,82561063,0.34460127,0.023521198,-0.0026877285,0.9384506,-0.0011290861,-0.0036651865,-0.0021622342,-204.08708,118.83844,-1.857494,3.8387214e-05,-4.2661177e-05,-3.5086236e-05,0.0038445648,0.0005911723,-0.00034528042,0.1832185,-0.03303607,0.37075096,0.0,0.0,0.0,0.0,0.0,7.498181e-05,2.2889648e-05,2.8607774e-05,8.23095e-06,1.3305444e-05,1.3299671e-05,1.3285046e-05,0.036362857,0.036361974,0.013438456,1.7303065e-11,1.729746e-11,4.472071e-11,8.1326465e-07,1.056377e-06,5.000009e-08,0.0,0.0,0.0,0.0,0.0,0.0,0.0,0.0,24
83660628,83560188,0.3458317,0.019719413,-0.0080528455,0.9380548,0.0033825454,-0.023216333,0.008910054,-204.08794,118.83477,-1.8511425,4.5406767e-05,-4.166237e-05,-3.623031e-05,0.0038757233,0.00068454887,-0.00056130055,0.1832185,-0.03303607,0.37075096,0.0,0.0,0.0,0.0,0.0,7.378979e-05,2.2928889e-05,2.8559405e-05,8.301893e-06,0.00022651184,0.00022640523,0.00022288917,0.03636842,0.03636777,0.013155369,1.7470978e-11,1.745682e-11,4.412746e-11,8.128391e-07,1.0514688e-06,5.0000864e-08,0.0,0.0,0.0,0.0,0.0,0.0,0.0,0.0,24
84659767,84559314,0.3529622,0.021617929,-0.008770164,0.9353468,0.040129967,0.0051155677,0.024251381,-299.72073,169.6193,-1.8466243,4.1962103e-05,-3.9434337e-05,-3.5082194e-05,0.0039726356,0.0005547113,-0.00027246482,0.1832185,-0.03303607,0.37075096,0.0,0.0,0.0,0.0,0.0,7.316946e-05,2.312247e-05,2.881939e-05,8.603106e-06,0.00015671612,0.00015720268,0.0001548669,0.037485067,0.037485074,0.012883689,1.7526966e-11,1.7491595e-11,4.3781496e-11,8.108009e-07,1.0471367e-06,5.0000942e-08,0.0,0.0,0.0,0.0,0.0,0.0,0.0,0.0,24
85659057,85558439,0.3486765,0.029932387,-0.0075941035,0.9367343,0.0032232564,0.0020655373,-0.0026286147,-299.72107,169.6197,-1.8460186,3.992756e-05,-3.5976438e-05,-3.3704826e-05,0.00399621,0.00041003438,0.0002463089,0.1832185,-0.03303607,0.37075096,0.0,0.0,0.0,0.0,0.0,7.345665e-05,2.3207622e-05,2.900031e-05,8.313973e-06,8.9709014e-05,8.971037e-05,8.898029e-05,0.03748942,0.037489433,0.0126352515,1.7437165e-11,1.7377846e-11,4.3545e-11,8.0722094e-07,1.0437042e-06,5.00006e-08,0.0,0.0,0.0,0.0,0.0,0.0,0.0,0.0,24
86658003,86557565,0.34673384,0.028290238,-0.0076800557,0.9375054,-0.00034039165,-0.0019738232,-2.0926353e-05,-299.72128,169.61937,-1.8457556,4.3473137e-05,-3.6662077e-05,-3.270923e-05,0.0039682975,0.0003450037,2.3942908e-05,0.1832185,-0.03303607,0.37075096,0.0,0.0,0.0,0.0,0.0,7.3976655e-05,2.2939223e-05,2.8612314e-05,8.188598e-06,2.57156e-05,2.5714518e-05,2.5661046e-05,0.03749421,0.03749422,0.01238446,1.7336648e-11,1.7283003e-11,4.3435724e-11,8.0646737e-07,1.0421213e-06,5.000018e-08,0.0,0.0,0.0,0.0,0.0,0.0,0.0,0.0,24
87657128,87556691,0.34355798,0.031245457,-0.0068009794,0.938587,-0.00288405,0.0030544812,0.012388462,-299.7216,169.61911,-1.8467892,4.394492e-05,-3.5112902e-05,-3.1424344e-05,0.003968636,0.00034808507,4.066694e-05,0.1832185,-0.03303607,0.37075096,0.0,0.0,0.0,0.0,0.0,7.454579e-05,2.3037284e-05,2.872743e-05,7.994931e-06,0.00024086253,0.00024084946,0.00023645155,0.03750044,0.03750046,0.012145174,1.7505084e-11,1.7441158e-11,4.3323414e-11,8.058238e-07,1.0418149e-06,5.000083e-08,0.0,0.0,0.0,0.0,0.0,0.0,0.0,0.0,24
88656314,88555817,0.33981034,0.03356474,-0.0068967436,0.93986964,-0.036368433,-0.011565697,0.007175399,-299.7231,169.61815,-1.8484885,4.8461945e-05,-3.5832003e-05,-3.0500227e-05,0.003995597,0.00034375724,0.00025579505,0.1832185,-0.03303607,0.37075096,0.0,0.0,0.0,0.0,0.0,7.4687276e-05,2.3077151e-05,2.876458e-05,7.741112e-06,0.00017028699,0.00017056798,0.0001680491,0.037503853,0.037503872,0.01191239,1.746494e-11,1.7418985e-11,4.31163e-11,8.050452e-07,1.0399558e-06,5.000097e-08,0.0,0.0,0.0,0.0,0.0,0.0,0.0,0.0,24
89655580,89554944,0.3427279,0.03333088,-0.007933353,0.9388097,-0.022169463,0.001116361,-0.0034471985,-299.72302,169.61815,-1.8494122,5.2291914e-05,-3.9922892e-05,-2.9665973e-05,0.0039765085,0.00024701076,0.00027382356,0.1832185,-0.03303607,0.37075096,0.0,0.0,0.0,0.0,0.0,7.4699e-05,2.2948945e-05,2.8634622e-05,7.870206e-06,0.00010278405,0.00010287533,0.00010191739,0.037508078,0.037508097,0.011700304,1.7392763e-11,1.7382044e-11,4.3009526e-11,8.0446006e-07,1.038657e-06,5.000069e-08,0.0,0.0,0.0,0.0,0.0,0.0,0.0,0.0,24
90664575,90564061,0.34904963,0.027009185,-0.012135235,0.9366363,0.00045059808,0.004431485,0.00031028656,-299.72424,169.61786,-1.8489184,5.736625e-05,-4.345867e-05,-2.9537834e-05,0.0039109043,0.0002432669,9.0699e-05,0.1832185,-0.03303607,0.37075096,0.0,0.0,0.0,0.0,0.0,7.416839e-05,2.2762342e-05,2.8396358e-05,8.190969e-06,5.091202e-05,5.090528e-05,5.0702685e-05,0.037512798,0.037512813,0.011485563,1.732847e-11,1.7341645e-11,4.2813697e-11,8.0363674e-07,1.0364837e-06,5.000036e-08,0.0,0.0,0.0,0.0,0.0,0.0,0.0,0.0,24
91653626,91553197,0.35282338,0.027505103,-0.010958002,0.9352214,0.024999496,0.0154014705,-0.0030610613,-299.72192,169.61949,-1.8449727,5.4508997e-05,-4.392148e-05,-2.8161925e-05,0.003996505,0.00025462353,9.528803e-05,0.1832185,-0.03303607,0.37075096,0.0,0.0,0.0,0.0,0.0,7.405424e-05,2.2832855e-05,2.843661e-05,8.342642e-06,0.0002557749,0.00025604386,0.00025057115,0.03751943,0.037519444,0.011280452,1.746962e-11,1.7452222e-11,4.2681424e-11,8.0242245e-07,1.0334346e-06,5.0000757e-08,0.0,0.0,0.0,0.0,0.0,0.0,0.0,0.0,24
92662809,92562315,0.34827802,0.030615548,-0.01007708,0.93683696,0.019963931,-0.0066126543,0.028639084,-299.72226,169.6178,-1.8392301,5.44746e-05,-4.188839e-05,-2.702088e-05,0.0039749257,0.000218563,7.224723e-05,0.1832185,-0.03303607,0.37075096,0.0,0.0,0.0,0.0,0.0,7.42548e-05,2.278274e-05,2.8365434e-05,8.0601e-06,0.0001977568,0.00019794243,0.00019514812,0.037522882,0.037522893,0.011079696,1.7442641e-11,1.7399153e-11,4.2507442e-11,8.010339e-07,1.0316008e-06,5.000109e-08,0.0,0.0,0.0,0.0,0.0,0.0,0.0,0.0,24
93662187,93561442,0.34368935,0.033011317,-0.008843396,0.9384614,-0.010207757,0.0007732435,-0.008681961,-299.7233,169.61844,-1.835226,5.4527904e-05,-4.2703105e-05,-2.6042602e-05,0.0039703534,0.00019671577,0.00022087082,0.1832185,-0.03303607,0.37075096,0.0,0.0,0.0,0.0,0.0,7.493214e-05,2.274876e-05,2.832242e-05,7.850605e-06,0.00012951528,0.0001295293,0.00012803657,0.037526846,0.037526853,0.010886755,1.7392707e-11,1.735115e-11,4.250416e-11,7.9942595e-07,1.0296374e-06,5.000085e-08,0.0,0.0,0.0,0.0,0.0,0.0,0.0,0.0,24
94661074,94560573,0.34418383,0.03128357,-0.012144192,0.93830246,-0.00062236807,-0.008117813,0.0027225083,-299.72443,169.61774,-1.8263175,5.985228e-05,-4.235374e-05,-2.5279664e-05,0.0039965604,0.00020320674,0.000118174765,0.1832185,-0.03303607,0.37075096,0.0,0.0,0.0,0.0,0.0,7.471092e-05,2.2656905e-05,2.8164346e-05,7.809377e-06,6.3674575e-05,6.366329e-05,6.334721e-05,0.037531413,0.037531428,0.010701149,1.7358157e-11,1.7325271e-11,4.2315325e-11,7.9857966e-07,1.0268071e-06,5.000042e-08,0.0,0.0,0.0,0.0,0.0,0.0,0.0,0.0,24
95660117,95559696,0.3566799,0.030004745,-0.022571692,0.93347186,-0.016242666,-0.001347268,0.015194664,-299.729,169.61438,-1.8096366,6.3045045e-05,-4.163546e-05,-2.4825866e-05,0.0039901747,0.00022078583,0.0002025524,0.1832185,-0.03303607,0.37075096,0.0,0.0,0.0,0.0,0.0,7.42017e-05,2.31751e-05,2.8661725e-05,8.481575e-06,0.0010339859,0.0010335937,0.0009496783,0.037656456,0.037656456,0.010642247,1.7947147e-11,1.7920254e-11,4.2257052e-11,7.980704e-07,1.0241762e-06,5.000066e-08,0.0,0.0,0.0,0.0,0.0,0.0,0.0,0.0,24
96659247,96558823,0.3634046,0.032537412,-0.019723961,0.9308542,0.00087418745,0.0025622118,-0.0010090745,-299.74982,169.54086,-1.791044,5.3551965e-05,-4.4899596e-05,-2.3095161e-05,0.003996517,0.00048028913,5.250332e-05,0.1832185,-0.03303607,0.37075096,0.0,0.0,0.0,0.0,0.0,7.1997194e-05,2.2461609e-05,2.7808353e-05,8.605958e-06,1.32998075e-05,1.3301186e-05,1.3282363e-05,0.037718274,0.037716635,0.010515729,1.7285461e-11,1.7236525e-11,4.1733922e-11,7.940612e-07,1.015041e-06,5.000009e-08,0.0,0.0,0.0,0.0,0.0,0.0,0.0,0.0,24
97658494,97557951,0.35437772,0.034858953,-0.009798782,0.93440104,-0.008681615,-0.0045796116,0.0062634298,-299.74622,169.54984,-1.7730165,4.7744885e-05,-4.826829e-05,-2.128967e-05,0.0039965245,0.0006123429,-5.0952982e-05,0.1832185,-0.03303607,0.37075096,0.0,0.0,0.0,0.0,0.0,7.221115e-05,2.2547343e-05,2.7711309e-05,8.043394e-06,0.00022663416,0.00022652613,0.000222441,0.037722982,0.03772164,0.0103437975,1.7423275e-11,1.7390988e-11,4.1619926e-11,7.9281176e-07,1.0103273e-06,5.0000924e-08,0.0,0.0,0.0,0.0,0.0,0.0,0.0,0.0,24
98657709,98557079,0.35240385,0.03296471,-0.010772096,0.9352052,-0.023875276,-0.03314023,-0.012372165,-390.976,221.59598,-1.7556673,5.319965e-05,-4.8608064e-05,-2.1368316e-05,0.0039971876,0.00063869805,-9.621067e-05,0.1832185,-0.03303607,0.37075096,0.0,0.0,0.0,0.0,0.0,7.1476614e-05,2.263101e-05,2.7718768e-05,7.896818e-06,0.00015790964,0.00015755977,0.00015463727,0.044364255,0.044364255,0.010176104,1.7554264e-11,1.749967e-11,4.13329e-11,7.9222434e-07,1.0067732e-06,5.000097e-08,0.0,0.0,0.0,0.0,0.0,0.0,0.0,0.0,24
99656709,99556207,0.36246255,0.032653593,-0.017545953,0.93126094,0.021880278,0.02693497,-0.00088098756,-391.32953,221.78122,-1.7355561,5.0605737e-05,-4.701173e-05,-2.0056943e-05,0.003996524,0.00060351024,-1.08296945e-05,0.1832185,-0.03303607,0.37075096,0.0,0.0,0.0,0.0,0.0,6.9659385e-05,2.2552802e-05,2.7604616e-05,8.232362e-06,8.9902365e-05,8.9844354e-05,8.899516e-05,0.03768235,0.03768234,0.010022244,1.7413723e-11,1.7341574e-11,4.093182e-11,7.9102495e-07,1.0005954e-06,5.0000608e-08,0.0,0.0,0.0,0.0,0.0,0.0,0.0,0.0,24
100665874,100565327,0.3553802,0.03609549,-0.010257744,0.9339684,-0.0013561719,0.00066974666,0.001159894,-391.3286,221.78241,-1.7140656,4.616471e-05,-4.837877e-05,-1.8344013e-05,0.0039946744,0.00061662024,7.779793e-06,0.1832185,-0.03303607,0.37075096,0.0,0.0,0.0,0.0,0.0,6.980083e-05,2.2498949e-05,2.744887e-05,7.79989e-06,3.825285e-05,3.8253194e-05,3.8120957e-05,0.037687123,0.03768711,0.009865594,1.732699e-11,1.726356e-11,4.0856103e-11,7.90604e-07,9.969604e-07,5.0000267e-08,0.0,0.0,0.0,0.0,0.0,0.0,0.0,0.0,24
101664972,101564456,0.35445464,0.03591688,-0.012654853,0.9342975,-0.041801702,-0.018786797,-0.008952291,-391.33273,221.78084,-1.6908855,5.142233e-05,-4.9404833e-05,-1.8015327e-05,0.0039965264,0.00060297176,5.1360028e-05,0.1832185,-0.03303607,0.37075096,0.0,0.0,0.0,0.0,0.0,6.9764435e-05,2.2620356e-05,2.7536764e-05,7.75769e-06,0.00025616522,0.00025631493,0.00025015805,0.037693765,0.037693746,0.009715833,1.7478758e-11,1.7404377e-11,4.0825482e-11,7.9026205e-07,9.943205e-07,5.000094e-08,0.0,0.0,0.0,0.0,0.0,0.0,0.0,0.0,24
102654641,102553594,0.36321744,0.033992376,-0.01653182,0.9309373,0.005576988,0.013509625,0.00566589,-391.32977,221.78233,-1.6638973,5.2890635e-05,-5.0478862e-05,-1.6947215e-05,0.0039965287,0.00057515205,6.388702e-06,0.1832185,-0.03303607,0.37075096,0.0,0.0,0.0,0.0,0.0,6.957427e-05,2.251615e-05,2.7440437e-05,8.187983e-06,0.00017031345,0.00017028763,0.00016781731,0.03769674,0.03769673,0.009567054,1.7412797e-11,1.7335355e-11,4.087251e-11,7.8984243e-07,9.931465e-07,5.0001e-08,0.0,0.0,0.0,0.0,0.0,0.0,0.0,0.0,24
103663557,103562714,0.36531207,0.035992768,-0.012776814,0.9301013,-0.006973904,0.0034743797,0.0016352558,-391.32968,221.78276,-1.6349577,4.9916198e-05,-5.159422e-05,-1.5385112e-05,0.0039897477,0.0005992213,2.9198549e-05,0.1832185,-0.03303607,0.37075096,0.0,0.0,0.0,0.0,0.0,6.970322e-05,2.2459744e-05,2.7356624e-05,8.27979e-06,0.00011599928,0.000116005845,0.00011483359,0.037701067,0.037701055,0.009424168,1.7367066e-11,1.7289534e-11,4.0916208e-11,7.8906936e-07,9.910841e-07,5.0000768e-08,0.0,0.0,0.0,0.0,0.0,0.0,0.0,0.0,24
104662810,104561843,0.36122873,0.036114078,-0.009549379,0.9317287,-0.0007990952,-0.000689453,0.0010058305,-391.3299,221.78296,-1.604538,4.8934482e-05,-5.332013e-05,-1.4131605e-05,0.0039975476,0.00061058946,-1.6393991e-05,0.1832185,-0.03303607,0.37075096,0.0,0.0,0.0,0.0,0.0,7.020784e-05,2.239934e-05,2.7222683e-05,8.077234e-06,5.0900046e-05,5.0898463e-05,5.0676394e-05,0.037705727,0.037705716,0.009285945,1.731144e-11,1.723677e-11,4.0980164e-11,7.8883335e-07,9.898279e-07,5.0000338e-08,0.0,0.0,0.0,0.0,0.0,0.0,0.0,0.0,24
105661491,105560972,0.35748905,0.033935897,-0.0070150374,0.9332742,-0.020292152,-0.03309286,-0.023349566,-391.33206,221.7802,-1.5744518,5.182492e-05,-5.442745e-05,-1.354733e-05,0.003996525,0.0005683795,-0.0001299912,0.1832185,-0.03303607,0.37075096,0.0,0.0,0.0,0.0,0.0,7.059089e-05,2.2439885e-05,2.7207627e-05,7.917233e-06,0.0002712339,0.00027083672,0.0002640487,0.037712853,0.037712842,0.009161053,1.7468173e-11,1.7391791e-11,4.1017172e-11,7.882583e-07,9.882162e-07,5.0000853e-08,0.0,0.0,0.0,0.0,0.0,0.0,0.0,0.0,24
106660596,106560101,0.36115083,0.032487623,-0.010271683,0.93188477,0.005488637,-0.031297065,-0.009396747,-391.3302,221.78038,-1.53869,5.644824e-05,-5.2282267e-05,-1.3087648e-05,0.003996511,0.00060292706,-0.00027397118,0.1832185,-0.03303607,0.37075096,0.0,0.0,0.0,0.0,0.0,7.035533e-05,2.2351102e-05,2.7129727e-05,8.101205e-06,0.00019856142,0.00019839226,0.00019483488,0.03771582,0.037715826,0.009028952,1.7449021e-11,1.7350453e-11,4.0969728e-11,7.8763463e-07,9.86966e-07,5.000102e-08,0.0,0.0,0.0,0.0,0.0,0.0,0.0,0.0,24
107659723,107559231,0.36461857,0.03581019,-0.01168729,0.93039477,0.0053831623,0.0007674091,0.006059057,-391.33044,221.78166,-1.5019976,5.5732013e-05,-5.0787246e-05,-1.2380305e-05,0.003996525,0.0006025429,-0.00010285103,0.1832185,-0.03303607,0.37075096,0.0,0.0,0.0,0.0,0.0,7.043514e-05,2.2426837e-05,2.724447e-05,8.344948e-06,0.00012934003,0.00012934938,0.00012791458,0.037719782,0.037719794,0.008901789,1.7424806e-11,1.7307602e-11,4.1025697e-11,7.8688777e-07,9.85163e-07,5.0000857e-08,0.0,0.0,0.0,0.0,0.0,0.0,0.0,0.0,24
108658918,108558360,0.35935986,0.040568594,-0.008719899,0.93227607,-0.006345041,0.00033485988,-0.0013000087,-391.3305,221.7818,-1.464526,5.468562e-05,-5.199045e-05,-1.1392768e-05,0.003997973,0.00061952707,0.0001767339,0.1832185,-0.03303607,0.37075096,0.0,0.0,0.0,0.0,0.0,7.120199e-05,2.2508506e-05,2.7328679e-05,8.149638e-06,6.370005e-05,6.370871e-05,6.331468e-05,0.037724376,0.037724387,0.00877876,1.7370404e-11,1.726304e-11,4.116112e-11,7.86493e-07,9.839378e-07,5.0000427e-08,0.0,0.0,0.0,0.0,0.0,0.0,0.0,0.0,24
109658131,109557490,0.36268997,0.034992903,-0.01436859,0.9311418,-0.00021309202,-0.00039195266,-0.00043418672,-391.3315,221.78125,-1.4272286,6.451437e-05,-5.385602e-05,-1.17027375e-05,0.0039839665,0.0005330643,-8.2315884e-05,0.1832185,-0.03303607,0.37075096,0.0,0.0,0.0,0.0,0.0,6.9817834e-05,2.2262437e-05,2.6892265e-05,8.229471e-06,1e-06,1e-06,1.0025688e-06,0.037729207,0.037729215,0.008665616,1.7293965e-11,1.7219913e-11,4.0855937e-11,7.8582417e-07,9.775363e-07,5e-08,0.0,0.0,0.0,0.0,0.0,0.0,0.0,0.0,24
110657117,110556619,0.37662718,0.031093435,-0.020782216,0.92560977,0.039138746,0.036090657,-0.009685808,-391.32883,221.7833,-1.3871483,6.2382795e-05,-5.2893865e-05,-1.097209e-05,0.0039965296,0.00048618793,-0.00022440791,0.1832185,-0.03303607,0.37075096,0.0,0.0,0.0,0.0,0.0,6.904816e-05,2.2286258e-05,2.6890868e-05,8.984042e-06,0.00021312821,0.00021319787,0.00020849507,0.037734725,0.03773473,0.008550116,1.7460125e-11,1.7355799e-11,4.0848228e-11,7.844569e-07,9.748486e-07,5.0000995e-08,0.0,0.0,0.0,0.0,0.0,0.0,0.0,0.0,24
111656243,111555748,0.37556338,0.03503846,-0.014780348,0.9260163,0.004413492,-0.0040878383,0.0017301315,-391.33145,221.78082,-1.3427367,5.434889e-05,-5.190877e-05,-9.283074e-06,0.0039965296,0.00039158596,-0.0002668432,0.1832185,-0.03303607,0.37075096,0.0,0.0,0.0,0.0,0.0,6.8217174e-05,2.2190832e-05,2.6717593e-05,8.81287e-06,0.00014291044,0.0001428936,0.0001410693,0.037738502,0.037738502,0.008435954,1.742556e-11,1.7303181e-11,4.0620892e-11,7.8183626e-07,9.682676e-07,5.000094e-08,0.0,0.0,0.0,0.0,0.0,0.0,0.0,0.0,24
112655376,112554878,0.37100422,0.036145516,-0.012867497,0.9278382,0.0016131854,0.0057154982,0.0014539757,-391.3312,221.78148,-1.3004886,5.447669e-05,-5.237632e-05,-8.576326e-06,0.0039965287,0.0003742404,-0.000120198856,0.1832185,-0.03303607,0.37075096,0.0,0.0,0.0,0.0,0.0,6.884581e-05,2.2258206e-05,2.675909e-05,8.64716e-06,7.657531e-05,7.6570854e-05,7.604838e-05,0.037742984,0.037742984,0.008325767,1.7384705e-11,1.7258172e-11,4.0739835e-11,7.8136213e-07,9.672434e-07,5.000052e-08,0.0,0.0,0.0,0.0,0.0,0.0,0.0,0.0,24
113654455,113554008,0.36980784,0.03530301,-0.014304316,0.9283272,0.00010644716,0.0005698945,-0.0008104547,-483.6149,273.92896,-1.2553982,5.7907037e-05,-5.3722644e-05,-8.280901e-06,0.003998258,0.00034878278,-0.0001060598,0.1832185,-0.03303607,0.37075096,0.0,0.0,0.0,0.0,0.0,6.901597e-05,2.2286573e-05,2.6762315e-05,8.637459e-06,1.33019075e-05,1.3301826e-05,1.328107e-05,0.037679523,0.03767952,0.008221576,1.7412193e-11,1.7292771e-11,4.0792123e-11,7.8111515e-07,9.660153e-07,5.0000068e-08,0.0,0.0,0.0,0.0,0.0,0.0,0.0,0.0,24
114663620,114563129,0.3696091,0.034820713,-0.013967495,0.9284296,-0.0030141245,0.013747683,0.008647131,-483.6149,273.93063,-1.2116421,5.594955e-05,-5.4552143e-05,-7.5231706e-06,0.00399653,0.00034124317,-0.00011993374,0.1832185,-0.03303607,0.37075096,0.0,0.0,0.0,0.0,0.0,6.957256e-05,2.2351369e-05,2.679811e-05,8.733044e-06,0.00024134085,0.00024131466,0.00023594742,0.03768578,0.037685778,0.008124486,1.7523557e-11,1.7406408e-11,4.095334e-11,7.810096e-07,9.652498e-07,5.000087e-08,0.0,0.0,0.0,0.0,0.0,0.0,0.0,0.0,24
115662756,115562259,0.36550036,0.03603205,-0.009356906,0.93006647,-0.019897452,-0.02952795,0.005264158,-483.61578,273.92838,-1.1662049,5.507961e-05,-5.485954e-05,-6.373664e-06,0.0039965305,0.00033293403,-0.00012818827,0.1832185,-0.03303607,0.37075096,0.0,0.0,0.0,0.0,0.0,7.0097376e-05,2.2256267e-05,2.668077e-05,8.539776e-06,0.00017065468,0.00017042691,0.00016783873,0.037689194,0.037689183,0.008021261,1.745072e-11,1.7329473e-11,4.1027674e-11,7.8054126e-07,9.641748e-07,5.000103e-08,0.0,0.0,0.0,0.0,0.0,0.0,0.0,0.0,24
116661891,116561389,0.37139967,0.03349843,-0.016368937,0.9277243,-0.0031539334,-0.0061691795,-0.003988301,-483.6161,273.9276,-1.118171,6.365428e-05,-5.398093e-05,-6.7215074e-06,0.003996533,0.00038535477,-0.00015640365,0.1832185,-0.03303607,0.37075096,0.0,0.0,0.0,0.0,0.0,6.902433e-05,2.2188267e-05,2.6514515e-05,8.8272745e-06,0.00010279051,0.00010278501,0.0001017869,0.037693426,0.03769341,0.007921712,1.7407456e-11,1.728581e-11,4.0836945e-11,7.7989836e-07,9.583679e-07,5.0000683e-08,0.0,0.0,0.0,0.0,0.0,0.0,0.0,0.0,24
117661071,117560520,0.38107842,0.034482922,-0.019344535,0.923697,0.0041820286,0.0032190592,0.0019075054,-483.6158,273.92795,-1.0679027,5.7545945e-05,-5.2801803e-05,-5.7235297e-06,0.0039965543,0.0003390467,-0.00017208197,0.1832185,-0.03303607,0.37075096,0.0,0.0,0.0,0.0,0.0,6.7362824e-05,2.2095093e-05,2.6381807e-05,9.255751e-06,3.8245584e-05,3.825505e-05,3.8115893e-05,0.037698142,0.03769812,0.007825158,1.7367902e-11,1.7222168e-11,4.0561193e-11,7.7853207e-07,9.531736e-07,5.0000253e-08,0.0,0.0,0.0,0.0,0.0,0.0,0.0,0.0,24
118660190,118559650,0.37538737,0.038024455,-0.014795796,0.92596954,-0.012469286,0.002637832,0.0041432045,-483.6167,273.92838,-1.0182787,5.3775373e-05,-5.2965406e-05,-4.638388e-06,0.003998345,0.00031644222,-3.5461155e-05,0.1832185,-0.03303607,0.37075096,0.0,0.0,0.0,0.0,0.0,6.767424e-05,2.2274711e-05,2.6526199e-05,8.979852e-06,0.0002555591,0.00025563006,0.00024969236,0.03770478,0.037704762,0.007733057,1.7533117e-11,1.7392176e-11,4.0598e-11,7.777194e-07,9.506145e-07,5.000085e-08,0.0,0.0,0.0,0.0,0.0,0.0,0.0,0.0,24
119659446,119558780,0.3711296,0.03461431,-0.009642288,0.9278857,-0.0024309596,-0.024627877,-0.007086789,-483.6157,273.92694,-0.97093993,5.4390806e-05,-5.3434414e-05,-3.8119626e-06,0.0039964425,0.00031681565,-0.00029687583,0.1832185,-0.03303607,0.37075096,0.0,0.0,0.0,0.0,0.0,6.808536e-05,2.201308e-05,2.6189788e-05,8.771238e-06,0.00018449145,0.00018427434,0.00018116199,0.03770797,0.03770794,0.007644412,1.746716e-11,1.7321854e-11,4.0656253e-11,7.758231e-07,9.4890294e-07,5.000106e-08,0.0,0.0,0.0,0.0,0.0,0.0,0.0,0.0,24
120658392,120557911,0.3732137,0.03280543,-0.012332431,0.9270832,0.0021915776,-0.008867413,0.0041781357,-483.6157,273.92776,-0.91944075,6.0030543e-05,-5.0497063e-05,-3.5936798e-06,0.00399653,0.00041414934,-0.00033254045,0.1832185,-0.03303607,0.37075096,0.0,0.0,0.0,0.0,0.0,6.777119e-05,2.1995815e-05,2.614495e-05,8.882108e-06,0.000115951065,0.000115945746,0.000114768,0.037712056,0.03771204,0.0075543183,1.7460549e-11,1.7279036e-11,4.059849e-11,7.749668e-07,9.463161e-07,5.000077e-08,0.0,0.0,0.0,0.0,0.0,0.0,0.0,0.0,24
121657531,121557041,0.3866759,0.032489933,-0.021180289,0.9213999,-0.0006959396,0.015162874,0.009481775,-483.61548,273.92606,-0.86999226,6.254322e-05,-5.042729e-05,-3.1345785e-06,0.003996532,0.00044766985,-4.096839e-05,0.1832185,-0.03303607,0.37075096,0.0,0.0,0.0,0.0,0.0,6.7143286e-05,2.2111786e-05,2.6288355e-05,9.654191e-06,5.095436e-05,5.0874056e-05,5.068397e-05,0.037716717,0.037716705,0.007466655,1.7419566e-11,1.7246824e-11,4.0668788e-11,7.7363813e-07,9.4325884e-07,5.000034e-08,0.0,0.0,0.0,0.0,0.0,0.0,0.0,0.0,24
122656656,122556172,0.38878638,0.0275713,-0.0144517375,0.92080194,0.06757558,0.020395113,-0.018560322,-483.60852,273.92908,-0.8179206,5.514351e-05,-5.1240593e-05,-1.9230224e-06,0.003996537,0.0006056681,-0.00039762375,0.1832185,-0.03303607,0.37075096,0.0,0.0,0.0,0.0,0.0,6.6120316e-05,2.1856906e-05,2.5799109e-05,9.677464e-06,0.00027070663,0.00027183237,0.00026415582,0.03772382,0.037723828,0.007383498,1.7542105e-11,1.7386164e-11,4.0458057e-11,7.686324e-07,9.339766e-07,5.000086e-08,0.0,0.0,0.0,0.0,0.0,0.0,0.0,0.0,24
123655788,123555303,0.3829221,0.032779478,-0.009619923,0.9231488,-0.019596286,0.0041592536,0.020882057,-483.6154,273.92908,-0.76714987,5.329639e-05,-5.0232273e-05,-8.2393956e-07,0.0039891107,0.00053384306,-0.00013258665,0.1832185,-0.03303607,0.37075096,0.0,0.0,0.0,0.0,0.0,6.635077e-05,2.1987415e-05,2.593e-05,9.3542885e-06,0.000197913,0.00019805902,0.00019488118,0.0377268,0.037726812,0.007303135,1.7528303e-11,1.7361557e-11,4.0463733e-11,7.6725297e-07,9.3008543e-07,5.000104e-08,0.0,0.0,0.0,0.0,0.0,0.0,0.0,0.0,24
124664918,124564425,0.38288134,0.029092092,-0.010280493,0.9232822,-0.023224792,-0.013622732,0.007660205,-483.6156,273.9277,-0.71574646,5.593416e-05,-5.0294766e-05,-1.5384988e-07,0.0039940635,0.0005313344,-6.2796506e-05,0.1832185,-0.03303607,0.37075096,0.0,0.0,0.0,0.0,0.0,6.6812245e-05,2.1924729e-05,2.5853833e-05,9.414218e-06,0.00014288728,0.00014297174,0.0001412497,0.037730884,0.037730884,0.007220956,1.7481126e-11,1.731074e-11,4.0607764e-11,7.659483e-07,9.285758e-07,5.0000963e-08,0.0,0.0,0.0,0.0,0.0,0.0,0.0,0.0,24
125664041,125563556,0.39123154,0.020574808,-0.009870467,0.92000943,-0.056994256,-0.17214702,-0.121812016,-483.68027,273.83118,-0.7663146,5.602436e-05,-5.0287355e-05,8.355369e-07,0.003996534,0.0005197505,-8.267888e-05,0.1832185,-0.03303607,0.37075096,0.0,0.0,0.0,0.0,0.0,6.695112e-05,2.271744e-05,2.6594444e-05,9.9276285e-06,0.0022697477,0.0022623707,0.0018838269,0.03853934,0.038537838,0.007834879,1.847073e-11,1.8307234e-11,4.077343e-11,7.659045e-07,9.2838445e-07,5.0000267e-08,0.0,0.0,0.0,0.0,0.0,0.0,0.0,0.0,24
126663179,126562688,0.39265025,0.024380384,-0.013330528,0.919268,0.1270423,-0.18446812,-0.080752514,-483.63358,273.6273,-0.78208035,5.6102224e-05,-5.027546e-05,1.7367075e-06,0.003996532,0.000520393,-0.00016191074,0.1832185,-0.03303607,0.37075096,0.0,0.0,0.0,0.0,0.0,6.7550245e-05,2.3611114e-05,2.7512604e-05,1.0114906e-05,0.0063464483,0.006343053,0.0041430616,0.045242943,0.045219995,0.012295411,1.946087e-11,1.9303741e-11,4.0983283e-11,7.6585167e-07,9.2819937e-07,5.0000178e-08,0.0,0.0,0.0,0.0,0.0,0.0,0.0,0.0,24
127662538,127561819,0.38552526,0.034642242,-0.0151376,0.9219225,-5.1778483,2.8914492,-0.0064028213,-573.4115,322.55307,-0.69301647,5.6184163e-05,-5.0259798e-05,2.6678042e-06,0.00399653,0.00052243855,-0.0002738118,0.1832185,-0.03303607,0.37075096,0.0,0.0,0.0,0.0,0.0,6.832883e-05,2.4604611e-05,2.8556608e-05,9.79228e-06,0.04513438,0.045134306,0.062497675,0.07307438,0.07307438,0.023020418,2.0449972e-11,2.0299649e-11,4.1116884e-11,7.657775e-07,9.280347e-07,5.000009e-08,0.0,0.0,0.0,0.0,0.0,0.0,0.0,0.0,24
128661976,128561075,0.38369906,0.040952567,-0.014477655,0.9224361,-5.1776624,2.755411,0.108025715,-578.52625,325.32828,-0.44260702,5.6433506e-05,-5.067237e-05,3.4751667e-06,0.003998631,0.0005206085,-0.00036773828,0.1832185,-0.03303607,0.37075096,0.0,0.0,0.0,0.0,0.0,6.904059e-05,2.5564323e-05,2.9560442e-05,9.803764e-06,0.009818329,0.009820008,0.018490085,0.026429446,0.02642962,0.04511495,2.1302907e-11,2.116003e-11,4.1296785e-11,7.6571575e-07,9.2789315e-07,5e-08,0.0,0.0,0.0,0.0,0.0,0.0,0.0,0.0,24
129660897,129560206,0.39238423,0.03893308,-0.012757382,0.91888857,-5.0788245,2.5434835,0.184874,-583.5234,327.9118,-0.1085979,5.7298865e-05,-5.1971198e-05,4.2430565e-06,0.0039966656,0.0005061778,-0.00042945213,0.1832185,-0.03303607,0.37075096,0.0,0.0,0.0,0.0,0.0,6.8943795e-05,2.6031976e-05,3.003974e-05,1.03519105e-05,0.0074776304,0.007474707,0.01151874,0.01980184,0.019801969,0.065384075,2.1579818e-11,2.144048e-11,4.139215e-11,7.655457e-07,9.277097e-07,5.000036e-08,0.0,0.0,0.0,0.0,0.0,0.0,0.0,0.0,24
130659754,130559338,0.3986888,0.034175392,-0.019552555,0.91624075,-4.7818766,2.5089242,0.23476173,-588.2896,330.41138,0.32232466,5.8809735e-05,-5.366514e-05,4.9191135e-06,0.0039965613,0.00050463004,-0.00045639972,0.1832185,-0.03303607,0.37075096,0.0,0.0,0.0,0.0,0.0,6.892726e-05,2.5751291e-05,2.974039e-05,1.0782199e-05,0.0076148645,0.007615402,0.009089384,0.018151345,0.018150883,0.08161362,2.1120281e-11,2.097561e-11,4.1473255e-11,7.6522275e-07,9.275883e-07,5.0000267e-08,0.0,0.0,0.0,0.0,0.0,0.0,0.0,0.0,24
