timestamp,load,ram_usage
16850033,0.3763535,0.4184894
17349335,0.38156217,0.41870415
17849281,0.37293273,0.41870415
18349280,0.36189127,0.41870415
18849317,0.3599959,0.41870415
19349280,0.36237484,0.41870415
19849281,0.36126202,0.41870415
20349285,0.36065125,0.41870415
20849282,0.36079675,0.41877022
21349364,0.3617512,0.41877022
21849284,0.36102796,0.41877022
22349616,0.36073774,0.41877022
22849282,0.36102515,0.41877022
23349408,0.3612815,0.41877022
23849282,0.36226803,0.41877022
24349451,0.35994178,0.41877022
24849377,0.36314988,0.41877022
25349853,0.36024106,0.41877022
25849302,0.35750782,0.41877022
26349286,0.35362685,0.41877022
26849282,0.36058074,0.41877022
27349282,0.35918927,0.41877022
27849300,0.361301,0.41877022
28349569,0.35924745,0.41877022
28849373,0.36330712,0.41877022
29349330,0.3603708,0.41877022
29849283,0.3632716,0.41877022
30349283,0.35970598,0.41877022
30849281,0.362346,0.41877022
31349283,0.35630202,0.41746515
31849282,0.34783602,0.41746515
32349282,0.34761,0.41746515
32849297,0.34760487,0.41746515
33349307,0.3475111,0.41746515
33849444,0.3487591,0.41746515
34349494,0.34744525,0.41746515
34849281,0.3487665,0.41746515
35349288,0.3486684,0.41746515
35849598,0.34877187,0.41746515
36349377,0.34820712,0.41746515
36849284,0.3464952,0.41746515
37349282,0.35952002,0.41746515
37849283,0.34523797,0.41746515
38349282,0.343926,0.41746515
38849280,0.34445602,0.4149045
39349661,0.34201145,0.4149045
39849499,0.34339935,0.4149045
40349284,0.3429401,0.4149045
40849281,0.3441087,0.4149045
41349282,0.3444066,0.4149045
41849548,0.34225667,0.4149045
42349280,0.34408766,0.4149045
42849708,0.34268606,0.4149045
43349593,0.34056097,0.4149045
43849281,0.34455168,0.4149045
44349281,0.3449813,0.4149045
44849281,0.34374267,0.4149045
45349463,0.34672987,0.4149045
45849284,0.345455,0.4149045
46349280,0.3452307,0.4149045
46849298,0.34333563,0.4149045
47349283,0.34595978,0.4149045
47849282,0.343894,0.4149045
48349282,0.34626472,0.4149045
48849281,0.3427133,0.4149045
49349327,0.34657884,0.4149045
49849282,0.34454834,0.4149045
50349336,0.3457983,0.4149045
50849835,0.34430486,0.4149045
51349640,0.34428704,0.4149045
51849368,0.34432125,0.4149045
52349351,0.34321636,0.4149045
52849313,0.3468089,0.4149045
53349284,0.3489123,0.4149045
53849321,0.3472649,0.4149045
54349292,0.34714746,0.4149045
54849344,0.34703606,0.4149045
55349283,0.3489977,0.4149045
55849283,0.34315133,0.4149045
56349285,0.34336472,0.4149045
56849281,0.3436507,0.4149045
57349330,0.34483904,0.4149045
57849501,0.3450716,0.4149045
58349281,0.3450954,0.4149045
58849305,0.342072,0.4149045
59349391,0.34593922,0.4149045
59849337,0.34360558,0.4149045
60349604,0.34635836,0.4149045
60849463,0.3437789,0.4149045
61349882,0.34483021,0.4149045
61849296,0.3462913,0.4149045
62349406,0.33911812,0.4149045
62849284,0.33789963,0.4149045
63349282,0.3411827,0.4149045
63849281,0.3442766,0.4149045
64349299,0.3427204,0.4149045
64849283,0.34507567,0.4149045
65349507,0.3435061,0.4149045
65849282,0.34556484,0.4149045
66349283,0.3452707,0.4149045
66849280,0.34554797,0.4149045
67349308,0.34484,0.4149045
67849298,0.34338504,0.4149045
68349307,0.34282696,0.4149045
68849304,0.34313202,0.4149045
69349283,0.344338,0.4149045
69849282,0.34295666,0.4149045
70349281,0.341398,0.4149045
70849296,0.34468263,0.4149045
71349294,0.34330177,0.4149045
71849283,0.34369296,0.4149045
72349283,0.344756,0.4149045
72849325,0.34594697,0.4149045
73349282,0.34370756,0.4149045
73849509,0.34617823,0.4149045
74349344,0.34347004,0.4149045
74849310,0.345591,0.4149045
75349284,0.34548503,0.4149045
75849283,0.3446647,0.4149045
76349448,0.34358793,0.4149045
76849283,0.34700853,0.4149045
77349283,0.34322667,0.4149045
77849308,0.34584004,0.4149045
78349307,0.34255534,0.4149045
78849654,0.34584796,0.4149045
79349471,0.3446049,0.4149045
79850064,0.34579343,0.4149045
80349783,0.3465075,0.4149045
80849337,0.3440662,0.4149045
81349280,0.34354645,0.4149045
81849327,0.34619415,0.4149045
82349283,0.34347022,0.4149045
82849281,0.344334,0.4149045
83349281,0.34467268,0.4149045
83849281,0.34553403,0.4149045
84349282,0.34504932,0.4149045
84849281,0.34494066,0.4149045
85349404,0.34674,0.4149045
85849282,0.34538698,0.4149045
86349283,0.343584,0.4149045
86849282,0.344468,0.4149045
87349573,0.34475207,0.4149045
87849537,0.34426636,0.4149045
88349296,0.34538835,0.4149045
88849295,0.3444426,0.4149045
89349282,0.344185,0.4149045
89849283,0.3465013,0.4149045
90349329,0.34377068,0.4149045
90849326,0.34435487,0.4149045
91349282,0.34462047,0.4149045
91849282,0.34513068,0.4149045
92349310,0.34589362,0.4149045
92849280,0.34478033,0.4149045
93349283,0.345344,0.4149045
93849282,0.3446493,0.4149045
94349282,0.3445207,0.4149045
94849421,0.34567392,0.4149045
95349678,0.34355348,0.4149045
95849342,0.3420425,0.4149045
96350128,0.34369463,0.4149045
96849609,0.3456478,0.4149045
97349297,0.34557265,0.4149045
97849282,0.34392267,0.4149045
98349283,0.34561133,0.4149045
98849281,0.34411597,0.4149045
99349407,0.3437081,0.4149045
99849283,0.3454724,0.4149045
100349282,0.34346068,0.4149045
100849281,0.345344,0.4149045
101349283,0.3439933,0.4149045
101849291,0.34365314,0.4149045
102349542,0.34469903,0.4149045
102849334,0.34303194,0.4149045
103349284,0.34301907,0.4149045
103849281,0.3434167,0.4149045
104349412,0.34356207,0.4149045
104849282,0.344122,0.4149045
105349291,0.3451571,0.4149045
105849282,0.34409553,0.4149045
106349296,0.34500974,0.4149045
106849281,0.34428495,0.4149045
107349281,0.34380603,0.4149045
107849301,0.3448367,0.4149045
108349670,0.34575766,0.4149045
108849306,0.34506583,0.4149045
109349628,0.34508312,0.4149045
109849311,0.34397268,0.4149045
110349281,0.3451187,0.4149045
110849319,0.34365195,0.4149045
111349283,0.34425008,0.4149045
111849284,0.34548002,0.4149045
112349281,0.34381598,0.4149045
112849508,0.34307498,0.4149045
113349669,0.34497327,0.4149045
113849963,0.3441146,0.4149045
114349381,0.3435127,0.4149045
114849297,0.34495997,0.4149045
115349280,0.34419668,0.4149045
115849282,0.3435313,0.4149045
116349282,0.34475398,0.4149045
116849359,0.34402764,0.4149045
117349282,0.34538126,0.4149045
117849283,0.3440773,0.4149045
118349279,0.34660667,0.4149045
118849283,0.34449798,0.4149045
119349281,0.34588534,0.4149045
119849726,0.3455425,0.4149045
120349322,0.34610295,0.4149045
120849281,0.34521908,0.4149045
121349283,0.34401602,0.4149045
121849281,0.34515268,0.4149045
122349316,0.34598845,0.4149045
122849296,0.3441571,0.4149045
123349282,0.34602767,0.4149045
123849295,0.34445435,0.4149045
124349415,0.3461383,0.4149045
124849297,0.34388548,0.4149045
125349538,0.34243536,0.4149045
125849284,0.34287548,0.4149045
126349281,0.3433354,0.4149045
126849283,0.3424766,0.4149045
127349323,0.34036213,0.4149045
127849322,0.34653997,0.4149045
128349282,0.34731978,0.4149045
128849281,0.34781802,0.4149045
129349282,0.3465013,0.4149045
129849294,0.34812868,0.4149045
130349282,0.3459453,0.4149045
130849292,0.34760767,0.4149045
131350171,0.35895836,0.4149045
131849595,0.34072733,0.4149045
132349284,0.3423149,0.4149045
132849283,0.3475206,0.4149045
133349281,0.3474334,0.4149045
133849281,0.34670198,0.4149045
134349296,0.3464076,0.4149045
134849283,0.34657842,0.4149045
135349279,0.34621668,0.4149045
135849298,0.34611952,0.4149045
136349280,0.34494442,0.4149045
136849282,0.346362,0.4149045
137349281,0.3466773,0.4149045
137849330,0.34630936,0.4149045
138349305,0.34665734,0.4149045
138849940,0.34867603,0.4149045
139349835,0.34697425,0.4149045
139849431,0.34945303,0.4149045
140349311,0.34657788,0.4149045
140849296,0.34931332,0.4149045
141349298,0.34712887,0.4149045
141849284,0.34786385,0.4149045
142349305,0.34600538,0.4149045
142849491,0.34796864,0.4149045
143349285,0.34694362,0.4149045
143849281,0.346806,0.4149045
144349280,0.34506667,0.4149045
144849295,0.34788024,0.4149045
145349305,0.3458897,0.4149045
145849288,0.34728116,0.4149045
146349664,0.34414387,0.4149045
146849408,0.34710574,0.4149045
147349283,0.3463686,0.4149045
147849318,0.3470763,0.4149045
148349360,0.34503973,0.4149045
148849760,0.3458177,0.4149045
149349284,0.34597838,0.4149045
149849282,0.3450827,0.4149045
150349282,0.346842,0.4149045
150849280,0.3453573,0.4149045
151349281,0.346022,0.4149045
151849293,0.34639102,0.4149045
152349280,0.34510964,0.4149045
152849283,0.3454193,0.4149045
153349281,0.3456567,0.4149045
153849738,0.34658992,0.4149045
154349897,0.34733623,0.4149045
154849420,0.34623092,0.4149045
155349333,0.3470412,0.4149045
155849284,0.3489948,0.4149045
156349282,0.34914672,0.4149045
156849282,0.3476473,0.4149045
157349292,0.34840035,0.4149045
157849285,0.34774834,0.4149045
158349281,0.3481933,0.4149045
158849294,0.34810495,0.4149045
159349285,0.34778434,0.4149045
159849282,0.3490767,0.4149045
160349343,0.34897745,0.4149045
160849282,0.3473251,0.4149045
161349384,0.3486662,0.4149045
161849280,0.34770966,0.4149045
162349299,0.34804618,0.4149045
162849283,0.34820384,0.4149045
163349282,0.347686,0.4149045
163849283,0.34820002,0.4149045
164349311,0.34964132,0.4149045
164849492,0.3474387,0.4149045
165349599,0.3493234,0.4149045
165849353,0.34857064,0.4149045
166350327,0.3475802,0.4149045
166849298,0.34958065,0.4149045
167349283,0.3485207,0.4149045
167849286,0.3499673,0.4149045
168349279,0.34828067,0.4149045
168849781,0.34970242,0.4149045
169349369,0.34866053,0.4149045
169849282,0.35077244,0.4149045
170349282,0.34784263,0.4149045
170849285,0.3487987,0.4149045
171349281,0.34644002,0.4149045
171849302,0.3491187,0.4149045
172349365,0.34915668,0.4149045
172849297,0.34796125,0.4149045
173349281,0.34984517,0.4149045
173849283,0.3481847,0.4149045
174349281,0.348642,0.4149045
174849389,0.34806198,0.4149045
175349296,0.34934407,0.4149045
175849280,0.34899932,0.4149045
176349375,0.34791058,0.4149045
176849283,0.34700793,0.4149045
177349308,0.3499546,0.4149045
177849529,0.347547,0.4149045
178349298,0.349082,0.4149045
178849282,0.34897244,0.4149045
179349282,0.348306,0.4149045
179849502,0.3497848,0.4149045
180349284,0.3477723,0.4149045
180849283,0.35018402,0.4149045
181349281,0.3493827,0.4149045
181849285,0.3494153,0.4149045
182349280,0.34784,0.4149045
182849473,0.34867948,0.4149045
183350033,0.3492821,0.4149045
183850087,0.34873563,0.4149045
184349282,0.34757632,0.4149045
184849287,0.34996718,0.4149045
185349281,0.3471328,0.4149045
185849281,0.34783798,0.4149045
186349285,0.34957403,0.4149045
186849311,0.34610194,0.4149045
187349436,0.34931666,0.4149045
187849282,0.34812522,0.4149045
188349283,0.348498,0.4149045
188849282,0.34830397,0.4149045
189349280,0.3488927,0.4149045
189849331,0.35787433,0.4149045
190349298,0.36155897,0.4149045
