timestamp,timestamp_sample,q[0],q[1],q[2],q[3],delta_q_reset[0],delta_q_reset[1],delta_q_reset[2],delta_q_reset[3],quat_reset_counter
17347325,17346753,0.24744403,0.0105703585,-0.01719357,0.968692,0.9999991,-2.2249977e-09,1.0338698e-09,-0.0013239303,3
17847262,17846895,0.24736518,0.010569828,-0.01710906,0.9687136,0.9999991,-2.2249977e-09,1.0338698e-09,-0.0013239303,3
18347558,18347037,0.24719237,0.010680541,-0.017019685,0.9687581,0.9999991,-2.2249977e-09,1.0338698e-09,-0.0013239303,3
18847536,18847179,0.24698035,0.010628318,-0.017062308,0.9688119,0.9999991,-2.2249977e-09,1.0338698e-09,-0.0013239303,3
19347846,19347321,0.24673799,0.010650077,-0.01703294,0.9688741,0.9999991,-2.2249977e-09,1.0338698e-09,-0.0013239303,3
19847826,19847463,0.24665976,0.0104923,-0.017528035,0.9688868,0.9999991,-2.2249977e-09,1.0338698e-09,-0.0013239303,3
20348182,20347604,0.24645525,0.010575622,-0.017521746,0.96893805,0.9999991,-2.2249977e-09,1.0338698e-09,-0.0013239303,3
20848089,20847746,0.2463132,0.010531675,-0.017649822,0.9689724,0.9999991,-2.2249977e-09,1.0338698e-09,-0.0013239303,3
21348521,21347888,0.24623615,0.010631377,-0.017374478,0.9689958,0.9999991,-2.2249977e-09,1.0338698e-09,-0.0013239303,3
21848387,21848029,0.24635169,0.0105817765,-0.017353132,0.9689674,0.9999991,-2.2249977e-09,1.0338698e-09,-0.0013239303,3
22349283,22348171,0.24610825,0.0105879195,-0.017494056,0.9690266,0.9999991,-2.2249977e-09,1.0338698e-09,-0.0013239303,3
22848737,22848313,0.24608533,0.010605597,-0.017342657,0.96903497,0.9999991,-2.2249977e-09,1.0338698e-09,-0.0013239303,3
23348948,23348454,0.24606493,0.0106345285,-0.017239438,0.96904165,0.9999991,-2.2249977e-09,1.0338698e-09,-0.0013239303,3
23848937,23848595,0.24601859,0.0105698155,-0.017378097,0.9690517,0.9999991,-2.2249977e-09,1.0338698e-09,-0.0013239303,3
24349269,24348737,0.2459558,0.010855776,-0.01747706,0.96906275,0.9999991,-2.2249977e-09,1.0338698e-09,-0.0013239303,3
24849274,24848878,0.2456679,0.0109104095,-0.017671842,0.9691315,0.9999991,-2.2249977e-09,1.0338698e-09,-0.0013239303,3
25344339,25343968,0.24538086,0.010846888,-0.017630475,0.9692058,0.9999991,-2.2249977e-09,1.0338698e-09,-0.0013239303,3
25844589,25844109,0.24488565,0.011495333,-0.018483749,0.96930766,0.9999991,-2.2249977e-09,1.0338698e-09,-0.0013239303,3
26349804,26349303,0.24507315,0.011383888,-0.018296,0.96926516,0.9999991,-2.2249977e-09,1.0338698e-09,-0.0013239303,3
26849785,26849444,0.24486731,0.011528025,-0.018565511,0.9693103,0.9999991,-2.2249977e-09,1.0338698e-09,-0.0013239303,3
27350188,27349585,0.24493855,0.011536572,-0.018266965,0.9692978,0.9999991,-2.2249977e-09,1.0338698e-09,-0.0013239303,3
27850068,27849727,0.24500042,0.011660299,-0.017957157,0.96928656,0.9999991,-2.2249977e-09,1.0338698e-09,-0.0013239303,3
28350362,28349868,0.24503604,0.011643645,-0.01793989,0.96927804,0.9999991,-2.2249977e-09,1.0338698e-09,-0.0013239303,3
28845455,28844957,0.24514031,0.011744018,-0.017571917,0.9692573,0.9999991,-2.2249977e-09,1.0338698e-09,-0.0013239303,3
29345460,29345099,0.24526623,0.011816206,-0.017301597,0.9692294,0.9999991,-2.2249977e-09,1.0338698e-09,-0.0013239303,3
29845795,29845240,0.24537244,0.01183232,-0.017138124,0.96920526,0.9999991,-2.2249977e-09,1.0338698e-09,-0.0013239303,3
30345719,30345381,0.24525037,0.011739473,-0.017561892,0.96922964,0.9999991,-2.2249977e-09,1.0338698e-09,-0.0013239303,3
30846086,30845522,0.24520622,0.011702637,-0.017578822,0.9692409,0.9999991,-2.2249977e-09,1.0338698e-09,-0.0013239303,3
31351255,31350716,0.245002,0.01144564,-0.018186953,0.9692845,0.9999991,-2.2249977e-09,1.0338698e-09,-0.0013239303,3
31851200,31850857,0.24499393,0.011331657,-0.018410472,0.9692836,0.9999991,-2.2249977e-09,1.0338698e-09,-0.0013239303,3
32346354,32345946,0.24490225,0.011286183,-0.019172054,0.9692925,0.9999991,-2.2249977e-09,1.0338698e-09,-0.0013239303,3
32846661,32846087,0.2450324,0.011054209,-0.019824905,0.9692492,0.9999991,-2.2249977e-09,1.0338698e-09,-0.0013239303,3
33346569,33346229,0.24537739,0.011074924,-0.019529287,0.96916765,0.9999991,-2.2249977e-09,1.0338698e-09,-0.0013239303,3
33846939,33846370,0.24567825,0.011275764,-0.01864923,0.96910644,0.9999991,-2.2249977e-09,1.0338698e-09,-0.0013239303,3
34346871,34346511,0.24563423,0.0114614535,-0.017686862,0.96913344,0.9999991,-2.2249977e-09,1.0338698e-09,-0.0013239303,3
34847200,34846652,0.24534789,0.011867067,-0.017336728,0.96920747,0.9999991,-2.2249977e-09,1.0338698e-09,-0.0013239303,3
35347151,35346793,0.24420077,0.011413455,-0.017110707,0.9695066,0.9999991,-2.2249977e-09,1.0338698e-09,-0.0013239303,3
35847461,35846935,0.24005933,0.008875586,-0.018609824,0.9705392,0.9999991,-2.2249977e-09,1.0338698e-09,-0.0013239303,3
36347413,36347076,0.23531684,0.007122591,-0.021030294,0.9716651,0.9999991,-2.2249977e-09,1.0338698e-09,-0.0013239303,3
36847708,36847217,0.2337399,0.007599385,-0.023634536,0.97198224,0.9999991,-2.2249977e-09,1.0338698e-09,-0.0013239303,3
37347701,37347358,0.24820094,-0.015609257,-0.028301762,0.9681692,0.9999991,-2.2249977e-09,1.0338698e-09,-0.0013239303,3
37848335,37847500,0.2460923,-0.015404861,-0.027200712,0.9687422,0.9999991,-2.2249977e-09,1.0338698e-09,-0.0013239303,3
38348193,38347643,0.24506256,-0.015281395,-0.026645012,0.96902066,0.9999991,-2.2249977e-09,1.0338698e-09,-0.0013239303,3
38848239,38847782,0.24411409,-0.016630609,-0.027403498,0.96921664,0.9999991,-2.2249977e-09,1.0338698e-09,-0.0013239303,3
39348219,39347923,0.24378794,-0.017373113,-0.027939279,0.9692704,0.9999991,-2.2249977e-09,1.0338698e-09,-0.0013239303,3
39848544,39848065,0.24295796,-0.016962267,-0.02978334,0.9694311,0.9999991,-2.2249977e-09,1.0338698e-09,-0.0013239303,3
40348527,40348206,0.2433974,-0.01712058,-0.028893014,0.96934503,0.9999991,-2.2249977e-09,1.0338698e-09,-0.0013239303,3
40848742,40848347,0.2453529,-0.018660204,-0.02876661,0.96882725,0.9999991,-2.2249977e-09,1.0338698e-09,-0.0013239303,3
41348782,41348488,0.24538967,-0.015265093,-0.026631271,0.9689384,0.9999991,-2.2249977e-09,1.0338698e-09,-0.0013239303,3
41849228,41848630,0.24506564,-0.016452802,-0.024391511,0.96905994,0.9999991,-2.2249977e-09,1.0338698e-09,-0.0013239303,3
42349062,42348771,0.24515359,-0.029401168,-0.019688025,0.9688383,0.9999991,-2.2249977e-09,1.0338698e-09,-0.0013239303,3
42844154,42843861,0.24435413,-0.033575833,-0.017524904,0.9689461,0.9999991,-2.2249977e-09,1.0338698e-09,-0.0013239303,3
43349421,43349054,0.24245992,-0.031505845,-0.015599578,0.96952426,0.9999991,-2.2249977e-09,1.0338698e-09,-0.0013239303,3
43849571,43849195,0.25301176,-0.047543786,0.0025345034,0.96629095,0.9999991,-2.2249977e-09,1.0338698e-09,-0.0013239303,3
44349603,44349336,0.24784033,-0.030291686,-0.0046435622,0.96831614,0.9999991,-2.2249977e-09,1.0338698e-09,-0.0013239303,3
44849940,44849478,0.24663821,-0.016129773,-0.00748179,0.9689445,0.9999991,-2.2249977e-09,1.0338698e-09,-0.0013239303,3
45349842,45349619,0.24350943,-0.005905602,-0.00796671,0.9698479,0.9999991,-2.2249977e-09,1.0338698e-09,-0.0013239303,3
45850127,45849761,0.2378351,0.00045028742,-0.00216455,0.97130305,0.9999991,-2.2249977e-09,1.0338698e-09,-0.0013239303,3
46345183,46344850,0.24146746,0.0031379843,-0.0052311975,0.9703898,0.9999991,-2.2249977e-09,1.0338698e-09,-0.0013239303,3
46845254,46844991,0.24789093,0.0040304298,-0.010213049,0.9687258,0.9999991,-2.2249977e-09,1.0338698e-09,-0.0013239303,3
47345483,47345133,0.25248814,0.0049244175,-0.014879169,0.96747315,0.9999991,-2.2249977e-09,1.0338698e-09,-0.0013239303,3
47845496,47845274,0.25798672,0.0051723644,-0.018983608,0.96594816,0.9999991,-2.2249977e-09,1.0338698e-09,-0.0013239303,3
48350690,48350468,0.26292697,0.006233222,-0.022487847,0.9645335,0.9999991,-2.2249977e-09,1.0338698e-09,-0.0013239303,3
48851035,48850609,0.26630503,0.00880879,-0.02579976,0.9635033,0.9999991,-2.2249977e-09,1.0338698e-09,-0.0013239303,3
49351040,49350751,0.2653533,0.0075317402,-0.023546053,0.96383435,0.9999991,-2.2249977e-09,1.0338698e-09,-0.0013239303,3
49846129,49845840,0.26121122,0.009370345,-0.019161912,0.96504605,0.9999991,-2.2249977e-09,1.0338698e-09,-0.0013239303,3
50346369,50345982,0.2558732,0.0104188835,-0.015776148,0.96652555,0.9999991,-2.2249977e-09,1.0338698e-09,-0.0013239303,3
50846433,50846123,0.25232545,0.012602741,-0.014482895,0.96745205,0.9999991,-2.2249977e-09,1.0338698e-09,-0.0013239303,3
51346676,51346265,0.25426745,0.014134836,-0.018666297,0.9668505,0.9999991,-2.2249977e-09,1.0338698e-09,-0.0013239303,3
51846688,51846406,0.26218402,0.012001344,-0.02558473,0.964604,0.9999991,-2.2249977e-09,1.0338698e-09,-0.0013239303,3
52346936,52346548,0.26771706,0.0107973395,-0.03345207,0.9628562,0.9999991,-2.2249977e-09,1.0338698e-09,-0.0013239303,3
52847088,52846690,0.26274347,0.011367579,-0.03400103,0.9641995,0.9999991,-2.2249977e-09,1.0338698e-09,-0.0013239303,3
53347232,53346831,0.25234845,0.012221017,-0.03007981,0.96709156,0.9999991,-2.2249977e-09,1.0338698e-09,-0.0013239303,3
53847664,53846973,0.24232502,0.013563042,-0.025759162,0.96975833,0.9999991,-2.2249977e-09,1.0338698e-09,-0.0013239303,3
54347555,54347115,0.23598006,0.015489005,-0.02339829,0.9713527,0.9999991,-2.2249977e-09,1.0338698e-09,-0.0013239303,3
54847482,54847256,0.2338449,0.017307455,-0.022093568,0.97186875,0.9999991,-2.2249977e-09,1.0338698e-09,-0.0013239303,3
55347750,55347398,0.2389695,-0.08800066,-0.026829978,0.96665907,0.9999991,-2.2249977e-09,1.0338698e-09,-0.0013239303,3
55847758,55847540,0.2648687,-0.066718705,-0.032763455,0.9614155,0.9999991,-2.2249977e-09,1.0338698e-09,-0.0013239303,3
56348025,56347682,0.26971877,-0.07098448,-0.03658377,0.9596222,0.9999991,-2.2249977e-09,1.0338698e-09,-0.0013239303,3
56848047,56847823,0.25799888,-0.047660742,-0.041629005,0.9640706,0.9999991,-2.2249977e-09,1.0338698e-09,-0.0013239303,3
57348298,57347965,0.23044002,-0.013207282,-0.03888729,0.9722195,0.9999991,-2.2249977e-09,1.0338698e-09,-0.0013239303,3
57848324,57848107,0.22080734,-0.0065142224,-0.029545711,0.9748481,0.9999991,-2.2249977e-09,1.0338698e-09,-0.0013239303,3
58348572,58348249,0.21501173,-0.003209263,-0.021207167,0.97637594,0.9999991,-2.2249977e-09,1.0338698e-09,-0.0013239303,3
58848756,58848391,0.22125244,0.0014346525,-0.017011866,0.97506714,0.9999991,-2.2249977e-09,1.0338698e-09,-0.0013239303,3
59348975,59348533,0.23044673,0.0069608586,-0.015140403,0.9729423,0.9999991,-2.2249977e-09,1.0338698e-09,-0.0013239303,3
59848956,59848674,0.24633643,0.010014278,-0.021169635,0.96890146,0.9999991,-2.2249977e-09,1.0338698e-09,-0.0013239303,3
60344056,60343764,0.25922015,0.010851001,-0.029401898,0.96530974,0.9999991,-2.2249977e-09,1.0338698e-09,-0.0013239303,3
60849245,60848958,0.26528043,0.0113705285,-0.03219203,0.96356666,0.9999991,-2.2249977e-09,1.0338698e-09,-0.0013239303,3
61349511,61349100,0.26204014,0.014874021,-0.029259715,0.96449864,0.9999991,-2.2249977e-09,1.0338698e-09,-0.0013239303,3
61849544,61849242,0.25151375,0.01934069,-0.02095866,0.9674335,0.9999991,-2.2249977e-09,1.0338698e-09,-0.0013239303,3
62350015,62349385,0.24196275,0.02201397,-0.0123917665,0.9699567,0.9999991,-2.2249977e-09,1.0338698e-09,-0.0013239303,3
62849808,62849526,0.23693192,0.023541728,-0.009622452,0.9711933,0.9999991,-2.2249977e-09,1.0338698e-09,-0.0013239303,3
63344921,63344617,0.23943378,0.025493158,-0.014656116,0.9704673,0.9999991,-2.2249977e-09,1.0338698e-09,-0.0013239303,3
63845476,63844759,0.24390478,0.024875524,-0.019677956,0.96928036,0.9999991,-2.2249977e-09,1.0338698e-09,-0.0013239303,3
64345181,64344901,0.2492889,0.024314687,-0.024125017,0.9678233,0.9999991,-2.2249977e-09,1.0338698e-09,-0.0013239303,3
64845443,64845043,0.25186124,0.024912821,-0.026368339,0.96708333,0.9999991,-2.2249977e-09,1.0338698e-09,-0.0013239303,3
65345466,65345185,0.2504876,0.027511239,-0.023762867,0.9674371,0.9999991,-2.2249977e-09,1.0338698e-09,-0.0013239303,3
65850696,65850379,0.24565887,0.029890224,-0.020187508,0.96868515,0.9999991,-2.2249977e-09,1.0338698e-09,-0.0013239303,3
66350913,66350521,0.2396931,0.031352215,-0.014628919,0.9702321,0.9999991,-2.2249977e-09,1.0338698e-09,-0.0013239303,3
66846001,66845612,0.23719582,0.02929559,-0.015880134,0.97089016,0.9999991,-2.2249977e-09,1.0338698e-09,-0.0013239303,3
67346038,67345754,0.2394371,0.027082931,-0.022753414,0.97026736,0.9999991,-2.2249977e-09,1.0338698e-09,-0.0013239303,3
67846284,67845896,0.24245563,0.026167858,-0.027110914,0.9694305,0.9999991,-2.2249977e-09,1.0338698e-09,-0.0013239303,3
68346339,68346038,0.24548875,0.025981849,-0.029326454,0.96860737,0.9999991,-2.2249977e-09,1.0338698e-09,-0.0013239303,3
68846557,68846181,0.24509102,0.027127223,-0.028039876,0.96871483,0.9999991,-2.2249977e-09,1.0338698e-09,-0.0013239303,3
69346969,69346323,0.2387173,0.028518245,-0.023567708,0.9703842,0.9999991,-2.2249977e-09,1.0338698e-09,-0.0013239303,3
69846816,69846465,0.23042655,0.0305012,-0.015454851,0.9724889,0.9999991,-2.2249977e-09,1.0338698e-09,-0.0013239303,3
70346828,70346608,0.22765282,0.031092811,-0.0142197125,0.973142,0.9999991,-2.2249977e-09,1.0338698e-09,-0.0013239303,3
70847072,70846750,0.22950992,0.029183267,-0.021991884,0.9726202,0.9999991,-2.2249977e-09,1.0338698e-09,-0.0013239303,3
71347111,71346893,0.23322777,0.02683277,-0.029774738,0.9715957,0.9999991,-2.2249977e-09,1.0338698e-09,-0.0013239303,3
71847410,71847035,0.23694396,0.026335638,-0.03022165,0.970696,0.9999991,-2.2249977e-09,1.0338698e-09,-0.0013239303,3
72347420,72347177,0.23796088,0.026416894,-0.028934792,0.9704842,0.9999991,-2.2249977e-09,1.0338698e-09,-0.0013239303,3
72847702,72847320,0.2366809,0.026639873,-0.027128404,0.97084326,0.9999991,-2.2249977e-09,1.0338698e-09,-0.0013239303,3
73347707,73347462,0.23443238,0.026295308,-0.026374051,0.97141886,0.9999991,-2.2249977e-09,1.0338698e-09,-0.0013239303,3
73847962,73847605,0.23258151,0.026948923,-0.024957798,0.9718832,0.9999991,-2.2249977e-09,1.0338698e-09,-0.0013239303,3
74347967,74347748,0.23153521,0.026797501,-0.026389174,0.97209924,0.9999991,-2.2249977e-09,1.0338698e-09,-0.0013239303,3
74848246,74847890,0.22791772,0.026906775,-0.025050716,0.9729861,0.9999991,-2.2249977e-09,1.0338698e-09,-0.0013239303,3
75348265,75348034,0.22097792,0.027613921,-0.017744761,0.9747263,0.9999991,-2.2249977e-09,1.0338698e-09,-0.0013239303,3
75848501,75848175,0.21578749,0.02967479,-0.016902065,0.97584295,0.9999991,-2.2249977e-09,1.0338698e-09,-0.0013239303,3
76348537,76348318,0.21495685,0.030453628,-0.021161579,0.97591925,0.9999991,-2.2249977e-09,1.0338698e-09,-0.0013239303,3
76848808,76848461,0.21663748,0.03135257,-0.025756568,0.9754086,0.9999991,-2.2249977e-09,1.0338698e-09,-0.0013239303,3
77348825,77348604,0.21947128,0.03152471,-0.027193218,0.9747303,0.9999991,-2.2249977e-09,1.0338698e-09,-0.0013239303,3
77843921,77843694,0.22113626,0.03203975,-0.02854426,0.97429854,0.9999991,-2.2249977e-09,1.0338698e-09,-0.0013239303,3
78349110,78348889,0.22116175,0.032512076,-0.02825907,0.9742853,0.9999991,-2.2249977e-09,1.0338698e-09,-0.0013239303,3
78849418,78849032,0.22003777,0.03308774,-0.027393768,0.9745451,0.9999991,-2.2249977e-09,1.0338698e-09,-0.0013239303,3
79349393,79349174,0.21883179,0.028463675,-0.025313858,0.97501886,0.9999991,-2.2249977e-09,1.0338698e-09,-0.0013239303,3
79849929,79849317,0.21891019,0.024366653,-0.025593009,0.9751049,0.9999991,-2.2249977e-09,1.0338698e-09,-0.0013239303,3
80349684,80349460,0.22149448,0.02203813,-0.027765466,0.9745171,0.9999991,-2.2249977e-09,1.0338698e-09,-0.0013239303,3
80849933,80849603,0.22586724,0.021657318,-0.03109485,0.97342086,0.9999991,-2.2249977e-09,1.0338698e-09,-0.0013239303,3
81345047,81344694,0.22950716,0.02232475,-0.03156259,0.97253895,0.9999991,-2.2249977e-09,1.0338698e-09,-0.0013239303,3
81845057,81844837,0.2287448,0.025020793,-0.027934516,0.9727639,0.9999991,-2.2249977e-09,1.0338698e-09,-0.0013239303,3
82345369,82344980,0.22416912,0.022869773,-0.019012148,0.9740964,0.9999991,-2.2249977e-09,1.0338698e-09,-0.0013239303,3
82845366,82845123,0.2211498,0.021182325,-0.01612025,0.9748765,0.9999991,-2.2249977e-09,1.0338698e-09,-0.0013239303,3
83350567,83350318,0.22283117,0.01854781,-0.021621682,0.97444075,0.9999991,-2.2249977e-09,1.0338698e-09,-0.0013239303,3
83851000,83850461,0.22730353,0.019278968,-0.02538372,0.97330225,0.9999991,-2.2249977e-09,1.0338698e-09,-0.0013239303,3
84350980,84350604,0.23035936,0.018736435,-0.02686182,0.9725544,0.9999991,-2.2249977e-09,1.0338698e-09,-0.0013239303,3
84846351,84845695,0.23008047,0.022441795,-0.024185378,0.9726122,0.9999991,-2.2249977e-09,1.0338698e-09,-0.0013239303,3
85346260,85345838,0.22740632,0.027366398,-0.02258362,0.9731534,0.9999991,-2.2249977e-09,1.0338698e-09,-0.0013239303,3
85846277,85845981,0.22484608,0.0283764,-0.019723998,0.97378135,0.9999991,-2.2249977e-09,1.0338698e-09,-0.0013239303,3
86346519,86346124,0.22329025,0.026784355,-0.02115477,0.9741543,0.9999991,-2.2249977e-09,1.0338698e-09,-0.0013239303,3
86846558,86846267,0.22213742,0.025876824,-0.021710116,0.9744302,0.9999991,-2.2249977e-09,1.0338698e-09,-0.0013239303,3
87346835,87346410,0.21976458,0.027589178,-0.020441199,0.97494847,0.9999991,-2.2249977e-09,1.0338698e-09,-0.0013239303,3
87846866,87846554,0.21600972,0.029593844,-0.017791454,0.9757804,0.9999991,-2.2249977e-09,1.0338698e-09,-0.0013239303,3
88347129,88346697,0.2130409,0.03097168,-0.017440304,0.97639656,0.9999991,-2.2249977e-09,1.0338698e-09,-0.0013239303,3
88847135,88846840,0.21269998,0.03236576,-0.019614425,0.97638446,0.9999991,-2.2249977e-09,1.0338698e-09,-0.0013239303,3
89347384,89346983,0.21321858,0.03246918,-0.022347042,0.9762091,0.9999991,-2.2249977e-09,1.0338698e-09,-0.0013239303,3
89847431,89847127,0.21511383,0.030652614,-0.020371493,0.9758953,0.9999991,-2.2249977e-09,1.0338698e-09,-0.0013239303,3
90347670,90347270,0.21872742,0.027128302,-0.02470464,0.9750959,0.9999991,-2.2249977e-09,1.0338698e-09,-0.0013239303,3
90847708,90847413,0.22192349,0.025972685,-0.027223729,0.9743379,0.9999991,-2.2249977e-09,1.0338698e-09,-0.0013239303,3
91347951,91347557,0.22228111,0.025575409,-0.02716631,0.9742685,0.9999991,-2.2249977e-09,1.0338698e-09,-0.0013239303,3
91848020,91847700,0.21991,0.026470136,-0.023488175,0.97487813,0.9999991,-2.2249977e-09,1.0338698e-09,-0.0013239303,3
92348238,92347844,0.21703258,0.026816942,-0.021788694,0.9755527,0.9999991,-2.2249977e-09,1.0338698e-09,-0.0013239303,3
92848317,92847987,0.21374464,0.031151647,-0.022797232,0.9761267,0.9999991,-2.2249977e-09,1.0338698e-09,-0.0013239303,3
93348562,93348130,0.20981042,0.03254764,-0.021996062,0.9769527,0.9999991,-2.2249977e-09,1.0338698e-09,-0.0013239303,3
93848570,93848274,0.20648637,0.030652104,-0.020669306,0.97775084,0.9999991,-2.2249977e-09,1.0338698e-09,-0.0013239303,3
94348834,94348417,0.20544343,0.03035704,-0.022430781,0.97794086,0.9999991,-2.2249977e-09,1.0338698e-09,-0.0013239303,3
94848875,94848561,0.20899792,0.030530954,-0.025497813,0.9771068,0.9999991,-2.2249977e-09,1.0338698e-09,-0.0013239303,3
95349279,95348705,0.21539788,0.031138675,-0.03208112,0.97550243,0.9999991,-2.2249977e-09,1.0338698e-09,-0.0013239303,3
95849138,95848848,0.22092476,0.03131925,-0.038173053,0.97404015,0.9999991,-2.2249977e-09,1.0338698e-09,-0.0013239303,3
96349420,96348992,0.22314815,0.031200767,-0.037921138,0.97354686,0.9999991,-2.2249977e-09,1.0338698e-09,-0.0013239303,3
96849430,96849136,0.2211761,0.033495396,-0.031509712,0.9741491,0.9999991,-2.2249977e-09,1.0338698e-09,-0.0013239303,3
97349698,97349279,0.21518323,0.033170305,-0.024279255,0.97570825,0.9999991,-2.2249977e-09,1.0338698e-09,-0.0013239303,3
97849714,97849423,0.20966169,0.033074483,-0.02027093,0.9770042,0.9999991,-2.2249977e-09,1.0338698e-09,-0.0013239303,3
98349961,98349567,0.20855054,0.032760754,-0.019525357,0.9772677,0.9999991,-2.2249977e-09,1.0338698e-09,-0.0013239303,3
98845002,98844658,0.21300745,0.030627506,-0.026113816,0.9762212,0.9999991,-2.2249977e-09,1.0338698e-09,-0.0013239303,3
99345021,99344802,0.21774428,0.030549271,-0.032068737,0.97500044,0.9999991,-2.2249977e-09,1.0338698e-09,-0.0013239303,3
99845271,99844946,0.21675825,0.033146568,-0.027799884,0.97526634,0.9999991,-2.2249977e-09,1.0338698e-09,-0.0013239303,3
100345310,100345090,0.21197723,0.034433078,-0.021661557,0.9764276,0.9999991,-2.2249977e-09,1.0338698e-09,-0.0013239303,3
100850555,100850285,0.20814155,0.03521133,-0.018649675,0.9772868,0.9999991,-2.2249977e-09,1.0338698e-09,-0.0013239303,3
101350771,101350430,0.20752105,0.03565625,-0.02012898,0.9773733,0.9999991,-2.2249977e-09,1.0338698e-09,-0.0013239303,3
101850801,101850580,0.20969811,0.034696512,-0.024411732,0.97684544,0.9999991,-2.2249977e-09,1.0338698e-09,-0.0013239303,3
102345910,102345665,0.21275409,0.033448678,-0.027685335,0.9761406,0.9999991,-2.2249977e-09,1.0338698e-09,-0.0013239303,3
102846287,102845809,0.21487178,0.03441118,-0.02796697,0.9756352,0.9999991,-2.2249977e-09,1.0338698e-09,-0.0013239303,3
103346184,103345953,0.21474041,0.03527176,-0.02474554,0.9757204,0.9999991,-2.2249977e-09,1.0338698e-09,-0.0013239303,3
103846424,103846097,0.21297424,0.03520692,-0.024548467,0.9761147,0.9999991,-2.2249977e-09,1.0338698e-09,-0.0013239303,3
104346461,104346241,0.21017918,0.035422415,-0.020042853,0.97681534,0.9999991,-2.2249977e-09,1.0338698e-09,-0.0013239303,3
104846733,104846385,0.20577693,0.034971334,-0.01956739,0.97777814,0.9999991,-2.2249977e-09,1.0338698e-09,-0.0013239303,3
105351929,105351581,0.20309784,0.0335857,-0.016675785,0.97844017,0.9999991,-2.2249977e-09,1.0338698e-09,-0.0013239303,3
105847019,105846673,0.20278017,0.03180783,-0.01881423,0.9785267,0.9999991,-2.2249977e-09,1.0338698e-09,-0.0013239303,3
106347039,106346817,0.20409392,0.03130844,-0.019645428,0.9782533,0.9999991,-2.2249977e-09,1.0338698e-09,-0.0013239303,3
106847288,106846961,0.20619586,0.03270143,-0.021717107,0.97772306,0.9999991,-2.2249977e-09,1.0338698e-09,-0.0013239303,3
107347366,107347106,0.20670067,0.034253094,-0.023685787,0.9775176,0.9999991,-2.2249977e-09,1.0338698e-09,-0.0013239303,3
107847626,107847250,0.2046869,0.036810018,-0.021246416,0.9779043,0.9999991,-2.2249977e-09,1.0338698e-09,-0.0013239303,3
108347658,108347394,0.20045562,0.03946538,-0.019608933,0.9787111,0.9999991,-2.2249977e-09,1.0338698e-09,-0.0013239303,3
108847861,108847538,0.19724572,0.040007785,-0.015696753,0.9794117,0.9999991,-2.2249977e-09,1.0338698e-09,-0.0013239303,3
109347901,109347682,0.19889651,0.037635323,-0.019773781,0.979098,0.9999991,-2.2249977e-09,1.0338698e-09,-0.0013239303,3
109848156,109847827,0.20521152,0.033386957,-0.027754016,0.9777543,0.9999991,-2.2249977e-09,1.0338698e-09,-0.0013239303,3
110348193,110347971,0.21174257,0.031921446,-0.032535173,0.9762621,0.9999991,-2.2249977e-09,1.0338698e-09,-0.0013239303,3
110848763,110848115,0.21462624,0.03265408,-0.031146867,0.97565323,0.9999991,-2.2249977e-09,1.0338698e-09,-0.0013239303,3
111348530,111348260,0.21344197,0.034018967,-0.0270578,0.9759883,0.9999991,-2.2249977e-09,1.0338698e-09,-0.0013239303,3
111848729,111848404,0.21035953,0.035418574,-0.023658648,0.9766958,0.9999991,-2.2249977e-09,1.0338698e-09,-0.0013239303,3
112348792,112348548,0.20682937,0.035901085,-0.022842932,0.9774513,0.9999991,-2.2249977e-09,1.0338698e-09,-0.0013239303,3
112843978,112843641,0.20362732,0.036186676,-0.021645596,0.97814,0.9999991,-2.2249977e-09,1.0338698e-09,-0.0013239303,3
113349411,113348837,0.20260945,0.036218174,-0.021583678,0.97835165,0.9999991,-2.2249977e-09,1.0338698e-09,-0.0013239303,3
113849478,113848982,0.20346795,0.03502617,-0.024641817,0.9781446,0.9999991,-2.2249977e-09,1.0338698e-09,-0.0013239303,3
114349351,114349126,0.20299242,0.03470016,-0.023346942,0.9782868,0.9999991,-2.2249977e-09,1.0338698e-09,-0.0013239303,3
114849596,114849271,0.20000872,0.034637436,-0.022358686,0.9789264,0.9999991,-2.2249977e-09,1.0338698e-09,-0.0013239303,3
115349635,115349415,0.19584857,0.03462363,-0.019069275,0.97983724,0.9999991,-2.2249977e-09,1.0338698e-09,-0.0013239303,3
115850080,115849560,0.1929229,0.03518091,-0.018874206,0.98040134,0.9999991,-2.2249977e-09,1.0338698e-09,-0.0013239303,3
116344986,116344653,0.19620253,0.0352843,-0.021352176,0.9796958,0.9999991,-2.2249977e-09,1.0338698e-09,-0.0013239303,3
116845020,116844797,0.20346706,0.03333028,-0.02906501,0.97808254,0.9999991,-2.2249977e-09,1.0338698e-09,-0.0013239303,3
117345309,117344942,0.20855136,0.03363555,-0.031536352,0.97692406,0.9999991,-2.2249977e-09,1.0338698e-09,-0.0013239303,3
117845331,117845086,0.20787597,0.036093418,-0.028296495,0.97707945,0.9999991,-2.2249977e-09,1.0338698e-09,-0.0013239303,3
118350529,118350284,0.20394059,0.03830861,-0.022750223,0.97796893,0.9999991,-2.2249977e-09,1.0338698e-09,-0.0013239303,3
118850761,118850428,0.19960925,0.037934545,-0.021456156,0.9789059,0.9999991,-2.2249977e-09,1.0338698e-09,-0.0013239303,3
119350797,119350576,0.19549757,0.032616846,-0.019374773,0.97997016,0.9999991,-2.2249977e-09,1.0338698e-09,-0.0013239303,3
119845889,119845665,0.19306158,0.033693805,-0.018289069,0.98043746,0.9999991,-2.2249977e-09,1.0338698e-09,-0.0013239303,3
120346176,120345810,0.19372067,0.030986303,-0.018310633,0.98039633,0.9999991,-2.2249977e-09,1.0338698e-09,-0.0013239303,3
120846191,120845955,0.19849358,0.033737972,-0.022007307,0.9792741,0.9999991,-2.2249977e-09,1.0338698e-09,-0.0013239303,3
121346497,121346100,0.20549105,0.034452483,-0.02809152,0.9776489,0.9999991,-2.2249977e-09,1.0338698e-09,-0.0013239303,3
121846487,121846245,0.2108749,0.0311014,-0.030586665,0.97653925,0.9999991,-2.2249977e-09,1.0338698e-09,-0.0013239303,3
122346791,122346389,0.21079557,0.026230933,-0.025939887,0.9768338,0.9999991,-2.2249977e-09,1.0338698e-09,-0.0013239303,3
122846813,122846535,0.20621592,0.029775301,-0.021720003,0.9778122,0.9999991,-2.2249977e-09,1.0338698e-09,-0.0013239303,3
123347082,123346679,0.20136034,0.03206924,-0.018970827,0.9788084,0.9999991,-2.2249977e-09,1.0338698e-09,-0.0013239303,3
123847047,123846824,0.19961698,0.03005707,-0.018419055,0.97923976,0.9999991,-2.2249977e-09,1.0338698e-09,-0.0013239303,3
124347324,124346969,0.199753,0.028756611,-0.017813032,0.9792623,0.9999991,-2.2249977e-09,1.0338698e-09,-0.0013239303,3
124847333,124847114,0.2015503,0.028880056,-0.020822749,0.9788309,0.9999991,-2.2249977e-09,1.0338698e-09,-0.0013239303,3
125347636,125347259,0.2041155,0.02288696,-0.021540344,0.97844225,0.9999991,-2.2249977e-09,1.0338698e-09,-0.0013239303,3
125847626,125847404,0.20652114,0.018993717,-0.022818435,0.9779917,0.9999991,-2.2249977e-09,1.0338698e-09,-0.0013239303,3
126348271,126347549,0.20579967,0.022842309,-0.02514187,0.97800446,0.9999991,-2.2249977e-09,1.0338698e-09,-0.0013239303,3
126847940,126847695,0.20231405,0.02509254,-0.024079597,0.9787031,0.9999991,-2.2249977e-09,1.0338698e-09,-0.0013239303,3
127348198,127347840,0.19767754,0.030922202,-0.023375113,0.9795005,0.9999991,-2.2249977e-09,1.0338698e-09,-0.0013239303,3
127848208,127847985,0.19388281,0.04013895,-0.023184886,0.979929,0.9999991,-2.2249977e-09,1.0338698e-09,-0.0013239303,3
128348454,128348130,0.19233389,0.041709926,-0.021041295,0.9802169,0.9999991,-2.2249977e-09,1.0338698e-09,-0.0013239303,3
128848497,128848275,0.19302115,0.040547393,-0.018408598,0.98018366,0.9999991,-2.2249977e-09,1.0338698e-09,-0.0013239303,3
129348743,129348420,0.19616327,0.039396502,-0.018875973,0.97959775,0.9999991,-2.2249977e-09,1.0338698e-09,-0.0013239303,3
129848785,129848566,0.20049933,0.03836081,-0.021313338,0.97871053,0.9999991,-2.2249977e-09,1.0338698e-09,-0.0013239303,3
130343877,130343659,0.20302413,0.036328316,-0.023935566,0.9782068,0.9999991,-2.2249977e-09,1.0338698e-09,-0.0013239303,3
130849079,130848856,0.20320736,0.03624447,-0.025025958,0.97814465,0.9999991,-2.2249977e-09,1.0338698e-09,-0.0013239303,3
131349564,131349002,0.20300616,0.034678623,-0.025413498,0.97823316,0.9999991,-2.2249977e-09,1.0338698e-09,-0.0013239303,3
131849392,131849147,0.20339423,0.033501454,-0.025682796,0.9781865,0.9999991,-2.2249977e-09,1.0338698e-09,-0.0013239303,3
132349648,132349294,0.20419331,0.032331064,-0.025581218,0.9780621,0.9999991,-2.2249977e-09,1.0338698e-09,-0.0013239303,3
132849662,132849438,0.20485136,0.030941207,-0.025908811,0.9779608,0.9999991,-2.2249977e-09,1.0338698e-09,-0.0013239303,3
133344757,133344531,0.20598346,0.030367479,-0.02529128,0.9777571,0.9999991,-2.2249977e-09,1.0338698e-09,-0.0013239303,3
133845028,133844677,0.20651262,0.030680731,-0.026657136,0.97759944,0.9999991,-2.2249977e-09,1.0338698e-09,-0.0013239303,3
134345071,134344822,0.20631386,0.02947402,-0.026740236,0.97767633,0.9999991,-2.2249977e-09,1.0338698e-09,-0.0013239303,3
134845292,134844967,0.20492847,0.029606096,-0.02749311,0.9779427,0.9999991,-2.2249977e-09,1.0338698e-09,-0.0013239303,3
135345354,135345113,0.2025461,0.028294554,-0.02695629,0.9784927,0.9999991,-2.2249977e-09,1.0338698e-09,-0.0013239303,3
135850531,135850311,0.19876774,0.028802935,-0.026818423,0.9792562,0.9999991,-2.2249977e-09,1.0338698e-09,-0.0013239303,3
136350814,136350456,0.19469178,0.028606597,-0.025390208,0.98011845,0.9999991,-2.2249977e-09,1.0338698e-09,-0.0013239303,3
136851305,136850608,0.19049412,0.027915765,-0.024238028,0.980992,0.9999991,-2.2249977e-09,1.0338698e-09,-0.0013239303,3
137345931,137345695,0.1859592,0.030983118,-0.02421472,0.98177034,0.9999991,-2.2249977e-09,1.0338698e-09,-0.0013239303,3
137846182,137845841,0.18029606,0.028831473,-0.023329116,0.982913,0.9999991,-2.2249977e-09,1.0338698e-09,-0.0013239303,3
138346221,138345987,0.17440073,0.030358404,-0.022262238,0.9839549,0.9999991,-2.2249977e-09,1.0338698e-09,-0.0013239303,3
138846490,138846133,0.17149515,0.030179251,-0.017139347,0.9845734,0.9999991,-2.2249977e-09,1.0338698e-09,-0.0013239303,3
139346539,139346278,0.17214777,0.029614778,-0.017699912,0.9844668,0.9999991,-2.2249977e-09,1.0338698e-09,-0.0013239303,3
139846773,139846424,0.17533748,0.02946049,-0.017114278,0.9839187,0.9999991,-2.2249977e-09,1.0338698e-09,-0.0013239303,3
140346787,140346569,0.18017165,0.0288566,-0.016985498,0.9830651,0.9999991,-2.2249977e-09,1.0338698e-09,-0.0013239303,3
140847046,140846715,0.18664953,0.029020801,-0.018229354,0.9818287,0.9999991,-2.2249977e-09,1.0338698e-09,-0.0013239303,3
141347104,141346861,0.19542408,0.02883915,-0.019259114,0.9801055,0.9999991,-2.2249977e-09,1.0338698e-09,-0.0013239303,3
141847954,141847007,0.20373026,0.029830024,-0.022089416,0.97832316,0.9999991,-2.2249977e-09,1.0338698e-09,-0.0013239303,3
142347558,142347153,0.2074505,0.029116353,-0.022948131,0.9775428,0.9999991,-2.2249977e-09,1.0338698e-09,-0.0013239303,3
142847624,142847299,0.20928687,0.028127091,-0.022778954,0.97718424,0.9999991,-2.2249977e-09,1.0338698e-09,-0.0013239303,3
143347671,143347444,0.21046524,0.02843501,-0.023320073,0.9769095,0.9999991,-2.2249977e-09,1.0338698e-09,-0.0013239303,3
143847933,143847590,0.21262681,0.027496872,-0.0248448,0.97643054,0.9999991,-2.2249977e-09,1.0338698e-09,-0.0013239303,3
144347986,144347736,0.2123927,0.027331615,-0.025784412,0.9764617,0.9999991,-2.2249977e-09,1.0338698e-09,-0.0013239303,3
144848321,144847882,0.2106052,0.026561351,-0.025982048,0.9768648,0.9999991,-2.2249977e-09,1.0338698e-09,-0.0013239303,3
145348248,145348028,0.20781209,0.027441474,-0.027013348,0.9774106,0.9999991,-2.2249977e-09,1.0338698e-09,-0.0013239303,3
145848551,145848174,0.20650661,0.026792588,-0.024466546,0.97777236,0.9999991,-2.2249977e-09,1.0338698e-09,-0.0013239303,3
146348565,146348320,0.20562269,0.02703945,-0.024991473,0.97793853,0.9999991,-2.2249977e-09,1.0338698e-09,-0.0013239303,3
146848821,146848466,0.20615113,0.027616309,-0.021056108,0.9779038,0.9999991,-2.2249977e-09,1.0338698e-09,-0.0013239303,3
147348841,147348613,0.20590836,0.02807662,-0.02380516,0.9778787,0.9999991,-2.2249977e-09,1.0338698e-09,-0.0013239303,3
147843929,147843707,0.20737714,0.027216602,-0.02296693,0.97761273,0.9999991,-2.2249977e-09,1.0338698e-09,-0.0013239303,3
148349128,148348905,0.2079924,0.028715106,-0.024693308,0.977397,0.9999991,-2.2249977e-09,1.0338698e-09,-0.0013239303,3
148849378,148849051,0.20951708,0.02720342,-0.025250914,0.97710025,0.9999991,-2.2249977e-09,1.0338698e-09,-0.0013239303,3
149349442,149349197,0.21302922,0.027410952,-0.025023097,0.97634065,0.9999991,-2.2249977e-09,1.0338698e-09,-0.0013239303,3
149849670,149849343,0.21669771,0.02747877,-0.026043544,0.9755044,0.9999991,-2.2249977e-09,1.0338698e-09,-0.0013239303,3
150349711,150349490,0.22058213,0.026826244,-0.024726558,0.97468585,0.9999991,-2.2249977e-09,1.0338698e-09,-0.0013239303,3
150849999,150849636,0.2233634,0.0269117,-0.025490783,0.97403026,0.9999991,-2.2249977e-09,1.0338698e-09,-0.0013239303,3
151345105,151344730,0.2259265,0.02669395,-0.025765328,0.9734376,0.9999991,-2.2249977e-09,1.0338698e-09,-0.0013239303,3
151845099,151844876,0.227151,0.026500013,-0.025626168,0.9731616,0.9999991,-2.2249977e-09,1.0338698e-09,-0.0013239303,3
152345563,152345023,0.22758639,0.026808381,-0.02698534,0.9730147,0.9999991,-2.2249977e-09,1.0338698e-09,-0.0013239303,3
152850563,152850221,0.22733322,0.026006456,-0.027508752,0.973081,0.9999991,-2.2249977e-09,1.0338698e-09,-0.0013239303,3
153350592,153350367,0.22518171,0.025746232,-0.02850018,0.97355956,0.9999991,-2.2249977e-09,1.0338698e-09,-0.0013239303,3
153850852,153850519,0.21970715,0.02631619,-0.02984845,0.974754,0.9999991,-2.2249977e-09,1.0338698e-09,-0.0013239303,3
154351103,154350660,0.21532533,0.026133934,-0.027602527,0.9758023,0.9999991,-2.2249977e-09,1.0338698e-09,-0.0013239303,3
154845972,154845755,0.21199326,0.02705514,-0.02313897,0.9766225,0.9999991,-2.2249977e-09,1.0338698e-09,-0.0013239303,3
155346250,155345901,0.20771109,0.02612898,-0.027250383,0.9774614,0.9999991,-2.2249977e-09,1.0338698e-09,-0.0013239303,3
155846268,155846048,0.2047277,0.01910664,-0.023753975,0.97834414,0.9999991,-2.2249977e-09,1.0338698e-09,-0.0013239303,3
156346547,156346194,0.20268561,0.022075988,-0.022306802,0.9787408,0.9999991,-2.2249977e-09,1.0338698e-09,-0.0013239303,3
156846567,156846341,0.19963105,0.02555107,-0.022930706,0.9792695,0.9999991,-2.2249977e-09,1.0338698e-09,-0.0013239303,3
157347393,157346487,0.19983557,0.029982118,-0.018931804,0.97918767,0.9999991,-2.2249977e-09,1.0338698e-09,-0.0013239303,3
157847030,157846634,0.1995214,0.032529403,-0.017673183,0.9791939,0.9999991,-2.2249977e-09,1.0338698e-09,-0.0013239303,3
158347111,158346781,0.1996718,0.032783236,-0.017041696,0.979166,0.9999991,-2.2249977e-09,1.0338698e-09,-0.0013239303,3
158847148,158846927,0.20017356,0.034264434,-0.015968438,0.9790309,0.9999991,-2.2249977e-09,1.0338698e-09,-0.0013239303,3
159347424,159347074,0.20053717,0.036350846,-0.014869644,0.9788986,0.9999991,-2.2249977e-09,1.0338698e-09,-0.0013239303,3
159847442,159847220,0.20063438,0.03478783,-0.015876971,0.9789197,0.9999991,-2.2249977e-09,1.0338698e-09,-0.0013239303,3
160347692,160347367,0.2011304,0.033679377,-0.013299366,0.978895,0.9999991,-2.2249977e-09,1.0338698e-09,-0.0013239303,3
160847763,160847514,0.2010306,0.032905046,-0.0122485,0.9789555,0.9999991,-2.2249977e-09,1.0338698e-09,-0.0013239303,3
161348060,161347660,0.20090215,0.032227892,-0.012263686,0.97900426,0.9999991,-2.2249977e-09,1.0338698e-09,-0.0013239303,3
161848025,161847807,0.2008728,0.031788696,-0.011695207,0.97903156,0.9999991,-2.2249977e-09,1.0338698e-09,-0.0013239303,3
162348298,162347954,0.20073271,0.031327367,-0.011748266,0.97907454,0.9999991,-2.2249977e-09,1.0338698e-09,-0.0013239303,3
162848408,162848101,0.20047672,0.031424433,-0.011046275,0.9791321,0.9999991,-2.2249977e-09,1.0338698e-09,-0.0013239303,3
163348576,163348248,0.20046502,0.031100241,-0.01033071,0.9791526,0.9999991,-2.2249977e-09,1.0338698e-09,-0.0013239303,3
163848614,163848395,0.20044218,0.0309654,-0.01180199,0.97914493,0.9999991,-2.2249977e-09,1.0338698e-09,-0.0013239303,3
164348954,164348541,0.20041725,0.030618422,-0.012176782,0.97915643,0.9999991,-2.2249977e-09,1.0338698e-09,-0.0013239303,3
164848907,164848688,0.20096484,0.030558005,-0.010173215,0.9790689,0.9999991,-2.2249977e-09,1.0338698e-09,-0.0013239303,3
165344047,165343783,0.20080249,0.030700892,-0.0097685605,0.9791019,0.9999991,-2.2249977e-09,1.0338698e-09,-0.0013239303,3
165849208,165848982,0.20077707,0.030549781,-0.010785084,0.9791011,0.9999991,-2.2249977e-09,1.0338698e-09,-0.0013239303,3
166349536,166349130,0.20082861,0.030493453,-0.010848491,0.97909164,0.9999991,-2.2249977e-09,1.0338698e-09,-0.0013239303,3
166849500,166849276,0.2013125,0.030052558,-0.010576042,0.97900885,0.9999991,-2.2249977e-09,1.0338698e-09,-0.0013239303,3
167349774,167349423,0.20143987,0.029757539,-0.008252813,0.97901404,0.9999991,-2.2249977e-09,1.0338698e-09,-0.0013239303,3
167850362,167849570,0.20187378,0.029917624,-0.0061717764,0.97893506,0.9999991,-2.2249977e-09,1.0338698e-09,-0.0013239303,3
168350125,168349717,0.20186582,0.029881006,-0.0036737265,0.97895044,0.9999991,-2.2249977e-09,1.0338698e-09,-0.0013239303,3
168845137,168844812,0.20185359,0.03054163,-0.0039451,0.9789314,0.9999991,-2.2249977e-09,1.0338698e-09,-0.0013239303,3
169345178,169344959,0.20197429,0.030517932,-0.0033915306,0.9789094,0.9999991,-2.2249977e-09,1.0338698e-09,-0.0013239303,3
169845433,169845107,0.20157748,0.031030003,-0.0051355786,0.9789674,0.9999991,-2.2249977e-09,1.0338698e-09,-0.0013239303,3
170345495,170345254,0.2014857,0.03097155,-0.00504872,0.97898865,0.9999991,-2.2249977e-09,1.0338698e-09,-0.0013239303,3
170850703,170850453,0.2013609,0.031067068,-0.0037116508,0.97901726,0.9999991,-2.2249977e-09,1.0338698e-09,-0.0013239303,3
171350964,171350603,0.20140009,0.030516349,-0.0037326228,0.9790265,0.9999991,-2.2249977e-09,1.0338698e-09,-0.0013239303,3
171850971,171850747,0.20142804,0.030395117,-0.0035039135,0.9790254,0.9999991,-2.2249977e-09,1.0338698e-09,-0.0013239303,3
172346067,172345843,0.20101213,0.030289514,-0.0055989064,0.97910434,0.9999991,-2.2249977e-09,1.0338698e-09,-0.0013239303,3
172846319,172845990,0.20082907,0.03047885,-0.005658077,0.97913575,0.9999991,-2.2249977e-09,1.0338698e-09,-0.0013239303,3
173346685,173346137,0.20092778,0.03047683,-0.0050248946,0.979119,0.9999991,-2.2249977e-09,1.0338698e-09,-0.0013239303,3
173846722,173846285,0.20093115,0.030386504,-0.0044704727,0.9791238,0.9999991,-2.2249977e-09,1.0338698e-09,-0.0013239303,3
174346652,174346432,0.20113157,0.030356452,-0.003047344,0.979089,0.9999991,-2.2249977e-09,1.0338698e-09,-0.0013239303,3
174846927,174846579,0.20104668,0.030343063,-0.0036711195,0.9791048,0.9999991,-2.2249977e-09,1.0338698e-09,-0.0013239303,3
175346963,175346727,0.20098057,0.030460896,-0.0048272912,0.97910964,0.9999991,-2.2249977e-09,1.0338698e-09,-0.0013239303,3
175847280,175846874,0.20137024,0.030470913,-0.0042795185,0.97903186,0.9999991,-2.2249977e-09,1.0338698e-09,-0.0013239303,3
176347243,176347021,0.20143434,0.030565651,-0.003281372,0.9790195,0.9999991,-2.2249977e-09,1.0338698e-09,-0.0013239303,3
176847505,176847169,0.20160113,0.030408103,-0.0031670043,0.97899055,0.9999991,-2.2249977e-09,1.0338698e-09,-0.0013239303,3
177347536,177347316,0.20153175,0.03060392,-0.0032753416,0.97899836,0.9999991,-2.2249977e-09,1.0338698e-09,-0.0013239303,3
177847820,177847464,0.20154522,0.030514387,-0.004064021,0.9789954,0.9999991,-2.2249977e-09,1.0338698e-09,-0.0013239303,3
178347984,178347611,0.2014852,0.030531969,-0.0046125897,0.97900474,0.9999991,-2.2249977e-09,1.0338698e-09,-0.0013239303,3
178848120,178847759,0.20142415,0.0303764,-0.005062733,0.9790199,0.9999991,-2.2249977e-09,1.0338698e-09,-0.0013239303,3
179348126,179347907,0.2013102,0.030505173,-0.0046156757,0.9790416,0.9999991,-2.2249977e-09,1.0338698e-09,-0.0013239303,3
179848379,179848054,0.20119138,0.030686352,-0.0035023147,0.979065,0.9999991,-2.2249977e-09,1.0338698e-09,-0.0013239303,3
180348446,180348202,0.20117809,0.030876052,-0.0017067731,0.97906643,0.9999991,-2.2249977e-09,1.0338698e-09,-0.0013239303,3
180848829,180848349,0.20098995,0.03089666,-0.0014413362,0.9791049,0.9999991,-2.2249977e-09,1.0338698e-09,-0.0013239303,3
181348741,181348497,0.20076905,0.030974615,-0.0031105622,0.97914386,0.9999991,-2.2249977e-09,1.0338698e-09,-0.0013239303,3
181849023,181848645,0.20069985,0.030940209,-0.0032415406,0.9791587,0.9999991,-2.2249977e-09,1.0338698e-09,-0.0013239303,3
182349014,182348793,0.20075928,0.030943193,-0.0032333536,0.9791464,0.9999991,-2.2249977e-09,1.0338698e-09,-0.0013239303,3
182844108,182843888,0.20065361,0.030964455,-0.0027943596,0.97916883,0.9999991,-2.2249977e-09,1.0338698e-09,-0.0013239303,3
183344674,183344036,0.20040771,0.03105856,-0.0028179598,0.9792161,0.9999991,-2.2249977e-09,1.0338698e-09,-0.0013239303,3
183849791,183849236,0.20038567,0.031094104,-0.0018958399,0.9792217,0.9999991,-2.2249977e-09,1.0338698e-09,-0.0013239303,3
184349605,184349384,0.20040178,0.031169245,-0.0008255607,0.9792175,0.9999991,-2.2249977e-09,1.0338698e-09,-0.0013239303,3
184849857,184849532,0.20058456,0.031025194,-0.0016306891,0.97918373,0.9999991,-2.2249977e-09,1.0338698e-09,-0.0013239303,3
185349922,185349679,0.20029715,0.031310722,-0.0030630114,0.97923005,0.9999991,-2.2249977e-09,1.0338698e-09,-0.0013239303,3
185850462,185849830,0.2002237,0.031189581,-0.003126076,0.9792487,0.9999991,-2.2249977e-09,1.0338698e-09,-0.0013239303,3
186345278,186344923,0.20004286,0.031260025,-0.0026000945,0.97928494,0.9999991,-2.2249977e-09,1.0338698e-09,-0.0013239303,3
186845291,186845071,0.19982262,0.031281296,-0.0028389278,0.9793285,0.9999991,-2.2249977e-09,1.0338698e-09,-0.0013239303,3
187345600,187345219,0.1996285,0.031307247,-0.0024838208,0.9793682,0.9999991,-2.2249977e-09,1.0338698e-09,-0.0013239303,3
187845609,187845367,0.19948259,0.03127065,-0.0027137927,0.9793986,0.9999991,-2.2249977e-09,1.0338698e-09,-0.0013239303,3
188346586,188345515,0.19934131,0.031291932,-0.0025822883,0.97942704,0.9999991,-2.2249977e-09,1.0338698e-09,-0.0013239303,3
188851062,188850715,0.19927968,0.031277463,-0.0028500918,0.97943926,0.9999991,-2.2249977e-09,1.0338698e-09,-0.0013239303,3
189351083,189350863,0.19926403,0.031367272,-0.0024493248,0.9794406,0.9999991,-2.2249977e-09,1.0338698e-09,-0.0013239303,3
189846228,189845959,0.19920456,0.03137405,-0.0023381433,0.9794528,0.9999991,-2.2249977e-09,1.0338698e-09,-0.0013239303,3
190346523,190346113,0.19918725,0.031456202,-0.0020912236,0.9794542,0.9999991,-2.2249977e-09,1.0338698e-09,-0.0013239303,3
