timestamp,timestamp_sample,q[0],q[1],q[2],q[3],delta_q_reset[0],delta_q_reset[1],delta_q_reset[2],delta_q_reset[3],quat_reset_counter
17344018,17343384,0.25356466,0.01095737,-0.010200252,0.96720266,0.9999985,2.683329e-09,1.5003336e-10,-0.0017747929,3
17843344,17842931,0.2534828,0.010974124,-0.010136338,0.96722454,0.9999985,2.683329e-09,1.5003336e-10,-0.0017747929,3
18342888,18342478,0.25331134,0.011011124,-0.01002818,0.9672702,0.9999985,2.683329e-09,1.5003336e-10,-0.0017747929,3
18842797,18842026,0.2531177,0.010975369,-0.010024685,0.9673213,0.9999985,2.683329e-09,1.5003336e-10,-0.0017747929,3
19341990,19341574,0.2529066,0.0109978095,-0.009996322,0.96737653,0.9999985,2.683329e-09,1.5003336e-10,-0.0017747929,3
19846673,19846117,0.2528255,0.010884876,-0.010540114,0.9673933,0.9999985,2.683329e-09,1.5003336e-10,-0.0017747929,3
20346339,20345789,0.2526132,0.010974196,-0.010558949,0.9674475,0.9999985,2.683329e-09,1.5003336e-10,-0.0017747929,3
20845856,20845338,0.25250083,0.010925396,-0.010615878,0.9674768,0.9999985,2.683329e-09,1.5003336e-10,-0.0017747929,3
21345492,21344886,0.25245488,0.011030698,-0.010329307,0.9674907,0.9999985,2.683329e-09,1.5003336e-10,-0.0017747929,3
21844971,21844435,0.25257134,0.010950925,-0.0102767795,0.96746176,0.9999985,2.683329e-09,1.5003336e-10,-0.0017747929,3
22344504,22343984,0.25229225,0.010965766,-0.010400715,0.96753305,0.9999985,2.683329e-09,1.5003336e-10,-0.0017747929,3
22844201,22843533,0.2522515,0.01096961,-0.010217225,0.9675456,0.9999985,2.683329e-09,1.5003336e-10,-0.0017747929,3
23344005,23343208,0.25222045,0.011091561,-0.0101076905,0.9675535,0.9999985,2.683329e-09,1.5003336e-10,-0.0017747929,3
23843283,23842757,0.25217217,0.011074084,-0.010232402,0.96756494,0.9999985,2.683329e-09,1.5003336e-10,-0.0017747929,3
24347719,24347303,0.2521324,0.01138655,-0.010367245,0.9675703,0.9999985,2.683329e-09,1.5003336e-10,-0.0017747929,3
24847289,24846853,0.25186118,0.011427075,-0.010501381,0.96763897,0.9999985,2.683329e-09,1.5003336e-10,-0.0017747929,3
25341933,25341408,0.25161058,0.011381427,-0.010434268,0.96770537,0.9999985,2.683329e-09,1.5003336e-10,-0.0017747929,3
25841491,25840958,0.2511184,0.011942948,-0.011256841,0.96781725,0.9999985,2.683329e-09,1.5003336e-10,-0.0017747929,3
26345952,26345505,0.25134194,0.011866344,-0.011066633,0.9677624,0.9999985,2.683329e-09,1.5003336e-10,-0.0017747929,3
26845661,26845056,0.2511453,0.012137057,-0.0113543235,0.9678067,0.9999985,2.683329e-09,1.5003336e-10,-0.0017747929,3
27345273,27344607,0.25119847,0.012091764,-0.011123304,0.9677962,0.9999985,2.683329e-09,1.5003336e-10,-0.0017747929,3
27845352,27844158,0.25128293,0.012224008,-0.010766288,0.9677766,0.9999985,2.683329e-09,1.5003336e-10,-0.0017747929,3
28344123,28343709,0.25133845,0.012199897,-0.010663481,0.96776366,0.9999985,2.683329e-09,1.5003336e-10,-0.0017747929,3
28843674,28843261,0.2514747,0.0123211425,-0.0103809945,0.96772975,0.9999985,2.683329e-09,1.5003336e-10,-0.0017747929,3
29343406,29342691,0.25159296,0.012412773,-0.009968881,0.9677022,0.9999985,2.683329e-09,1.5003336e-10,-0.0017747929,3
29842792,29842365,0.25171587,0.012485263,-0.009814703,0.96767086,0.9999985,2.683329e-09,1.5003336e-10,-0.0017747929,3
30342331,30341918,0.25164774,0.012351353,-0.010308788,0.9676853,0.9999985,2.683329e-09,1.5003336e-10,-0.0017747929,3
30847052,30846465,0.2516056,0.012330657,-0.010375695,0.9676957,0.9999985,2.683329e-09,1.5003336e-10,-0.0017747929,3
31346541,31346020,0.25142992,0.012045071,-0.010943205,0.9677387,0.9999985,2.683329e-09,1.5003336e-10,-0.0017747929,3
31846717,31845571,0.25143045,0.011945369,-0.0110898325,0.9677382,0.9999985,2.683329e-09,1.5003336e-10,-0.0017747929,3
32340546,32340128,0.25142878,0.011872853,-0.011897959,0.9677299,0.9999985,2.683329e-09,1.5003336e-10,-0.0017747929,3
32845198,32844677,0.25155956,0.011628712,-0.012507288,0.9676912,0.9999985,2.683329e-09,1.5003336e-10,-0.0017747929,3
33344766,33344230,0.25189203,0.011700212,-0.012109915,0.96760887,0.9999985,2.683329e-09,1.5003336e-10,-0.0017747929,3
33844353,33843783,0.25219187,0.01186795,-0.011278909,0.9675388,0.9999985,2.683329e-09,1.5003336e-10,-0.0017747929,3
34343884,34343337,0.25217733,0.012165168,-0.010308059,0.96754974,0.9999985,2.683329e-09,1.5003336e-10,-0.0017747929,3
34843413,34842890,0.25191435,0.01259121,-0.009945829,0.9676165,0.9999985,2.683329e-09,1.5003336e-10,-0.0017747929,3
35347850,35347440,0.2508434,0.012089706,-0.009701317,0.9679036,0.9999985,2.683329e-09,1.5003336e-10,-0.0017747929,3
35842516,35841998,0.24687147,0.009435016,-0.01113448,0.9689384,0.9999985,2.683329e-09,1.5003336e-10,-0.0017747929,3
36342145,36341552,0.24211109,0.007458834,-0.013372223,0.9701277,0.9999985,2.683329e-09,1.5003336e-10,-0.0017747929,3
36841630,36841107,0.24033798,0.007773917,-0.015940582,0.9705273,0.9999985,2.683329e-09,1.5003336e-10,-0.0017747929,3
37346065,37345657,0.25657913,-0.01476354,-0.019280918,0.9662181,0.9999985,2.683329e-09,1.5003336e-10,-0.0017747929,3
37845624,37845213,0.2545527,-0.014406965,-0.018191354,0.9667804,0.9999985,2.683329e-09,1.5003336e-10,-0.0017747929,3
38345214,38344768,0.25345168,-0.014148678,-0.017646013,0.96708363,0.9999985,2.683329e-09,1.5003336e-10,-0.0017747929,3
38844735,38844324,0.25258192,-0.015464462,-0.018337462,0.9672782,0.9999985,2.683329e-09,1.5003336e-10,-0.0017747929,3
39344310,39343880,0.25236306,-0.016256625,-0.018857582,0.96731234,0.9999985,2.683329e-09,1.5003336e-10,-0.0017747929,3
39843847,39843437,0.25159228,-0.015949808,-0.020612555,0.9674824,0.9999985,2.683329e-09,1.5003336e-10,-0.0017747929,3
40343873,40342993,0.25209993,-0.016225211,-0.019642582,0.96736586,0.9999985,2.683329e-09,1.5003336e-10,-0.0017747929,3
40842961,40842549,0.25402564,-0.01765532,-0.01948372,0.96684,0.9999985,2.683329e-09,1.5003336e-10,-0.0017747929,3
41342642,41342231,0.2539829,-0.014184727,-0.017514896,0.9669461,0.9999985,2.683329e-09,1.5003336e-10,-0.0017747929,3
41847303,41846783,0.25377998,-0.015172568,-0.015124723,0.9670247,0.9999985,2.683329e-09,1.5003336e-10,-0.0017747929,3
42346862,42346340,0.25404382,-0.027708199,-0.009811058,0.96674603,0.9999985,2.683329e-09,1.5003336e-10,-0.0017747929,3
42841311,42840901,0.253353,-0.031732064,-0.007402118,0.96682507,0.9999985,2.683329e-09,1.5003336e-10,-0.0017747929,3
43340872,43340458,0.2515287,-0.029611876,-0.005556911,0.96738076,0.9999985,2.683329e-09,1.5003336e-10,-0.0017747929,3
43845708,43845010,0.26286793,-0.045896463,0.014185097,0.96363515,0.9999985,2.683329e-09,1.5003336e-10,-0.0017747929,3
44345536,44344568,0.2557069,-0.02841857,0.0064966516,0.96631473,0.9999985,2.683329e-09,1.5003336e-10,-0.0017747929,3
44844818,44844125,0.2538978,-0.013996873,0.003274398,0.9671243,0.9999985,2.683329e-09,1.5003336e-10,-0.0017747929,3
45344276,45343682,0.25010756,-0.0038613037,0.0027313447,0.9682065,0.9999985,2.683329e-09,1.5003336e-10,-0.0017747929,3
45843831,45843239,0.24427484,0.0032901329,0.008228921,0.9696656,0.9999985,2.683329e-09,1.5003336e-10,-0.0017747929,3
46343480,46342797,0.24714972,0.005763504,0.005668132,0.9689436,0.9999985,2.683329e-09,1.5003336e-10,-0.0017747929,3
46842954,46842355,0.25388405,0.0068187295,0.0001525201,0.96721065,0.9999985,2.683329e-09,1.5003336e-10,-0.0017747929,3
47342517,47341912,0.2582387,0.0076497905,-0.004211553,0.9660417,0.9999985,2.683329e-09,1.5003336e-10,-0.0017747929,3
47842243,47841470,0.263939,0.007771142,-0.008334128,0.9644721,0.9999985,2.683329e-09,1.5003336e-10,-0.0017747929,3
48346507,48346024,0.26930138,0.008560447,-0.012021756,0.96294284,0.9999985,2.683329e-09,1.5003336e-10,-0.0017747929,3
48846017,48845583,0.27279216,0.011133188,-0.015350082,0.96188617,0.9999985,2.683329e-09,1.5003336e-10,-0.0017747929,3
49345547,49345140,0.2724533,0.009834105,-0.013077603,0.96202993,0.9999985,2.683329e-09,1.5003336e-10,-0.0017747929,3
49845108,49844698,0.26851603,0.01178782,-0.008643633,0.9631644,0.9999985,2.683329e-09,1.5003336e-10,-0.0017747929,3
50344664,50344257,0.2633683,0.012836268,-0.005467568,0.9645945,0.9999985,2.683329e-09,1.5003336e-10,-0.0017747929,3
50844247,50843815,0.2598064,0.014892503,-0.0041967593,0.96553683,0.9999985,2.683329e-09,1.5003336e-10,-0.0017747929,3
51343885,51343374,0.26167154,0.01629427,-0.008255939,0.9649842,0.9999985,2.683329e-09,1.5003336e-10,-0.0017747929,3
51843343,51842932,0.26960272,0.014105881,-0.014611795,0.9627574,0.9999985,2.683329e-09,1.5003336e-10,-0.0017747929,3
52342900,52342491,0.2752539,0.0127413785,-0.021954486,0.9610364,0.9999985,2.683329e-09,1.5003336e-10,-0.0017747929,3
52847563,52847045,0.27028367,0.013321456,-0.02251949,0.9624251,0.9999985,2.683329e-09,1.5003336e-10,-0.0017747929,3
53342132,53341609,0.2599774,0.01430093,-0.018663026,0.96532845,0.9999985,2.683329e-09,1.5003336e-10,-0.0017747929,3
53841579,53841168,0.24990393,0.015792063,-0.014413434,0.96803457,0.9999985,2.683329e-09,1.5003336e-10,-0.0017747929,3
54346355,54345722,0.24348769,0.017826559,-0.012095921,0.96966475,0.9999985,2.683329e-09,1.5003336e-10,-0.0017747929,3
54845802,54845281,0.24136928,0.019733224,-0.010954633,0.97017086,0.9999985,2.683329e-09,1.5003336e-10,-0.0017747929,3
55345364,55344841,0.24130295,-0.08562744,-0.014565116,0.9665551,0.9999985,2.683329e-09,1.5003336e-10,-0.0017747929,3
55844926,55844400,0.26977652,-0.062246896,-0.020753305,0.96068484,0.9999985,2.683329e-09,1.5003336e-10,-0.0017747929,3
56344509,56343959,0.27480108,-0.06650439,-0.024511164,0.9588852,0.9999985,2.683329e-09,1.5003336e-10,-0.0017747929,3
56844063,56843519,0.2637351,-0.04548347,-0.029199973,0.96307975,0.9999985,2.683329e-09,1.5003336e-10,-0.0017747929,3
57343606,57343078,0.23662327,-0.010789401,-0.02752949,0.9711515,0.9999985,2.683329e-09,1.5003336e-10,-0.0017747929,3
57843176,57842638,0.22781737,-0.0042549293,-0.020045575,0.9734883,0.9999985,2.683329e-09,1.5003336e-10,-0.0017747929,3
58342773,58342198,0.22344527,-0.0006508781,-0.013268714,0.974626,0.9999985,2.683329e-09,1.5003336e-10,-0.0017747929,3
58847173,58846753,0.22865854,0.0035558576,-0.009835521,0.9734505,0.9999985,2.683329e-09,1.5003336e-10,-0.0017747929,3
59346726,59346313,0.23798679,0.009158782,-0.008877888,0.9711847,0.9999985,2.683329e-09,1.5003336e-10,-0.0017747929,3
59846285,59845873,0.2535517,0.011888442,-0.015457946,0.96712524,0.9999985,2.683329e-09,1.5003336e-10,-0.0017747929,3
60341071,60340438,0.2657495,0.012512762,-0.023497848,0.96367455,0.9999985,2.683329e-09,1.5003336e-10,-0.0017747929,3
60845404,60844993,0.27228105,0.012791659,-0.02673949,0.9617612,0.9999985,2.683329e-09,1.5003336e-10,-0.0017747929,3
61344963,61344553,0.26930857,0.016144313,-0.024186648,0.9626148,0.9999985,2.683329e-09,1.5003336e-10,-0.0017747929,3
61844941,61844113,0.25888577,0.020746084,-0.016244782,0.9655485,0.9999985,2.683329e-09,1.5003336e-10,-0.0017747929,3
62344087,62343674,0.2493441,0.023535423,-0.008062865,0.96809536,0.9999985,2.683329e-09,1.5003336e-10,-0.0017747929,3
62843644,62843234,0.24417777,0.025068555,-0.005487839,0.9693909,0.9999985,2.683329e-09,1.5003336e-10,-0.0017747929,3
63348315,63347790,0.24609606,0.02676095,-0.010337542,0.96882087,0.9999985,2.683329e-09,1.5003336e-10,-0.0017747929,3
63842823,63842355,0.25030303,0.025860589,-0.015169488,0.9677032,0.9999985,2.683329e-09,1.5003336e-10,-0.0017747929,3
64342329,64341915,0.25559732,0.024968933,-0.019528981,0.96626353,0.9999985,2.683329e-09,1.5003336e-10,-0.0017747929,3
64841890,64841476,0.25817576,0.025274394,-0.021759812,0.9655222,0.9999985,2.683329e-09,1.5003336e-10,-0.0017747929,3
65346551,65346032,0.25688642,0.027720185,-0.019306175,0.9658511,0.9999985,2.683329e-09,1.5003336e-10,-0.0017747929,3
65846191,65845593,0.25211564,0.029965585,-0.015740752,0.967105,0.9999985,2.683329e-09,1.5003336e-10,-0.0017747929,3
66345928,66345153,0.24608724,0.03130001,-0.010299852,0.9686874,0.9999985,2.683329e-09,1.5003336e-10,-0.0017747929,3
66845237,66844714,0.24336387,0.029341804,-0.010997626,0.96942884,0.9999985,2.683329e-09,1.5003336e-10,-0.0017747929,3
67344819,67344275,0.24541983,0.026689641,-0.018023126,0.9688818,0.9999985,2.683329e-09,1.5003336e-10,-0.0017747929,3
67844374,67843836,0.2483861,0.025644436,-0.022202507,0.96806705,0.9999985,2.683329e-09,1.5003336e-10,-0.0017747929,3
68343991,68343397,0.25136805,0.025377642,-0.024499888,0.9672486,0.9999985,2.683329e-09,1.5003336e-10,-0.0017747929,3
68843576,68842959,0.2510081,0.02647338,-0.023329481,0.96734166,0.9999985,2.683329e-09,1.5003336e-10,-0.0017747929,3
69343043,69342521,0.24478357,0.027884796,-0.018828599,0.96899384,0.9999985,2.683329e-09,1.5003336e-10,-0.0017747929,3
69847494,69847079,0.2357058,0.030254303,-0.01255339,0.9712723,0.9999985,2.683329e-09,1.5003336e-10,-0.0017747929,3
70347055,70346641,0.2328871,0.030804487,-0.011496077,0.9719478,0.9999985,2.683329e-09,1.5003336e-10,-0.0017747929,3
70841747,70841208,0.23501098,0.028119728,-0.017334064,0.9714313,0.9999985,2.683329e-09,1.5003336e-10,-0.0017747929,3
71341296,71340769,0.2387516,0.025443837,-0.0244333,0.9704398,0.9999985,2.683329e-09,1.5003336e-10,-0.0017747929,3
71845740,71845327,0.24243644,0.025129942,-0.02494101,0.9695211,0.9999985,2.683329e-09,1.5003336e-10,-0.0017747929,3
72345304,72344889,0.24339318,0.025381025,-0.023706462,0.9693058,0.9999985,2.683329e-09,1.5003336e-10,-0.0017747929,3
72844882,72844451,0.24212535,0.025772829,-0.021945585,0.9696543,0.9999985,2.683329e-09,1.5003336e-10,-0.0017747929,3
73344553,73344013,0.23988272,0.025473638,-0.021269603,0.9702346,0.9999985,2.683329e-09,1.5003336e-10,-0.0017747929,3
73844114,73843700,0.23802136,0.026196256,-0.019890875,0.9707029,0.9999985,2.683329e-09,1.5003336e-10,-0.0017747929,3
74343701,74343262,0.23700899,0.026026327,-0.021362893,0.97092384,0.9999985,2.683329e-09,1.5003336e-10,-0.0017747929,3
74843519,74842699,0.23340692,0.026129972,-0.02012428,0.9718197,0.9999985,2.683329e-09,1.5003336e-10,-0.0017747929,3
75342896,75342386,0.22645746,0.027033148,-0.012738165,0.9735625,0.9999985,2.683329e-09,1.5003336e-10,-0.0017747929,3
75842534,75841948,0.22125806,0.029083949,-0.011878538,0.97470915,0.9999985,2.683329e-09,1.5003336e-10,-0.0017747929,3
76347050,76346506,0.220328,0.029673267,-0.016175264,0.9748403,0.9999985,2.683329e-09,1.5003336e-10,-0.0017747929,3
76846698,76846068,0.22193788,0.030453073,-0.020820161,0.9743628,0.9999985,2.683329e-09,1.5003336e-10,-0.0017747929,3
77346455,77345633,0.22468176,0.030637842,-0.02225524,0.9736961,0.9999985,2.683329e-09,1.5003336e-10,-0.0017747929,3
77840611,77840197,0.22628264,0.031129105,-0.023664623,0.9732765,0.9999985,2.683329e-09,1.5003336e-10,-0.0017747929,3
78345526,78344755,0.22625722,0.031576503,-0.023352066,0.97327554,0.9999985,2.683329e-09,1.5003336e-10,-0.0017747929,3
78844844,78844318,0.22504002,0.03236365,-0.02269101,0.97354746,0.9999985,2.683329e-09,1.5003336e-10,-0.0017747929,3
79344990,79343880,0.22377865,0.027942592,-0.020346416,0.974027,0.9999985,2.683329e-09,1.5003336e-10,-0.0017747929,3
79844049,79843442,0.22378193,0.023692237,-0.020464445,0.9741363,0.9999985,2.683329e-09,1.5003336e-10,-0.0017747929,3
80343644,80343005,0.22631748,0.021238223,-0.022573644,0.97356033,0.9999985,2.683329e-09,1.5003336e-10,-0.0017747929,3
80847975,80847563,0.23080349,0.02086974,-0.025710506,0.9724368,0.9999985,2.683329e-09,1.5003336e-10,-0.0017747929,3
81342656,81342130,0.2343741,0.021569189,-0.026343564,0.9715501,0.9999985,2.683329e-09,1.5003336e-10,-0.0017747929,3
81842231,81841692,0.23356856,0.02441489,-0.022905827,0.97176385,0.9999985,2.683329e-09,1.5003336e-10,-0.0017747929,3
82341868,82341255,0.22907266,0.022554565,-0.013740732,0.9730511,0.9999985,2.683329e-09,1.5003336e-10,-0.0017747929,3
82846227,82845813,0.22597814,0.020880139,-0.0106957825,0.9738499,0.9999985,2.683329e-09,1.5003336e-10,-0.0017747929,3
83345836,83345376,0.22763304,0.01817449,-0.016079295,0.9734446,0.9999985,2.683329e-09,1.5003336e-10,-0.0017747929,3
83845350,83844939,0.23211302,0.018621495,-0.019731134,0.97231036,0.9999985,2.683329e-09,1.5003336e-10,-0.0017747929,3
84344918,84344502,0.23510595,0.01824878,-0.021444868,0.9715618,0.9999985,2.683329e-09,1.5003336e-10,-0.0017747929,3
84844480,84844064,0.23501614,0.022206718,-0.018888948,0.9715542,0.9999985,2.683329e-09,1.5003336e-10,-0.0017747929,3
85344040,85343628,0.2323854,0.026994621,-0.017533477,0.9720911,0.9999985,2.683329e-09,1.5003336e-10,-0.0017747929,3
85843695,85843190,0.22974718,0.028047783,-0.014855676,0.97273266,0.9999985,2.683329e-09,1.5003336e-10,-0.0017747929,3
86343163,86342753,0.22811118,0.026384516,-0.016071498,0.9731449,0.9999985,2.683329e-09,1.5003336e-10,-0.0017747929,3
86842728,86842316,0.22692247,0.025385404,-0.016494127,0.9734422,0.9999985,2.683329e-09,1.5003336e-10,-0.0017747929,3
87347413,87346875,0.22449213,0.027083566,-0.01540406,0.9739777,0.9999985,2.683329e-09,1.5003336e-10,-0.0017747929,3
87847120,87846438,0.22068788,0.029092958,-0.012886845,0.9748253,0.9999985,2.683329e-09,1.5003336e-10,-0.0017747929,3
88341420,88341005,0.21768226,0.030419465,-0.012443358,0.97546625,0.9999985,2.683329e-09,1.5003336e-10,-0.0017747929,3
88840983,88840573,0.2172046,0.031769894,-0.014796224,0.9754968,0.9999985,2.683329e-09,1.5003336e-10,-0.0017747929,3
89345671,89345127,0.21762426,0.03181797,-0.017642872,0.9753543,0.9999985,2.683329e-09,1.5003336e-10,-0.0017747929,3
89845282,89844690,0.21947853,0.030101432,-0.015657278,0.9750272,0.9999985,2.683329e-09,1.5003336e-10,-0.0017747929,3
90344807,90344254,0.22309372,0.026450843,-0.019663807,0.9742397,0.9999985,2.683329e-09,1.5003336e-10,-0.0017747929,3
90844364,90843817,0.2261831,0.025218775,-0.022310985,0.9735027,0.9999985,2.683329e-09,1.5003336e-10,-0.0017747929,3
91343903,91343380,0.22663303,0.024893058,-0.022014294,0.97341317,0.9999985,2.683329e-09,1.5003336e-10,-0.0017747929,3
91843566,91842944,0.22430666,0.025856417,-0.018529203,0.9739993,0.9999985,2.683329e-09,1.5003336e-10,-0.0017747929,3
92343349,92342507,0.22140734,0.026327224,-0.01675673,0.974682,0.9999985,2.683329e-09,1.5003336e-10,-0.0017747929,3
92842647,92842070,0.2180889,0.030565284,-0.017957794,0.9752849,0.9999985,2.683329e-09,1.5003336e-10,-0.0017747929,3
93342177,93341634,0.21416138,0.03205959,-0.017212361,0.97612035,0.9999985,2.683329e-09,1.5003336e-10,-0.0017747929,3
93846609,93846196,0.21071504,0.030124785,-0.015684647,0.9769574,0.9999985,2.683329e-09,1.5003336e-10,-0.0017747929,3
94346168,94345756,0.20961857,0.029723657,-0.017690983,0.97717124,0.9999985,2.683329e-09,1.5003336e-10,-0.0017747929,3
94845731,94845320,0.21315366,0.029825162,-0.020574898,0.9763467,0.9999985,2.683329e-09,1.5003336e-10,-0.0017747929,3
95340465,95339888,0.21939303,0.030354358,-0.027190471,0.97478515,0.9999985,2.683329e-09,1.5003336e-10,-0.0017747929,3
95844862,95844447,0.22497831,0.030395042,-0.033388883,0.9733171,0.9999985,2.683329e-09,1.5003336e-10,-0.0017747929,3
96344419,96344011,0.22729386,0.030199505,-0.033159617,0.97279286,0.9999985,2.683329e-09,1.5003336e-10,-0.0017747929,3
96843988,96843575,0.22535948,0.03258385,-0.02702823,0.97335553,0.9999985,2.683329e-09,1.5003336e-10,-0.0017747929,3
97343553,97343139,0.21937709,0.032476608,-0.019724568,0.97489995,0.9999985,2.683329e-09,1.5003336e-10,-0.0017747929,3
97843116,97842702,0.21380326,0.032456353,-0.015662875,0.9762118,0.9999985,2.683329e-09,1.5003336e-10,-0.0017747929,3
98348016,98347262,0.2125179,0.03211985,-0.015289801,0.9765095,0.9999985,2.683329e-09,1.5003336e-10,-0.0017747929,3
98842385,98841830,0.2166361,0.029617209,-0.02134367,0.97556967,0.9999985,2.683329e-09,1.5003336e-10,-0.0017747929,3
99341927,99341394,0.22138669,0.029367749,-0.027457748,0.974357,0.9999985,2.683329e-09,1.5003336e-10,-0.0017747929,3
99841442,99840958,0.22049102,0.03221515,-0.02333715,0.9745775,0.9999985,2.683329e-09,1.5003336e-10,-0.0017747929,3
100346120,100345519,0.21566652,0.033655453,-0.01717476,0.97573584,0.9999985,2.683329e-09,1.5003336e-10,-0.0017747929,3
100846125,100845083,0.21181929,0.034463298,-0.014201453,0.9765978,0.9999985,2.683329e-09,1.5003336e-10,-0.0017747929,3
101345264,101344647,0.21115069,0.03475186,-0.015711049,0.9767092,0.9999985,2.683329e-09,1.5003336e-10,-0.0017747929,3
101844851,101844212,0.21328066,0.033779595,-0.01995942,0.97620285,0.9999985,2.683329e-09,1.5003336e-10,-0.0017747929,3
102344648,102343776,0.21635091,0.03241654,-0.023288185,0.97549945,0.9999985,2.683329e-09,1.5003336e-10,-0.0017747929,3
102844273,102843341,0.21843037,0.033404727,-0.023590438,0.9749953,0.9999985,2.683329e-09,1.5003336e-10,-0.0017747929,3
103343874,103342905,0.21824102,0.034381825,-0.020419244,0.9750753,0.9999985,2.683329e-09,1.5003336e-10,-0.0017747929,3
103843366,103842470,0.21648696,0.03428831,-0.020210525,0.9754739,0.9999985,2.683329e-09,1.5003336e-10,-0.0017747929,3
104342924,104342035,0.21369094,0.03459716,-0.015705377,0.9761622,0.9999985,2.683329e-09,1.5003336e-10,-0.0017747929,3
104847218,104846595,0.20926194,0.03414001,-0.015165096,0.97714585,0.9999985,2.683329e-09,1.5003336e-10,-0.0017747929,3
105346682,105346159,0.20658958,0.03289,-0.012244475,0.97779816,0.9999985,2.683329e-09,1.5003336e-10,-0.0017747929,3
105841345,105840728,0.20628701,0.031065233,-0.014138379,0.97789615,0.9999985,2.683329e-09,1.5003336e-10,-0.0017747929,3
106345775,106345288,0.20763259,0.030606085,-0.015068094,0.97761184,0.9999985,2.683329e-09,1.5003336e-10,-0.0017747929,3
106845334,106844853,0.20970695,0.031932488,-0.017185278,0.97709167,0.9999985,2.683329e-09,1.5003336e-10,-0.0017747929,3
107344927,107344418,0.2102014,0.03342108,-0.01923776,0.9768973,0.9999985,2.683329e-09,1.5003336e-10,-0.0017747929,3
107844462,107843982,0.20814955,0.0359606,-0.016961614,0.97728854,0.9999985,2.683329e-09,1.5003336e-10,-0.0017747929,3
108344136,108343547,0.20384355,0.0385929,-0.015370763,0.9781218,0.9999985,2.683329e-09,1.5003336e-10,-0.0017747929,3
108843594,108843112,0.2005351,0.039251897,-0.01151661,0.9788321,0.9999985,2.683329e-09,1.5003336e-10,-0.0017747929,3
109343280,109342676,0.20210409,0.03677688,-0.015529303,0.9785501,0.9999985,2.683329e-09,1.5003336e-10,-0.0017747929,3
109842723,109842241,0.20847118,0.032400135,-0.023334015,0.97721314,0.9999985,2.683329e-09,1.5003336e-10,-0.0017747929,3
110342285,110341806,0.21502706,0.030919617,-0.02803976,0.9757157,0.9999985,2.683329e-09,1.5003336e-10,-0.0017747929,3
110841852,110841371,0.21798131,0.031800658,-0.026764866,0.9750675,0.9999985,2.683329e-09,1.5003336e-10,-0.0017747929,3
111346576,111345931,0.21679112,0.033110164,-0.02289319,0.9753878,0.9999985,2.683329e-09,1.5003336e-10,-0.0017747929,3
111846148,111845496,0.21374148,0.034742247,-0.019370347,0.9760801,0.9999985,2.683329e-09,1.5003336e-10,-0.0017747929,3
112345682,112345061,0.21014774,0.03509941,-0.018653614,0.97686136,0.9999985,2.683329e-09,1.5003336e-10,-0.0017747929,3
112845149,112844626,0.20690896,0.035482246,-0.017400626,0.9775618,0.9999985,2.683329e-09,1.5003336e-10,-0.0017747929,3
113344712,113344191,0.20582159,0.035688102,-0.017411023,0.97778356,0.9999985,2.683329e-09,1.5003336e-10,-0.0017747929,3
113844594,113843755,0.20663747,0.034339104,-0.020436974,0.97760123,0.9999985,2.683329e-09,1.5003336e-10,-0.0017747929,3
114343924,114343320,0.20619993,0.03398074,-0.019319737,0.9777289,0.9999985,2.683329e-09,1.5003336e-10,-0.0017747929,3
114843517,114842885,0.20324345,0.033856507,-0.018158551,0.9783742,0.9999985,2.683329e-09,1.5003336e-10,-0.0017747929,3
115343096,115342450,0.19911249,0.03387067,-0.014984281,0.9792765,0.9999985,2.683329e-09,1.5003336e-10,-0.0017747929,3
115847492,115847011,0.19607373,0.03436924,-0.014756844,0.97987556,0.9999985,2.683329e-09,1.5003336e-10,-0.0017747929,3
116342219,116341581,0.19931768,0.03447504,-0.017096637,0.9791791,0.9999985,2.683329e-09,1.5003336e-10,-0.0017747929,3
116841783,116841146,0.20655857,0.03239769,-0.024873195,0.97758144,0.9999985,2.683329e-09,1.5003336e-10,-0.0017747929,3
117346234,117345706,0.21174671,0.032672416,-0.027354173,0.9763952,0.9999985,2.683329e-09,1.5003336e-10,-0.0017747929,3
117845763,117845272,0.21106786,0.0352443,-0.02417478,0.9765367,0.9999985,2.683329e-09,1.5003336e-10,-0.0017747929,3
118345346,118344837,0.20722272,0.037524115,-0.018810079,0.9773929,0.9999985,2.683329e-09,1.5003336e-10,-0.0017747929,3
118844878,118844402,0.2028674,0.03714872,-0.017459577,0.9783455,0.9999985,2.683329e-09,1.5003336e-10,-0.0017747929,3
119344437,119343967,0.1988052,0.031748656,-0.015184192,0.979407,0.9999985,2.683329e-09,1.5003336e-10,-0.0017747929,3
119844005,119843532,0.19631153,0.032936428,-0.014130353,0.9798864,0.9999985,2.683329e-09,1.5003336e-10,-0.0017747929,3
120343585,120343098,0.19699526,0.030259397,-0.013946798,0.97983813,0.9999985,2.683329e-09,1.5003336e-10,-0.0017747929,3
120843140,120842663,0.20166218,0.033093,-0.018082146,0.9787289,0.9999985,2.683329e-09,1.5003336e-10,-0.0017747929,3
121342705,121342229,0.20859171,0.03365029,-0.024044914,0.97712797,0.9999985,2.683329e-09,1.5003336e-10,-0.0017747929,3
121847408,121846789,0.21408507,0.03032075,-0.026696177,0.9759793,0.9999985,2.683329e-09,1.5003336e-10,-0.0017747929,3
122347166,122346355,0.21420613,0.025803208,-0.02160319,0.9762086,0.9999985,2.683329e-09,1.5003336e-10,-0.0017747929,3
122846498,122845920,0.209667,0.02910664,-0.017620314,0.9771807,0.9999985,2.683329e-09,1.5003336e-10,-0.0017747929,3
123340962,123340490,0.20474188,0.031309497,-0.014861516,0.97820234,0.9999985,2.683329e-09,1.5003336e-10,-0.0017747929,3
123845630,123845051,0.20290351,0.029335516,-0.01424553,0.9786556,0.9999985,2.683329e-09,1.5003336e-10,-0.0017747929,3
124345285,124344617,0.20303784,0.02807515,-0.013631092,0.9786734,0.9999985,2.683329e-09,1.5003336e-10,-0.0017747929,3
124844855,124844182,0.20477782,0.028282044,-0.01600046,0.978269,0.9999985,2.683329e-09,1.5003336e-10,-0.0017747929,3
125344381,125343748,0.20742184,0.02264273,-0.016024303,0.9778583,0.9999985,2.683329e-09,1.5003336e-10,-0.0017747929,3
125843896,125843313,0.20984441,0.018770225,-0.017109355,0.97740495,0.9999985,2.683329e-09,1.5003336e-10,-0.0017747929,3
126348472,126347874,0.20906928,0.022540133,-0.019582095,0.97744495,0.9999985,2.683329e-09,1.5003336e-10,-0.0017747929,3
126843718,126842445,0.20556849,0.024864271,-0.0184865,0.97815216,0.9999985,2.683329e-09,1.5003336e-10,-0.0017747929,3
127342658,127342010,0.20083553,0.030553848,-0.017996581,0.978983,0.9999985,2.683329e-09,1.5003336e-10,-0.0017747929,3
127842271,127841700,0.19685379,0.039761588,-0.018086994,0.9794593,0.9999985,2.683329e-09,1.5003336e-10,-0.0017747929,3
128346954,128346262,0.19525464,0.041521084,-0.01602271,0.97974235,0.9999985,2.683329e-09,1.5003336e-10,-0.0017747929,3
128846657,128845827,0.1958494,0.0405395,-0.013370303,0.9797045,0.9999985,2.683329e-09,1.5003336e-10,-0.0017747929,3
129346278,129345393,0.19896956,0.039520785,-0.013915361,0.9791096,0.9999985,2.683329e-09,1.5003336e-10,-0.0017747929,3
129846119,129844959,0.20328459,0.03844949,-0.01644273,0.97822636,0.9999985,2.683329e-09,1.5003336e-10,-0.0017747929,3
130344936,130344525,0.20580572,0.03620505,-0.019237168,0.9777337,0.9999985,2.683329e-09,1.5003336e-10,-0.0017747929,3
130844503,130844091,0.2059281,0.03596687,-0.020512655,0.9776909,0.9999985,2.683329e-09,1.5003336e-10,-0.0017747929,3
131344216,131343656,0.20565438,0.03420871,-0.021009766,0.9778009,0.9999985,2.683329e-09,1.5003336e-10,-0.0017747929,3
131843635,131843222,0.20601915,0.033054415,-0.021453382,0.9777543,0.9999985,2.683329e-09,1.5003336e-10,-0.0017747929,3
132343347,132342788,0.20676604,0.031713225,-0.021430511,0.97764146,0.9999985,2.683329e-09,1.5003336e-10,-0.0017747929,3
132842892,132842479,0.20740473,0.03026152,-0.021890108,0.977542,0.9999985,2.683329e-09,1.5003336e-10,-0.0017747929,3
133347572,133347040,0.20849177,0.029579097,-0.02130435,0.9773446,0.9999985,2.683329e-09,1.5003336e-10,-0.0017747929,3
133842022,133841611,0.20894414,0.029840497,-0.022762768,0.9772072,0.9999985,2.683329e-09,1.5003336e-10,-0.0017747929,3
134341595,134341177,0.20871508,0.02862506,-0.022942733,0.97728825,0.9999985,2.683329e-09,1.5003336e-10,-0.0017747929,3
134846298,134845738,0.2072711,0.028699288,-0.023787813,0.9775732,0.9999985,2.683329e-09,1.5003336e-10,-0.0017747929,3
135345820,135345304,0.20487118,0.027303712,-0.023283662,0.978131,0.9999985,2.683329e-09,1.5003336e-10,-0.0017747929,3
135845707,135844870,0.2011223,0.027755369,-0.023083204,0.9789008,0.9999985,2.683329e-09,1.5003336e-10,-0.0017747929,3
136344987,136344436,0.19698115,0.027542446,-0.021668626,0.9797808,0.9999985,2.683329e-09,1.5003336e-10,-0.0017747929,3
136844602,136844002,0.19281818,0.02686147,-0.020557541,0.9806514,0.9999985,2.683329e-09,1.5003336e-10,-0.0017747929,3
137344098,137343568,0.1881353,0.029752657,-0.020653876,0.9814751,0.9999985,2.683329e-09,1.5003336e-10,-0.0017747929,3
137843669,137843134,0.18249069,0.027506832,-0.019703534,0.98262525,0.9999985,2.683329e-09,1.5003336e-10,-0.0017747929,3
138343222,138342700,0.17652978,0.029018437,-0.018731758,0.9836891,0.9999985,2.683329e-09,1.5003336e-10,-0.0017747929,3
138842785,138842266,0.17358902,0.029005386,-0.013459765,0.98429894,0.9999985,2.683329e-09,1.5003336e-10,-0.0017747929,3
139347251,139346828,0.17421073,0.0284551,-0.014079785,0.9841965,0.9999985,2.683329e-09,1.5003336e-10,-0.0017747929,3
139846936,139846394,0.17739514,0.02838359,-0.013512616,0.9836376,0.9999985,2.683329e-09,1.5003336e-10,-0.0017747929,3
140346374,140345960,0.182205,0.027853709,-0.013327961,0.9827756,0.9999985,2.683329e-09,1.5003336e-10,-0.0017747929,3
140841092,140840537,0.18859276,0.028145742,-0.014577045,0.9815438,0.9999985,2.683329e-09,1.5003336e-10,-0.0017747929,3
141345539,141345093,0.19747265,0.028064195,-0.015585198,0.9797827,0.9999985,2.683329e-09,1.5003336e-10,-0.0017747929,3
141845069,141844659,0.20578052,0.029003602,-0.018558882,0.97799224,0.9999985,2.683329e-09,1.5003336e-10,-0.0017747929,3
142344647,142344225,0.2095227,0.02836267,-0.019371143,0.97720045,0.9999985,2.683329e-09,1.5003336e-10,-0.0017747929,3
142844202,142843791,0.2113787,0.027387785,-0.019209137,0.9768317,0.9999985,2.683329e-09,1.5003336e-10,-0.0017747929,3
143343822,143343357,0.21254489,0.027775977,-0.019707745,0.9765577,0.9999985,2.683329e-09,1.5003336e-10,-0.0017747929,3
143843504,143843049,0.21475168,0.02682252,-0.021218922,0.9760697,0.9999985,2.683329e-09,1.5003336e-10,-0.0017747929,3
144343301,144342615,0.21457642,0.026568545,-0.021963365,0.9760987,0.9999985,2.683329e-09,1.5003336e-10,-0.0017747929,3
144842594,144842182,0.21283428,0.025799243,-0.02201837,0.97649944,0.9999985,2.683329e-09,1.5003336e-10,-0.0017747929,3
145342160,145341747,0.21005434,0.026497038,-0.023156643,0.9770562,0.9999985,2.683329e-09,1.5003336e-10,-0.0017747929,3
145841849,145841439,0.20874877,0.025954455,-0.020590823,0.977408,0.9999985,2.683329e-09,1.5003336e-10,-0.0017747929,3
146346586,146346001,0.20782007,0.026116375,-0.02102482,0.97759235,0.9999985,2.683329e-09,1.5003336e-10,-0.0017747929,3
146846193,146845567,0.20833282,0.02681152,-0.01701793,0.97754234,0.9999985,2.683329e-09,1.5003336e-10,-0.0017747929,3
147345654,147345133,0.20806915,0.027077688,-0.019722266,0.9775404,0.9999985,2.683329e-09,1.5003336e-10,-0.0017747929,3
147845234,147844700,0.2095724,0.026307944,-0.018817062,0.9772581,0.9999985,2.683329e-09,1.5003336e-10,-0.0017747929,3
148344788,148344267,0.21017784,0.027783938,-0.020577066,0.9770517,0.9999985,2.683329e-09,1.5003336e-10,-0.0017747929,3
148844421,148843833,0.21173282,0.026334256,-0.021038245,0.97674626,0.9999985,2.683329e-09,1.5003336e-10,-0.0017747929,3
149343935,149343399,0.21525629,0.026636256,-0.020807154,0.97597253,0.9999985,2.683329e-09,1.5003336e-10,-0.0017747929,3
149843485,149842966,0.21887392,0.02665494,-0.02180737,0.9751453,0.9999985,2.683329e-09,1.5003336e-10,-0.0017747929,3
150343055,150342532,0.22276436,0.026121704,-0.02045055,0.97430766,0.9999985,2.683329e-09,1.5003336e-10,-0.0017747929,3
150847520,150847094,0.22556512,0.02620703,-0.02124799,0.9736437,0.9999985,2.683329e-09,1.5003336e-10,-0.0017747929,3
151342244,151341671,0.2281058,0.02597891,-0.021514926,0.97305197,0.9999985,2.683329e-09,1.5003336e-10,-0.0017747929,3
151841753,151841232,0.22931395,0.025823276,-0.021387527,0.9727748,0.9999985,2.683329e-09,1.5003336e-10,-0.0017747929,3
152346212,152345794,0.2297493,0.026078679,-0.022730203,0.97263485,0.9999985,2.683329e-09,1.5003336e-10,-0.0017747929,3
152845771,152845361,0.22950761,0.02519101,-0.023162581,0.9727052,0.9999985,2.683329e-09,1.5003336e-10,-0.0017747929,3
153345351,153344927,0.22743271,0.024839694,-0.024037393,0.9731802,0.9999985,2.683329e-09,1.5003336e-10,-0.0017747929,3
153844907,153844495,0.22193606,0.02523818,-0.02544643,0.9744024,0.9999985,2.683329e-09,1.5003336e-10,-0.0017747929,3
154344472,154344061,0.21756922,0.024945978,-0.023255607,0.9754489,0.9999985,2.683329e-09,1.5003336e-10,-0.0017747929,3
154844038,154843628,0.21415533,0.025968745,-0.018772779,0.9762739,0.9999985,2.683329e-09,1.5003336e-10,-0.0017747929,3
155343613,155343194,0.20991847,0.02481298,-0.022839436,0.9771371,0.9999985,2.683329e-09,1.5003336e-10,-0.0017747929,3
155843170,155842761,0.2069654,0.017793823,-0.019493738,0.97799224,0.9999985,2.683329e-09,1.5003336e-10,-0.0017747929,3
156342753,156342328,0.20477787,0.02076005,-0.017932234,0.978424,0.9999985,2.683329e-09,1.5003336e-10,-0.0017747929,3
156847851,156846765,0.20190331,0.024032028,-0.018769499,0.97893065,0.9999985,2.683329e-09,1.5003336e-10,-0.0017747929,3
157347662,157346457,0.20199995,0.0282185,-0.014701614,0.9788686,0.9999985,2.683329e-09,1.5003336e-10,-0.0017747929,3
157847119,157846024,0.20180878,0.031028656,-0.013625217,0.97883856,0.9999985,2.683329e-09,1.5003336e-10,-0.0017747929,3
158341007,158340595,0.20163749,0.0325994,-0.012843463,0.9788334,0.9999985,2.683329e-09,1.5003336e-10,-0.0017747929,3
158845736,158845158,0.20240507,0.033807725,-0.012005662,0.9786445,0.9999985,2.683329e-09,1.5003336e-10,-0.0017747929,3
159345266,159344725,0.20283443,0.034695655,-0.010551108,0.9785414,0.9999985,2.683329e-09,1.5003336e-10,-0.0017747929,3
159844944,159844291,0.2028821,0.033863142,-0.011578579,0.97854906,0.9999985,2.683329e-09,1.5003336e-10,-0.0017747929,3
160344543,160343733,0.20337978,0.033024687,-0.008974476,0.9785017,0.9999985,2.683329e-09,1.5003336e-10,-0.0017747929,3
160843995,160843425,0.20330021,0.03209563,-0.0077477545,0.9785597,0.9999985,2.683329e-09,1.5003336e-10,-0.0017747929,3
161343513,161342993,0.20322715,0.03147092,-0.0078028743,0.97859466,0.9999985,2.683329e-09,1.5003336e-10,-0.0017747929,3
161843400,161842559,0.2031963,0.031101078,-0.0072224145,0.97861737,0.9999985,2.683329e-09,1.5003336e-10,-0.0017747929,3
162342651,162342126,0.20311655,0.030639084,-0.0072717816,0.9786481,0.9999985,2.683329e-09,1.5003336e-10,-0.0017747929,3
162842218,162841694,0.20291702,0.030775566,-0.006609754,0.97868985,0.9999985,2.683329e-09,1.5003336e-10,-0.0017747929,3
163346672,163346256,0.20291872,0.030501425,-0.0059228484,0.9787025,0.9999985,2.683329e-09,1.5003336e-10,-0.0017747929,3
163846237,163845823,0.20294452,0.03020972,-0.007320567,0.97869676,0.9999985,2.683329e-09,1.5003336e-10,-0.0017747929,3
164345801,164345391,0.2029028,0.029905634,-0.007714083,0.9787117,0.9999985,2.683329e-09,1.5003336e-10,-0.0017747929,3
164845369,164844958,0.20345446,0.02995145,-0.0055937683,0.9786102,0.9999985,2.683329e-09,1.5003336e-10,-0.0017747929,3
165344942,165344525,0.20325051,0.030065423,-0.005331929,0.9786506,0.9999985,2.683329e-09,1.5003336e-10,-0.0017747929,3
165844597,165844092,0.20325087,0.029840406,-0.00633666,0.97865134,0.9999985,2.683329e-09,1.5003336e-10,-0.0017747929,3
166344071,166343659,0.20331039,0.029865148,-0.0064425836,0.97863764,0.9999985,2.683329e-09,1.5003336e-10,-0.0017747929,3
166843641,166843227,0.203812,0.029485453,-0.0061289594,0.97854674,0.9999985,2.683329e-09,1.5003336e-10,-0.0017747929,3
167343206,167342794,0.20388629,0.029338961,-0.0038010578,0.97854745,0.9999985,2.683329e-09,1.5003336e-10,-0.0017747929,3
167842772,167842361,0.20428452,0.029593349,-0.0018188551,0.97846246,0.9999985,2.683329e-09,1.5003336e-10,-0.0017747929,3
168342416,168341929,0.20424166,0.02963691,0.0007418624,0.97847146,0.9999985,2.683329e-09,1.5003336e-10,-0.0017747929,3
168841909,168841496,0.20422058,0.030246632,0.00041512874,0.97845745,0.9999985,2.683329e-09,1.5003336e-10,-0.0017747929,3
169341476,169341063,0.2043733,0.030192083,0.0009287355,0.97842693,0.9999985,2.683329e-09,1.5003336e-10,-0.0017747929,3
169846151,169845626,0.20407723,0.030663127,-0.0010010493,0.97847396,0.9999985,2.683329e-09,1.5003336e-10,-0.0017747929,3
170345878,170345193,0.20402852,0.030522592,-0.00060844014,0.97848886,0.9999985,2.683329e-09,1.5003336e-10,-0.0017747929,3
170845439,170844761,0.20387553,0.0308499,0.0006309152,0.97851044,0.9999985,2.683329e-09,1.5003336e-10,-0.0017747929,3
171344962,171344328,0.20387638,0.030187462,0.00060662633,0.978531,0.9999985,2.683329e-09,1.5003336e-10,-0.0017747929,3
171844541,171844021,0.20390649,0.0301023,0.0009937983,0.97852695,0.9999985,2.683329e-09,1.5003336e-10,-0.0017747929,3
172344110,172343588,0.20350288,0.029914409,-0.0011821426,0.9786166,0.9999985,2.683329e-09,1.5003336e-10,-0.0017747929,3
172843730,172843156,0.20331019,0.030084133,-0.0012618612,0.97865134,0.9999985,2.683329e-09,1.5003336e-10,-0.0017747929,3
173343323,173342723,0.20345412,0.030173,-0.0006055512,0.9786193,0.9999985,2.683329e-09,1.5003336e-10,-0.0017747929,3
173842809,173842291,0.20348889,0.030086607,-2.6699989e-05,0.97861487,0.9999985,2.683329e-09,1.5003336e-10,-0.0017747929,3
174342433,174341858,0.20367348,0.030133104,0.0015259526,0.9785739,0.9999985,2.683329e-09,1.5003336e-10,-0.0017747929,3
174847090,174846421,0.20358932,0.030084461,0.0007299627,0.9785939,0.9999985,2.683329e-09,1.5003336e-10,-0.0017747929,3
175346407,175345989,0.20358883,0.030185994,-0.00040178126,0.978591,0.9999985,2.683329e-09,1.5003336e-10,-0.0017747929,3
175841084,175840561,0.20397495,0.030193202,0.0001649264,0.97851044,0.9999985,2.683329e-09,1.5003336e-10,-0.0017747929,3
176345535,176345124,0.204086,0.030337906,0.001245142,0.97848195,0.9999985,2.683329e-09,1.5003336e-10,-0.0017747929,3
176845101,176844692,0.20429404,0.03015752,0.00129049,0.97844416,0.9999985,2.683329e-09,1.5003336e-10,-0.0017747929,3
177344671,177344260,0.20428924,0.030357491,0.0011537938,0.97843903,0.9999985,2.683329e-09,1.5003336e-10,-0.0017747929,3
177844239,177843828,0.20431693,0.030180523,0.00041710696,0.97843945,0.9999985,2.683329e-09,1.5003336e-10,-0.0017747929,3
178343810,178343396,0.20427708,0.030182568,-0.00012437913,0.97844774,0.9999985,2.683329e-09,1.5003336e-10,-0.0017747929,3
178848480,178847959,0.2041998,0.030032597,-0.00059886154,0.9784683,0.9999985,2.683329e-09,1.5003336e-10,-0.0017747929,3
179342947,179342531,0.20414132,0.030052619,-0.00019356934,0.97848004,0.9999985,2.683329e-09,1.5003336e-10,-0.0017747929,3
179842522,179842099,0.203992,0.030272333,0.00093221676,0.978504,0.9999985,2.683329e-09,1.5003336e-10,-0.0017747929,3
180342081,180341667,0.203995,0.030511865,0.0027675238,0.97849244,0.9999985,2.683329e-09,1.5003336e-10,-0.0017747929,3
180846789,180846233,0.20386645,0.030551124,0.0031068225,0.97851706,0.9999985,2.683329e-09,1.5003336e-10,-0.0017747929,3
181346365,181345801,0.20368645,0.0305432,0.0014225894,0.9785586,0.9999985,2.683329e-09,1.5003336e-10,-0.0017747929,3
181846193,181845368,0.2036263,0.0305624,0.0012129232,0.9785709,0.9999985,2.683329e-09,1.5003336e-10,-0.0017747929,3
182345453,182344935,0.20373592,0.030547569,0.0013052276,0.9785484,0.9999985,2.683329e-09,1.5003336e-10,-0.0017747929,3
182845084,182844503,0.20366274,0.030543534,0.0016706114,0.97856313,0.9999985,2.683329e-09,1.5003336e-10,-0.0017747929,3
183345036,183344071,0.20344205,0.030619515,0.0016557679,0.97860676,0.9999985,2.683329e-09,1.5003336e-10,-0.0017747929,3
183844535,183843639,0.20344126,0.030725133,0.0025719577,0.97860163,0.9999985,2.683329e-09,1.5003336e-10,-0.0017747929,3
184343995,184343207,0.203504,0.030851265,0.003709758,0.97858095,0.9999985,2.683329e-09,1.5003336e-10,-0.0017747929,3
184843328,184842775,0.20370825,0.030729823,0.0028732345,0.9785451,0.9999985,2.683329e-09,1.5003336e-10,-0.0017747929,3
185347758,185347340,0.20344537,0.030859157,0.0012630901,0.97859913,0.9999985,2.683329e-09,1.5003336e-10,-0.0017747929,3
185847358,185846910,0.20339002,0.030833773,0.0012435141,0.97861135,0.9999985,2.683329e-09,1.5003336e-10,-0.0017747929,3
186342028,186341479,0.20321453,0.030905351,0.0018494081,0.97864467,0.9999985,2.683329e-09,1.5003336e-10,-0.0017747929,3
186841623,186841048,0.20300345,0.030894235,0.0015096954,0.9786894,0.9999985,2.683329e-09,1.5003336e-10,-0.0017747929,3
187346023,187345611,0.20279938,0.030905638,0.0018697733,0.9787308,0.9999985,2.683329e-09,1.5003336e-10,-0.0017747929,3
187845662,187845180,0.20265049,0.03085325,0.001595704,0.97876376,0.9999985,2.683329e-09,1.5003336e-10,-0.0017747929,3
188345160,188344748,0.20251642,0.030934568,0.0017152985,0.97878873,0.9999985,2.683329e-09,1.5003336e-10,-0.0017747929,3
188844856,188844316,0.20249212,0.03089449,0.0014482087,0.9787954,0.9999985,2.683329e-09,1.5003336e-10,-0.0017747929,3
189344423,189344009,0.20250669,0.030985152,0.0018540099,0.97878885,0.9999985,2.683329e-09,1.5003336e-10,-0.0017747929,3
189844044,189843578,0.20249686,0.031043224,0.0019753524,0.9787888,0.9999985,2.683329e-09,1.5003336e-10,-0.0017747929,3
190343559,190343146,0.20253676,0.031149877,0.0022789552,0.9787765,0.9999985,2.683329e-09,1.5003336e-10,-0.0017747929,3
