timestamp,accel_device_id,gyro_device_id,accel_clipping[0],accel_clipping[1],accel_clipping[2],accel_error_count,gyro_error_count,accel_rate_hz,gyro_rate_hz,accel_raw_rate_hz,gyro_raw_rate_hz,accel_vibration_metric,gyro_vibration_metric,delta_angle_coning_metric,mean_accel[0],mean_accel[1],mean_accel[2],mean_gyro[0],mean_gyro[1],mean_gyro[2],var_accel[0],var_accel[1],var_accel[2],var_gyro[0],var_gyro[1],var_gyro[2],temperature_accel,temperature_gyro
17513703,2490402,2490402,0,0,0,0,0,395.8828,395.8828,7917.6562,7917.6562,0.012673413,0.0009849904,1.0210816e-11,-0.32309613,0.26275203,-9.948577,-0.0077852523,0.019795597,0.0022616277,8.803783e-05,0.00040008093,8.7288005e-05,5.187682e-07,4.920633e-07,4.3236832e-07,23.485735,23.485735
18524072,2490402,2490402,0,0,0,0,0,395.8828,395.8828,7917.6562,7917.6562,0.012591174,0.00095874607,1.1058627e-11,-0.3196453,0.2557745,-9.944189,-0.004996978,0.020442184,0.0023322543,8.196809e-05,0.00019722499,0.00022021755,5.524341e-07,6.477575e-07,4.77931e-07,23.467163,23.467163
19534461,2490402,2490402,0,0,0,0,0,395.8828,395.8828,7917.6562,7917.6562,0.012630605,0.0009296875,8.220331e-12,-0.31348544,0.25354156,-9.943925,-0.0078878645,0.02009622,0.0026607313,6.524183e-05,8.306611e-05,0.00014368715,2.94092e-07,4.6286084e-07,4.4160802e-07,23.464598,23.464598
20544844,2490402,2490402,0,0,0,0,0,395.8828,395.8828,7917.6562,7917.6562,0.012597972,0.0009492384,9.131514e-12,-0.32069877,0.2552105,-9.942238,-0.007019545,0.019807767,0.0027896545,7.156611e-05,0.00063142355,0.0001812807,6.616347e-07,5.292126e-07,5.6184507e-07,23.45252,23.45252
21454193,2490402,2490402,0,0,0,0,0,395.8828,395.8828,7917.6562,7917.6562,0.0123257,0.0009407191,7.82349e-12,-0.321363,0.25524926,-9.942221,-0.005967612,0.019796059,0.0021989257,6.626925e-05,0.00013455513,7.927536e-05,2.6930599e-07,5.315028e-07,3.066492e-07,23.442028,23.442028
22464586,2490402,2490402,0,0,0,0,0,395.8828,395.8828,7917.6562,7917.6562,0.011488545,0.00092641864,1.03832914e-11,-0.31573263,0.24951155,-9.944853,-0.0042047556,0.01987397,0.0024017047,7.9061014e-05,0.00010257163,0.00014213247,2.973523e-07,4.4118036e-07,6.972588e-07,23.44799,23.44799
23474970,2490402,2490402,0,0,0,0,0,395.8828,395.8828,7917.6562,7917.6562,0.013261032,0.0009655977,9.666584e-12,-0.31921068,0.24358647,-9.948286,-0.0052806917,0.019860245,0.002210781,9.6219585e-05,0.00027704402,0.0001291309,3.5916545e-07,6.6001763e-07,3.960285e-07,23.43116,23.43116
24485354,2490402,2490402,0,0,0,0,0,395.8828,395.8828,7917.6562,7917.6562,0.17763573,0.0019028899,2.1023258e-11,-0.3313236,0.25959736,-9.950565,-0.004695516,0.018852439,0.0042386334,0.0027971144,0.0040306374,0.09688983,8.479689e-06,5.2296073e-06,6.125347e-07,23.441046,23.441046
25495741,2490402,2490402,0,0,0,0,0,395.8828,395.8828,7917.6562,7917.6562,0.07765663,0.0012343195,9.913777e-12,-0.4329213,0.24996458,-9.960101,-0.008012054,0.018556781,0.0047138147,0.0048768674,0.0010799399,0.010450984,2.1813462e-06,4.9470787e-06,6.0499235e-07,23.42995,23.42995
26506131,2490402,2490402,0,0,0,0,0,395.8828,395.8828,7917.6562,7917.6562,0.052870322,0.0011507055,1.1870422e-11,-0.21408018,0.29278415,-9.953716,-0.009087709,0.019972855,0.0033519221,0.0018902995,0.0007218597,0.016923986,3.166051e-06,2.821275e-06,7.5852404e-07,23.431683,23.431683
27516516,2490402,2490402,0,0,0,0,0,395.8828,395.8828,7917.6562,7917.6562,0.06268856,0.001137843,1.1568504e-11,-0.3201857,0.2751772,-9.9428625,-0.0033014694,0.02232581,0.001790719,0.001241228,0.0036227752,0.020564698,1.6957127e-06,1.8992805e-06,7.551275e-07,23.43886,23.43886
28526902,2490402,2490402,0,0,0,0,0,395.8828,395.8828,7917.6562,7917.6562,0.06479858,0.0012061105,1.3886581e-11,-0.32812372,0.24251373,-9.948281,-0.005438405,0.021259502,0.0013094855,0.0013034141,0.0018360812,0.030579839,4.971605e-06,2.4196347e-06,1.3915104e-06,23.420286,23.420286
29537308,2490402,2490402,0,0,0,0,0,395.8828,395.8828,7917.6562,7917.6562,0.079213604,0.001319652,1.518589e-11,-0.31377122,0.2652025,-9.934044,-0.007363802,0.02115209,0.0021388794,0.0016585089,0.003054298,0.033091977,3.4987647e-06,2.4459357e-06,6.026619e-07,23.421345,23.421345
30547676,2490402,2490402,0,0,0,0,0,395.8828,395.8828,7917.6562,7917.6562,0.085129656,0.0014933039,1.8276412e-11,-0.32732284,0.23881052,-9.947409,-0.010863439,0.021108134,0.0031723722,0.0010541684,0.009518976,0.023709482,4.5319803e-06,2.190319e-06,2.489959e-06,23.41916,23.41916
31457022,2490402,2490402,0,0,0,0,0,395.8828,395.8828,7917.6562,7917.6562,0.067114376,0.0012617419,9.008548e-12,-0.32562435,0.29479128,-9.945823,-0.005554798,0.020547025,0.0018203974,0.00067066634,0.0022470288,0.01953028,2.2907354e-06,1.2421889e-06,3.2367095e-07,23.425499,23.425499
32467408,2490402,2490402,0,0,0,0,0,395.8828,395.8828,7917.6562,7917.6562,0.068054646,0.0012050881,1.5209283e-11,-0.32445326,0.28565386,-9.9389305,-0.0116402535,0.019641282,0.0023840242,0.00091120694,0.003490075,0.027938759,2.9745183e-06,9.315793e-07,1.0345403e-06,23.428143,23.428143
33477793,2490402,2490402,0,0,0,0,0,395.8828,395.8828,7917.6562,7917.6562,0.073033564,0.0013512615,1.2972816e-11,-0.28911635,0.31042013,-9.938538,-0.0052673207,0.019641697,0.0014276775,0.0011381694,0.0004207793,0.022779886,2.5397915e-06,1.5244863e-06,4.7689696e-07,23.42535,23.42535
34488181,2490402,2490402,0,0,0,0,0,395.8828,395.8828,7917.6562,7917.6562,0.12183719,0.0017871596,2.5120123e-11,-0.3125543,0.23932089,-9.952426,-0.000946954,0.020760084,0.0018429627,0.0011551905,0.00086519966,0.02892837,4.3327186e-06,1.7552114e-06,6.0330643e-07,23.428595,23.428595
35498566,2490402,2490402,0,0,0,0,0,395.8828,395.8828,7917.6562,7917.6562,0.094805986,0.0013840821,2.4597682e-11,-0.12181359,0.2650584,-9.960131,-0.015485793,0.02945264,0.016361734,0.107850485,0.0068317023,0.015202817,4.3003206e-06,9.530468e-06,1.7413877e-06,23.427538,23.427538
36509143,2490402,2490402,0,0,0,0,0,395.8828,395.8828,7917.6562,7917.6562,0.3414725,0.0058801356,6.312602e-11,0.9159008,0.42952117,-10.006235,-0.01249563,0.010982224,0.008423689,0.14893548,0.07964429,0.61234105,0.0002455384,2.0519572e-05,-1.6278623e-06,23.413647,23.413647
37519340,2490402,2490402,0,0,0,0,0,395.8828,395.8828,7917.6562,7917.6562,2.4098363,0.012268566,2.3671676e-10,1.3859826,0.25973886,-9.993794,0.009367608,0.019250533,0.0017903097,4.802702,0.807756,8.594716,0.00090535765,0.00044323696,3.558612e-05,23.434935,23.434935
38529745,2490402,2490402,0,0,0,0,0,395.8828,395.8828,7917.6562,7917.6562,7.117806,0.040303458,1.1967013e-09,1.2353685,0.527103,-10.4432,-0.007887411,0.02554109,0.0022769677,28.854124,1.1140448,103.97759,0.0066740555,0.0027812545,2.6383268e-05,23.422626,23.422626
39540134,2490402,2490402,0,0,0,0,0,395.8828,395.8828,7917.6562,7917.6562,5.9022064,0.04358162,1.4316113e-09,1.2579902,0.41303435,-10.376831,-0.014032504,0.015691783,0.0031446144,252.3229,2.249356,205.67719,0.013904094,0.026286306,0.0005340835,23.430328,23.430328
40550513,2490402,2490402,0,0,0,0,0,395.8828,395.8828,7917.6562,7917.6562,5.5629764,0.0354199,1.0245177e-09,1.1086388,0.17101817,-9.984951,-0.012707851,0.017198024,-0.010429637,26.755997,-1.5825586,401.9765,0.017894272,0.014794768,0.00012495072,23.431236,23.431236
41459857,2490402,2490402,0,0,0,0,0,395.8828,395.8828,7917.6562,7917.6562,2.1753912,0.018686065,7.9750005e-11,0.7508713,0.075792484,-10.107501,0.007209797,0.00503828,-0.00450854,0.36417988,0.74611574,0.5410561,0.00066626415,5.38248e-05,2.3616478e-05,23.442709,23.442709
42470244,2490402,2490402,0,0,0,0,0,395.8828,395.8828,7917.6562,7917.6562,0.50083,0.0051854393,9.315612e-11,-0.79651695,0.102295555,-11.0373745,-0.0034657363,0.061701637,0.00395744,0.012159287,0.044914402,0.08653727,1.9537609e-05,9.2803464e-05,3.6192528e-06,23.428291,23.428291
43480598,2490402,2490402,0,0,0,0,0,395.8828,395.8828,7917.6562,7917.6562,0.23958732,0.0030333195,9.999104e-12,-0.5872744,0.18609266,-9.588807,0.0059416187,0.00019806265,-0.003576824,0.0090078665,0.07533852,0.08542285,2.9843068e-05,2.2368763e-06,1.2227813e-05,23.441952,23.441952
44490984,2490402,2490402,0,0,0,0,0,395.8828,395.8828,7917.6562,7917.6562,0.16071521,0.0022837128,6.9075483e-12,-0.40031174,0.078330144,-9.792464,0.0051982473,0.0044155745,0.00095000473,0.0076956577,0.041012924,0.03658204,2.4518418e-05,1.8744473e-06,6.550717e-06,23.43697,23.43697
45501369,2490402,2490402,0,0,0,0,0,395.8828,395.8828,7917.6562,7917.6562,0.17519242,0.002360757,4.3902174e-11,-0.1688754,-0.05214543,-9.807538,-0.0010944564,0.019466503,0.03386414,0.0014490465,0.019063978,0.02551215,3.5512054e-05,9.411438e-06,1.9427175e-06,23.455235,23.455235
46511758,2490402,2490402,0,0,0,0,0,395.8828,395.8828,7917.6562,7917.6562,0.14368911,0.0022217797,3.2566096e-11,-0.30840844,0.3736459,-9.941654,-0.0057383203,0.027628798,-0.004730659,0.0017552873,0.007680355,0.034300514,2.070622e-05,1.8887752e-06,4.3837846e-07,23.446106,23.446106
47522203,2490402,2490402,0,0,0,0,0,395.8828,395.8828,7917.6562,7917.6562,0.1287654,0.0019434566,2.9944484e-11,-0.030324968,0.22630356,-10.032594,-0.008395674,0.021711709,-0.021819,0.0024324015,0.008955086,0.030589398,1.9021852e-05,3.3317865e-06,6.943177e-06,23.449577,23.449577
48532532,2490402,2490402,0,0,0,0,0,395.8828,395.8828,7917.6562,7917.6562,0.14527006,0.0020154,2.6741487e-11,0.0433614,0.049668435,-9.867002,-0.024501903,0.0005764025,-0.01654367,0.0019999666,0.027484683,0.03859651,8.729369e-06,1.4283809e-06,3.7070158e-06,23.446333,23.446333
49542938,2490402,2490402,0,0,0,0,0,395.8828,395.8828,7917.6562,7917.6562,0.2506332,0.002347719,2.5507619e-11,-0.2924484,-0.08410425,-9.94964,0.002380093,0.02286209,0.0055339765,0.0023462235,0.047926176,0.04128158,7.3507704e-06,1.5710353e-06,5.3670633e-06,23.466564,23.466564
50452289,2490402,2490402,0,0,0,0,0,395.8828,395.8828,7917.6562,7917.6562,0.21058132,0.0026279867,4.9572926e-11,-0.24457936,0.23900126,-9.970901,-0.002869212,0.024381228,0.02516294,0.0016064369,0.072057016,0.029162928,2.4891327e-05,1.1695818e-06,2.9304833e-06,23.43516,23.43516
51462676,2490402,2490402,0,0,0,0,0,395.8828,395.8828,7917.6562,7917.6562,0.16029295,0.0021992393,3.6453122e-11,-0.2503944,0.37885985,-9.86952,-0.0082659805,0.020496914,-0.025967734,0.0014301526,0.018457836,0.03045172,2.0144867e-05,1.0456891e-06,2.3705127e-06,23.443235,23.443235
52473211,2490402,2490402,0,0,0,0,0,395.8828,395.8828,7917.6562,7917.6562,0.16999473,0.002412998,2.858141e-11,-0.15645827,-0.41600245,-9.895118,-0.01751949,0.015045295,0.01524756,0.0025700284,0.027383287,0.026789576,9.1060865e-05,2.7752621e-06,4.288853e-06,23.46173,23.46173
53483428,2490402,2490402,0,0,0,0,0,395.8828,395.8828,7917.6562,7917.6562,0.19181775,0.0028979066,4.712624e-11,-0.33369464,0.088671885,-9.856453,0.021976808,0.020918136,0.029288396,0.0015279728,0.0126944855,0.0071250517,1.9142228e-05,8.761257e-07,1.2620507e-06,23.46392,23.46392
54493813,2490402,2490402,0,0,0,0,0,395.8828,395.8828,7917.6562,7917.6562,0.14956498,0.0026470865,3.4918166e-11,-0.28322247,0.43863365,-9.885152,-0.008796582,0.011245477,0.035089545,0.0012374464,0.015107644,0.020059371,1.211095e-05,1.5679168e-06,4.5661927e-06,23.479467,23.479467
55504203,2490402,2490402,0,0,0,0,0,395.8828,395.8828,7917.6562,7917.6562,0.11137757,0.002105773,4.278421e-11,-0.035334967,0.5292828,-9.972114,-0.029557368,0.029230006,-0.031646073,0.00075737917,0.013415699,0.012301095,8.7739045e-06,4.3802106e-06,6.692897e-05,23.466635,23.466635
56514593,2490402,2490402,0,0,0,0,0,395.8828,395.8828,7917.6562,7917.6562,0.11722982,0.0023157296,4.0469978e-11,-0.22431162,-0.20751484,-10.09133,-0.023311252,0.024729593,0.0036744373,0.0019100021,0.059371945,0.016925422,4.2368967e-05,2.6042035e-06,2.2242934e-06,23.474108,23.474108
57525051,2490402,2490402,0,0,0,0,0,395.8828,395.8828,7917.6562,7917.6562,0.13076642,0.002710915,4.5658827e-11,-0.19168301,-0.056552548,-9.943908,0.005371015,0.015210207,0.023718426,0.0016404695,0.0126361195,0.019790549,6.382629e-05,1.413394e-06,1.7353635e-05,23.4726,23.4726
58535365,2490402,2490402,0,0,0,0,0,395.8828,395.8828,7917.6562,7917.6562,0.12857376,0.0022370429,3.1272197e-11,-0.18879424,0.149337,-10.087208,0.018108409,0.029348182,0.0044835894,0.0006393812,0.018439906,0.018862415,1.2167774e-05,1.0531348e-06,7.860687e-06,23.470638,23.470638
59545775,2490402,2490402,0,0,0,0,0,395.8828,395.8828,7917.6562,7917.6562,0.111759804,0.0022177342,3.074537e-11,-0.35346782,0.40549353,-9.857312,-0.02625672,0.019741628,-0.007354701,0.0014572415,0.008766212,0.009078205,8.620482e-06,1.2123794e-06,3.8259454e-06,23.487164,23.487164
60455121,2490402,2490402,0,0,0,0,0,395.8828,395.8828,7917.6562,7917.6562,0.09591658,0.0018398032,3.797275e-11,-0.10328222,0.1481777,-9.9359665,-0.020061081,0.0212727,-0.038848758,0.0019942585,0.0075478335,0.010365157,2.4288365e-06,1.0262754e-06,1.6185772e-06,23.480677,23.480677
61465511,2490402,2490402,0,0,0,0,0,395.8828,395.8828,7917.6562,7917.6562,0.11389423,0.001960148,2.7556886e-11,-0.17127715,-0.079425976,-9.913576,-0.0002445223,0.018478442,0.01831233,0.0016089131,0.028370367,0.015463612,4.1280004e-05,1.1955485e-06,3.3690203e-06,23.49253,23.49253
62475900,2490402,2490402,0,0,0,0,0,395.8828,395.8828,7917.6562,7917.6562,0.13126078,0.002049388,4.2546994e-11,-0.24540772,0.34402508,-9.920076,0.002220414,0.017891977,0.03834048,0.0005849552,0.011966737,0.012934926,3.744046e-06,8.2255235e-07,4.2246666e-06,23.48528,23.48528
63486288,2490402,2490402,0,0,0,0,0,395.8828,395.8828,7917.6562,7917.6562,0.11629857,0.001964331,2.985028e-11,-0.26097107,0.43923065,-9.979794,0.0009819849,0.023486916,-0.017493831,0.00049095723,0.0022619648,0.01009137,9.617596e-06,1.2946001e-06,2.9338282e-05,23.486261,23.486261
64496677,2490402,2490402,0,0,0,0,0,395.8828,395.8828,7917.6562,7917.6562,0.10229597,0.001916565,4.170371e-11,-0.21994191,0.14317514,-9.929946,-0.013497469,0.020998094,-0.021621112,0.0005325643,0.014272719,0.0091565475,3.5253404e-05,1.3980716e-06,1.8966022e-05,23.495695,23.495695
65507066,2490402,2490402,0,0,0,0,0,395.8828,395.8828,7917.6562,7917.6562,0.085701115,0.0018664793,2.322366e-11,-0.2516548,-0.026709873,-9.924528,-0.0019239242,0.017128538,0.019256871,0.00048625426,0.0050208434,0.007612011,6.1252285e-06,7.4335804e-07,1.1974789e-05,23.489277,23.489277
66517453,2490402,2490402,0,0,0,0,0,395.8828,395.8828,7917.6562,7917.6562,0.085182466,0.001721069,2.8296726e-11,-0.16009858,0.37737957,-9.934924,0.00292404,0.020498946,0.018434506,0.0012572242,0.013386699,0.009210411,6.434293e-06,3.0581502e-06,5.7676243e-06,23.499239,23.499239
67528083,2490402,2490402,0,0,0,0,0,395.8828,395.8828,7917.6562,7917.6562,0.095374875,0.0017433758,2.5616245e-11,-0.1137713,0.16456802,-9.967918,-0.022084905,0.018650934,-0.013673985,0.0018117138,0.0071142763,0.0075960797,6.5296363e-06,8.422018e-07,2.162143e-06,23.502338,23.502338
68538206,2490402,2490402,0,0,0,0,0,395.8828,395.8828,7917.6562,7917.6562,0.115959615,0.0020168258,2.7834268e-11,-0.1389225,-0.18136151,-9.902438,-0.0220684,0.013180292,0.011865238,0.0005963665,0.01849909,0.008978766,1.9402572e-05,1.786901e-07,3.7269903e-05,23.501963,23.501963
69548606,2490402,2490402,0,0,0,0,0,395.8828,395.8828,7917.6562,7917.6562,0.10776239,0.0018094241,5.0240017e-11,-0.17638387,0.026762933,-9.952029,0.019712463,0.018291822,0.04295037,0.000481725,0.0057662544,0.00946009,3.0542014e-05,4.5492965e-07,1.8518493e-05,23.520153,23.520153
70457948,2490402,2490402,0,0,0,0,0,395.8828,395.8828,7917.6562,7917.6562,0.1076562,0.00213911,3.369415e-11,-0.19629267,0.40641618,-9.974662,-0.02258689,0.019527644,0.0022797044,0.000408675,0.005862922,0.007801753,5.3610915e-05,-7.171178e-07,0.000106670515,23.49887,23.49887
71468332,2490402,2490402,0,0,0,0,0,395.8828,395.8828,7917.6562,7917.6562,0.10042271,0.0020720633,3.3612405e-11,-0.23109187,0.06653673,-9.970018,-0.010726062,0.022483341,-0.02689936,0.000435404,0.0038264738,0.007034544,8.77114e-06,9.2655637e-07,7.0311485e-06,23.525818,23.525818
72478721,2490402,2490402,0,0,0,0,0,395.8828,395.8828,7917.6562,7917.6562,0.102986306,0.0019211886,2.3741061e-11,-0.22161882,0.041245025,-9.982915,-0.011414436,0.019998718,0.010162067,0.0009837932,0.0026411498,0.012599547,6.1357086e-06,1.0800446e-06,6.1855435e-06,23.523098,23.523098
73489110,2490402,2490402,0,0,0,0,0,395.8828,395.8828,7917.6562,7917.6562,0.09195233,0.0017870236,2.4025408e-11,-0.27873006,0.09907854,-9.962621,-0.006031641,0.02298591,0.008168996,0.0006461215,0.00827022,0.007507808,5.1314887e-06,6.859552e-07,2.2518554e-06,23.50755,23.50755
74499501,2490402,2490402,0,0,0,0,0,395.8828,395.8828,7917.6562,7917.6562,0.092088886,0.0019041742,3.3816568e-11,-0.21307789,-0.11389541,-9.975442,-0.020316495,0.020740272,0.016568493,0.00082939205,0.008184306,0.008038041,1.9004534e-05,3.3273855e-07,3.1264128e-05,23.534718,23.534718
75509890,2490402,2490402,0,0,0,0,0,395.8828,395.8828,7917.6562,7917.6562,0.08990266,0.0019611618,3.3916783e-11,-0.29108596,0.30684215,-9.890775,0.0026546055,0.016611075,0.03396471,0.0012528927,0.008719544,0.008990508,2.0850382e-05,4.328958e-07,3.1485535e-05,23.5348,23.5348
76520279,2490402,2490402,0,0,0,0,0,395.8828,395.8828,7917.6562,7917.6562,0.08265456,0.0017975463,2.0019682e-11,-0.27949348,0.33834308,-9.907054,-0.006901823,0.019412763,-0.018918648,0.00071470055,0.0036121558,0.014850064,6.4250166e-06,7.1304447e-07,1.3496943e-05,23.528685,23.528685
77530672,2490402,2490402,0,0,0,0,0,395.8828,395.8828,7917.6562,7917.6562,0.08257189,0.0016387904,1.695104e-11,-0.23539065,0.06594415,-9.90719,-0.018700322,0.014630886,-0.0031874718,0.00066484994,0.0021289408,0.011019108,6.516204e-06,8.3822744e-07,1.2351453e-05,23.550045,23.550045
78541060,2490402,2490402,0,0,0,0,0,395.8828,395.8828,7917.6562,7917.6562,0.10021757,0.0019138189,1.7199438e-11,-0.27978837,0.15179871,-9.871529,-0.009412963,0.0133915655,0.008000084,0.0012816836,0.014505751,0.014014753,1.2255402e-05,9.397709e-07,5.9206964e-06,23.557287,23.557287
79551447,2490402,2490402,0,0,0,0,0,395.8828,395.8828,7917.6562,7917.6562,0.112716675,0.0018754704,2.9135094e-11,-0.19399142,0.42066914,-10.097317,-0.0076274867,0.029733595,-0.002143931,0.0020518263,0.03793527,0.014420973,1.8737019e-05,1.0797232e-06,1.5949447e-05,23.56892,23.56892
80460816,2490402,2490402,0,0,0,0,0,395.8828,395.8828,7917.6562,7917.6562,0.12076251,0.00200248,2.9478187e-11,-0.19515495,0.2485128,-9.953176,-0.0125926575,0.020715045,-0.017970348,0.0007039913,0.012420848,0.015122556,1.4652308e-05,1.067377e-06,2.723589e-06,23.548761,23.548761
81471191,2490402,2490402,0,0,0,0,0,395.8828,395.8828,7917.6562,7917.6562,0.10957845,0.0017571896,1.2889963e-11,-0.096353196,-0.14665025,-9.790402,-0.016056722,0.006537168,0.0018262423,0.0006887369,0.030509945,0.009754088,4.231697e-06,6.7943955e-07,7.964694e-06,23.555634,23.555634
82481576,2490402,2490402,0,0,0,0,0,395.8828,395.8828,7917.6562,7917.6562,0.10692736,0.0017628743,2.437898e-11,-0.22081856,0.24186786,-10.041089,0.005121391,0.029250823,0.024928786,0.0011109333,0.0056046643,0.007883397,3.7294626e-06,1.1592223e-06,1.1665646e-06,23.558193,23.558193
83492048,2490402,2490402,0,0,0,0,0,395.8828,395.8828,7917.6562,7917.6562,0.11078906,0.0018431676,2.2798416e-11,-0.18994404,0.3140634,-9.966086,-0.017396206,0.014937729,-0.016806202,0.0006191078,0.0080670165,0.009818061,1.124021e-05,6.3921556e-07,8.077539e-06,23.566875,23.566875
84502412,2490402,2490402,0,0,0,0,0,395.8828,395.8828,7917.6562,7917.6562,0.1036792,0.0017597601,2.109971e-11,-0.3136597,0.027015248,-9.783141,0.00035801975,0.023842886,-0.007507476,0.00089290226,0.041578073,0.008680218,7.0779483e-06,1.7700233e-06,2.2467264e-06,23.571781,23.571781
85512779,2490402,2490402,0,0,0,0,0,395.8828,395.8828,7917.6562,7917.6562,0.11066391,0.0020036632,2.4234219e-11,-0.31247333,0.13324803,-9.924138,0.0009352667,0.018155567,0.014780024,0.0005485948,0.028667843,0.011215235,1.4329289e-05,1.2733688e-06,6.0699354e-06,23.600544,23.600544
86523175,2490402,2490402,0,0,0,0,0,395.8828,395.8828,7917.6562,7917.6562,0.123978935,0.0020334707,2.1123554e-11,-0.2589795,0.17590773,-9.954338,-0.006136094,0.023647016,0.0058470257,0.0006235613,0.013075081,0.009938202,4.8873667e-06,9.896086e-07,2.2419038e-06,23.575634,23.575634
87533561,2490402,2490402,0,0,0,0,0,395.8828,395.8828,7917.6562,7917.6562,0.103419505,0.0017919429,2.417093e-11,-0.23294671,0.036011096,-9.880788,-0.0023203816,0.015538542,0.01938727,0.0004236762,0.0073229093,0.008746776,7.303451e-06,1.2667283e-06,5.708807e-07,23.576385,23.576385
88543951,2490402,2490402,0,0,0,0,0,395.8828,395.8828,7917.6562,7917.6562,0.09684384,0.0017973896,1.4880177e-11,-0.14885226,0.32441095,-9.88871,-0.00061862695,0.012787833,0.0008163258,0.00054066227,0.015328211,0.0090557,1.0001121e-05,6.9695614e-07,1.7050157e-05,23.583406,23.583406
89453303,2490402,2490402,0,0,0,0,0,395.8828,395.8828,7917.6562,7917.6562,0.11629499,0.001844307,1.9429873e-11,-0.17088091,0.1351037,-9.964555,0.011720978,0.01601655,-0.011993146,0.00064938585,0.007451945,0.012154839,9.2984055e-06,1.5973842e-06,9.955236e-07,23.585598,23.585598
90463692,2490402,2490402,0,0,0,0,0,395.8828,395.8828,7917.6562,7917.6562,0.116734855,0.0018824835,3.0148283e-11,-0.17625435,0.18181899,-9.95245,-0.01596353,0.01952393,-0.013882987,0.00034581512,0.026802221,0.0061985175,1.0097759e-05,8.847656e-07,3.429226e-06,23.59896,23.59896
91474106,2490402,2490402,0,0,0,0,0,395.8828,395.8828,7917.6562,7917.6562,0.091066286,0.0019622282,2.4134897e-11,-0.2802342,0.025374144,-9.9461775,-0.00077589875,0.021709379,0.004109074,0.00051676086,0.0031533726,0.0077819894,3.0502932e-05,6.662912e-07,1.5113183e-05,23.606585,23.606585
92484474,2490402,2490402,0,0,0,0,0,395.8828,395.8828,7917.6562,7917.6562,0.08805063,0.0017756517,1.1729298e-11,-0.39806426,0.024358623,-9.777682,-0.008605872,0.008900517,0.013241914,0.0005238408,0.0052788453,0.0060662203,1.1822609e-05,3.2649539e-06,2.0565092e-05,23.606052,23.606052
93494884,2490402,2490402,0,0,0,0,0,395.8828,395.8828,7917.6562,7917.6562,0.09580118,0.0018170432,2.4847383e-11,-0.21501647,0.050924707,-10.016572,-0.0011658041,0.023713673,0.011298481,0.00089596753,0.06946756,0.015285074,3.1762986e-05,1.6773448e-06,6.0373445e-06,23.614206,23.614206
94505256,2490402,2490402,0,0,0,0,0,395.8828,395.8828,7917.6562,7917.6562,0.088718526,0.0017370823,2.363187e-11,-0.38732925,0.30112717,-9.870876,-0.007771054,0.023386357,-0.012847656,0.0012033395,0.0064321314,0.016792934,6.5844147e-06,1.1598304e-06,2.299814e-06,23.609903,23.609903
95515659,2490402,2490402,0,0,0,0,0,395.8828,395.8828,7917.6562,7917.6562,0.0955985,0.0022458232,4.1714215e-11,-0.32064396,0.3600987,-9.911689,-0.03720226,0.014771889,-0.014295686,0.0009098457,0.029428931,0.01670977,1.3892254e-05,1.1208981e-06,1.6806509e-05,23.618282,23.618282
96526039,2490402,2490402,0,0,0,0,0,395.8828,395.8828,7917.6562,7917.6562,0.103533484,0.0018200597,1.7683646e-11,-0.24733576,-0.20981766,-10.018369,-0.009527056,0.015527371,0.008155771,0.0016776344,0.014898213,0.007867127,1.5480859e-05,6.9701883e-07,6.357647e-06,23.611338,23.611338
97536431,2490402,2490402,0,0,0,0,0,395.8828,395.8828,7917.6562,7917.6562,0.08907762,0.0018091408,3.087216e-11,-0.348991,0.17098212,-9.911733,0.008273156,0.022514034,0.025554983,0.001463657,0.008356683,0.0055908393,7.5006783e-06,6.576526e-07,4.8396837e-06,23.622358,23.622358
98547079,2490402,2490402,0,0,0,0,0,395.8828,395.8828,7917.6562,7917.6562,0.090559684,0.001721971,3.1912195e-11,-0.38331282,0.45613968,-10.055678,-0.016787631,0.026402518,-0.017084887,0.0006848531,0.006614278,0.012709067,1.685698e-05,1.2576531e-06,9.136774e-07,23.641603,23.641603
99456376,2490402,2490402,0,0,0,0,0,395.8828,395.8828,7917.6562,7917.6562,0.091458425,0.0017729836,1.6551172e-11,-0.3517108,-0.20873421,-9.916296,-0.015286052,0.015941575,-0.005584574,0.00088783423,0.0031357126,0.028133225,5.354947e-06,2.5679346e-06,7.734132e-06,23.621902,23.621902
100466535,2490402,2490402,0,0,0,0,0,395.8828,395.8828,7917.6562,7917.6562,0.080017366,0.0015885767,2.4631809e-11,-0.3428899,0.09592311,-9.955012,-0.0012886282,0.016261447,0.023603601,0.00050417805,0.0030012133,0.012038984,3.933167e-06,1.0948578e-06,4.5072753e-07,23.62787,23.62787
101476932,2490402,2490402,0,0,0,0,0,395.8828,395.8828,7917.6562,7917.6562,0.08853063,0.0018071259,2.329041e-11,-0.298092,0.324001,-9.980205,-0.022993151,0.016573165,0.00815023,0.0005339106,0.002242582,0.020167384,5.4818274e-06,1.6337882e-06,2.3021034e-06,23.652023,23.652023
102487316,2490402,2490402,0,0,0,0,0,395.8828,395.8828,7917.6562,7917.6562,0.07743236,0.0016745091,2.3919974e-11,-0.35018983,0.12787911,-9.904553,-0.010191361,0.015381374,-0.012622194,0.0005062467,0.004216363,0.01349338,7.0684755e-06,1.7152247e-06,5.321188e-06,23.657755,23.657755
103497707,2490402,2490402,0,0,0,0,0,395.8828,395.8828,7917.6562,7917.6562,0.08091605,0.001611428,1.8427702e-11,-0.3417757,0.22429365,-9.931295,0.0016481047,0.018678827,0.0016613589,0.0007691692,0.0081043625,0.011310801,1.4636124e-05,1.4563676e-06,4.6053333e-06,23.655872,23.655872
104508102,2490402,2490402,0,0,0,0,0,395.8828,395.8828,7917.6562,7917.6562,0.09001588,0.00158681,2.120703e-11,-0.34033176,0.14266424,-9.943622,-0.0035668127,0.02069719,0.016921632,0.00083859917,0.010693735,0.018519094,2.6007401e-06,1.7519565e-06,5.2911e-07,23.6484,23.6484
105518488,2490402,2490402,0,0,0,0,0,395.8828,395.8828,7917.6562,7917.6562,0.08501382,0.0016384588,2.467264e-11,-0.38011,0.25397858,-10.085633,-0.0014382827,0.028076913,9.959655e-05,0.00053798786,0.0075522168,0.014129038,1.2616104e-05,2.0108346e-06,5.6298795e-06,23.672329,23.672329
106528880,2490402,2490402,0,0,0,0,0,395.8828,395.8828,7917.6562,7917.6562,0.08222241,0.0016449847,1.7226658e-11,-0.50752324,0.25976515,-10.024383,-0.01335789,0.020569006,-0.002152988,0.00067806686,0.003764265,0.010884654,2.3980801e-06,4.247653e-06,1.4687399e-06,23.656776,23.656776
107539298,2490402,2490402,0,0,0,0,0,395.8828,395.8828,7917.6562,7917.6562,0.10067323,0.0018414318,1.6384106e-11,-0.4051079,0.07938685,-9.835551,0.0031866268,0.015262384,0.0032351397,0.0012398226,0.0032026703,0.024356628,1.6540702e-05,1.7423815e-06,7.954991e-06,23.660324,23.660324
108549667,2490402,2490402,0,0,0,0,0,395.8828,395.8828,7917.6562,7917.6562,0.08941792,0.0016204806,1.9772713e-11,-0.35878208,0.13765088,-9.926444,0.010730275,0.016078388,0.016186118,0.00042185173,0.004624611,0.012143129,5.7192788e-06,1.4083345e-06,4.1380827e-07,23.691576,23.691576
109459047,2490402,2490402,0,0,0,0,0,395.8828,395.8828,7917.6562,7917.6562,0.08508753,0.0017096398,4.078463e-11,-0.4176205,0.52231497,-10.058048,-0.008262416,0.030169766,-0.024259599,0.0004054284,0.01340777,0.009562223,3.6299803e-05,7.359092e-07,1.4454235e-06,23.67859,23.67859
110469412,2490402,2490402,0,0,0,0,0,395.8828,395.8828,7917.6562,7917.6562,0.08886356,0.0019467918,3.6405802e-11,-0.38478658,-0.05087722,-9.969715,-0.012124448,0.023342682,-0.024811633,0.00060957414,0.013747557,0.012162993,1.1941398e-05,1.7372352e-06,3.5400276e-06,23.677689,23.677689
111479804,2490402,2490402,0,0,0,0,0,395.8828,395.8828,7917.6562,7917.6562,0.07826109,0.0018173589,2.4512713e-11,-0.41124496,-0.0015764523,-9.926602,0.0026328717,0.021745492,0.020663233,0.0009972494,0.01440841,0.013542367,6.0298344e-06,8.2227695e-07,2.188473e-05,23.69037,23.69037
112490196,2490402,2490402,0,0,0,0,0,395.8828,395.8828,7917.6562,7917.6562,0.09655686,0.0018186189,2.7071732e-11,-0.37654892,0.19773236,-9.897472,-0.0012866766,0.018041342,0.01425267,0.00062565965,0.016685894,0.012515988,2.1679041e-05,6.096489e-07,1.8331819e-05,23.673536,23.673536
113500615,2490402,2490402,0,0,0,0,0,395.8828,395.8828,7917.6562,7917.6562,0.08720498,0.0016532138,2.0808407e-11,-0.3367152,0.20409301,-10.001805,-0.010239829,0.020661173,-0.004177329,0.00059124106,0.006951168,0.009408878,1.0274582e-05,8.1243354e-07,1.0234327e-05,23.694519,23.694519
114510981,2490402,2490402,0,0,0,0,0,395.8828,395.8828,7917.6562,7917.6562,0.089604825,0.0016907913,2.5722736e-11,-0.31711784,0.071871385,-9.906904,-0.015180641,0.016666675,0.020976549,0.0007561388,0.014022443,0.01828108,9.527704e-06,9.845492e-07,4.350808e-06,23.697767,23.697767
115521374,2490402,2490402,0,0,0,0,0,395.8828,395.8828,7917.6562,7917.6562,0.08754288,0.0018029746,2.4317028e-11,-0.44119915,0.34619924,-9.903482,0.0089100795,0.020829597,0.0076434235,0.0011298669,0.0056173885,0.013842507,2.7981732e-05,4.5782096e-07,4.2611173e-05,23.710217,23.710217
116531816,2490402,2490402,0,0,0,0,0,395.8828,395.8828,7917.6562,7917.6562,0.0806624,0.002037093,5.64341e-11,-0.40520495,0.3344235,-9.989245,-0.0148253795,0.025411092,-0.039819743,0.0007494409,0.009680168,0.014264411,1.082675e-05,1.6162174e-06,2.8592324e-06,23.716711,23.716711
117542163,2490402,2490402,0,0,0,0,0,395.8828,395.8828,7917.6562,7917.6562,0.11029352,0.0021122417,2.9680258e-11,-0.4118274,-0.27234933,-9.926745,-0.012429718,0.018130353,0.0033058058,0.001441642,0.06415784,0.04895131,2.0228068e-05,3.6679978e-06,5.376763e-05,23.689995,23.689995
118451518,2490402,2490402,0,0,0,0,0,395.8828,395.8828,7917.6562,7917.6562,0.101812765,0.0019768663,5.052732e-11,-0.36497775,0.15566136,-9.91281,-0.011320917,0.017516783,0.029466603,0.001521618,0.014813335,0.05188874,2.3578243e-05,7.819796e-06,1.0524276e-06,23.718977,23.718977
119461908,2490402,2490402,0,0,0,0,0,395.8828,395.8828,7917.6562,7917.6562,0.08248318,0.0017357698,2.6892849e-11,-0.48379838,0.2300684,-10.029536,0.0036132836,0.023222702,0.014063714,0.0008198642,0.006842723,0.013099854,2.155091e-05,1.4499708e-06,1.288215e-05,23.698523,23.698523
120472303,2490402,2490402,0,0,0,0,0,395.8828,395.8828,7917.6562,7917.6562,0.0744683,0.0016887331,2.3791705e-11,-0.5222935,0.32143018,-9.962199,-0.007267977,0.019219467,-0.017384883,0.0012318124,0.013457957,0.018218629,9.660679e-06,4.7121484e-06,3.4373882e-06,23.713694,23.713694
121482700,2490402,2490402,0,0,0,0,0,395.8828,395.8828,7917.6562,7917.6562,0.08813547,0.0016589836,2.818602e-11,-0.25026697,0.12395202,-9.782472,-0.025489938,0.010752849,-0.022828937,0.010279187,0.012077517,0.013855552,1.0019927e-05,5.078459e-06,2.6459695e-06,23.719582,23.719582
122493092,2490402,2490402,0,0,0,0,0,395.8828,395.8828,7917.6562,7917.6562,0.08328337,0.001691762,2.8989157e-11,-0.5159791,-0.04814087,-10.114394,-0.008626482,0.019950824,0.018692078,0.004167781,0.024858113,0.010801507,8.911041e-06,1.2828019e-05,1.8248771e-06,23.721994,23.721994
123503483,2490402,2490402,0,0,0,0,0,395.8828,395.8828,7917.6562,7917.6562,0.07412392,0.001755978,2.0801996e-11,-0.2203946,0.12374187,-9.822252,0.013981697,0.019421708,-0.0026775391,0.000867498,0.011532818,0.008387126,1.8535246e-05,5.8512245e-07,4.203871e-05,23.727049,23.727049
124513877,2490402,2490402,0,0,0,0,0,395.8828,395.8828,7917.6562,7917.6562,0.06935613,0.0019281561,2.8183447e-11,-0.19160269,0.27494863,-9.858866,-0.014008217,0.022637803,0.011268589,0.00036297494,0.05306182,0.0048485612,1.8406987e-05,4.3286336e-06,1.1118102e-05,23.724714,23.724714
125524298,2490402,2490402,0,0,0,0,0,395.8828,395.8828,7917.6562,7917.6562,1.8699725,0.016019082,7.408136e-10,-0.42769757,0.25394198,-9.577519,-0.0095850695,0.046349414,-0.013188401,4.678755,0.6824206,118.9348,0.012722872,0.005694205,1.3025339e-05,23.731052,23.731052
126534681,2490402,2490402,0,0,0,0,0,395.8828,395.8828,7917.6562,7917.6562,3.2773836,0.021885902,1.1076887e-09,-0.09034278,0.19187994,-10.349732,0.0033430136,0.009564055,0.011998603,13.077405,0.53702295,412.9837,0.028602479,0.0075754765,3.722984e-05,23.750904,23.750904
127545192,2490402,2490402,0,0,0,0,0,395.8828,395.8828,7917.6562,7917.6562,4.845721,0.02990541,1.968013e-09,-0.3118491,0.3476427,-10.2263,0.0039539225,-0.018215917,0.023034284,15.957746,-5.378574,513.12305,0.0257898,0.008640355,9.560479e-05,23.744263,23.744263
128454414,2490402,2490402,0,0,0,0,0,395.8828,395.8828,7917.6562,7917.6562,4.6750164,0.029597666,1.5480884e-09,-0.851046,0.106706865,-9.097314,-0.017016971,0.030774433,0.014850186,13.761162,-4.679527,386.34158,0.024005467,0.006098682,-5.3510354e-05,23.740112,23.740112
129464811,2490402,2490402,0,0,0,0,0,395.8828,395.8828,7917.6562,7917.6562,5.7549667,0.030955138,1.4197716e-09,-0.6864471,0.22523448,-10.435457,-0.0046461676,0.027202789,-0.020298518,8.225997,4.28845,254.82468,0.0153148025,0.0033410888,-0.00010183864,23.75174,23.75174
130475450,2490402,2490402,0,0,0,0,0,395.8828,395.8828,7917.6562,7917.6562,4.5696025,0.0334758,1.2937642e-09,-0.54774994,0.14889061,-9.92091,-0.024662452,0.020466408,0.008527511,5.770637,2.324197,170.53584,0.0107200295,0.0028586057,-4.6703324e-05,23.758602,23.758602
131485599,2490402,2490402,0,0,0,0,0,395.8828,395.8828,7917.6562,7917.6562,4.654392,0.038262088,1.243272e-09,-0.5709539,0.3695075,-10.027281,-0.010262955,0.024960326,-0.0031917614,17.28636,14.758371,153.55861,0.013395312,0.002470955,-5.188274e-05,23.753548,23.753548
132495992,2490402,2490402,0,0,0,0,0,395.8828,395.8828,7917.6562,7917.6562,5.549545,0.039482187,1.6727267e-09,-0.45649844,0.1871755,-10.002764,-0.0038397885,0.024863645,-0.005848945,41.154774,33.17528,78.119965,0.006222262,0.0064313025,8.0729216e-05,23.767061,23.767061
133506387,2490402,2490402,0,0,0,0,0,395.8828,395.8828,7917.6562,7917.6562,5.7443733,0.036042694,8.990014e-10,-0.74578863,0.24163507,-10.341023,-0.014252518,0.015982889,0.0019984026,20.893404,10.625246,72.426575,0.012620465,0.005215414,-4.7633785e-06,23.769249,23.769249
134516786,2490402,2490402,0,0,0,0,0,395.8828,395.8828,7917.6562,7917.6562,5.435865,0.030297637,1.0806377e-09,-0.5646089,0.38289258,-9.936975,-0.007618931,0.022370055,0.008022034,16.167841,5.2560563,54.299263,0.011723098,0.0014450008,-5.6304365e-05,23.786835,23.786835
135527187,2490402,2490402,0,0,0,0,0,395.8828,395.8828,7917.6562,7917.6562,4.8176694,0.028570142,7.1966294e-10,-0.75211656,0.35556856,-9.913438,-0.0030864552,0.018880058,0.016089099,16.259447,2.8945744,45.962772,0.010584353,0.0027416693,-1.4432249e-05,23.777777,23.777777
136537571,2490402,2490402,0,0,0,0,0,395.8828,395.8828,7917.6562,7917.6562,5.5379047,0.033960395,9.85383e-10,-0.37262064,0.40685758,-9.940507,0.0065331194,0.018087912,0.01619531,13.752145,1.6595112,59.307354,0.013032924,0.0031788293,-3.8457692e-05,23.78117,23.78117
137547966,2490402,2490402,0,0,0,0,0,395.8828,395.8828,7917.6562,7917.6562,6.7805357,0.039955597,1.4802651e-09,-0.67835534,0.4271909,-10.085663,0.00027254352,0.03626581,0.020205384,9.747825,4.584209,55.1099,0.009064478,0.0024270124,-2.0432573e-05,23.779966,23.779966
138457323,2490402,2490402,0,0,0,0,0,395.8828,395.8828,7917.6562,7917.6562,5.4039254,0.032049697,8.620313e-10,-0.36324695,0.37754163,-10.243804,0.017757446,0.03424572,0.020556008,10.204778,2.0321364,31.987032,0.0043383916,0.0026288636,4.4299162e-05,23.773098,23.773098
139467718,2490402,2490402,0,0,0,0,0,395.8828,395.8828,7917.6562,7917.6562,5.5936847,0.02850499,7.281834e-10,-0.5257424,0.31465957,-10.013359,-0.0072871633,0.025046868,0.004555818,8.009419,2.4278755,42.938988,0.005082822,0.0010326249,2.8994184e-05,23.799366,23.799366
140478118,2490402,2490402,0,0,0,0,0,395.8828,395.8828,7917.6562,7917.6562,5.2937894,0.030619135,7.9972023e-10,-0.5684754,0.14318362,-10.2128935,0.005496955,0.022515355,-0.036065422,7.7068205,3.8255296,21.099068,0.0013034691,0.00085815217,1.9146188e-05,23.767437,23.767437
141488511,2490402,2490402,0,0,0,0,0,395.8828,395.8828,7917.6562,7917.6562,7.2936187,0.025716027,9.0804775e-10,-0.50183964,0.06309018,-10.074357,-0.026686957,0.01357206,-0.028541408,13.892812,16.193316,28.92409,0.0023685787,0.0005110492,5.3753716e-05,23.793554,23.793554
142498906,2490402,2490402,0,0,0,0,0,395.8828,395.8828,7917.6562,7917.6562,7.716747,0.035711713,6.063014e-10,-0.34486878,0.35112652,-9.853277,-0.003808318,0.017328748,-0.009559945,11.6675415,9.689989,36.57256,0.004239529,0.0008506413,2.1243546e-05,23.791061,23.791061
143509305,2490402,2490402,0,0,0,0,0,395.8828,395.8828,7917.6562,7917.6562,8.0373335,0.04173821,9.675981e-10,-0.3316406,0.10428578,-9.861811,-0.017926091,0.01978826,-0.010043684,15.367937,11.742782,35.24987,0.0023206533,0.0008837669,4.9855593e-05,23.807215,23.807215
144519697,2490402,2490402,0,0,0,0,0,395.8828,395.8828,7917.6562,7917.6562,7.6121163,0.039447814,4.7269927e-10,-0.41266388,0.68045974,-10.18741,-0.0027533558,0.016175468,0.008030407,18.570534,9.774412,32.625084,0.0052824696,0.0011457053,3.4469907e-05,23.804426,23.804426
145530101,2490402,2490402,0,0,0,0,0,395.8828,395.8828,7917.6562,7917.6562,5.367145,0.026326576,2.7197314e-10,-0.17482838,0.14087725,-9.718249,-0.0023235534,0.014061991,0.0075163427,10.980354,2.8121443,7.5811553,0.0013545515,0.0013057725,3.7484766e-05,23.806385,23.806385
146540491,2490402,2490402,0,0,0,0,0,395.8828,395.8828,7917.6562,7917.6562,4.261901,0.018863324,1.6540594e-10,-0.6939746,0.21692292,-9.849095,4.4651842e-05,0.009303669,0.0076322746,7.113916,2.3400636,8.100985,0.0013844152,0.00063575926,2.030293e-05,23.811068,23.811068
147550890,2490402,2490402,0,0,0,0,0,395.8828,395.8828,7917.6562,7917.6562,2.9979463,0.013208666,1.5155016e-10,-0.46948135,0.25584897,-9.853633,0.003775828,0.023407081,-0.0043869875,3.3620741,0.7239651,4.0053787,0.00073118403,0.00024879602,3.308878e-06,23.802763,23.802763
148460241,2490402,2490402,0,0,0,0,0,395.8828,395.8828,7917.6562,7917.6562,2.143386,0.010905622,2.4746943e-10,-0.42454195,0.26761577,-10.031305,-0.00041802344,0.037648946,-0.004135941,1.6320138,0.19124871,7.260398,0.00058090786,0.00011577427,-3.173429e-07,23.815447,23.815447
149470643,2490402,2490402,0,0,0,0,0,395.8828,395.8828,7917.6562,7917.6562,1.8007249,0.009761135,1.1110605e-10,-0.40223786,0.21223207,-9.9719715,-0.016037488,0.02923647,-0.0076909326,1.8809828,0.36209303,1.8663576,0.00023996983,0.000116550385,6.8195936e-06,23.813179,23.813179
150481036,2490402,2490402,0,0,0,0,0,395.8828,395.8828,7917.6562,7917.6562,1.792411,0.008756012,1.3856441e-10,-0.5032534,0.17288566,-10.09541,-0.023210336,0.018492742,-0.0019025019,1.3809329,0.92056227,4.96244,0.00042135053,9.410937e-05,9.686969e-06,23.828955,23.828955
151491498,2490402,2490402,0,0,0,0,0,395.8828,395.8828,7917.6562,7917.6562,1.964322,0.010257916,1.7703133e-10,-0.39519185,0.23194665,-10.074865,-0.010915494,0.020472435,-0.0064196615,1.2469734,0.45838213,1.8745099,0.00019801954,0.00016800193,7.4330014e-06,23.831448,23.831448
152501828,2490402,2490402,0,0,0,0,0,395.8828,395.8828,7917.6562,7917.6562,2.04428,0.010649469,2.1797317e-10,-0.25726727,0.24463177,-10.044399,0.01264807,0.022566875,-0.006513499,2.6523163,0.2889493,3.0192413,0.00024903312,0.00013486246,1.05713825e-05,23.82752,23.82752
153512223,2490402,2490402,0,0,0,0,0,395.8828,395.8828,7917.6562,7917.6562,2.1323051,0.01116485,1.6549785e-10,-0.6443453,0.32602337,-9.690547,-0.015176918,0.012934682,0.029276852,0.9924048,1.0229704,1.9780936,0.00022398416,0.000102978105,4.424257e-06,23.838243,23.838243
154522621,2490402,2490402,0,0,0,0,0,395.8828,395.8828,7917.6562,7917.6562,1.2008353,0.00718618,1.1843143e-10,-0.60087097,0.33712882,-9.933365,0.010582966,0.021618111,0.01645108,0.43000412,0.15389925,0.4603797,0.00014562804,2.5616275e-05,6.989286e-06,23.83696,23.83696
155533018,2490402,2490402,0,0,0,0,0,395.8828,395.8828,7917.6562,7917.6562,0.77178216,0.0071498277,9.219812e-11,-0.84725994,0.3338352,-10.063262,-0.009771626,0.0133324545,0.013894957,0.1736786,0.11845309,0.25063694,0.00023266171,2.3298386e-05,5.543505e-06,23.849636,23.849636
156543415,2490402,2490402,0,0,0,0,0,395.8828,395.8828,7917.6562,7917.6562,0.47757876,0.0059734676,6.448055e-11,-0.40339977,0.29050952,-9.866948,-0.034794506,0.016325321,0.012803246,0.10524675,0.08086298,0.32157493,5.179336e-05,8.398143e-06,1.4587568e-05,23.852505,23.852505
157553869,2490402,2490402,0,0,0,0,0,395.8828,395.8828,7917.6562,7917.6562,0.2484304,0.0027694353,1.5369591e-11,-0.48618382,0.17252839,-9.938611,0.0033074913,0.016089518,-0.00024879538,0.19439851,0.032393098,0.21905059,9.5869345e-06,1.7102642e-05,2.8025404e-06,23.864508,23.864508
158463169,2490402,2490402,0,0,0,0,0,395.8828,395.8828,7917.6562,7917.6562,0.14590545,0.0025480008,1.0155983e-11,-0.61893404,0.22070189,-9.969297,0.0025823375,0.0127321575,0.00027439717,0.017756661,0.009353993,0.005054713,8.199047e-06,6.4128826e-06,1.167058e-05,23.858772,23.858772
159473569,2490402,2490402,0,0,0,0,0,395.8828,395.8828,7917.6562,7917.6562,0.070647076,0.0015918422,1.9913354e-11,-0.15637246,0.14622158,-9.900317,-0.012822149,0.028252633,-0.002408708,0.028244678,0.006860723,0.002992646,2.8763393e-06,1.3066281e-05,2.0393522e-06,23.848957,23.848957
160483963,2490402,2490402,0,0,0,0,0,395.8828,395.8828,7917.6562,7917.6562,0.0453837,0.0014510049,1.2416627e-11,-0.37308624,0.0803003,-9.986473,-0.0016102941,0.018040378,0.0035144547,0.001338541,0.003938275,0.0007486641,7.4256673e-06,2.7592905e-06,3.6744468e-06,23.845032,23.845032
161494561,2490402,2490402,0,0,0,0,0,395.8828,395.8828,7917.6562,7917.6562,0.03216633,0.0012682665,1.5065725e-11,-0.15286559,0.052762408,-9.944028,0.0027717385,0.020805541,0.0010096156,0.00023187237,0.008847959,0.00056523754,3.0412999e-05,7.358412e-07,9.940176e-07,23.861034,23.861034
162504759,2490402,2490402,0,0,0,0,0,395.8828,395.8828,7917.6562,7917.6562,0.024401143,0.0011081806,1.1292354e-11,-0.2163167,0.12795031,-9.938908,-0.0072964914,0.017761027,0.0035855814,0.00030820435,0.00297767,0.00046767207,3.8197986e-06,3.691673e-07,2.7542847e-06,23.877117,23.877117
163515158,2490402,2490402,0,0,0,0,0,395.8828,395.8828,7917.6562,7917.6562,0.019951833,0.0010308403,1.17890645e-11,-0.23347035,0.005131296,-9.952875,-0.008431572,0.019124221,0.0005578764,0.00017313375,0.005778562,0.00030207602,9.958871e-06,7.939284e-07,8.8629645e-07,23.866322,23.866322
164525553,2490402,2490402,0,0,0,0,0,395.8828,395.8828,7917.6562,7917.6562,0.037418853,0.0013057904,1.5662078e-11,-0.26044998,0.13141125,-9.932472,-0.001876561,0.022166861,-0.0028508557,0.00013355316,0.023866395,0.0014432744,3.091829e-06,6.166742e-07,3.2837515e-06,23.868435,23.868435
165535951,2490402,2490402,0,0,0,0,0,395.8828,395.8828,7917.6562,7917.6562,0.03257736,0.0012077505,1.6383709e-11,-0.24067643,0.05376963,-9.937435,-0.017193587,0.019090176,0.0010611349,0.0009207381,0.00053351745,0.0023655489,2.4381297e-06,8.7759764e-07,2.2080185e-06,23.887455,23.887455
166546370,2490402,2490402,0,0,0,0,0,395.8828,395.8828,7917.6562,7917.6562,0.03842248,0.0012556976,1.465848e-11,-0.27794823,0.052389253,-9.954764,-0.004100903,0.021222051,0.003080614,0.000117414944,0.0024166724,0.0009168397,1.0755996e-06,5.691986e-07,2.121007e-06,23.887081,23.887081
167455729,2490402,2490402,0,0,0,0,0,395.8828,395.8828,7917.6562,7917.6562,0.044272248,0.0015343275,1.311021e-11,-0.22498624,0.040956926,-9.946861,-0.0004927642,0.021223303,-0.00059863273,0.00052405446,0.001930113,0.00032304885,3.597485e-06,1.063848e-06,4.1733813e-07,23.89266,23.89266
168466112,2490402,2490402,0,0,0,0,0,395.8828,395.8828,7917.6562,7917.6562,0.030495211,0.0012518874,1.6185733e-11,-0.20047764,-0.085230604,-9.962293,-0.007975273,0.020238405,0.003307636,0.00016886342,0.0035147213,0.0011344486,5.4286124e-06,1.4348888e-06,1.6704353e-06,23.897718,23.897718
169476508,2490402,2490402,0,0,0,0,0,395.8828,395.8828,7917.6562,7917.6562,0.024215845,0.0010883693,1.0886075e-11,-0.23152469,-0.08793309,-9.972116,-0.0024905035,0.022722393,0.002918822,0.00010523896,0.00173357,0.0006618848,1.9546405e-06,1.5115065e-06,1.6402424e-06,23.89908,23.89908
170486903,2490402,2490402,0,0,0,0,0,395.8828,395.8828,7917.6562,7917.6562,0.035155024,0.0012476464,1.2896187e-11,-0.21661574,-0.02357548,-9.936692,-0.000498392,0.023904335,0.0019410733,0.00066972297,0.00355387,0.0002400432,7.5433118e-06,1.0141712e-06,7.541558e-07,23.911007,23.911007
171498000,2490402,2490402,0,0,0,0,0,395.8828,395.8828,7917.6562,7917.6562,0.051391076,0.0015305596,1.3472569e-11,-0.19902784,-0.06359207,-9.933672,-0.006514857,0.023566728,0.0026841194,0.00030002536,0.0077493135,0.001244145,2.2281954e-06,5.6129153e-07,5.434472e-07,23.905874,23.905874
172507700,2490402,2490402,0,0,0,0,0,395.8828,395.8828,7917.6562,7917.6562,0.061762836,0.0012820936,1.32975835e-11,-0.2551495,-0.005680712,-9.950036,-0.00991158,0.019508898,0.004272609,0.000559753,0.011474285,0.002595808,7.1967725e-07,5.3702644e-07,1.1790975e-06,23.903685,23.903685
173518127,2490402,2490402,0,0,0,0,0,395.8828,395.8828,7917.6562,7917.6562,0.025917262,0.0010950547,1.2920667e-11,-0.22362687,-0.058840252,-9.94194,-0.005982778,0.020880193,0.0033106555,0.000121066994,0.0028249254,0.00051453797,1.4325889e-06,8.463094e-07,8.785271e-07,23.918554,23.918554
174528497,2490402,2490402,0,0,0,0,0,395.8828,395.8828,7917.6562,7917.6562,0.02289707,0.0010629788,1.0755024e-11,-0.20398477,-0.11130659,-9.960778,-0.010627995,0.020280613,0.0027130337,0.000103498685,0.00081182574,0.00032683296,6.733336e-06,3.2070795e-07,5.5194874e-07,23.913042,23.913042
175538895,2490402,2490402,0,0,0,0,0,395.8828,395.8828,7917.6562,7917.6562,0.028563764,0.0011505352,1.2400935e-11,-0.23392996,-0.010376958,-9.941312,-0.005630703,0.020417009,-0.0013031273,0.00026890356,0.002949565,0.0008436486,4.2567804e-06,7.907848e-07,4.6158712e-07,23.91893,23.91893
176549296,2490402,2490402,0,0,0,0,0,395.8828,395.8828,7917.6562,7917.6562,0.035952248,0.001245852,1.0671875e-11,-0.22970504,-0.06313644,-9.936044,-0.0044288198,0.020574912,0.0011086063,0.0002506125,0.011767283,0.0007018027,9.941894e-06,7.8800304e-07,1.0490637e-06,23.924522,23.924522
177458673,2490402,2490402,0,0,0,0,0,395.8828,395.8828,7917.6562,7917.6562,0.023474958,0.0010476396,1.2192879e-11,-0.23486628,-0.085088275,-9.949073,-0.0115516195,0.01871968,0.0020946544,9.273043e-05,0.0012334532,0.00014399571,2.0857497e-06,5.6541364e-07,1.0059485e-06,23.939083,23.939083
178469058,2490402,2490402,0,0,0,0,0,395.8828,395.8828,7917.6562,7917.6562,0.021430243,0.0010302768,1.047595e-11,-0.23858601,-0.049284965,-9.945373,-0.0038993037,0.019933835,0.0011194458,0.00010875148,0.009575607,0.0003708618,1.0584433e-06,4.6501978e-07,8.2065816e-07,23.928062,23.928062
179479497,2490402,2490402,0,0,0,0,0,395.8828,395.8828,7917.6562,7917.6562,0.022274222,0.0011398438,1.2037232e-11,-0.2349891,-0.02010896,-9.942257,0.0013752518,0.019646693,0.002356591,7.352393e-05,0.001133206,0.0002530289,5.0391327e-06,5.89849e-07,6.966089e-07,23.940216,23.940216
180489857,2490402,2490402,0,0,0,0,0,395.8828,395.8828,7917.6562,7917.6562,0.034115452,0.0010487511,1.1531235e-11,-0.22242239,-0.0301253,-9.943542,-0.005645182,0.019887267,0.0030252992,0.00021471306,0.011320641,0.0011820229,6.5809063e-06,9.647116e-07,2.352257e-06,23.940897,23.940897
181500272,2490402,2490402,0,0,0,0,0,395.8828,395.8828,7917.6562,7917.6562,0.03188314,0.0011351008,8.966636e-12,-0.2751907,-0.13414674,-9.950295,-0.0031266087,0.020305917,0.0022300952,8.6730164e-05,0.0014362915,0.00044428118,6.007542e-06,7.556578e-07,1.2369906e-06,23.95403,23.95403
182510650,2490402,2490402,0,0,0,0,0,395.8828,395.8828,7917.6562,7917.6562,0.024438826,0.0010704327,1.19646645e-11,-0.24899407,-0.070495896,-9.942811,-0.006973245,0.020566978,0.0024300134,0.00012573568,0.0027918983,0.0002760328,1.1662808e-06,7.475811e-07,1.0637895e-06,23.951014,23.951014
183521051,2490402,2490402,0,0,0,0,0,395.8828,395.8828,7917.6562,7917.6562,0.020847071,0.0010394615,9.516639e-12,-0.24538285,-0.0923216,-9.945112,-0.0023945721,0.020122644,9.009631e-05,0.00013962036,0.0014134743,0.00023259273,6.516355e-07,5.202861e-07,7.703127e-07,23.965279,23.965279
184531450,2490402,2490402,0,0,0,0,0,395.8828,395.8828,7917.6562,7917.6562,0.020030642,0.0010358521,1.577493e-11,-0.24459897,-0.1370501,-9.942698,-0.012401392,0.019797055,0.0007154334,0.00010595716,0.0017500393,0.0005226428,1.6019908e-06,6.3692386e-07,1.1181239e-06,23.96301,23.96301
185541849,2490402,2490402,0,0,0,0,0,395.8828,395.8828,7917.6562,7917.6562,0.029619088,0.0011030928,1.11777705e-11,-0.28692904,-0.08826653,-9.941506,-0.009306546,0.01922063,0.002369273,0.00019828317,0.0010870176,0.00012228354,1.045848e-06,9.1699604e-07,5.2373935e-07,23.971619,23.971619
186552450,2490402,2490402,0,0,0,0,0,395.8828,395.8828,7917.6562,7917.6562,0.015057871,0.0009619867,1.1962962e-11,-0.25087926,-0.08777507,-9.947411,-0.011106559,0.019358672,0.0029929872,0.0001295247,0.00012750835,0.00019555453,5.25731e-07,5.6031615e-07,5.6678255e-07,23.961956,23.961956
187462014,2490402,2490402,0,0,0,0,0,395.8828,395.8828,7917.6562,7917.6562,0.01273189,0.0009843627,1.0252173e-11,-0.24351269,-0.11237835,-9.950268,-0.005353793,0.019706974,0.001689669,6.745169e-05,0.00026789628,0.00019439457,1.9954114e-06,6.882549e-07,6.03143e-07,23.95863,23.95863
188472008,2490402,2490402,0,0,0,0,0,395.8828,395.8828,7917.6562,7917.6562,0.012077671,0.0009554754,8.838813e-12,-0.24833427,-0.087723106,-9.951235,-0.0070367,0.0200273,0.0018129296,5.54232e-05,0.00011363633,0.00011931851,3.6300963e-07,3.8690254e-07,4.3985182e-07,23.970865,23.970865
189482436,2490402,2490402,0,0,0,0,0,395.8828,395.8828,7917.6562,7917.6562,0.013006334,0.0010067617,1.1342292e-11,-0.24654996,-0.10034333,-9.945101,-0.00508059,0.02061254,0.002142057,6.893741e-05,0.00015522678,0.00020554366,4.2674694e-07,7.780578e-07,4.860901e-07,23.975018,23.975018
