timestamp,timestamp_sample,gyro_device_id,gyro_bias[0],gyro_bias[1],gyro_bias[2],gyro_bias_limit,gyro_bias_variance[0],gyro_bias_variance[1],gyro_bias_variance[2],accel_device_id,accel_bias[0],accel_bias[1],accel_bias[2],accel_bias_limit,accel_bias_variance[0],accel_bias_variance[1],accel_bias_variance[2],mag_device_id,mag_bias[0],mag_bias[1],mag_bias[2],mag_bias_limit,mag_bias_variance[0],mag_bias_variance[1],mag_bias_variance[2],gyro_bias_valid,gyro_bias_stable,accel_bias_valid,accel_bias_stable,mag_bias_valid,mag_bias_stable
15903138,15802456,3932170,-0.003407221,0.0015729369,-0.0004928533,0.34906584,4.2477507e-07,3.9793247e-07,4.43854e-05,3932170,-0.005171708,0.012880862,0.009216935,0.4,0.016186146,0.016194759,0.000500691,396809,0.0,0.0,0.0,0.5,0.0025000002,0.0025000002,0.0025000002,1,0,1,0,1,0
16912555,16811767,3932170,-0.003419661,0.0015721896,-0.0005503318,0.34906584,3.7301496e-07,3.5144086e-07,3.533526e-05,3932170,-0.0051825056,0.012967784,0.009369713,0.4,0.01618364,0.016192254,0.00050068984,396809,0.0,0.0,0.0,0.5,0.0025000002,0.0025000002,0.0025000002,1,0,1,0,1,0
17921803,17821077,3932170,-0.0034163764,0.0015654273,-0.00063398806,0.34906584,3.341718e-07,3.1709635e-07,2.8153061e-05,3932170,-0.0052301567,0.0129199745,0.009527116,0.4,0.016181761,0.016190372,0.0005006878,396809,0.0,0.0,0.0,0.5,0.0025000002,0.0025000002,0.0025000002,1,0,1,0,1,0
18931506,18830387,3932170,-0.0034373102,0.0015580963,-0.0006990423,0.34906584,3.0493706e-07,2.9078248e-07,2.3131523e-05,3932170,-0.0053105373,0.013038099,0.009837022,0.4,0.016180286,0.016188836,0.0005006855,396809,0.0,0.0,0.0,0.5,0.0025000002,0.0025000002,0.0025000002,1,0,1,0,1,0
19940254,19839697,3932170,-0.0034443615,0.0015491568,-0.0007376539,0.34906584,2.873021e-07,2.7554427e-07,1.9241941e-05,3932170,-0.005390535,0.013054139,0.009046069,0.4,0.016178979,0.01618755,0.00050068606,396809,0.0,0.0,0.0,0.5,0.0025000002,0.0025000002,0.0025000002,1,0,1,0,1,0
20949575,20849006,3932170,-0.003455928,0.0015510268,-0.0007747702,0.34906584,2.681339e-07,2.5828592e-07,1.5977024e-05,3932170,-0.005418686,0.013129487,0.00882895,0.4,0.016177677,0.016186241,0.0005006878,396809,0.0,0.0,0.0,0.5,0.0025000002,0.0025000002,0.0025000002,1,0,1,0,1,0
21959096,21858316,3932170,-0.0034643684,0.0015491843,-0.00077775406,0.34906584,2.5280323e-07,2.4442443e-07,1.3580449e-05,3932170,-0.0054571345,0.013161162,0.009013363,0.4,0.01617664,0.016185299,0.00050068815,396809,0.0,0.0,0.0,0.5,0.0025000002,0.0025000002,0.0025000002,1,0,1,0,1,0
22968191,22867625,3932170,-0.0034707652,0.0015526782,-0.0008155264,0.34906584,2.4007434e-07,2.3296933e-07,1.1511646e-05,3932170,-0.0054508946,0.0131950695,0.008851209,0.4,0.016175838,0.016184378,0.00050069124,396809,0.0,0.0,0.0,0.5,0.0025000002,0.0025000002,0.0025000002,1,0,1,0,1,0
23977512,23876935,3932170,-0.003486535,0.0015252456,-0.0008255604,0.34906584,2.2948498e-07,2.2347061e-07,9.956081e-06,3932170,-0.0056275115,0.013220558,0.008278368,0.4,0.016175019,0.016183464,0.00050068786,396809,0.0,0.0,0.0,0.5,0.0025000002,0.0025000002,0.0025000002,1,0,1,0,1,0
24986858,24886244,3932170,-0.003493636,0.0015102567,-0.00084461796,0.34906584,2.2400208e-07,2.1886423e-07,8.582084e-06,3932170,-0.00572433,0.013229009,0.008594138,0.4,0.016174207,0.016182935,0.00050069083,396809,0.0,0.0,0.0,0.5,0.0025000002,0.0025000002,0.0025000002,1,0,1,0,1,0
25836380,25735662,3932170,-0.003491993,0.0015189993,-0.0008375176,0.34906584,2.1519111e-07,2.1045877e-07,7.640803e-06,3932170,-0.005704223,0.0137384115,0.0075487955,0.4,0.016157327,0.016181018,0.000500686,396809,0.0,0.0,0.0,0.5,0.0025000002,0.0025000002,0.0025000002,1,0,1,0,1,0
26046270,25945519,3932170,-0.003487537,0.0015265949,-0.00083867024,0.34906584,2.1392819e-07,2.0931564e-07,7.419955e-06,3932170,-0.00544419,0.013671054,0.0093611125,0.4,0.01615633,0.01618057,0.00050068524,396809,0.0,0.0,0.0,0.5,0.0025000002,0.0025000002,0.0025000002,1,0,1,0,1,0
26675866,26575088,3932170,-0.0034978064,0.0015057847,-0.0008247415,0.34906584,2.1005644e-07,2.0595265e-07,6.7936335e-06,3932170,-0.0055567506,0.01377985,0.008099835,0.4,0.016147116,0.016179712,0.00050068524,396809,0.0,0.0,0.0,0.5,0.0025000002,0.0025000002,0.0025000002,1,0,1,0,1,0
27305408,27204656,3932170,-0.0034962296,0.0015417328,-0.00081275246,0.34906584,2.0702922e-07,2.0302787e-07,6.304617e-06,3932170,-0.0053399797,0.01391095,0.009162163,0.4,0.016143663,0.016179105,0.0005006862,396809,0.0,0.0,0.0,0.5,0.0025000002,0.0025000002,0.0025000002,1,0,1,0,1,0
27935170,27834225,3932170,-0.0035058314,0.0015074026,-0.00080173544,0.34906584,2.039111e-07,2.003265e-07,5.865771e-06,3932170,-0.005510557,0.013888363,0.007928268,0.4,0.016142776,0.016178444,0.0005006862,396809,0.0,0.0,0.0,0.5,0.0025000002,0.0025000002,0.0025000002,1,0,1,0,1,0
28564436,28463794,3932170,-0.003495488,0.0015230292,-0.00079935795,0.34906584,2.012999e-07,1.9794176e-07,5.420527e-06,3932170,-0.0053946655,0.01387849,0.009211974,0.4,0.016142223,0.01617834,0.000500686,396809,0.0,0.0,0.0,0.5,0.0025000002,0.0025000002,0.0025000002,1,0,1,0,1,0
29573790,29473103,3932170,-0.003493036,0.0015214031,-0.0007937769,0.34906584,1.9973794e-07,1.9672402e-07,4.8567454e-06,3932170,-0.005381339,0.013873501,0.009792826,0.4,0.016141638,0.016177977,0.00050068676,396809,0.0,0.0,0.0,0.5,0.0025000002,0.0025000002,0.0025000002,1,0,1,0,1,0
30583163,30482412,3932170,-0.0034907432,0.0015181962,-0.0007784852,0.34906584,1.9591498e-07,1.9321274e-07,4.3356595e-06,3932170,-0.005385731,0.013889238,0.010052126,0.4,0.016140947,0.016177278,0.0005006874,396809,0.0,0.0,0.0,0.5,0.0025000002,0.0025000002,0.0025000002,1,0,1,0,1,0
31592430,31491721,3932170,-0.0034843883,0.0015092875,-0.0007937481,0.34906584,1.9260067e-07,1.901763e-07,3.919766e-06,3932170,-0.005408902,0.013865438,0.009724004,0.4,0.016140629,0.016176365,0.0005006895,396809,0.0,0.0,0.0,0.5,0.0025000002,0.0025000002,0.0025000002,1,0,1,0,1,0
32601717,32501029,3932170,-0.0034908275,0.0014884375,-0.00080227776,0.34906584,1.8963344e-07,1.8747761e-07,3.5318567e-06,3932170,-0.0054783025,0.013870468,0.009836801,0.4,0.016140413,0.016175874,0.0005006905,396809,0.0,0.0,0.0,0.5,0.0025000002,0.0025000002,0.0025000002,1,0,1,0,1,0
33611024,33510338,3932170,-0.0034824624,0.0014796153,-0.00078390434,0.34906584,1.8709099e-07,1.8515256e-07,3.2186256e-06,3932170,-0.005493473,0.0139002055,0.009726235,0.4,0.016139692,0.016173167,0.0005006869,396809,0.0,0.0,0.0,0.5,0.0025000002,0.0025000002,0.0025000002,1,0,1,0,1,0
34620342,34519647,3932170,-0.0034760728,0.0014981184,-0.0007715875,0.34906584,1.8727808e-07,1.8547166e-07,2.9235478e-06,3932170,-0.00544981,0.013812681,0.01023044,0.4,0.016139382,0.016172547,0.00050069095,396809,0.0,0.0,0.0,0.5,0.0025000002,0.0025000002,0.0025000002,1,0,1,0,1,0
35489848,35389052,3932170,-0.003479149,0.0011952564,-0.0007758764,0.34906584,1.8313807e-07,1.822011e-07,2.6953862e-06,3932170,-0.0061688074,0.012471891,0.010694047,0.4,0.016095862,0.01617053,0.00050068524,396809,0.0,0.0,0.0,0.5,0.0025000002,0.0025000002,0.0025000002,1,0,1,0,1,0
35699706,35598908,3932170,-0.0034849371,0.0010961375,-0.00077111856,0.34906584,1.8264181e-07,1.8189439e-07,2.6398602e-06,3932170,-0.0063706553,0.010773336,0.007836428,0.4,0.016080081,0.016169028,0.00050068554,396809,0.0,0.0,0.0,0.5,0.0025000002,0.0025000002,0.0025000002,1,0,1,0,1,0
35909713,35808764,3932170,-0.0034742246,0.00095081975,-0.00077049003,0.34906584,1.8210697e-07,1.8164035e-07,2.5803215e-06,3932170,-0.006207171,0.006412661,0.0068232906,0.4,0.016049437,0.01616643,0.000500686,396809,0.0,0.0,0.0,0.5,0.0025000002,0.0025000002,0.0025000002,1,0,1,0,1,0
36559470,36458319,3932170,-0.0034662662,0.0009770774,-0.00067721645,0.34906584,1.8827387e-07,1.8786518e-07,2.4354738e-06,3932170,-0.0061761537,0.008039213,0.006941374,0.4,0.016042788,0.01616559,0.000500686,396809,0.0,0.0,0.0,0.5,0.0025000002,0.0025000002,0.0025000002,1,0,1,0,1,0
36809176,36708148,3932170,-0.0034594447,0.0010050149,-0.00061335205,0.34906584,1.9034708e-07,1.9003413e-07,2.379257e-06,3932170,-0.0063086036,0.009809305,0.0071184705,0.4,0.016028559,0.016164208,0.000500686,396809,0.0,0.0,0.0,0.5,0.0025000002,0.0025000002,0.0025000002,1,0,1,0,1,0
36939131,36838059,3932170,-0.0034531187,0.0010230776,-0.0005579095,0.34906584,1.9131201e-07,1.9107259e-07,2.339714e-06,3932170,-0.0064832196,0.010971463,0.007291698,0.4,0.0160157,0.016163087,0.000500686,396809,0.0,0.0,0.0,0.5,0.0025000002,0.0025000002,0.0025000002,1,0,1,0,1,0
37059058,36957977,3932170,-0.00344458,0.0010445663,-0.0004911227,0.34906584,1.9210003e-07,1.9195392e-07,2.311106e-06,3932170,-0.00666624,0.012367456,0.007493089,0.4,0.01599801,0.01616158,0.000500686,396809,0.0,0.0,0.0,0.5,0.0025000002,0.0025000002,0.0025000002,1,0,1,0,1,0
37108856,37007943,3932170,-0.0030087552,-0.0016889048,0.0008052923,0.34906584,1.8142832e-07,1.8051854e-07,1.8718714e-06,3932170,0.020029498,-0.1544248,0.0028628178,0.4,0.014394742,0.016083408,0.00050068577,396809,0.0,0.0,0.0,0.5,0.0025000002,0.0025000002,0.0025000002,1,0,1,0,1,0
37318877,37218049,3932170,-0.0030074636,-0.0016687807,0.00078308384,0.34906584,1.8341238e-07,1.8250562e-07,1.8505879e-06,3932170,0.02134707,-0.15459438,0.0027835278,0.4,0.014386763,0.016075922,0.00050045474,396809,0.0,0.0,0.0,0.5,0.0025000002,0.0025000002,0.0025000002,1,0,1,0,1,0
37698603,37597789,3932170,-0.0030058934,-0.0016616238,0.0007355694,0.34906584,1.8719875e-07,1.8629754e-07,1.8179851e-06,3932170,0.02294822,-0.1548835,0.0025231917,0.4,0.0143770585,0.016077707,0.00050052744,396809,0.0,0.0,0.0,0.5,0.0025000002,0.0025000002,0.0025000002,1,0,1,0,1,0
37808525,37707714,3932170,-0.0030058417,-0.00165403,0.0007297582,0.34906584,1.8829421e-07,1.8739343e-07,1.8118202e-06,3932170,0.024264771,-0.1549336,0.0022472914,0.4,0.014368899,0.016077919,0.00050054357,396809,0.0,0.0,0.0,0.5,0.0025000002,0.0025000002,0.0025000002,1,0,1,0,1,0
37938400,37837625,3932170,-0.0030056457,-0.0016413057,0.0007133835,0.34906584,1.8958025e-07,1.8867993e-07,1.798538e-06,3932170,0.025439346,-0.15509205,0.0020320597,0.4,0.014356578,0.016077982,0.0005005607,396809,0.0,0.0,0.0,0.5,0.0025000002,0.0025000002,0.0025000002,1,0,1,0,1,0
38058289,37957543,3932170,-0.0030058133,-0.0016224111,0.00070105976,0.34906584,1.9076104e-07,1.898598e-07,1.7850812e-06,3932170,0.02710428,-0.1552147,0.0016880996,0.4,0.014341647,0.016077792,0.00050057465,396809,0.0,0.0,0.0,0.5,0.0025000002,0.0025000002,0.0025000002,1,0,1,0,1,0
38188170,38087454,3932170,-0.0030056008,-0.0016218056,0.0006911238,0.34906584,1.920581e-07,1.9115615e-07,1.7792238e-06,3932170,0.028440597,-0.15494688,0.0013733319,0.4,0.014321477,0.016077325,0.00050058815,396809,0.0,0.0,0.0,0.5,0.0025000002,0.0025000002,0.0025000002,1,0,1,0,1,0
38318086,38217365,3932170,-0.003005092,-0.0016207577,0.0006709434,0.34906584,1.9334811e-07,1.924456e-07,1.7662102e-06,3932170,0.030315798,-0.15459141,0.0009430738,0.4,0.014296362,0.016076665,0.00050059985,396809,0.0,0.0,0.0,0.5,0.0025000002,0.0025000002,0.0025000002,1,0,1,0,1,0
38437965,38337283,3932170,-0.0030046424,-0.0016197865,0.0006528976,0.34906584,1.9453766e-07,1.936338e-07,1.7531559e-06,3932170,0.032069415,-0.15425804,0.00054018886,0.4,0.014265695,0.016075723,0.0005006094,396809,0.0,0.0,0.0,0.5,0.0025000002,0.0025000002,0.0025000002,1,0,1,0,1,0
38557945,38457200,3932170,-0.003004489,-0.0016185201,0.0006426706,0.34906584,1.9573352e-07,1.9482698e-07,1.7472718e-06,3932170,0.035468705,-0.15359186,-0.00025608207,0.4,0.014229565,0.016074585,0.0005006186,396809,0.0,0.0,0.0,0.5,0.0025000002,0.0025000002,0.0025000002,1,0,1,0,1,0
38687817,38587112,3932170,-0.003004027,-0.0016173198,0.00062350446,0.34906584,1.9702242e-07,1.9611291e-07,1.7344124e-06,3932170,0.037784573,-0.15314767,-0.00079268124,0.4,0.014188037,0.016073156,0.00050062576,396809,0.0,0.0,0.0,0.5,0.0025000002,0.0025000002,0.0025000002,1,0,1,0,1,0
38807761,38707030,3932170,-0.0030036324,-0.0016156505,0.00060477195,0.34906584,1.982114e-07,1.9729801e-07,1.7215211e-06,3932170,0.041561976,-0.15242168,-0.0016731652,0.4,0.014141065,0.016071543,0.00050063216,396809,0.0,0.0,0.0,0.5,0.0025000002,0.0025000002,0.0025000002,1,0,1,0,1,0
38937624,38836940,3932170,-0.003003492,-0.0016142208,0.0005946749,0.34906584,1.9950679e-07,1.9858825e-07,1.7158144e-06,3932170,0.04524911,-0.15170272,-0.0025478906,0.4,0.014088156,0.016069727,0.0005006397,396809,0.0,0.0,0.0,0.5,0.0025000002,0.0025000002,0.0025000002,1,0,1,0,1,0
39057525,38956859,3932170,-0.0030030843,-0.001612914,0.0005771647,0.34906584,2.0069511e-07,1.9977068e-07,1.7030237e-06,3932170,0.04782668,-0.15121914,-0.0031443604,0.4,0.014030105,0.016067691,0.00050064345,396809,0.0,0.0,0.0,0.5,0.0025000002,0.0025000002,0.0025000002,1,0,1,0,1,0
39187400,39086769,3932170,-0.0030026715,-0.0016111615,0.0005579127,0.34906584,2.0198452e-07,2.0105327e-07,1.6904154e-06,3932170,0.051573046,-0.150508,-0.0040299688,0.4,0.013967865,0.01606557,0.0005006495,396809,0.0,0.0,0.0,0.5,0.0025000002,0.0025000002,0.0025000002,1,0,1,0,1,0
39307329,39206687,3932170,-0.0030025484,-0.0016096384,0.00054947956,0.34906584,2.0317886e-07,2.0224013e-07,1.6846933e-06,3932170,0.055488747,-0.1497711,-0.0049927575,0.4,0.01390263,0.016063385,0.0005006532,396809,0.0,0.0,0.0,0.5,0.0025000002,0.0025000002,0.0025000002,1,0,1,0,1,0
39427302,39326605,3932170,-0.0030021956,-0.0016075987,0.0005319263,0.34906584,2.0436775e-07,2.0342098e-07,1.6720895e-06,3932170,0.060132865,-0.1488714,-0.0061389646,0.4,0.013835695,0.016060937,0.0005006567,396809,0.0,0.0,0.0,0.5,0.0025000002,0.0025000002,0.0025000002,1,0,1,0,1,0
39547193,39446523,3932170,-0.0030017786,-0.0016068565,0.0005156417,0.34906584,2.0555665e-07,2.0460917e-07,1.6595691e-06,3932170,0.061157163,-0.14867996,-0.006378675,0.4,0.013831405,0.016060881,0.0005006597,396809,0.0,0.0,0.0,0.5,0.0025000002,0.0025000002,0.0025000002,1,0,1,0,1,0
39557175,39456516,3932170,-0.0030018797,-0.0016055718,0.0005156727,0.34906584,2.0565663e-07,2.0470065e-07,1.6596703e-06,3932170,0.064781,-0.1479699,-0.0072934716,0.4,0.013763413,0.016058281,0.00050066004,396809,0.0,0.0,0.0,0.5,0.0025000002,0.0025000002,0.0025000002,1,0,1,0,1,0
39687062,39586427,3932170,-0.0030017556,-0.0016037723,0.0005071894,0.34906584,2.0695074e-07,2.0598534e-07,1.6541446e-06,3932170,0.06919976,-0.14711349,-0.008425681,0.4,0.013691557,0.016055642,0.00050066283,396809,0.0,0.0,0.0,0.5,0.0025000002,0.0025000002,0.0025000002,1,0,1,0,1,0
39807029,39706345,3932170,-0.0030014708,-0.0016015206,0.00049219345,0.34906584,2.081397e-07,2.0716362e-07,1.6417385e-06,3932170,0.07434986,-0.1461073,-0.009744656,0.4,0.013615575,0.016052766,0.0005006653,396809,0.0,0.0,0.0,0.5,0.0025000002,0.0025000002,0.0025000002,1,0,1,0,1,0
39936996,39836256,3932170,-0.0030012412,-0.0015991523,0.00047960304,0.34906584,2.0942882e-07,2.084414e-07,1.6295119e-06,3932170,0.07986168,-0.14504126,-0.01118274,0.4,0.013540074,0.016049994,0.0005006679,396809,0.0,0.0,0.0,0.5,0.0025000002,0.0025000002,0.0025000002,1,0,1,0,1,0
40056949,39956174,3932170,-0.0030011644,-0.0015972282,0.0004738883,0.34906584,2.1062284e-07,2.0962362e-07,1.6239765e-06,3932170,0.08461217,-0.1441351,-0.01244132,0.4,0.01346186,0.016047211,0.0005006694,396809,0.0,0.0,0.0,0.5,0.0025000002,0.0025000002,0.0025000002,1,0,1,0,1,0
40156845,40056106,3932170,-0.0030007635,-0.0015964268,0.00045786734,0.34906584,2.1161202e-07,2.1061126e-07,1.6115656e-06,3932170,0.085769266,-0.14391749,-0.012717655,0.4,0.013456625,0.01604705,0.0005006702,396809,0.0,0.0,0.0,0.5,0.0025000002,0.0025000002,0.0025000002,1,0,1,0,1,0
40186807,40086086,3932170,-0.0030007954,-0.0015947566,0.00045794362,0.34906584,2.1191153e-07,2.1089974e-07,1.6118646e-06,3932170,0.0899991,-0.14312227,-0.013882468,0.4,0.013385949,0.016044548,0.00050067005,396809,0.0,0.0,0.0,0.5,0.0025000002,0.0025000002,0.0025000002,1,0,1,0,1,0
40306765,40206003,3932170,-0.0030004662,-0.0015922281,0.0004430341,0.34906584,2.131013e-07,2.1207637e-07,1.59974e-06,3932170,0.095582016,-0.14204775,-0.015400763,0.4,0.013308801,0.016041748,0.0005006724,396809,0.0,0.0,0.0,0.5,0.0025000002,0.0025000002,0.0025000002,1,0,1,0,1,0
40436556,40335914,3932170,-0.00300033,-0.0015906225,0.00043766596,0.34906584,2.1439551e-07,2.1335788e-07,1.5944106e-06,3932170,0.09926659,-0.14136913,-0.016437415,0.4,0.013235247,0.016039323,0.00050067395,396809,0.0,0.0,0.0,0.5,0.0025000002,0.0025000002,0.0025000002,1,0,1,0,1,0
40506487,40405866,3932170,-0.0030001733,-0.0015900789,0.0004306745,0.34906584,2.1509032e-07,2.1405133e-07,1.5884967e-06,3932170,0.10034969,-0.14116018,-0.016709043,0.4,0.0132290935,0.016039124,0.0005006749,396809,0.0,0.0,0.0,0.5,0.0025000002,0.0025000002,0.0025000002,1,0,1,0,1,0
40556583,40455832,3932170,-0.0029999975,-0.0015878571,0.00042455026,0.34906584,2.1558516e-07,2.1453391e-07,1.5824058e-06,3932170,0.1053715,-0.14020413,-0.018178998,0.4,0.013161409,0.016036674,0.00050067523,396809,0.0,0.0,0.0,0.5,0.0025000002,0.0025000002,0.0025000002,1,0,1,0,1,0
40656401,40555764,3932170,-0.0029998408,-0.0015873209,0.00041761974,0.34906584,2.1657958e-07,2.1552681e-07,1.5768321e-06,3932170,0.10642229,-0.14000218,-0.018444315,0.4,0.013154741,0.016036455,0.00050067605,396809,0.0,0.0,0.0,0.5,0.0025000002,0.0025000002,0.0025000002,1,0,1,0,1,0
40686381,40585743,3932170,-0.0029996352,-0.001585557,0.00041248705,0.34906584,2.1687497e-07,2.1580976e-07,1.5705842e-06,3932170,0.11021036,-0.13933697,-0.019585833,0.4,0.013091426,0.016034512,0.00050067675,396809,0.0,0.0,0.0,0.5,0.0025000002,0.0025000002,0.0025000002,1,0,1,0,1,0
40756315,40655695,3932170,-0.0029994755,-0.0015850011,0.00040540312,0.34906584,2.1756976e-07,2.1650295e-07,1.564752e-06,3932170,0.1113018,-0.13912694,-0.019862218,0.4,0.013084595,0.016034273,0.00050067727,396809,0.0,0.0,0.0,0.5,0.0025000002,0.0025000002,0.0025000002,1,0,1,0,1,0
40806419,40705661,3932170,-0.002999403,-0.0015837422,0.00040546907,0.34906584,2.1806903e-07,2.169899e-07,1.5652513e-06,3932170,0.114220954,-0.13863312,-0.020750327,0.4,0.013019622,0.016032442,0.00050067727,396809,0.0,0.0,0.0,0.5,0.0025000002,0.0025000002,0.0025000002,1,0,1,0,1,0
40916218,40815586,3932170,-0.0029990803,-0.001582941,0.0003919951,0.34906584,2.1915889e-07,2.1807703e-07,1.5533527e-06,3932170,0.115507215,-0.13838848,-0.021072578,0.4,0.013012188,0.016032182,0.0005006774,396809,0.0,0.0,0.0,0.5,0.0025000002,0.0025000002,0.0025000002,1,0,1,0,1,0
40936214,40835572,3932170,-0.002998966,-0.001581483,0.00039207694,0.34906584,2.1935872e-07,2.182648e-07,1.5535536e-06,3932170,0.118733265,-0.13785683,-0.022091867,0.4,0.012952831,0.016030582,0.0005006778,396809,0.0,0.0,0.0,0.5,0.0025000002,0.0025000002,0.0025000002,1,0,1,0,1,0
41056338,40955490,3932170,-0.0029984708,-0.0015795027,0.0003774273,0.34906584,2.2054869e-07,2.194403e-07,1.5418412e-06,3932170,0.12239458,-0.1372493,-0.023222905,0.4,0.0128897205,0.01602891,0.00050067814,396809,0.0,0.0,0.0,0.5,0.0025000002,0.0025000002,0.0025000002,1,0,1,0,1,0
41116148,41015449,3932170,-0.002998346,-0.0015789993,0.0003717701,0.34906584,2.2114382e-07,2.2003348e-07,1.536019e-06,3932170,0.123416446,-0.13705269,-0.023486776,0.4,0.0128822,0.016028643,0.0005006784,396809,0.0,0.0,0.0,0.5,0.0025000002,0.0025000002,0.0025000002,1,0,1,0,1,0
41186242,41085401,3932170,-0.0029982033,-0.0015776426,0.00037184058,0.34906584,2.2184277e-07,2.20721e-07,1.5367189e-06,3932170,0.12649237,-0.13656537,-0.02449228,0.4,0.012826565,0.016027346,0.0005006786,396809,0.0,0.0,0.0,0.5,0.0025000002,0.0025000002,0.0025000002,1,0,1,0,1,0
41316370,41215312,3932170,-0.0029977474,-0.0015758465,0.00035957448,0.34906584,2.2313267e-07,2.2199686e-07,1.525233e-06,3932170,0.12991516,-0.13601528,-0.025586672,0.4,0.012766717,0.016025927,0.000500679,396809,0.0,0.0,0.0,0.5,0.0025000002,0.0025000002,0.0025000002,1,0,1,0,1,0
41415925,41315244,3932170,-0.0029973907,-0.0015750076,0.00034487937,0.34906584,2.241231e-07,2.2298401e-07,1.5135299e-06,3932170,0.13116722,-0.13578421,-0.02590681,0.4,0.012758484,0.016025634,0.00050067884,396809,0.0,0.0,0.0,0.5,0.0025000002,0.0025000002,0.0025000002,1,0,1,0,1,0
41435881,41335230,3932170,-0.002997239,-0.0015741406,0.00034492355,0.34906584,2.2432269e-07,2.2317367e-07,1.5137308e-06,3932170,0.13296862,-0.13552734,-0.026575634,0.4,0.012714345,0.016024752,0.0005006792,396809,0.0,0.0,0.0,0.5,0.0025000002,0.0025000002,0.0025000002,1,0,1,0,1,0
41515814,41415175,3932170,-0.002997085,-0.0015735308,0.00033818145,0.34906584,2.2511779e-07,2.2396662e-07,1.5082103e-06,3932170,0.13418476,-0.13529998,-0.026896566,0.4,0.012706258,0.016024482,0.00050067966,396809,0.0,0.0,0.0,0.5,0.0025000002,0.0025000002,0.0025000002,1,0,1,0,1,0
41555879,41455148,3932170,-0.0029968424,-0.0015723349,0.00033824012,0.34906584,2.2551671e-07,2.2435603e-07,1.5086091e-06,3932170,0.13660938,-0.13497733,-0.027834004,0.4,0.012665464,0.016023755,0.0005006794,396809,0.0,0.0,0.0,0.5,0.0025000002,0.0025000002,0.0025000002,1,0,1,0,1,0
41665704,41565073,3932170,-0.0029965034,-0.001571416,0.00032415113,0.34906584,2.2660727e-07,2.2544272e-07,1.4971342e-06,3932170,0.13812158,-0.1347009,-0.028229391,0.4,0.012653162,0.016023329,0.0005006794,396809,0.0,0.0,0.0,0.5,0.0025000002,0.0025000002,0.0025000002,1,0,1,0,1,0
41685687,41585061,3932170,-0.0029963101,-0.0015705586,0.0003241962,0.34906584,2.268058e-07,2.2563218e-07,1.4973291e-06,3932170,0.13980968,-0.13448332,-0.028914189,0.4,0.012615933,0.016022662,0.0005006778,396809,0.0,0.0,0.0,0.5,0.0025000002,0.0025000002,0.0025000002,1,0,1,0,1,0
41765708,41665004,3932170,-0.0029961627,-0.0015699625,0.0003175714,0.34906584,2.2760194e-07,2.2642607e-07,1.4918832e-06,3932170,0.14098975,-0.13426535,-0.029229918,0.4,0.01260779,0.016022457,0.0005006803,396809,0.0,0.0,0.0,0.5,0.0025000002,0.0025000002,0.0025000002,1,0,1,0,1,0
41805624,41704977,3932170,-0.0029958172,-0.0015690842,0.0003103262,0.34906584,2.279969e-07,2.2681144e-07,1.4860476e-06,3932170,0.14231683,-0.13410355,-0.029784793,0.4,0.01257424,0.016021939,0.00050068006,396809,0.0,0.0,0.0,0.5,0.0025000002,0.0025000002,0.0025000002,1,0,1,0,1,0
41875574,41774929,3932170,-0.0029956712,-0.0015684607,0.00030394344,0.34906584,2.2869231e-07,2.2750447e-07,1.4805395e-06,3932170,0.14357851,-0.13386868,-0.030124584,0.4,0.012566079,0.016021665,0.0005006803,396809,0.0,0.0,0.0,0.5,0.0025000002,0.0025000002,0.0025000002,1,0,1,0,1,0
41975507,41874860,3932170,-0.0029954792,-0.0015677352,0.0002978409,0.34906584,2.2968712e-07,2.2849007e-07,1.4753513e-06,3932170,0.14499024,-0.13362877,-0.030576207,0.4,0.01252962,0.016020993,0.0005006812,396809,0.0,0.0,0.0,0.5,0.0025000002,0.0025000002,0.0025000002,1,0,1,0,1,0
42075416,41974792,3932170,-0.0029953334,-0.0015671465,0.00029152926,0.34906584,2.3068134e-07,2.2947683e-07,1.4701856e-06,3932170,0.14614935,-0.1334124,-0.03089008,0.4,0.012498322,0.01602036,0.00050068105,396809,0.0,0.0,0.0,0.5,0.0025000002,0.0025000002,0.0025000002,1,0,1,0,1,0
42175420,42074724,3932170,-0.0029949495,-0.0015662826,0.0002752929,0.34906584,2.3167298e-07,2.304643e-07,1.4589268e-06,3932170,0.14731215,-0.13319415,-0.031199237,0.4,0.012489978,0.016020069,0.0005006809,396809,0.0,0.0,0.0,0.5,0.0025000002,0.0025000002,0.0025000002,1,0,1,0,1,0
42225438,42124689,3932170,-0.0029948081,-0.0015657645,0.00027531976,0.34906584,2.321719e-07,2.3095888e-07,1.4594289e-06,3932170,0.14849973,-0.13302141,-0.03173876,0.4,0.012466629,0.016019695,0.0005006818,396809,0.0,0.0,0.0,0.5,0.0025000002,0.0025000002,0.0025000002,1,0,1,0,1,0
42375231,42274587,3932170,-0.0029944386,-0.001564832,0.00025420584,0.34906584,2.3366245e-07,2.324416e-07,1.4487599e-06,3932170,0.14963478,-0.1327619,-0.031864565,0.4,0.012438281,0.016019024,0.0005006815,396809,0.0,0.0,0.0,0.5,0.0025000002,0.0025000002,0.0025000002,1,0,1,0,1,0
42475159,42374519,3932170,-0.0029939462,-0.0015638808,0.00023322359,0.34906584,2.3465412e-07,2.3342712e-07,1.4376836e-06,3932170,0.15066549,-0.13254543,-0.03217689,0.4,0.012417856,0.016018523,0.0005006813,396809,0.0,0.0,0.0,0.5,0.0025000002,0.0025000002,0.0025000002,1,0,1,0,1,0
42625041,42524416,3932170,-0.002993777,-0.001562923,0.0002127734,0.34906584,2.361458e-07,2.3491351e-07,1.4271991e-06,3932170,0.15161628,-0.13227972,-0.031995222,0.4,0.01239804,0.01601797,0.0005006821,396809,0.0,0.0,0.0,0.5,0.0025000002,0.0025000002,0.0025000002,1,0,1,0,1,0
42804985,42704293,3932170,-0.0029932489,-0.0015620854,0.00019340141,0.34906584,2.379333e-07,2.3670162e-07,1.4170691e-06,3932170,0.15284584,-0.13206545,-0.032435916,0.4,0.01237932,0.016017506,0.0005006824,396809,0.0,0.0,0.0,0.5,0.0025000002,0.0025000002,0.0025000002,1,0,1,0,1,0
42934915,42834204,3932170,-0.0029929208,-0.0015609239,0.00017264568,0.34906584,2.392228e-07,2.3798984e-07,1.4065283e-06,3932170,0.15408503,-0.13183169,-0.032481264,0.4,0.012367092,0.01601715,0.00050068274,396809,0.0,0.0,0.0,0.5,0.0025000002,0.0025000002,0.0025000002,1,0,1,0,1,0
43084734,42984101,3932170,-0.0029926042,-0.0015597924,0.00015207143,0.34906584,2.4071224e-07,2.3947658e-07,1.3962767e-06,3932170,0.1550974,-0.13165267,-0.032434992,0.4,0.012356225,0.016016822,0.00050068344,396809,0.0,0.0,0.0,0.5,0.0025000002,0.0025000002,0.0025000002,1,0,1,0,1,0
43234605,43133998,3932170,-0.0029920386,-0.0015586809,0.00012736677,0.34906584,2.4220174e-07,2.409609e-07,1.3861137e-06,3932170,0.1562647,-0.1314557,-0.032700036,0.4,0.012346098,0.016016515,0.00050068425,396809,0.0,0.0,0.0,0.5,0.0025000002,0.0025000002,0.0025000002,1,0,1,0,1,0
43334625,43233930,3932170,-0.0029920936,-0.0015574172,0.00011542073,0.34906584,2.431948e-07,2.419474e-07,1.3813149e-06,3932170,0.1571975,-0.1313079,-0.032287776,0.4,0.012339348,0.016016297,0.000500684,396809,0.0,0.0,0.0,0.5,0.0025000002,0.0025000002,0.0025000002,1,0,1,0,1,0
43414640,43313876,3932170,-0.0038379286,-0.004694724,-0.00034199868,0.34906584,1.8585514e-07,1.8413951e-07,1.369413e-06,3932170,0.15560275,-0.1049072,-0.11530596,0.4,0.012315928,0.015996236,0.00050068344,396809,0.0,0.0,0.0,0.5,0.0025000002,0.0025000002,0.0025000002,1,0,1,0,1,0
43624570,43523732,3932170,-0.0039742272,-0.0034697745,0.0011303886,0.34906584,1.8287794e-07,1.8276114e-07,1.170349e-06,3932170,0.15476982,-0.097603485,-0.0748704,0.4,0.011899583,0.015877208,0.0005006843,396809,0.0,0.0,0.0,0.5,0.0025000002,0.0025000002,0.0025000002,1,0,1,0,1,0
43834373,43733588,3932170,-0.0038186593,-0.002316765,0.0007987493,0.34906584,1.8178635e-07,1.8159933e-07,1.0845524e-06,3932170,0.11331843,-0.121788435,-0.050686304,0.4,0.011566305,0.015806315,0.0005006852,396809,0.0,0.0,0.0,0.5,0.0025000002,0.0025000002,0.0025000002,1,0,1,0,1,0
43994310,43893479,3932170,-0.0038187765,-0.0023163313,0.0007839181,0.34906584,1.8338245e-07,1.8319193e-07,1.0808268e-06,3932170,0.11229205,-0.122214355,-0.050718267,0.4,0.011552874,0.015804844,0.00050068507,396809,0.0,0.0,0.0,0.5,0.0025000002,0.0025000002,0.0025000002,1,0,1,0,1,0
44044321,43943444,3932170,-0.0036896064,-0.0014354599,0.0008196543,0.34906584,1.8132312e-07,1.8069237e-07,1.0454679e-06,3932170,0.09270394,-0.12318374,-0.029626347,0.4,0.011356367,0.015783353,0.000500686,396809,0.0,0.0,0.0,0.5,0.0025000002,0.0025000002,0.0025000002,1,0,1,0,1,0
44243928,44143308,3932170,-0.0036900549,-0.0014349335,0.0008031903,0.34906584,1.83314e-07,1.8268409e-07,1.0427289e-06,3932170,0.09170221,-0.12367648,-0.029622218,0.4,0.011343941,0.015781764,0.00050068536,396809,0.0,0.0,0.0,0.5,0.0025000002,0.0025000002,0.0025000002,1,0,1,0,1,0
44254237,44153301,3932170,-0.0036241454,-0.0006075826,0.0008895614,0.34906584,1.8113786e-07,1.7980416e-07,1.0179652e-06,3932170,0.09416409,-0.13276841,-0.02272641,0.4,0.011171178,0.015779905,0.00050068554,396809,0.0,0.0,0.0,0.5,0.0025000002,0.0025000002,0.0025000002,1,0,1,0,1,0
44443807,44343171,3932170,-0.0036253226,-0.00060672715,0.0008649112,0.34906584,1.8301728e-07,1.8169386e-07,1.0133757e-06,3932170,0.09327649,-0.13337392,-0.022677572,0.4,0.011159519,0.015777964,0.0005006856,396809,0.0,0.0,0.0,0.5,0.0025000002,0.0025000002,0.0025000002,1,0,1,0,1,0
44463890,44363157,3932170,-0.0035710104,0.00014092469,0.0009403916,0.34906584,1.8110744e-07,1.7900553e-07,9.966886e-07,3932170,0.10030376,-0.14116843,-0.024748713,0.4,0.0110026095,0.015769,0.000500686,396809,0.0,0.0,0.0,0.5,0.0025000002,0.0025000002,0.0025000002,1,0,1,0,1,0
44633661,44533041,3932170,-0.0035727667,0.00014185175,0.00091260084,0.34906584,1.8277771e-07,1.8069547e-07,9.922771e-07,3932170,0.09946323,-0.1417518,-0.024771431,0.4,0.010994466,0.015767451,0.00050068786,396809,0.0,0.0,0.0,0.5,0.0025000002,0.0025000002,0.0025000002,1,0,1,0,1,0
44673799,44573014,3932170,-0.0035387857,0.0006373443,0.00096532947,0.34906584,1.8099465e-07,1.7845804e-07,9.887029e-07,3932170,0.09636156,-0.13932341,-0.012461478,0.4,0.010912995,0.015762165,0.00050068524,396809,0.0,0.0,0.0,0.5,0.0025000002,0.0025000002,0.0025000002,1,0,1,0,1,0
44803629,44702925,3932170,-0.0035400777,0.00063794997,0.0009462873,0.34906584,1.8227077e-07,1.7975107e-07,9.859671e-07,3932170,0.095273875,-0.13981262,-0.0124633545,0.4,0.010905263,0.0157611,0.00050068524,396809,0.0,0.0,0.0,0.5,0.0025000002,0.0025000002,0.0025000002,1,0,1,0,1,0
44883594,44782870,3932170,-0.0034914145,0.0010455254,0.0010144053,0.34906584,1.8084295e-07,1.7801591e-07,9.82811e-07,3932170,0.09523338,-0.13536243,-0.00027511048,0.4,0.010843728,0.015758276,0.0005006856,396809,0.0,0.0,0.0,0.5,0.0025000002,0.0025000002,0.0025000002,1,0,1,0,1,0
45053378,44952754,3932170,-0.0034929488,0.0010461955,0.0009933943,0.34906584,1.8251494e-07,1.7970777e-07,9.804719e-07,3932170,0.09390721,-0.13587593,-0.00033217182,0.4,0.0108338585,0.015757341,0.00050068524,396809,0.0,0.0,0.0,0.5,0.0025000002,0.0025000002,0.0025000002,1,0,1,0,1,0
45093451,44992726,3932170,-0.0035045247,0.0015067228,0.0009794182,0.34906584,1.807871e-07,1.7748674e-07,9.756967e-07,3932170,0.10038591,-0.13588351,-0.0023817304,0.4,0.010758337,0.015739497,0.000500686,396809,0.0,0.0,0.0,0.5,0.0025000002,0.0025000002,0.0025000002,1,0,1,0,1,0
45203381,45102651,3932170,-0.0035053103,0.0015070434,0.0009690695,0.34906584,1.8187086e-07,1.7858238e-07,9.747893e-07,3932170,0.09933195,-0.13620648,-0.0023858296,0.4,0.010751251,0.01573896,0.00050068577,396809,0.0,0.0,0.0,0.5,0.0025000002,0.0025000002,0.0025000002,1,0,1,0,1,0
45303424,45202583,3932170,-0.0034806232,0.0019203887,0.0009856912,0.34906584,1.8078804e-07,1.7711365e-07,9.695833e-07,3932170,0.10172084,-0.13002235,0.00037608927,0.4,0.010678395,0.01573179,0.00050068536,396809,0.0,0.0,0.0,0.5,0.0025000002,0.0025000002,0.0025000002,1,0,1,0,1,0
45453161,45352480,3932170,-0.0034826281,0.0019212039,0.00096236536,0.34906584,1.8225369e-07,1.7860616e-07,9.67062e-07,3932170,0.1007427,-0.13049552,0.00040050282,0.4,0.010671615,0.01573093,0.00050068577,396809,0.0,0.0,0.0,0.5,0.0025000002,0.0025000002,0.0025000002,1,0,1,0,1,0
45513281,45412439,3932170,-0.0035275419,0.0021859612,0.00091445894,0.34906584,1.8059308e-07,1.7679261e-07,9.674994e-07,3932170,0.101634875,-0.117722005,0.010964273,0.4,0.010637658,0.015710218,0.00050068577,396809,0.0,0.0,0.0,0.5,0.0025000002,0.0025000002,0.0025000002,1,0,1,0,1,0
45663065,45562336,3932170,-0.0035295857,0.0021867391,0.00089089334,0.34906584,1.820577e-07,1.7828538e-07,9.649549e-07,3932170,0.10060446,-0.11821778,0.010945429,0.4,0.010631114,0.015709337,0.00050069095,396809,0.0,0.0,0.0,0.5,0.0025000002,0.0025000002,0.0025000002,1,0,1,0,1,0
45723238,45622295,3932170,-0.0035234648,0.0023670602,0.00089058647,0.34906584,1.8021841e-07,1.7652812e-07,9.633765e-07,3932170,0.10218343,-0.10694136,0.017513027,0.4,0.010611955,0.015693896,0.0005006861,396809,0.0,0.0,0.0,0.5,0.0025000002,0.0025000002,0.0025000002,1,0,1,0,1,0
45862967,45762200,3932170,-0.0035254345,0.0023678162,0.00086732453,0.34906584,1.8158286e-07,1.7792068e-07,9.606931e-07,3932170,0.100926444,-0.10745954,0.017509872,0.4,0.010605581,0.015693119,0.0005006883,396809,0.0,0.0,0.0,0.5,0.0025000002,0.0025000002,0.0025000002,1,0,1,0,1,0
45933021,45832152,3932170,-0.0033082655,0.00257529,0.0010839447,0.34906584,1.7991857e-07,1.7643936e-07,9.564795e-07,3932170,0.108169794,-0.1049586,0.015169966,0.4,0.010577391,0.015672334,0.0005006855,396809,0.0,0.0,0.0,0.5,0.0025000002,0.0025000002,0.0025000002,1,0,1,0,1,0
46062827,45962063,3932170,-0.0033106303,0.002576358,0.0010562163,0.34906584,1.811832e-07,1.777309e-07,9.537036e-07,3932170,0.10693602,-0.10556508,0.015182582,0.4,0.010571198,0.015671628,0.0005006856,396809,0.0,0.0,0.0,0.5,0.0025000002,0.0025000002,0.0025000002,1,0,1,0,1,0
46142816,46042008,3932170,-0.0030101785,0.0027639198,0.0013316883,0.34906584,1.7963215e-07,1.7649012e-07,9.4726664e-07,3932170,0.115002155,-0.10571869,0.012076522,0.4,0.010545852,0.015635641,0.0005006859,396809,0.0,0.0,0.0,0.5,0.0025000002,0.0025000002,0.0025000002,1,0,1,0,1,0
46262545,46161926,3932170,-0.003011423,0.0027645766,0.0013166908,0.34906584,1.8081373e-07,1.7768404e-07,9.464527e-07,3932170,0.113899246,-0.10610194,0.012064217,0.4,0.010539882,0.015635232,0.0005006931,396809,0.0,0.0,0.0,0.5,0.0025000002,0.0025000002,0.0025000002,1,0,1,0,1,0
46352688,46251865,3932170,-0.0027850366,0.0029157808,0.0014806517,0.34906584,1.793249e-07,1.7650147e-07,9.4074665e-07,3932170,0.11875302,-0.10740503,0.008235133,0.4,0.010523001,0.015615997,0.00050068524,396809,0.0,0.0,0.0,0.5,0.0025000002,0.0025000002,0.0025000002,1,0,1,0,1,0
46472404,46371782,3932170,-0.002786435,0.002916619,0.0014636415,0.34906584,1.8050703e-07,1.776949e-07,9.3993447e-07,3932170,0.11753133,-0.10784276,0.008259857,0.4,0.0105172,0.015615635,0.00050068955,396809,0.0,0.0,0.0,0.5,0.0025000002,0.0025000002,0.0025000002,1,0,1,0,1,0
46562576,46461721,3932170,-0.0025526388,0.0030813229,0.0016261896,0.34906584,1.7915684e-07,1.7659073e-07,9.3630734e-07,3932170,0.11956059,-0.10627139,0.009837013,0.4,0.010499009,0.015601536,0.0005006856,396809,0.0,0.0,0.0,0.5,0.0025000002,0.0025000002,0.0025000002,1,0,1,0,1,0
46672334,46571646,3932170,-0.002555838,0.003083327,0.0015892386,0.34906584,1.8022219e-07,1.7767684e-07,9.3339156e-07,3932170,0.11829711,-0.10689755,0.009810787,0.4,0.010493296,0.015600962,0.00050069427,396809,0.0,0.0,0.0,0.5,0.0025000002,0.0025000002,0.0025000002,1,0,1,0,1,0
46772471,46671577,3932170,-0.0023549201,0.0032322232,0.0017073513,0.34906584,1.789486e-07,1.766274e-07,9.3084003e-07,3932170,0.11768644,-0.1096786,0.0085550435,0.4,0.0104774125,0.015591252,0.000500686,396809,0.0,0.0,0.0,0.5,0.0025000002,0.0025000002,0.0025000002,1,0,1,0,1,0
46922095,46821475,3932170,-0.0023582391,0.0032344265,0.0016691375,0.34906584,1.804135e-07,1.781114e-07,9.2831306e-07,3932170,0.116596006,-0.11027693,0.008550243,0.4,0.010471869,0.015590694,0.0005006964,396809,0.0,0.0,0.0,0.5,0.0025000002,0.0025000002,0.0025000002,1,0,1,0,1,0
46982298,46881434,3932170,-0.0022580093,0.0033618168,0.0016973111,0.34906584,1.7871965e-07,1.7653679e-07,9.266981e-07,3932170,0.11558432,-0.113310926,0.008734831,0.4,0.010462256,0.01558963,0.0005006855,396809,0.0,0.0,0.0,0.5,0.0025000002,0.0025000002,0.0025000002,1,1,1,0,1,0
47121960,47021338,3932170,-0.0022614982,0.0033641905,0.0016567662,0.34906584,1.8008542e-07,1.7792082e-07,9.2404355e-07,3932170,0.11440782,-0.11394484,0.008743652,0.4,0.010456859,0.015589113,0.00050069095,396809,0.0,0.0,0.0,0.5,0.0025000002,0.0025000002,0.0025000002,1,1,1,0,1,0
47192250,47091290,3932170,-0.0021966333,0.0035038283,0.0016478513,0.34906584,1.7854623e-07,1.764094e-07,9.226937e-07,3932170,0.113272004,-0.11849646,0.009750558,0.4,0.010445523,0.015586969,0.0005006859,396809,0.0,0.0,0.0,0.5,0.0025000002,0.0025000002,0.0025000002,1,1,1,0,1,0
47331870,47231194,3932170,-0.0022001076,0.003506195,0.0016073064,0.34906584,1.7991215e-07,1.7779337e-07,9.200085e-07,3932170,0.11207603,-0.11911911,0.00977019,0.4,0.010440254,0.015586465,0.0005006867,396809,0.0,0.0,0.0,0.5,0.0025000002,0.0025000002,0.0025000002,1,1,1,0,1,0
47401955,47301147,3932170,-0.002134523,0.0035977513,0.0016130683,0.34906584,1.7826628e-07,1.7627556e-07,9.18443e-07,3932170,0.11038908,-0.12423627,0.008324252,0.4,0.010432732,0.015581952,0.00050068524,396809,0.0,0.0,0.0,0.5,0.0025000002,0.0025000002,0.0025000002,1,1,1,0,1,0
47531681,47431058,3932170,-0.0021362223,0.0035989606,0.001592198,0.34906584,1.7954883e-07,1.7756663e-07,9.1768806e-07,3932170,0.10905699,-0.12468956,0.008325975,0.4,0.0104276035,0.015581617,0.0005006955,396809,0.0,0.0,0.0,0.5,0.0025000002,0.0025000002,0.0025000002,1,1,1,0,1,0
47611758,47511003,3932170,-0.002047185,0.0035885852,0.0016422474,0.34906584,1.7777413e-07,1.7616632e-07,9.147107e-07,3932170,0.10526002,-0.12637186,0.0037742374,0.4,0.010420264,0.015571847,0.00050068554,396809,0.0,0.0,0.0,0.5,0.0025000002,0.0025000002,0.0025000002,1,1,1,0,1,0
47701684,47600941,3932170,-0.0020506002,0.0035911202,0.0016000556,0.34906584,1.7864504e-07,1.7705018e-07,9.1150486e-07,3932170,0.10451811,-0.12706465,0.003800788,0.4,0.0104168095,0.015571146,0.0005006873,396809,0.0,0.0,0.0,0.5,0.0025000002,0.0025000002,0.0025000002,1,1,1,0,1,0
47811491,47710866,3932170,-0.0020523025,0.0035923978,0.0015784797,0.34906584,1.7972957e-07,1.7814116e-07,9.105444e-07,3932170,0.10361887,-0.12752192,0.0038749718,0.4,0.010413439,0.015570733,0.0005006859,396809,0.0,0.0,0.0,0.5,0.0025000002,0.0025000002,0.0025000002,1,1,1,0,1,0
47821669,47720859,3932170,-0.0019808346,0.0035481984,0.0016400192,0.34906584,1.7727584e-07,1.7605515e-07,9.0846913e-07,3932170,0.0997045,-0.1247976,0.0031484482,0.4,0.010405196,0.015559006,0.000500686,396809,0.0,0.0,0.0,0.5,0.0025000002,0.0025000002,0.0025000002,1,1,1,0,1,0
47931568,47830784,3932170,-0.0019840044,0.0035507118,0.0015983201,0.34906584,1.7834938e-07,1.7713853e-07,9.054686e-07,3932170,0.09852811,-0.12555753,0.0031666236,0.4,0.010400184,0.015558231,0.0005006859,396809,0.0,0.0,0.0,0.5,0.0025000002,0.0025000002,0.0025000002,1,1,1,0,1,0
48031528,47930716,3932170,-0.0020095184,0.0035592606,0.0015591239,0.34906584,1.7695773e-07,1.7584344e-07,9.0308475e-07,3932170,0.098894246,-0.12606168,0.0072885836,0.4,0.010388028,0.015537246,0.0005006855,396809,0.0,0.0,0.0,0.5,0.0025000002,0.0025000002,0.0025000002,1,1,1,0,1,0
48181467,48080616,3932170,-0.0020125182,0.003561625,0.0015181128,0.34906584,1.784318e-07,1.7732643e-07,9.004743e-07,3932170,0.097735725,-0.12682061,0.007372121,0.4,0.0103831,0.0155364135,0.0005006828,396809,0.0,0.0,0.0,0.5,0.0025000002,0.0025000002,0.0025000002,1,1,1,0,1,0
48241403,48140572,3932170,-0.0019744113,0.0035790894,0.0015164051,0.34906584,1.7668245e-07,1.7572579e-07,8.984618e-07,3932170,0.09484842,-0.12893368,0.00824132,0.4,0.010371024,0.015515241,0.00050068577,396809,0.0,0.0,0.0,0.5,0.0025000002,0.0025000002,0.0025000002,1,1,1,0,1,0
48341149,48240504,3932170,-0.0019759464,0.0035803362,0.001494661,0.34906584,1.776703e-07,1.7671744e-07,8.9740155e-07,3932170,0.093905054,-0.12939556,0.008254089,0.4,0.010367851,0.01551483,0.00050068734,396809,0.0,0.0,0.0,0.5,0.0025000002,0.0025000002,0.0025000002,1,1,1,0,1,0
48441166,48340435,3932170,-0.0019773992,0.0035815137,0.0014740834,0.34906584,1.7865841e-07,1.777093e-07,8.963397e-07,3932170,0.09298232,-0.12983608,0.0082874205,0.4,0.010364721,0.015514438,0.0005006861,396809,0.0,0.0,0.0,0.5,0.0025000002,0.0025000002,0.0025000002,1,1,1,0,1,0
48451230,48350429,3932170,-0.0019901686,0.0035663988,0.0014501837,0.34906584,1.763715e-07,1.7554864e-07,8.931604e-07,3932170,0.09379777,-0.12830476,0.009764537,0.4,0.010351468,0.015486795,0.00050068524,396809,0.0,0.0,0.0,0.5,0.0025000002,0.0025000002,0.0025000002,1,1,1,0,1,0
48591032,48490333,3932170,-0.0019915653,0.0035675254,0.0014296705,0.34906584,1.7775999e-07,1.7694032e-07,8.9249977e-07,3932170,0.09249789,-0.12879956,0.009809951,0.4,0.010346859,0.015486342,0.0005006882,396809,0.0,0.0,0.0,0.5,0.0025000002,0.0025000002,0.0025000002,1,1,1,0,1,0
48661396,48560285,3932170,-0.0020880145,0.0034449403,0.0013896162,0.34906584,1.7593324e-07,1.753031e-07,8.8612927e-07,3932170,0.09867179,-0.11463301,0.016936379,0.4,0.010324454,0.015442474,0.00050068577,396809,0.0,0.0,0.0,0.5,0.0025000002,0.0025000002,0.0025000002,1,1,1,0,1,0
48791100,48690196,3932170,-0.002090313,0.0034468393,0.0013530315,0.34906584,1.7721553e-07,1.7659015e-07,8.833701e-07,3932170,0.09750104,-0.11531565,0.016935488,0.4,0.010319917,0.015441746,0.000500696,396809,0.0,0.0,0.0,0.5,0.0025000002,0.0025000002,0.0025000002,1,1,1,0,1,0
48870949,48770142,3932170,-0.0022635248,0.0032470229,0.001302133,0.34906584,1.7541662e-07,1.7497001e-07,8.7288083e-07,3932170,0.10835759,-0.08974097,0.023288978,0.4,0.01028922,0.015377065,0.0005006852,396809,0.0,0.0,0.0,0.5,0.0025000002,0.0025000002,0.0025000002,1,1,1,0,1,0
48970718,48870073,3932170,-0.0022653406,0.003248529,0.0012695945,0.34906584,1.764035e-07,1.7596018e-07,8.6994964e-07,3932170,0.10748166,-0.09028793,0.023297776,0.4,0.010286271,0.015376487,0.0005006882,396809,0.0,0.0,0.0,0.5,0.0025000002,0.0025000002,0.0025000002,1,1,1,0,1,0
49040681,48940025,3932170,-0.002265365,0.0032485113,0.0012694796,0.34906584,1.7710258e-07,1.7665926e-07,8.706488e-07,3932170,0.10646604,-0.090480365,0.02330565,0.4,0.010283372,0.015376392,0.00050069444,396809,0.0,0.0,0.0,0.5,0.0025000002,0.0025000002,0.0025000002,1,1,1,0,1,0
49080864,48979998,3932170,-0.0023831644,0.0031161632,0.0012413169,0.34906584,1.7507992e-07,1.7473528e-07,8.6482123e-07,3932170,0.11399322,-0.07292754,0.02504159,0.4,0.010265078,0.015329753,0.0005006855,396809,0.0,0.0,0.0,0.5,0.0025000002,0.0025000002,0.0025000002,1,1,1,0,1,0
49200697,49099916,3932170,-0.0023848033,0.003117456,0.0012099777,0.34906584,1.762684e-07,1.7592667e-07,8.621372e-07,3932170,0.1126755,-0.07344007,0.025082795,0.4,0.010260782,0.015329297,0.00050068705,396809,0.0,0.0,0.0,0.5,0.0025000002,0.0025000002,0.0025000002,1,1,1,0,1,0
49290780,49189854,3932170,-0.0025403197,0.0030330664,0.0011756616,0.34906584,1.7482725e-07,1.744703e-07,8.574679e-07,3932170,0.121604376,-0.061163113,0.021635532,0.4,0.010244799,0.015275299,0.000500686,396809,0.0,0.0,0.0,0.5,0.0025000002,0.0025000002,0.0025000002,1,1,1,0,1,0
49350564,49249813,3932170,-0.0025410436,0.0030335917,0.0011612274,0.34906584,1.754223e-07,1.7506672e-07,8.56144e-07,3932170,0.12063735,-0.061492834,0.02164437,0.4,0.010241984,0.0152750015,0.0005006905,396809,0.0,0.0,0.0,0.5,0.0025000002,0.0025000002,0.0025000002,1,1,1,0,1,0
49500673,49399711,3932170,-0.002823332,0.0030364865,0.0010943102,0.34906584,1.7469611e-07,1.7414004e-07,8.4689407e-07,3932170,0.13607337,-0.05766454,0.016444605,0.4,0.010226135,0.015175993,0.0005006855,396809,0.0,0.0,0.0,0.5,0.0025000002,0.0025000002,0.0025000002,1,1,1,0,1,0
49600309,49499642,3932170,-0.0028240066,0.0030368455,0.0010815625,0.34906584,1.756909e-07,1.7513733e-07,8.460171e-07,3932170,0.13504751,-0.057894472,0.016480675,0.4,0.010223411,0.015175863,0.0005006868,396809,0.0,0.0,0.0,0.5,0.0025000002,0.0025000002,0.0025000002,1,1,1,0,1,0
49700323,49599574,3932170,-0.002824644,0.003037177,0.0010696593,0.34906584,1.7668536e-07,1.7613425e-07,8.4513334e-07,3932170,0.13398667,-0.05811832,0.016537033,0.4,0.01022069,0.015175694,0.00050068734,396809,0.0,0.0,0.0,0.5,0.0025000002,0.0025000002,0.0025000002,1,1,1,0,1,0
49710355,49609567,3932170,-0.0029925639,0.0031087552,0.0010540684,0.34906584,1.7471444e-07,1.7399758e-07,8.427928e-07,3932170,0.14350392,-0.06290149,0.015759535,0.4,0.010206107,0.015137103,0.0005006859,396809,0.0,0.0,0.0,0.5,0.0025000002,0.0025000002,0.0025000002,1,1,1,0,1,0
49800210,49699506,3932170,-0.002993817,0.0031093415,0.0010294236,0.34906584,1.7560454e-07,1.748939e-07,8.3995525e-07,3932170,0.14247695,-0.06320251,0.01576993,0.4,0.010203417,0.015136922,0.000500693,396809,0.0,0.0,0.0,0.5,0.0025000002,0.0025000002,0.0025000002,1,1,1,0,1,0
49920188,49819424,3932170,-0.003076858,0.0031417497,0.001011781,0.34906584,1.7466975e-07,1.7391254e-07,8.388536e-07,3932170,0.14450015,-0.06464415,0.012187548,0.4,0.010192083,0.015121639,0.00050068524,396809,0.0,0.0,0.0,0.5,0.0025000002,0.0025000002,0.0025000002,1,1,1,0,1,0
50000296,49899369,3932170,-0.0030775345,0.0031420114,0.0009995473,0.34906584,1.7546449e-07,1.7471062e-07,8.377788e-07,3932170,0.143494,-0.06487852,0.0122042205,0.4,0.010189464,0.01512153,0.00050069205,396809,0.0,0.0,0.0,0.5,0.0025000002,0.0025000002,0.0025000002,1,1,1,0,1,0
50109953,50009294,3932170,-0.0030788265,0.0031425613,0.0009743475,0.34906584,1.7655441e-07,1.7580719e-07,8.351191e-07,3932170,0.14252217,-0.06514681,0.012245324,0.4,0.010186861,0.015121362,0.0005006896,396809,0.0,0.0,0.0,0.5,0.0025000002,0.0025000002,0.0025000002,1,1,1,0,1,0
50130290,50029280,3932170,-0.0032365385,0.003148933,0.00096241344,0.34906584,1.745996e-07,1.7380285e-07,8.3372646e-07,3932170,0.14612305,-0.064445674,0.010148954,0.4,0.010183861,0.015097878,0.00050068577,396809,0.0,0.0,0.0,0.5,0.0025000002,0.0025000002,0.0025000002,1,1,1,0,1,0
50249837,50149198,3932170,-0.003237719,0.0031493488,0.0009393743,0.34906584,1.7578968e-07,1.7499993e-07,8.311786e-07,3932170,0.14515138,-0.064701065,0.010184116,0.4,0.010181285,0.01509773,0.0005006915,396809,0.0,0.0,0.0,0.5,0.0025000002,0.0025000002,0.0025000002,1,1,1,0,1,0
50339952,50239136,3932170,-0.0033293136,0.0031645999,0.00092396187,0.34906584,1.7453912e-07,1.7372963e-07,8.298241e-07,3932170,0.14484994,-0.06464623,0.007311054,0.4,0.010176336,0.015090172,0.0005006862,396809,0.0,0.0,0.0,0.5,0.0025000002,0.0025000002,0.0025000002,1,1,1,0,1,0
50409837,50309089,3932170,-0.0033299788,0.0031647873,0.00091190415,0.34906584,1.7523372e-07,1.7442783e-07,8.286427e-07,3932170,0.14379442,-0.064887784,0.0073285433,0.4,0.010173786,0.0150900325,0.0005006908,396809,0.0,0.0,0.0,0.5,0.0025000002,0.0025000002,0.0025000002,1,1,1,0,1,0
50509704,50409020,3932170,-0.0033306314,0.003164969,0.00090026326,0.34906584,1.7622851e-07,1.754262e-07,8.2776154e-07,3932170,0.14272457,-0.065135054,0.0073839375,0.4,0.010171295,0.015089946,0.0005006923,396809,0.0,0.0,0.0,0.5,0.0025000002,0.0025000002,0.0025000002,1,1,1,0,1,0
50549753,50448993,3932170,-0.0033074154,0.0031919237,0.0008937248,0.34906584,1.7448933e-07,1.7370385e-07,8.260758e-07,3932170,0.14214028,-0.06518109,0.0040098173,0.4,0.010168448,0.015088127,0.0005006856,396809,0.0,0.0,0.0,0.5,0.0025000002,0.0025000002,0.0025000002,1,1,1,0,1,0
50609591,50508952,3932170,-0.0033075283,0.0031919181,0.00089358137,0.34906584,1.7508847e-07,1.7430303e-07,8.266749e-07,3932170,0.14111218,-0.065368205,0.0040315567,0.4,0.010165961,0.015088051,0.00050068996,396809,0.0,0.0,0.0,0.5,0.0025000002,0.0025000002,0.0025000002,1,1,1,0,1,0
50759658,50658849,3932170,-0.0032678337,0.003351934,0.0008931918,0.34906584,1.746128e-07,1.7369075e-07,8.223306e-07,3932170,0.13919261,-0.06280973,0.0023917293,0.4,0.010141455,0.01508402,0.0005006861,396809,0.0,0.0,0.0,0.5,0.0025000002,0.0025000002,0.0025000002,1,1,1,0,1,0
50859498,50758781,3932170,-0.0032691483,0.0033523997,0.00086901884,0.34906584,1.756018e-07,1.7468786e-07,8.1957336e-07,3932170,0.13820012,-0.06308165,0.00243788,0.4,0.010139025,0.015083879,0.0005006907,396809,0.0,0.0,0.0,0.5,0.0025000002,0.0025000002,0.0025000002,1,1,1,0,1,0
50969520,50868706,3932170,-0.003199308,0.0034445648,0.0008743518,0.34906584,1.7470865e-07,1.737582e-07,8.177602e-07,3932170,0.13947326,-0.0606288,0.012878754,0.4,0.010122255,0.015070695,0.0005006856,396809,0.0,0.0,0.0,0.5,0.0025000002,0.0025000002,0.0025000002,1,1,1,0,1,0
51069401,50968638,3932170,-0.0032006712,0.0034450819,0.00084983354,0.34906584,1.7569704e-07,1.7475494e-07,8.150004e-07,3932170,0.13846366,-0.060919456,0.012910838,0.4,0.01011987,0.015070546,0.0005006855,396809,0.0,0.0,0.0,0.5,0.0025000002,0.0025000002,0.0025000002,1,1,1,0,1,0
51169225,51068569,3932170,-0.0032014374,0.0034453522,0.0008368542,0.34906584,1.7669085e-07,1.7575293e-07,8.141177e-07,3932170,0.13748884,-0.0611493,0.012934796,0.4,0.010117533,0.015070467,0.0005006936,396809,0.0,0.0,0.0,0.5,0.0025000002,0.0025000002,0.0025000002,1,1,1,0,1,0
51179328,51078562,3932170,-0.003024681,0.0034753873,0.0008594602,0.34906584,1.7470595e-07,1.7388356e-07,8.115073e-07,3932170,0.14115979,-0.06061035,0.022868335,0.4,0.010110241,0.015032657,0.0005006861,396809,0.0,0.0,0.0,0.5,0.0025000002,0.0025000002,0.0025000002,1,1,1,0,1,0
51319181,51218467,3932170,-0.0030260612,0.003475998,0.00083502295,0.34906584,1.7609369e-07,1.7527873e-07,8.091714e-07,3932170,0.1398067,-0.060976136,0.022934789,0.4,0.010106728,0.015032458,0.00050068524,396809,0.0,0.0,0.0,0.5,0.0025000002,0.0025000002,0.0025000002,1,1,1,0,1,0
51389162,51288419,3932170,-0.0029098007,0.0034871032,0.0008346455,0.34906584,1.7462457e-07,1.7391889e-07,8.069217e-07,3932170,0.14037536,-0.061793003,0.02325853,0.4,0.010103073,0.015014521,0.00050068554,396809,0.0,0.0,0.0,0.5,0.0025000002,0.0025000002,0.0025000002,1,1,1,0,1,0
51519009,51418330,3932170,-0.0029111793,0.0034878172,0.0008096531,0.34906584,1.75913e-07,1.7521387e-07,8.04488e-07,3932170,0.139227,-0.06210063,0.023299348,0.4,0.0100996345,0.015014364,0.0005006922,396809,0.0,0.0,0.0,0.5,0.0025000002,0.0025000002,0.0025000002,1,1,1,0,1,0
51599332,51498275,3932170,-0.0027853756,0.003495964,0.0008083011,0.34906584,1.7456517e-07,1.7398867e-07,8.022601e-07,3932170,0.1387038,-0.06325809,0.026116457,0.4,0.010096143,0.014991186,0.0005006859,396809,0.0,0.0,0.0,0.5,0.0025000002,0.0025000002,0.0025000002,1,1,1,0,1,0
51668896,51568227,3932170,-0.0027861162,0.0034963603,0.000795503,0.34906584,1.7525946e-07,1.7468575e-07,8.010953e-07,3932170,0.13766539,-0.06349271,0.026143236,0.4,0.010093884,0.0149910925,0.0005006907,396809,0.0,0.0,0.0,0.5,0.0025000002,0.0025000002,0.0025000002,1,1,1,0,1,0
51768791,51668159,3932170,-0.002786797,0.0034967156,0.00078385364,0.34906584,1.7625315e-07,1.7568226e-07,8.002281e-07,3932170,0.13661799,-0.0637314,0.026175532,0.4,0.010091635,0.014990978,0.000500692,396809,0.0,0.0,0.0,0.5,0.0025000002,0.0025000002,0.0025000002,1,1,1,0,1,0
51928671,51828050,3932170,-0.0027881567,0.0034974818,0.00075916434,0.34906584,1.7784133e-07,1.7727605e-07,7.980867e-07,3932170,0.13525556,-0.064099275,0.026239637,0.4,0.010088305,0.014990749,0.000500693,396809,0.0,0.0,0.0,0.5,0.0025000002,0.0025000002,0.0025000002,1,1,1,0,1,0
52028721,51927981,3932170,-0.0027888468,0.003497837,0.00074721186,0.34906584,1.788354e-07,1.7827296e-07,7.972128e-07,3932170,0.13422823,-0.0643794,0.026318118,0.4,0.010086124,0.014990556,0.0005006911,396809,0.0,0.0,0.0,0.5,0.0025000002,0.0025000002,0.0025000002,1,1,1,0,1,0
52128744,52027913,3932170,-0.002789998,0.003498504,0.0007257034,0.34906584,1.7982478e-07,1.7926747e-07,7.9445755e-07,3932170,0.13323306,-0.06474287,0.026421424,0.4,0.010083936,0.014990245,0.00050068856,396809,0.0,0.0,0.0,0.5,0.0025000002,0.0025000002,0.0025000002,1,1,1,0,1,0
52278661,52177811,3932170,-0.0027910185,0.0034991628,0.000705995,0.34906584,1.8131215e-07,1.8075939e-07,7.9218864e-07,3932170,0.1318377,-0.06519063,0.026479976,0.4,0.010080712,0.014989814,0.0005006904,396809,0.0,0.0,0.0,0.5,0.0025000002,0.0025000002,0.0025000002,1,1,1,0,1,0
52378579,52277742,3932170,-0.0027919349,0.003499598,0.0006951228,0.34906584,1.8230033e-07,1.8174933e-07,7.912894e-07,3932170,0.13087665,-0.06548089,0.026515065,0.4,0.010078592,0.014989515,0.0005006885,396809,0.0,0.0,0.0,0.5,0.0025000002,0.0025000002,0.0025000002,1,1,1,0,1,0
52478511,52377674,3932170,-0.0027924653,0.0034994723,0.0006855957,0.34906584,1.8328225e-07,1.8273239e-07,7.9035635e-07,3932170,0.12986137,-0.06582178,0.026493166,0.4,0.010076455,0.014989015,0.0005006873,396809,0.0,0.0,0.0,0.5,0.0025000002,0.0025000002,0.0025000002,1,1,1,0,1,0
52628369,52527571,3932170,-0.0027944064,0.0034996648,0.00066609326,0.34906584,1.84751e-07,1.842036e-07,7.879846e-07,3932170,0.12853226,-0.06625194,0.026532874,0.4,0.0100733135,0.014988101,0.00050068845,396809,0.0,0.0,0.0,0.5,0.0025000002,0.0025000002,0.0025000002,1,1,1,0,1,0
52788341,52687462,3932170,-0.0027982711,0.0034993887,0.00063767104,0.34906584,1.8629983e-07,1.8575592e-07,7.837731e-07,3932170,0.12734409,-0.06665267,0.026588405,0.4,0.010070175,0.0149868075,0.0005006891,396809,0.0,0.0,0.0,0.5,0.0025000002,0.0025000002,0.0025000002,1,1,1,0,1,0
52938738,52837360,3932170,-0.002803881,0.0034957856,0.0006249432,0.34906584,1.876702e-07,1.8712004e-07,7.810273e-07,3932170,0.12614657,-0.06674859,0.02663961,0.4,0.010066915,0.0149839325,0.0005006852,396809,0.0,0.0,0.0,0.5,0.0025000002,0.0025000002,0.0025000002,1,1,1,0,1,0
53088122,52987257,3932170,-0.0028096419,0.003494035,0.0006087996,0.34906584,1.8906661e-07,1.8851344e-07,7.784298e-07,3932170,0.12505238,-0.06708424,0.026615432,0.4,0.0100638475,0.014981987,0.00050068594,396809,0.0,0.0,0.0,0.5,0.0025000002,0.0025000002,0.0025000002,1,1,1,0,1,0
53288019,53187120,3932170,-0.002814551,0.0034915216,0.0005931311,0.34906584,1.9093505e-07,1.9037786e-07,7.763113e-07,3932170,0.12372747,-0.06746017,0.026574073,0.4,0.010059897,0.014979947,0.00050068885,396809,0.0,0.0,0.0,0.5,0.0025000002,0.0025000002,0.0025000002,1,1,1,0,1,0
53487804,53386984,3932170,-0.0028292653,0.0034824223,0.0005756288,0.34906584,1.9256531e-07,1.9199307e-07,7.718911e-07,3932170,0.12253749,-0.06767505,0.02645671,0.4,0.010055876,0.014975884,0.00050068676,396809,0.0,0.0,0.0,0.5,0.0025000002,0.0025000002,0.0025000002,1,1,1,0,1,0
53697630,53596841,3932170,-0.002848638,0.0034706164,0.000556534,0.34906584,1.9412512e-07,1.9353719e-07,7.676605e-07,3932170,0.12133712,-0.067930184,0.026229028,0.4,0.010052007,0.014972966,0.00050068507,396809,0.0,0.0,0.0,0.5,0.0025000002,0.0025000002,0.0025000002,1,1,1,0,1,0
53847608,53746738,3932170,-0.002862342,0.003462823,0.00054142764,0.34906584,1.9527118e-07,1.9467622e-07,7.650734e-07,3932170,0.12029894,-0.06827055,0.026080638,0.4,0.010049312,0.0149717005,0.0005006858,396809,0.0,0.0,0.0,0.5,0.0025000002,0.0025000002,0.0025000002,1,1,1,0,1,0
53997471,53896635,3932170,-0.0028765344,0.003453873,0.000525297,0.34906584,1.963528e-07,1.9575164e-07,7.62555e-07,3932170,0.119203836,-0.068551525,0.026054312,0.4,0.010046676,0.014970779,0.0005006864,396809,0.0,0.0,0.0,0.5,0.0025000002,0.0025000002,0.0025000002,1,1,1,0,1,0
54147543,54046533,3932170,-0.0028911151,0.0034441454,0.0005090777,0.34906584,1.973756e-07,1.9676939e-07,7.600797e-07,3932170,0.11811996,-0.06896631,0.025943607,0.4,0.010044077,0.014969997,0.00050068554,396809,0.0,0.0,0.0,0.5,0.0025000002,0.0025000002,0.0025000002,1,1,1,0,1,0
54297266,54196430,3932170,-0.0029059835,0.0034352348,0.00049159717,0.34906584,1.9832342e-07,1.9771257e-07,7.576185e-07,3932170,0.11705018,-0.06941461,0.025849,0.4,0.010041526,0.014969203,0.0005006861,396809,0.0,0.0,0.0,0.5,0.0025000002,0.0025000002,0.0025000002,1,1,1,0,1,0
54437408,54336335,3932170,-0.0029413884,0.0034110425,0.00047876133,0.34906584,1.9840259e-07,1.9778174e-07,7.5499014e-07,3932170,0.11593734,-0.07046798,0.02535247,0.4,0.010039189,0.014967621,0.0005006855,396809,0.0,0.0,0.0,0.5,0.0025000002,0.0025000002,0.0025000002,1,1,1,0,1,0
54567333,54466246,3932170,-0.0029565443,0.0033974156,0.00047121398,0.34906584,1.9892016e-07,1.9829696e-07,7.543114e-07,3932170,0.11495045,-0.07114291,0.025144184,0.4,0.010036375,0.014966527,0.0005006856,396809,0.0,0.0,0.0,0.5,0.0025000002,0.0025000002,0.0025000002,1,1,1,0,1,0
54687202,54586164,3932170,-0.0029756739,0.0033823103,0.0004500739,0.34906584,1.9926338e-07,1.9864518e-07,7.516915e-07,3932170,0.11392373,-0.07200303,0.024836615,0.4,0.010034142,0.014965226,0.00050068554,396809,0.0,0.0,0.0,0.5,0.0025000002,0.0025000002,0.0025000002,1,1,1,0,1,0
54807299,54706082,3932170,-0.0029975034,0.0033680724,0.00042807637,0.34906584,1.9953491e-07,1.9892502e-07,7.4909104e-07,3932170,0.11236244,-0.07296387,0.024398979,0.4,0.010031067,0.014963577,0.0005006855,396809,0.0,0.0,0.0,0.5,0.0025000002,0.0025000002,0.0025000002,1,1,1,0,1,0
54937013,54835993,3932170,-0.003018054,0.0033508376,0.00041658882,0.34906584,1.9982082e-07,1.9922068e-07,7.484868e-07,3932170,0.11126112,-0.073920526,0.024275023,0.4,0.010028507,0.014961548,0.0005006856,396809,0.0,0.0,0.0,0.5,0.0025000002,0.0025000002,0.0025000002,1,1,1,0,1,0
55057293,54955911,3932170,-0.0030399058,0.003333927,0.0003927547,0.34906584,1.99934e-07,1.9935165e-07,7.458983e-07,3932170,0.10971284,-0.07498051,0.023970904,0.4,0.010025165,0.014959069,0.00050068577,396809,0.0,0.0,0.0,0.5,0.0025000002,0.0025000002,0.0025000002,1,1,1,0,1,0
55106886,55005877,3932170,-0.002889183,-0.008407719,-0.00041650306,0.34906584,1.8506162e-07,1.8469203e-07,7.4436724e-07,3932170,0.16220869,-0.6590227,-0.0066679996,0.4,0.009999832,0.014921025,0.0005006856,396809,0.0,0.0,0.0,0.5,0.0025000002,0.0025000002,0.0025000002,1,1,1,0,1,0
55116697,55015870,3932170,-0.0028891833,-0.008407721,-0.00041650314,0.34906584,1.8516155e-07,1.8479197e-07,7.4446734e-07,3932170,0.16220874,-0.40000007,-0.006668001,0.4,0.009999837,0.014921033,0.0005006867,396809,0.0,0.0,0.0,0.5,0.0025000002,0.0025000002,0.0025000002,1,1,1,0,1,0
55306552,55205740,3932170,-0.0028898933,-0.008407215,-0.00043718345,0.34906584,1.8705455e-07,1.8668767e-07,7.426215e-07,3932170,0.16106977,-0.4000239,-0.007092198,0.4,0.009996222,0.01492007,0.000500686,396809,0.0,0.0,0.0,0.5,0.0025000002,0.0025000002,0.0025000002,1,1,1,0,1,0
55316669,55215733,3932170,-0.002832387,-0.0067646853,0.00088127673,0.34906584,1.8311134e-07,1.8176509e-07,7.1996845e-07,3932170,0.24691826,-0.23539545,-0.020324927,0.4,0.009963427,0.014729313,0.0005006861,396809,0.0,0.0,0.0,0.5,0.0025000002,0.0025000002,0.0025000002,1,1,1,0,1,0
55456476,55355638,3932170,-0.0028339284,-0.006763717,0.0008535339,0.34906584,1.844979e-07,1.8315957e-07,7.179841e-07,3932170,0.24577509,-0.23588248,-0.020699184,0.4,0.009960735,0.014728719,0.0005006855,396809,0.0,0.0,0.0,0.5,0.0025000002,0.0025000002,0.0025000002,1,1,1,0,1,0
55526429,55425590,3932170,-0.002914332,-0.005488819,0.0011605659,0.34906584,1.8173488e-07,1.7960528e-07,7.0837086e-07,3932170,0.28542438,-0.21681908,-0.033727564,0.4,0.009955706,0.014690375,0.00050068577,396809,0.0,0.0,0.0,0.5,0.0025000002,0.0025000002,0.0025000002,1,1,1,0,1,0
55666369,55565494,3932170,-0.0029163011,-0.0054878592,0.0011325441,0.34906584,1.8311616e-07,1.8100005e-07,7.065092e-07,3932170,0.28454617,-0.21722403,-0.03399298,0.4,0.009953077,0.0146899605,0.000500686,396809,0.0,0.0,0.0,0.5,0.0025000002,0.0025000002,0.0025000002,1,1,1,0,1,0
55816330,55715392,3932170,-0.002918122,-0.0054870592,0.0011057694,0.34906584,1.8459724e-07,1.8249423e-07,7.047427e-07,3932170,0.2835113,-0.21756354,-0.034381945,0.4,0.009950462,0.014689457,0.0005006856,396809,0.0,0.0,0.0,0.5,0.0025000002,0.0025000002,0.0025000002,1,1,1,0,1,0
55966094,55865289,3932170,-0.002919834,-0.00548633,0.0010801894,0.34906584,1.8607878e-07,1.839886e-07,7.0297205e-07,3932170,0.28256655,-0.21791251,-0.03474098,0.4,0.009947897,0.014689028,0.0005006861,396809,0.0,0.0,0.0,0.5,0.0025000002,0.0025000002,0.0025000002,1,1,1,0,1,0
56115968,56015187,3932170,-0.0029215054,-0.0054855593,0.001055187,0.34906584,1.8756013e-07,1.854823e-07,7.011949e-07,3932170,0.2815751,-0.21827908,-0.03507835,0.4,0.00994534,0.014688555,0.0005006856,396809,0.0,0.0,0.0,0.5,0.0025000002,0.0025000002,0.0025000002,1,1,1,0,1,0
56305870,56205061,3932170,-0.002923923,-0.0054843947,0.0010195656,0.34906584,1.8943173e-07,1.873722e-07,6.981669e-07,3932170,0.28062966,-0.21874955,-0.035348542,0.4,0.009942706,0.014687851,0.0005006853,396809,0.0,0.0,0.0,0.5,0.0025000002,0.0025000002,0.0025000002,1,1,1,0,1,0
56425866,56324975,3932170,-0.0029246078,-0.005484122,0.0010081162,0.34906584,1.9062327e-07,1.8856848e-07,6.977293e-07,3932170,0.2796784,-0.21899451,-0.035714064,0.4,0.009940372,0.014687694,0.00050068577,396809,0.0,0.0,0.0,0.5,0.0025000002,0.0025000002,0.0025000002,1,1,1,0,1,0
56605699,56504852,3932170,-0.0029270612,-0.005482683,0.00097400777,0.34906584,1.9239593e-07,1.9035518e-07,6.945952e-07,3932170,0.27871045,-0.21948314,-0.03581511,0.4,0.009937799,0.014687092,0.0005006885,396809,0.0,0.0,0.0,0.5,0.0025000002,0.0025000002,0.0025000002,1,1,1,0,1,0
56755720,56654750,3932170,-0.004881317,-0.0008689698,-0.0006294884,0.34906584,1.7999258e-07,1.7419542e-07,6.596472e-07,3932170,0.4505265,-0.47734997,-0.06581314,0.4,0.009873165,0.014632086,0.00050068536,396809,0.0,0.0,0.0,0.5,0.0025000002,0.0025000002,0.0025000002,1,1,1,0,1,0
56765489,56664743,3932170,-0.0048813177,-0.0008689699,-0.0006294885,0.34906584,1.8009251e-07,1.7429535e-07,6.597473e-07,3932170,0.4000001,-0.4000001,-0.06581315,0.4,0.0098731695,0.014632094,0.00050068647,396809,0.0,0.0,0.0,0.5,0.0025000002,0.0025000002,0.0025000002,1,1,1,0,1,0
56965547,56864606,3932170,-0.0053973054,-0.00051296107,-0.0010654452,0.34906584,1.7936624e-07,1.7393735e-07,6.571762e-07,3932170,0.36941332,-0.4151857,-0.09615582,0.4,0.009862851,0.014622851,0.000500686,396809,0.0,0.0,0.0,0.5,0.0025000002,0.0025000002,0.0025000002,1,1,1,0,1,0
