timestamp,accel_device_id,gyro_device_id,accel_clipping[0],accel_clipping[1],accel_clipping[2],accel_error_count,gyro_error_count,accel_rate_hz,gyro_rate_hz,accel_raw_rate_hz,gyro_raw_rate_hz,accel_vibration_metric,gyro_vibration_metric,delta_angle_coning_metric,mean_accel[0],mean_accel[1],mean_accel[2],mean_gyro[0],mean_gyro[1],mean_gyro[2],var_accel[0],var_accel[1],var_accel[2],var_gyro[0],var_gyro[1],var_gyro[2],temperature_accel,temperature_gyro
17548584,3932210,3932210,0,0,0,0,0,400.36832,400.36832,4003.6833,8007.3667,0.023339154,0.0015566951,3.2693556e-11,-0.2463607,0.1978462,-9.838463,0.033894245,-0.012898753,0.00447709,0.00023483108,0.0005568292,0.0003651015,2.3197395e-06,2.118984e-06,7.646218e-07,35.624256,35.624256
18492728,3932210,3932210,0,0,0,0,0,400.36832,400.36832,4003.6833,8007.3667,0.023167629,0.0016437888,3.5487526e-11,-0.24040562,0.19337873,-9.841905,0.036242586,-0.012463312,0.004282162,0.0003215715,0.0004532515,0.00043831172,1.6697024e-06,1.7301649e-06,1.7065664e-06,35.52633,35.52633
19531790,3932210,3932210,0,0,0,0,0,400.36832,400.36832,4003.6833,8007.3667,0.022747993,0.0016525005,4.0884796e-11,-0.23128577,0.19471854,-9.838783,0.03392589,-0.012828386,0.004729733,0.0005163136,0.00027099412,0.00026875114,2.905072e-06,1.5228565e-06,1.8872273e-06,35.624256,35.624256
20466065,3932210,3932210,0,0,0,0,0,400.36832,400.36832,4003.6833,8007.3667,0.022771973,0.0017359717,2.9292218e-11,-0.24370283,0.20031926,-9.840682,0.03506474,-0.012806962,0.0043641306,0.00032634445,0.0007298995,0.00031305468,2.3875957e-06,2.2831366e-06,1.0560699e-06,35.673206,35.673206
21505125,3932210,3932210,0,0,0,0,0,400.36832,400.36832,4003.6833,8007.3667,0.02363759,0.0016437527,3.6848444e-11,-0.23204878,0.18662933,-9.835923,0.035738382,-0.01303534,0.0044317436,0.00035542625,0.0003639469,0.00025121568,2.989746e-06,1.1416338e-06,9.867158e-07,35.869022,35.869022
22449279,3932210,3932210,0,0,0,0,0,400.36832,400.36832,4003.6833,8007.3667,0.024649635,0.0016138911,3.2580487e-11,-0.24018137,0.18371323,-9.83664,0.03788484,-0.012787476,0.0039080875,0.00025663662,0.00039412946,0.00045694696,2.390032e-06,1.2930058e-06,1.693068e-06,35.820072,35.820072
23488464,3932210,3932210,0,0,0,0,0,400.36832,400.36832,4003.6833,8007.3667,0.022654226,0.0016221484,3.042196e-11,-0.24471049,0.18345496,-9.837781,0.03609868,-0.012904642,0.0043884013,0.00020338294,0.0004335808,0.0005056164,2.4026035e-06,1.4160082e-06,1.6136908e-06,35.869022,35.869022
24532521,3932210,3932210,0,0,0,0,0,400.36832,400.36832,4003.6833,8007.3667,0.16282673,0.0020981554,3.7430538e-11,-0.24305978,0.18806463,-9.834738,0.036867946,-0.013775824,0.0062015927,0.002055774,0.0020400502,0.07647721,4.7661133e-06,2.0469124e-06,1.398253e-06,35.820072,35.820072
25476673,3932210,3932210,0,0,0,0,0,400.36832,400.36832,4003.6833,8007.3667,0.07300174,0.001778421,2.6466988e-11,-0.29185373,0.21212426,-9.859339,0.03343298,-0.013286077,0.006522588,0.012473793,0.0011972951,0.0054321485,3.8529984e-06,4.3823084e-06,1.4132046e-06,35.96695,35.96695
26520729,3932210,3932210,0,0,0,0,0,400.36832,400.36832,4003.6833,8007.3667,0.051512677,0.001678481,3.188664e-11,-0.13903308,0.22414133,-9.847561,0.03295172,-0.013498549,0.0052353526,0.0013146977,0.0004936609,0.006514478,2.6131218e-06,1.9634892e-06,1.2353986e-06,35.869022,35.869022
27455174,3932210,3932210,0,0,0,0,0,400.36832,400.36832,4003.6833,8007.3667,0.044774108,0.0016984672,3.625962e-11,-0.24986525,0.206953,-9.845305,0.037673008,-0.010089995,0.0037502537,0.00072668155,0.0028049285,0.008963852,2.9257674e-06,2.3605498e-06,1.3920425e-06,35.771114,35.771114
28498954,3932210,3932210,0,0,0,0,0,400.36832,400.36832,4003.6833,8007.3667,0.041958023,0.0016908181,3.331852e-11,-0.24825686,0.1883855,-9.83735,0.037176806,-0.011827288,0.002692528,0.00072846963,0.0025463358,0.011933815,4.319574e-06,1.71748e-06,1.8596634e-06,36.0159,36.0159
29543021,3932210,3932210,0,0,0,0,0,400.36832,400.36832,4003.6833,8007.3667,0.046450596,0.0016656729,2.5332082e-11,-0.23294269,0.20234726,-9.834902,0.034882806,-0.011877343,0.003904555,0.0009927201,0.002443505,0.011347091,2.3170937e-06,1.0392168e-06,1.1922397e-06,35.96695,35.96695
30482436,3932210,3932210,0,0,0,0,0,400.36832,400.36832,4003.6833,8007.3667,0.0557517,0.0016899807,3.382364e-11,-0.24969544,0.17303583,-9.843916,0.033926353,-0.011888588,0.0038328876,0.000618896,0.003452341,0.0056620184,5.0793947e-06,2.0452187e-06,1.4026058e-06,36.06486,36.06486
31531235,3932210,3932210,0,0,0,0,0,400.36832,400.36832,4003.6833,8007.3667,0.045309536,0.0016783504,2.999433e-11,-0.24772906,0.22043411,-9.832901,0.03957721,-0.012352012,0.0026055982,0.00066894764,0.005320304,0.0071120127,5.13117e-06,1.9762938e-06,2.1225853e-06,35.869022,35.869022
32470395,3932210,3932210,0,0,0,0,0,400.36832,400.36832,4003.6833,8007.3667,0.04574786,0.0017083465,2.8541183e-11,-0.24622533,0.22012673,-9.830685,0.030259661,-0.013428418,0.0042409147,0.00060054264,0.0031100505,0.013240405,2.5205416e-06,1.913241e-06,1.7141357e-06,36.06486,36.06486
33519458,3932210,3932210,0,0,0,0,0,400.36832,400.36832,4003.6833,8007.3667,0.046958305,0.0016917209,3.186553e-11,-0.22725295,0.21573608,-9.83767,0.037120212,-0.013737364,0.0032994628,0.0017164531,0.0005187891,0.010385202,2.4995686e-06,1.2435831e-06,1.1325001e-06,36.162804,36.162804
34453622,3932210,3932210,0,0,0,0,0,400.36832,400.36832,4003.6833,8007.3667,0.0592349,0.0015976909,3.0378033e-11,-0.24569368,0.17992443,-9.841246,0.04157218,-0.012356698,0.0036376547,0.00096514774,0.0011013041,0.005107281,2.0461682e-06,1.6403734e-06,1.1746401e-06,35.96695,35.96695
35492694,3932210,3932210,0,0,0,0,0,400.36832,400.36832,4003.6833,8007.3667,0.08115093,0.0018048234,3.2654296e-11,0.03036526,0.19292706,-9.836755,0.027043514,-0.0033080622,0.018046755,0.12237873,0.005391775,0.010104101,8.632347e-06,7.4296645e-06,2.0164305e-06,36.162804,36.162804
36536831,3932210,3932210,0,0,0,0,0,400.36832,400.36832,4003.6833,8007.3667,0.31127116,0.0060833013,7.310778e-11,1.046009,0.30148995,-9.781211,0.025576431,-0.01747176,0.010684826,0.16612136,0.07535463,0.53713226,0.00022755872,5.3249147e-05,1.2528537e-06,36.0159,36.0159
37481040,3932210,3932210,0,0,0,0,0,400.36832,400.36832,4003.6833,8007.3667,2.0819623,0.011559224,4.1615414e-10,1.699286,0.29547235,-9.83659,0.050988335,-0.01669144,0.0027003482,2.9471986,0.67634934,6.101444,0.0004862889,0.0001824834,3.8337534e-05,36.06486,36.06486
38525185,3932210,3932210,0,0,0,0,0,400.36832,400.36832,4003.6833,8007.3667,5.4990296,0.025869137,5.9196203e-10,1.4498749,0.34904307,-10.107947,0.03429114,-0.008100213,0.004419254,8.089048,0.12937555,55.25931,0.00067173893,0.0004768479,2.355202e-05,36.30968,36.30968
39469154,3932210,3932210,0,0,0,0,0,400.36832,400.36832,4003.6833,8007.3667,4.3305817,0.024384057,5.994822e-10,1.4604355,0.25454336,-9.74646,0.031959232,-0.018931564,0.006934504,18.161602,-0.7242121,131.00365,0.0011811864,0.0009397071,2.4980012e-05,36.30968,36.30968
40513227,3932210,3932210,0,0,0,0,0,400.36832,400.36832,4003.6833,8007.3667,4.4779625,0.025913933,5.4878463e-10,1.1370877,0.21568073,-10.095934,0.034750562,-0.013337069,-0.0051624626,5.290696,-1.1993302,164.07028,0.0015328149,0.0025237256,4.5371704e-05,36.162804,36.162804
41452517,3932210,3932210,0,0,0,0,0,400.36832,400.36832,4003.6833,8007.3667,1.820674,0.014307508,1.6614962e-10,0.84645766,-0.004723461,-9.97501,0.049488895,-0.029212004,-0.0031132079,0.0854519,0.26731646,0.30507252,0.00038980404,1.2350158e-05,2.1696547e-05,36.30968,36.30968
42501587,3932210,3932210,0,0,0,0,0,400.36832,400.36832,4003.6833,8007.3667,0.4073308,0.0045191217,6.1625115e-11,-0.7788233,0.008057176,-10.9035,0.039623916,0.018275077,0.005996913,0.00447314,0.030507747,0.041737605,8.929998e-06,0.00012303906,5.335541e-06,36.35864,36.35864
43540702,3932210,3932210,0,0,0,0,0,400.36832,400.36832,4003.6833,8007.3667,0.20232095,0.0028814499,6.0336e-11,-0.38507557,0.009262331,-9.37042,0.049805354,-0.03243558,-0.002181396,0.0031620478,0.029340282,0.019643674,1.1930545e-05,3.8122798e-06,3.8322632e-06,36.40759,36.40759
44479883,3932210,3932210,0,0,0,0,0,400.36832,400.36832,4003.6833,8007.3667,0.14376284,0.0024462608,4.9712352e-11,-0.36110392,0.043491274,-9.698306,0.047435153,-0.029520443,0.00217323,0.0073192823,0.029819492,0.018928466,1.740845e-05,1.6545434e-06,5.755431e-06,36.30968,36.30968
45528937,3932210,3932210,0,0,0,0,0,400.36832,400.36832,4003.6833,8007.3667,0.15539451,0.0024842892,6.460517e-11,-0.113951445,-0.14999588,-9.719128,0.044275377,-0.0113614,0.034362007,0.0014326775,0.0081886,0.01891637,5.8697715e-05,7.3699243e-06,7.4625327e-06,36.35864,36.35864
46468109,3932210,3932210,0,0,0,0,0,400.36832,400.36832,4003.6833,8007.3667,0.12710652,0.0024245884,3.220383e-11,-0.21775392,0.31179073,-9.816668,0.039747477,-0.005625368,-0.0026364378,0.0010988144,0.005425556,0.011999927,1.1555694e-05,1.5873127e-06,1.3735732e-06,36.505497,36.505497
47517489,3932210,3932210,0,0,0,0,0,400.36832,400.36832,4003.6833,8007.3667,0.10923636,0.0021760715,3.7143236e-11,0.050918456,0.15003575,-9.909081,0.034383956,-0.011628276,-0.020561226,0.0016820318,0.008682306,0.022255791,1.5091716e-05,2.6940236e-06,7.919449e-06,36.554455,36.554455
48456347,3932210,3932210,0,0,0,0,0,400.36832,400.36832,4003.6833,8007.3667,0.12819439,0.0024043033,5.8044583e-11,0.08036318,0.025037931,-9.745206,0.014643824,-0.03179551,-0.018045174,0.0009857629,0.033039898,0.021985598,1.2478146e-05,2.0640482e-06,2.7115898e-06,36.35864,36.35864
49490401,3932210,3932210,0,0,0,0,0,400.36832,400.36832,4003.6833,8007.3667,0.2386715,0.0024798294,5.021973e-11,-0.22189392,-0.24224785,-9.86366,0.041111514,-0.010032366,0.0054741246,0.0019401596,0.04673685,0.029373268,1.6178523e-05,2.515295e-06,2.0294044e-06,36.505497,36.505497
50534475,3932210,3932210,0,0,0,0,0,400.36832,400.36832,4003.6833,8007.3667,0.20019916,0.002830986,6.427193e-11,-0.3117679,0.18264312,-9.898881,0.037842985,-0.010710059,0.024517218,0.007928092,0.031461045,0.028480107,1.3800504e-05,8.441423e-06,5.3197314e-06,36.505497,36.505497
51473724,3932210,3932210,0,0,0,0,0,400.36832,400.36832,4003.6833,8007.3667,0.14721623,0.0024300779,5.0686285e-11,-0.16202557,0.32218152,-9.77518,0.03396183,-0.013048531,-0.023953311,0.0015732178,0.018823083,0.023947576,1.9818965e-05,3.0814356e-06,2.764891e-06,36.505497,36.505497
52517720,3932210,3932210,0,0,0,0,0,400.36832,400.36832,4003.6833,8007.3667,0.16635706,0.0026112786,5.3270135e-11,-0.14219916,-0.34589353,-9.772504,0.034385793,-0.015977815,0.012025615,0.0024366805,0.040957738,0.024780506,2.5220244e-05,4.348647e-06,3.1026902e-05,36.505497,36.505497
53461888,3932210,3932210,0,0,0,0,0,400.36832,400.36832,4003.6833,8007.3667,0.18093672,0.0029715712,7.488163e-11,-0.24151383,0.027946254,-9.760358,0.06381223,-0.01206824,0.032848194,0.0010245478,0.009875683,0.0045357053,2.569799e-05,1.9890535e-06,8.4835965e-06,36.554455,36.554455
54500973,3932210,3932210,0,0,0,0,0,400.36832,400.36832,4003.6833,8007.3667,0.1416246,0.0026932915,5.3224637e-11,-0.19436361,0.37038612,-9.778631,0.032505337,-0.021569198,0.037056778,0.0013146515,0.0143196015,0.015246524,1.0516479e-05,2.68159e-06,7.0657475e-06,36.701332,36.701332
55540055,3932210,3932210,0,0,0,0,0,400.36832,400.36832,4003.6833,8007.3667,0.10923431,0.0022877958,4.3900408e-11,0.03271396,0.37730107,-9.927778,0.01637891,-0.0030198968,-0.037665207,0.0028890916,0.0400417,0.015946325,1.2872953e-05,6.3929775e-07,5.0413197e-05,36.505497,36.505497
56479516,3932210,3932210,0,0,0,0,0,400.36832,400.36832,4003.6833,8007.3667,0.10994834,0.0023530654,1.641214e-11,-0.15940835,-0.25633746,-9.935505,0.015161677,-0.007333656,0.003673472,0.0019141345,0.034468576,0.009004834,1.850722e-05,9.60206e-07,6.5818963e-06,36.701332,36.701332
57528300,3932210,3932210,0,0,0,0,0,400.36832,400.36832,4003.6833,8007.3667,0.11572089,0.0027325177,6.67991e-11,-0.11557573,-0.12042233,-9.831927,0.047933474,-0.018443879,0.025252631,0.0017403981,0.01218497,0.012796636,6.549271e-05,1.7274677e-06,1.8027655e-05,36.505497,36.505497
58467470,3932210,3932210,0,0,0,0,0,400.36832,400.36832,4003.6833,8007.3667,0.11812274,0.0024636644,6.001943e-11,-0.11134563,0.1470399,-9.926654,0.056752622,-0.0056400527,0.008124851,0.00090993015,0.028965546,0.013200663,2.6945869e-05,2.5727113e-06,3.8012535e-05,36.701332,36.701332
59516547,3932210,3932210,0,0,0,0,0,400.36832,400.36832,4003.6833,8007.3667,0.10572618,0.0024595908,2.8627437e-11,-0.25105944,0.35353422,-9.763793,0.019670084,-0.012575648,-0.007911797,0.0012751359,0.008850506,0.004287567,3.5202673e-05,3.1699824e-06,1.4983642e-05,36.505497,36.505497
60455719,3932210,3932210,0,0,0,0,0,400.36832,400.36832,4003.6833,8007.3667,0.0903752,0.0021672868,4.7216977e-11,-0.026791545,0.06520829,-9.825573,0.022917276,-0.012691131,-0.037318658,0.0020259197,0.0053755105,0.0073758047,3.7839357e-06,2.3526252e-06,2.8273032e-06,36.554455,36.554455
61504794,3932210,3932210,0,0,0,0,0,400.36832,400.36832,4003.6833,8007.3667,0.11015276,0.0022965784,4.8995873e-11,-0.0943127,-0.24213797,-9.806499,0.038721867,-0.014439578,0.024463456,0.0014281854,0.026760679,0.012588025,1.0145007e-05,1.5185277e-06,2.3225846e-05,36.505497,36.505497
62548876,3932210,3932210,0,0,0,0,0,400.36832,400.36832,4003.6833,8007.3667,0.118200265,0.0022293124,5.465025e-11,-0.14309897,0.37205163,-9.84394,0.047424,-0.016291268,0.02895068,0.00093581167,0.0037128383,0.008825698,1.5019115e-05,7.4969205e-07,5.5918586e-05,36.554455,36.554455
63483074,3932210,3932210,0,0,0,0,0,400.36832,400.36832,4003.6833,8007.3667,0.10547382,0.0021949175,4.374097e-11,-0.16444522,0.35495165,-9.8742895,0.04277175,-0.010884423,-0.014406426,0.0006809956,0.0028642816,0.006181543,1.15942275e-05,1.2409304e-06,3.5458612e-05,36.40759,36.40759
64532572,3932210,3932210,0,0,0,0,0,400.36832,400.36832,4003.6833,8007.3667,0.09479845,0.0020257584,2.5418272e-11,-0.14326866,0.05871803,-9.827578,0.022256447,-0.012942313,-0.01397713,0.00082456373,0.014640177,0.008423628,5.207196e-05,9.429936e-07,2.7248683e-05,36.603424,36.603424
65471305,3932210,3932210,0,0,0,0,0,400.36832,400.36832,4003.6833,8007.3667,0.07983236,0.0021972607,4.738301e-11,-0.17973462,-0.1354904,-9.817601,0.042326737,-0.015908344,0.016545927,0.0008024297,0.0056874976,0.0026964808,9.221515e-06,1.275253e-06,1.9600871e-05,36.603424,36.603424
66510433,3932210,3932210,0,0,0,0,0,400.36832,400.36832,4003.6833,8007.3667,0.081158474,0.0019778204,4.7618322e-11,-0.08008341,0.32120293,-9.835769,0.045385666,-0.013107221,0.021545399,0.0018306284,0.01193817,0.0070237042,7.319977e-06,3.2757314e-06,9.248425e-06,36.505497,36.505497
67449568,3932210,3932210,0,0,0,0,0,400.36832,400.36832,4003.6833,8007.3667,0.09126916,0.0020658681,2.0124177e-11,-0.060700733,0.19729441,-9.8320875,0.016974296,-0.015191578,-0.01158628,0.001659351,0.0052891765,0.0053241937,2.8590098e-06,1.8885831e-06,2.6259784e-06,36.554455,36.554455
68488677,3932210,3932210,0,0,0,0,0,400.36832,400.36832,4003.6833,8007.3667,0.11079735,0.0022555427,3.448038e-11,-0.05253441,-0.27348405,-9.787295,0.02227114,-0.019549357,0.0016306404,0.0010876667,0.018883558,0.009652995,1.6033842e-05,1.7270718e-08,7.442391e-05,36.554455,36.554455
69532743,3932210,3932210,0,0,0,0,0,400.36832,400.36832,4003.6833,8007.3667,0.10248957,0.0022402436,9.261255e-11,-0.10312679,-0.10286047,-9.84833,0.058614045,-0.015532879,0.047296796,0.00053384167,0.008386329,0.0076700207,4.7781265e-05,2.0406624e-06,1.4126694e-05,36.554455,36.554455
70476912,3932210,3932210,0,0,0,0,0,400.36832,400.36832,4003.6833,8007.3667,0.10267907,0.0024297452,3.597169e-11,-0.11258012,0.35355008,-9.865611,0.024707282,-0.013114988,-0.0018463224,0.0007273325,0.0065801633,0.007508742,8.51373e-05,-8.646079e-07,0.00013770696,36.848236,36.848236
71525992,3932210,3932210,0,0,0,0,0,400.36832,400.36832,4003.6833,8007.3667,0.08578223,0.0021452298,2.9737993e-11,-0.14466268,-0.054316413,-9.847325,0.027967077,-0.012611517,-0.017520173,0.0006158113,0.0029072694,0.003291772,1.3258934e-05,1.2705597e-06,3.4162033e-05,36.554455,36.554455
72465169,3932210,3932210,0,0,0,0,0,400.36832,400.36832,4003.6833,8007.3667,0.088912345,0.0021068307,3.79163e-11,-0.15086089,-0.044239026,-9.869721,0.031713173,-0.01279017,0.010858889,0.0012705363,0.0020564578,0.0061657582,1.2307971e-05,1.0569084e-06,9.995001e-06,36.505497,36.505497
73504623,3932210,3932210,0,0,0,0,0,400.36832,400.36832,4003.6833,8007.3667,0.08423266,0.002008544,2.88273e-11,-0.20331386,0.030844342,-9.850128,0.036509264,-0.010477621,0.009991573,0.00070401654,0.0070826774,0.0058833575,6.0020893e-06,1.2327798e-06,1.8228088e-06,36.848236,36.848236
74543554,3932210,3932210,0,0,0,0,0,400.36832,400.36832,4003.6833,8007.3667,0.080663204,0.0021397572,3.8065398e-11,-0.12474368,-0.21736042,-9.870076,0.020086823,-0.011863154,0.025103012,0.00083360146,0.007164543,0.0045478283,1.0812713e-05,1.4482789e-06,1.9720634e-05,36.701332,36.701332
75482783,3932210,3932210,0,0,0,0,0,400.36832,400.36832,4003.6833,8007.3667,0.082908295,0.0022843014,7.7827925e-11,-0.22050953,0.20406681,-9.791296,0.04149396,-0.015643265,0.041325707,0.0007035203,0.009561747,0.008584469,1.487283e-05,2.2999347e-06,2.5980347e-05,36.554455,36.554455
76522066,3932210,3932210,0,0,0,0,0,400.36832,400.36832,4003.6833,8007.3667,0.071641974,0.002157564,4.0186108e-11,-0.18856879,0.26687744,-9.80163,0.03555549,-0.014574299,-0.01671564,0.0009787903,0.0039816466,0.01235207,9.451364e-06,1.3128172e-06,1.7005252e-05,36.701332,36.701332
77451412,3932210,3932210,0,0,0,0,0,400.36832,400.36832,4003.6833,8007.3667,0.07718264,0.0020202284,3.2701064e-11,-0.17109087,0.02041631,-9.783608,0.02902276,-0.018886814,-0.010197327,0.0010091808,0.0026858256,0.009353972,7.791391e-06,1.6140322e-06,1.0271996e-05,36.701332,36.701332
78495008,3932210,3932210,0,0,0,0,0,400.36832,400.36832,4003.6833,8007.3667,0.09294213,0.0022626307,4.203456e-11,-0.2305222,0.041717213,-9.768693,0.030390996,-0.01954768,0.012975708,0.0011131794,0.0152239185,0.017928474,1.1208246e-05,2.117901e-06,2.6400805e-06,36.750286,36.750286
79544096,3932210,3932210,0,0,0,0,0,400.36832,400.36832,4003.6833,8007.3667,0.10242586,0.0021754894,3.2295683e-11,-0.097997256,0.33437362,-9.997493,0.035304546,-0.004159532,0.00013692187,0.0019545772,0.036932312,0.009329156,1.939141e-05,2.3545847e-06,1.4814647e-05,36.848236,36.848236
80488262,3932210,3932210,0,0,0,0,0,400.36832,400.36832,4003.6833,8007.3667,0.116191134,0.0021409455,2.57849e-11,-0.10503296,0.21567932,-9.850821,0.03103908,-0.013396105,-0.017911674,0.0011561795,0.012489894,0.014468694,3.5258668e-06,2.1224798e-06,5.1119823e-06,36.603424,36.603424
81537347,3932210,3932210,0,0,0,0,0,400.36832,400.36832,4003.6833,8007.3667,0.103907906,0.0021222988,4.3402247e-11,0.0051153908,-0.2486743,-9.71514,0.025244763,-0.026399307,0.00753273,0.0011391104,0.0674323,0.011104954,1.1029051e-05,1.6623771e-06,1.0207577e-05,36.750286,36.750286
82476825,3932210,3932210,0,0,0,0,0,400.36832,400.36832,4003.6833,8007.3667,0.10343767,0.0020013975,3.9709888e-11,-0.13916507,0.16488002,-9.9438925,0.047716502,-0.004139193,0.026931215,0.0012310046,0.0042979866,0.0059871064,4.985353e-06,1.2142644e-06,2.0720786e-06,36.94616,36.94616
83520612,3932210,3932210,0,0,0,0,0,400.36832,400.36832,4003.6833,8007.3667,0.10284196,0.0023161103,3.6197587e-11,-0.094501145,0.21801807,-9.86039,0.026608035,-0.019080006,-0.017011285,0.001012094,0.011760592,0.012112057,2.7949032e-05,2.073166e-06,9.228863e-06,36.603424,36.603424
84464780,3932210,3932210,0,0,0,0,0,400.36832,400.36832,4003.6833,8007.3667,0.09589512,0.0020654036,3.2437903e-11,-0.221071,-0.033792503,-9.695401,0.043623477,-0.009634228,-0.006340706,0.0013946105,0.028962221,0.007952459,5.3780273e-06,1.505704e-06,1.246904e-06,36.701332,36.701332
85513861,3932210,3932210,0,0,0,0,0,400.36832,400.36832,4003.6833,8007.3667,0.10004894,0.002112249,4.552671e-11,-0.238398,0.061316814,-9.815364,0.04310206,-0.015448355,0.016992293,0.00071498175,0.028148646,0.0081496565,1.5194613e-05,2.0575762e-06,7.942733e-06,36.554455,36.554455
86453040,3932210,3932210,0,0,0,0,0,400.36832,400.36832,4003.6833,8007.3667,0.11632828,0.002152162,2.8483368e-11,-0.19670592,0.10978051,-9.879336,0.038911782,-0.009648043,0.006255672,0.0017801297,0.010988453,0.010267443,1.2047391e-05,2.0296911e-06,1.912279e-06,36.701332,36.701332
87502130,3932210,3932210,0,0,0,0,0,400.36832,400.36832,4003.6833,8007.3667,0.09180453,0.0020326232,4.585266e-11,-0.16165684,-0.0046481006,-9.762327,0.039168853,-0.01877593,0.021822331,0.0010555038,0.005630809,0.009029089,5.575139e-06,1.317762e-06,1.1914111e-06,36.897205,36.897205
88446316,3932210,3932210,0,0,0,0,0,400.36832,400.36832,4003.6833,8007.3667,0.08655587,0.0019953288,4.523685e-11,-0.12386532,0.18813942,-9.76417,0.03356846,-0.020388387,0.015440397,0.0010575164,0.0036370757,0.0071127787,4.205675e-06,1.9881675e-06,7.1466507e-06,36.701332,36.701332
89490382,3932210,3932210,0,0,0,0,0,400.36832,400.36832,4003.6833,8007.3667,0.10859786,0.0021293836,4.909227e-11,-0.0741968,0.0850204,-9.868936,0.054808993,-0.017492898,-0.009541766,0.00087210146,0.005635436,0.0092276335,7.371517e-06,2.1477915e-06,2.631952e-06,36.848236,36.848236
90534666,3932210,3932210,0,0,0,0,0,400.36832,400.36832,4003.6833,8007.3667,0.10888764,0.0020372341,2.3272445e-11,-0.10239653,0.099212565,-9.853951,0.02399868,-0.013753985,-0.010375963,0.0009708802,0.015106902,0.005397289,5.7719544e-06,1.1584383e-06,1.6121975e-06,36.897205,36.897205
91478648,3932210,3932210,0,0,0,0,0,400.36832,400.36832,4003.6833,8007.3667,0.08480004,0.0022277576,4.9524888e-11,-0.20725621,-0.046084527,-9.835517,0.041934475,-0.012022763,0.005410509,0.000765232,0.0033879206,0.0055422266,3.409096e-05,3.0470599e-06,1.8322618e-05,36.848236,36.848236
92527768,3932210,3932210,0,0,0,0,0,400.36832,400.36832,4003.6833,8007.3667,0.07320389,0.0020436994,3.990389e-11,-0.3139661,-0.033368297,-9.649793,0.029410925,-0.025890633,0.0208513,0.000634335,0.0070833256,0.003060178,9.167529e-06,3.0737117e-06,1.0539306e-05,36.603424,36.603424
93472042,3932210,3932210,0,0,0,0,0,400.36832,400.36832,4003.6833,8007.3667,0.08654668,0.0021915515,4.9634064e-11,-0.12803982,0.112587474,-9.93749,0.040150605,-0.010683936,0.014703777,0.00085361,0.09018628,0.012001075,2.6479565e-05,2.6668604e-06,1.6101729e-05,37.044064,37.044064
94515993,3932210,3932210,0,0,0,0,0,400.36832,400.36832,4003.6833,8007.3667,0.077181555,0.0019975663,3.5966768e-11,-0.30363292,0.23527206,-9.7651615,0.035136096,-0.010623098,-0.0112593165,0.00120047,0.0062050424,0.007972387,4.388881e-06,2.5563459e-06,2.235825e-06,37.044064,37.044064
95450419,3932210,3932210,0,0,0,0,0,400.36832,400.36832,4003.6833,8007.3667,0.08180609,0.0024963233,3.2828854e-11,-0.25124425,0.17511345,-9.798443,0.005747465,-0.017729767,-0.013564414,0.0011016257,0.015692793,0.008862103,3.3030272e-05,2.3608786e-06,2.0233612e-05,36.94616,36.94616
96494264,3932210,3932210,0,0,0,0,0,400.36832,400.36832,4003.6833,8007.3667,0.09714936,0.002121455,3.7280498e-11,-0.16041301,-0.24529333,-9.913159,0.029938426,-0.018075522,0.009014744,0.0013881505,0.02201051,0.004309836,8.560674e-06,2.240935e-06,3.8957387e-06,36.94616,36.94616
97538352,3932210,3932210,0,0,0,0,0,400.36832,400.36832,4003.6833,8007.3667,0.083237976,0.002187518,5.5924e-11,-0.2656415,0.10244474,-9.804588,0.050502423,-0.011107466,0.027943907,0.0015521671,0.0081231985,0.0027893062,1.0026651e-05,1.700191e-06,6.6639864e-06,36.554455,36.554455
98472603,3932210,3932210,0,0,0,0,0,400.36832,400.36832,4003.6833,8007.3667,0.078360334,0.0020892837,3.1218875e-11,-0.27820215,0.43596148,-9.93845,0.032865666,-0.0062226304,-0.016184535,0.0010391435,0.013739948,0.010187879,1.1544751e-05,1.6787177e-06,1.5354127e-06,36.848236,36.848236
99521668,3932210,3932210,0,0,0,0,0,400.36832,400.36832,4003.6833,8007.3667,0.080360614,0.0021201523,3.4086987e-11,-0.2761254,-0.3088135,-9.831519,0.028639963,-0.017401299,0.0039211535,0.0006422852,0.0019326543,0.007806405,7.495133e-06,1.6625618e-06,1.4789533e-05,36.848236,36.848236
100460837,3932210,3932210,0,0,0,0,0,400.36832,400.36832,4003.6833,8007.3667,0.07173246,0.0020560538,3.325248e-11,-0.25976533,0.027142188,-9.855786,0.040764935,-0.01705471,0.025538929,0.00066689134,0.0038758777,0.005343573,5.1746106e-06,2.3020116e-06,1.7406019e-06,36.94616,36.94616
101509921,3932210,3932210,0,0,0,0,0,400.36832,400.36832,4003.6833,8007.3667,0.07178598,0.0021201666,2.2411318e-11,-0.21830653,0.3023312,-9.876074,0.019199666,-0.015954468,0.00826437,0.0008956209,0.003846254,0.007041103,5.82057e-06,1.2025126e-06,1.3180822e-05,36.94616,36.94616
102444431,3932210,3932210,0,0,0,0,0,400.36832,400.36832,4003.6833,8007.3667,0.06594892,0.002030875,4.153081e-11,-0.28750864,0.072410695,-9.80685,0.028213011,-0.018399063,-0.006777709,0.0006849952,0.0068035102,0.005352366,1.3939823e-05,2.8547995e-06,5.7804905e-06,36.701332,36.701332
103488279,3932210,3932210,0,0,0,0,0,400.36832,400.36832,4003.6833,8007.3667,0.06963847,0.0019175841,4.9768915e-11,-0.25674155,0.15635352,-9.83424,0.045279555,-0.015039921,0.0030881502,0.0007523802,0.0069715404,0.0038878792,1.7714576e-05,1.7558453e-06,5.5899864e-06,36.701332,36.701332
104537285,3932210,3932210,0,0,0,0,0,400.36832,400.36832,4003.6833,8007.3667,0.08336776,0.0019757375,3.684862e-11,-0.2765159,0.05093953,-9.8154955,0.037594277,-0.013375562,0.018877408,0.0015748057,0.005120892,0.014715859,5.9004287e-06,1.9661989e-06,1.1752214e-06,36.94616,36.94616
105476467,3932210,3932210,0,0,0,0,0,400.36832,400.36832,4003.6833,8007.3667,0.081148006,0.002073828,3.6405597e-11,-0.2833259,0.2010427,-9.966202,0.044770595,-0.005216047,-0.00019708257,0.0010735552,0.004453379,0.01414641,1.2580235e-05,2.0923028e-06,2.1865364e-06,36.94616,36.94616
106515560,3932210,3932210,0,0,0,0,0,400.36832,400.36832,4003.6833,8007.3667,0.07574957,0.0020111047,2.7172483e-11,-0.41670322,0.17553979,-9.924774,0.029158313,-0.01226069,-3.4570265e-05,0.0007604046,0.0047128005,0.005454077,3.5280523e-06,3.904404e-06,2.0611344e-06,36.897205,36.897205
107459736,3932210,3932210,0,0,0,0,0,400.36832,400.36832,4003.6833,8007.3667,0.07651467,0.0020328204,5.1294184e-11,-0.28261504,-0.04652631,-9.724874,0.035762485,-0.018683325,0.0118696485,0.0008890637,0.0061170757,0.011829563,2.3863035e-05,2.0134682e-06,6.191745e-06,36.848236,36.848236
108508825,3932210,3932210,0,0,0,0,0,400.36832,400.36832,4003.6833,8007.3667,0.07255235,0.0019372791,5.315009e-11,-0.28024858,0.047129184,-9.794015,0.05230847,-0.018454239,0.018236764,0.000642888,0.0035999522,0.010200031,7.6684555e-06,2.1630678e-06,1.6028464e-06,36.848236,36.848236
109448005,3932210,3932210,0,0,0,0,0,400.36832,400.36832,4003.6833,8007.3667,0.0737381,0.0021050621,4.407348e-11,-0.32558334,0.4435715,-9.947813,0.03524334,-0.0044739586,-0.022409765,0.00046327856,0.0136114005,0.008746838,3.7211044e-05,2.141732e-06,1.6905675e-06,36.94616,36.94616
110497090,3932210,3932210,0,0,0,0,0,400.36832,400.36832,4003.6833,8007.3667,0.08087177,0.002196431,3.1112647e-11,-0.3118121,-0.1522286,-9.916877,0.03259824,-0.011029194,-0.021748994,0.00064620475,0.0063347905,0.008721929,4.9446758e-06,1.7927014e-06,9.6502445e-06,36.897205,36.897205
111546180,3932210,3932210,0,0,0,0,0,400.36832,400.36832,4003.6833,8007.3667,0.07431099,0.0021397457,4.9704407e-11,-0.3714951,0.08891324,-9.835161,0.040810097,-0.012907936,0.026014911,0.0008226612,0.002528616,0.007986573,7.1044155e-06,2.088253e-06,1.9853326e-06,36.603424,36.603424
112485551,3932210,3932210,0,0,0,0,0,400.36832,400.36832,4003.6833,8007.3667,0.08330267,0.0020916767,4.8885368e-11,-0.28845403,0.1135312,-9.806821,0.0403323,-0.015945053,0.017220646,0.0006004557,0.01566207,0.011082282,2.3810764e-05,1.2504831e-06,1.52686e-05,36.94616,36.94616
113534410,3932210,3932210,0,0,0,0,0,400.36832,400.36832,4003.6833,8007.3667,0.0769912,0.001910264,2.4165333e-11,-0.26441824,0.12633169,-9.85912,0.029108126,-0.0128859235,0.0015076154,0.00074622716,0.0067618038,0.0065822015,1.6381362e-05,1.428752e-06,1.1250749e-05,37.044064,37.044064
114468620,3932210,3932210,0,0,0,0,0,400.36832,400.36832,4003.6833,8007.3667,0.08430483,0.0020114027,4.0878696e-11,-0.2551651,0.001192675,-9.777808,0.025798324,-0.015646193,0.024213314,0.0009324282,0.0066548833,0.010910393,5.3698604e-06,1.9010532e-06,2.2649053e-06,37.09302,37.09302
115507713,3932210,3932210,0,0,0,0,0,400.36832,400.36832,4003.6833,8007.3667,0.079710536,0.0021905482,6.392351e-11,-0.36594522,0.26127625,-9.840035,0.049791604,-0.013228115,0.012814143,0.0011191341,0.0042589386,0.007880439,2.8892586e-05,1.6519323e-06,4.7438818e-05,36.897205,36.897205
116547310,3932210,3932210,0,0,0,0,0,400.36832,400.36832,4003.6833,8007.3667,0.07378078,0.0022397828,4.5857974e-11,-0.32483217,0.26047784,-9.869356,0.02623883,-0.008806609,-0.03654971,0.0005155076,0.010392216,0.0077540753,1.8069075e-05,1.9115885e-06,9.054672e-06,36.94616,36.94616
117485996,3932210,3932210,0,0,0,0,0,400.36832,400.36832,4003.6833,8007.3667,0.09403478,0.0023198046,3.4600812e-11,-0.36544245,-0.11676994,-9.800942,0.0278306,-0.0152878035,-0.0015196325,0.0015953612,0.08253931,0.009570147,6.708707e-06,1.1720676e-06,5.8010496e-06,37.044064,37.044064
118525087,3932210,3932210,0,0,0,0,0,400.36832,400.36832,4003.6833,8007.3667,0.0913829,0.0021599198,4.9989606e-11,-0.3159115,0.0655236,-9.827293,0.032884523,-0.014688996,0.03090856,0.0023043733,0.013375596,0.016515462,6.9224247e-06,1.6846742e-06,7.003921e-06,36.701332,36.701332
119459469,3932210,3932210,0,0,0,0,0,400.36832,400.36832,4003.6833,8007.3667,0.07441393,0.0020060993,4.3731522e-11,-0.39834473,0.15980066,-9.930707,0.045738965,-0.010806046,0.016193412,0.0009488045,0.0071507874,0.00606436,2.0461513e-05,1.7945512e-06,1.4123815e-05,36.94616,36.94616
120503370,3932210,3932210,0,0,0,0,0,400.36832,400.36832,4003.6833,8007.3667,0.06990221,0.0020498119,3.6450565e-11,-0.40878835,0.23904356,-9.842893,0.034302995,-0.01676728,-0.016773842,0.0025105218,0.019255364,0.0068687457,1.099034e-05,2.2610168e-06,3.6324418e-06,36.94616,36.94616
121542473,3932210,3932210,0,0,0,0,0,400.36832,400.36832,4003.6833,8007.3667,0.07799041,0.0020072318,2.3651718e-11,-0.05711995,0.021485038,-9.619362,0.014819528,-0.01702871,-0.0189709,0.0013202383,0.009948921,0.007909119,5.9236813e-06,1.5238972e-05,8.0172475e-07,36.848236,36.848236
122471654,3932210,3932210,0,0,0,0,0,400.36832,400.36832,4003.6833,8007.3667,0.076373726,0.0020746333,4.483111e-11,-0.45892945,-0.12007692,-10.039906,0.0341827,-0.010986698,0.02032758,0.0009561593,0.02585939,0.007371707,1.4109993e-05,1.982515e-05,3.5769724e-06,36.750286,36.750286
123515743,3932210,3932210,0,0,0,0,0,400.36832,400.36832,4003.6833,8007.3667,0.06885637,0.0021835659,6.308083e-11,-0.13095629,0.05846916,-9.714405,0.054391246,-0.014679655,0.0016792947,0.0007161839,0.012720996,0.007949618,3.2064545e-05,1.1472725e-06,5.5618584e-05,37.09302,37.09302
124459925,3932210,3932210,0,0,0,0,0,400.36832,400.36832,4003.6833,8007.3667,0.07293841,0.0023071265,3.6347012e-11,-0.098684065,0.12924522,-9.751604,0.03337859,-0.013425575,0.006018481,0.0004367488,0.027185732,0.005883213,6.19528e-05,3.475416e-06,3.4876874e-05,37.044064,37.044064
125509015,3932210,3932210,0,0,0,0,0,400.36832,400.36832,4003.6833,8007.3667,1.4954994,0.009334965,1.6303675e-10,-0.3880734,0.12757488,-9.394495,0.032002784,0.012807889,-0.011315455,1.9897041,-1.0272593,78.84388,0.00029850728,0.00030861702,8.876212e-06,36.94616,36.94616
126453388,3932210,3932210,0,0,0,0,0,400.36832,400.36832,4003.6833,8007.3667,2.6169713,0.013738927,3.5028622e-10,-0.009566439,0.09359612,-10.027816,0.05583357,-0.025738984,0.0029435854,5.030333,-2.940557,211.90114,0.00034640558,0.0005477579,3.0406125e-05,36.94616,36.94616
127497544,3932210,3932210,0,0,0,0,0,400.36832,400.36832,4003.6833,8007.3667,3.9936926,0.018129565,7.4339107e-10,-0.256434,0.18614106,-9.826367,0.038366977,-0.048024386,0.027683815,4.827919,-2.7293892,258.2663,0.00030610478,0.0005709671,3.7699232e-05,36.94616,36.94616
128531489,3932210,3932210,0,0,0,0,0,400.36832,400.36832,4003.6833,8007.3667,3.8697565,0.017414734,4.0126466e-10,-0.50863737,0.14928588,-9.775353,0.033447914,-0.006485327,0.0138339605,3.8630073,-1.5085156,129.08516,0.00039237118,0.0003905302,2.4801255e-05,36.848236,36.848236
129470856,3932210,3932210,0,0,0,0,0,400.36832,400.36832,4003.6833,8007.3667,4.3120794,0.017560456,3.8642028e-10,-0.5901781,0.11831997,-9.992725,0.0393247,-0.009307036,-0.018220315,3.024862,-1.4949858,136.47206,0.00019723714,0.0005834867,1.8703306e-05,37.044064,37.044064
130509768,3932210,3932210,0,0,0,0,0,400.36832,400.36832,4003.6833,8007.3667,4.234585,0.016496323,2.3834332e-10,-0.5309111,0.12419399,-10.043314,0.022626359,-0.016906902,0.009438443,2.4637642,-0.8385195,87.98883,0.0002049645,0.0007159495,2.036805e-05,36.897205,36.897205
131453975,3932210,3932210,0,0,0,0,0,400.36832,400.36832,4003.6833,8007.3667,4.254191,0.019536309,3.7584258e-10,-0.4918329,0.21817479,-10.036006,0.029860752,-0.0081462795,0.0028428554,5.499492,0.033827614,103.80044,0.0005924187,0.0015131237,4.3382533e-05,36.897205,36.897205
132493166,3932210,3932210,0,0,0,0,0,400.36832,400.36832,4003.6833,8007.3667,4.1492963,0.022240562,8.4606133e-10,-0.30095142,0.18173058,-9.834504,0.03832375,-0.010368338,-0.0038160332,6.9599648,3.7077425,38.347946,0.0009858004,0.0015124244,2.7024827e-05,36.848236,36.848236
133542258,3932210,3932210,0,0,0,0,0,400.36832,400.36832,4003.6833,8007.3667,4.469347,0.024278853,3.6628228e-10,-0.46846718,0.116380855,-10.10956,0.025301002,-0.015134588,0.0051405877,6.450586,1.7038152,39.274918,0.00088479207,0.000785719,1.2412022e-05,37.044064,37.044064
134481814,3932210,3932210,0,0,0,0,0,400.36832,400.36832,4003.6833,8007.3667,3.8670435,0.021929681,4.2135326e-10,-0.46794844,0.199251,-9.899215,0.03459874,-0.01047255,0.0096916575,5.329608,1.0544351,30.086475,0.001070583,0.00022410906,-5.3199756e-07,37.09302,37.09302
135530532,3932210,3932210,0,0,0,0,0,400.36832,400.36832,4003.6833,8007.3667,3.6939104,0.019181686,5.285864e-10,-0.6358759,0.29223514,-9.889104,0.039277878,-0.01635294,0.018202955,5.610827,0.6896177,26.16537,0.00046949598,0.00018998499,4.3679383e-06,36.897205,36.897205
136469733,3932210,3932210,0,0,0,0,0,400.36832,400.36832,4003.6833,8007.3667,4.3266683,0.021356583,5.422735e-10,-0.46474925,0.28213963,-9.739402,0.041309237,-0.018936686,0.01584602,4.547932,1.1925169,23.856552,0.00039982697,0.00042968176,1.6661459e-05,36.848236,36.848236
137518799,3932210,3932210,0,0,0,0,0,400.36832,400.36832,4003.6833,8007.3667,5.5590105,0.02822381,6.2110844e-10,-0.37030926,0.34900197,-9.778507,0.04041813,0.00080311124,0.024511157,5.606634,1.7404221,32.28904,0.0008000518,0.0007095731,2.0017425e-05,36.94616,36.94616
138462982,3932210,3932210,0,0,0,0,0,400.36832,400.36832,4003.6833,8007.3667,3.9753852,0.022098899,8.6725394e-10,-0.41876006,0.3333971,-9.95533,0.060676035,2.144731e-05,0.022125246,4.5778255,0.44120523,17.263874,0.00026144588,0.00045811664,1.1908561e-05,36.750286,36.750286
139507072,3932210,3932210,0,0,0,0,0,400.36832,400.36832,4003.6833,8007.3667,4.429084,0.022770803,5.3180077e-10,-0.6107159,0.12249287,-10.302702,0.045040034,-0.007964536,-0.0013905029,4.5574346,0.5532552,21.882975,0.00044063883,0.00030595323,4.5127763e-05,36.94616,36.94616
140546172,3932210,3932210,0,0,0,0,0,400.36832,400.36832,4003.6833,8007.3667,4.311506,0.027439326,9.128105e-10,-0.58813953,0.141225,-9.813208,0.03239463,-0.013331114,-0.029449273,4.598177,1.7709683,17.39685,0.00055704016,0.0005381863,1.0825628e-05,37.14197,37.14197
141485411,3932210,3932210,0,0,0,0,0,400.36832,400.36832,4003.6833,8007.3667,6.0993786,0.033114817,6.970545e-10,-0.56098175,-0.04727625,-9.826325,0.016184956,-0.020400941,-0.025622882,8.062649,7.997291,19.14432,0.00074686954,0.00020165375,3.998086e-05,36.897205,36.897205
142524524,3932210,3932210,0,0,0,0,0,400.36832,400.36832,4003.6833,8007.3667,6.562477,0.032077044,7.5428513e-10,-0.42334482,0.09387872,-9.559797,0.03466363,-0.01727986,-0.0053736647,7.6882133,4.475109,18.287672,0.0006136435,0.00035491903,2.814274e-05,37.044064,37.044064
143454051,3932210,3932210,0,0,0,0,0,400.36832,400.36832,4003.6833,8007.3667,7.0383906,0.04227045,8.8711455e-10,-0.41575956,0.15452887,-9.908903,0.023297457,-0.021620205,-0.006478514,7.389224,6.0832453,21.279182,0.0013755477,0.0004610938,2.6743188e-05,36.897205,36.897205
144497865,3932210,3932210,0,0,0,0,0,400.36832,400.36832,4003.6833,8007.3667,6.4604654,0.049112666,7.719756e-10,-0.16629517,0.32917902,-9.934888,0.034373213,-0.018242236,0.012550918,9.885852,4.2650537,11.92669,0.0015900333,0.00022127313,7.3334527e-06,36.848236,36.848236
145542086,3932210,3932210,0,0,0,0,0,400.36832,400.36832,4003.6833,8007.3667,4.5537143,0.029401204,4.0775786e-10,-0.26257652,0.109592974,-9.647808,0.03955308,-0.01822394,0.010299547,5.4543643,1.6180532,4.286901,0.00040414283,0.000114609116,9.717647e-06,37.044064,37.044064
146486382,3932210,3932210,0,0,0,0,0,400.36832,400.36832,4003.6833,8007.3667,3.715281,0.020718804,4.4395865e-10,-0.22133656,0.14627779,-9.832656,0.042628974,-0.027434396,0.0070733516,7.355544,0.998948,6.4498014,0.0004153228,0.00010413982,1.4556362e-05,37.044064,37.044064
147530357,3932210,3932210,0,0,0,0,0,400.36832,400.36832,4003.6833,8007.3667,2.5898342,0.012882674,1.7742122e-10,-0.32568997,0.15596704,-9.700634,0.045997757,-0.017266735,-0.0015828774,1.637374,0.3554094,2.5469604,8.4080275e-05,0.000115218354,6.121289e-06,37.14197,37.14197
148464547,3932210,3932210,0,0,0,0,0,400.36832,400.36832,4003.6833,8007.3667,1.8881154,0.010243507,1.1021971e-10,-0.35059026,0.18762684,-9.987968,0.042694118,0.0018739662,-0.0028580471,0.8427076,0.084489994,3.8765728,0.00010994913,5.256848e-05,3.0668493e-06,37.0464,37.0464
149503644,3932210,3932210,0,0,0,0,0,400.36832,400.36832,4003.6833,8007.3667,1.565855,0.008825077,5.996549e-11,-0.17755416,0.22626099,-9.808558,0.029804004,-0.0021466431,-0.0076676435,1.1279216,0.12297792,1.6158161,6.6083296e-05,3.7852882e-05,6.969869e-06,37.044064,37.044064
150542745,3932210,3932210,0,0,0,0,0,400.36832,400.36832,4003.6833,8007.3667,1.5307416,0.00943813,9.288771e-11,-0.3380718,0.1983158,-9.847798,0.021456854,-0.014357458,-0.002196194,0.7632052,0.20331939,1.7780209,8.277612e-05,3.7734855e-05,8.410649e-06,36.848236,36.848236
151481940,3932210,3932210,0,0,0,0,0,400.36832,400.36832,4003.6833,8007.3667,1.6688408,0.01179328,1.6906974e-10,-0.36857948,0.15363032,-9.997485,0.035143405,-0.0123607535,-0.004465724,0.69408053,0.2756955,1.3945779,0.00010744459,5.790983e-05,6.3845237e-06,37.14197,37.14197
152521031,3932210,3932210,0,0,0,0,0,400.36832,400.36832,4003.6833,8007.3667,1.7487901,0.01058326,1.3293637e-10,-0.29171097,0.08637613,-9.915967,0.051027983,-0.010301775,-0.003677501,1.5353608,0.15052865,1.6623441,0.00027335435,6.20716e-05,1.1180987e-05,36.897205,36.897205
153460216,3932210,3932210,0,0,0,0,0,400.36832,400.36832,4003.6833,8007.3667,1.7836167,0.013627746,3.9081424e-10,-0.6317761,0.5459848,-9.895554,0.023501523,-0.014502218,0.03578634,0.59546554,0.69258136,1.7130773,0.00031768868,2.611121e-05,3.502909e-05,36.939163,36.939163
154499313,3932210,3932210,0,0,0,0,0,400.36832,400.36832,4003.6833,8007.3667,1.0583706,0.007704541,1.7880913e-10,-0.40588346,0.26878348,-9.925754,0.051133227,-0.012404365,0.020494033,0.37818214,0.10552238,0.43567702,0.00011364231,1.992669e-05,7.5615576e-06,36.94616,36.94616
155533459,3932210,3932210,0,0,0,0,0,400.36832,400.36832,4003.6833,8007.3667,0.69356704,0.007430183,1.3021552e-10,-0.76165026,0.25645068,-9.966265,0.032479063,-0.019955615,0.016374072,0.11250728,0.115398616,0.19452994,0.00021025512,2.7756736e-05,6.2981485e-06,37.044064,37.044064
156468399,3932210,3932210,0,0,0,0,0,400.36832,400.36832,4003.6833,8007.3667,0.45794782,0.0063028233,8.552016e-11,-0.30328232,0.073487066,-9.89516,0.018405642,-0.014529455,0.018967243,0.04815931,0.055244114,0.37121224,0.00019086387,1.399673e-05,9.075148e-07,37.36106,37.36106
157511916,3932210,3932210,0,0,0,0,0,400.36832,400.36832,4003.6833,8007.3667,0.23421551,0.0031507795,5.6614154e-11,-0.6684045,0.11253712,-9.958706,0.04761341,-0.013626744,0.0024362458,0.24340644,0.023623455,0.09445707,2.1442587e-05,2.2330627e-05,3.358383e-06,37.14197,37.14197
158455878,3932210,3932210,0,0,0,0,0,400.36832,400.36832,4003.6833,8007.3667,0.14001925,0.002789372,5.605599e-11,-0.55847365,0.15757388,-9.866748,0.044532392,-0.021179121,0.0034374064,0.013916858,0.008976113,0.0046593607,6.2564827e-06,1.1899225e-05,1.2191868e-05,36.967144,36.967144
159504969,3932210,3932210,0,0,0,0,0,400.36832,400.36832,4003.6833,8007.3667,0.06916593,0.0020940194,2.5184455e-11,-0.24046545,0.010981939,-9.823559,0.028986363,-0.0035753406,0.0007835566,0.03527249,0.008906606,0.0018802333,6.267554e-06,3.4860811e-06,1.1298299e-05,37.09302,37.09302
160549067,3932210,3932210,0,0,0,0,0,400.36832,400.36832,4003.6833,8007.3667,0.04823943,0.0019355296,3.6526563e-11,-0.17979915,0.051068906,-9.847933,0.039082352,-0.017843701,0.0061508347,0.00579765,0.0059270086,0.00175659,4.982181e-06,1.6099528e-06,4.5428465e-06,37.044064,37.044064
161493247,3932210,3932210,0,0,0,0,0,400.36832,400.36832,4003.6833,8007.3667,0.038005903,0.0018076247,4.1745593e-11,-0.07440901,-0.019524805,-9.833748,0.04560531,-0.013702378,0.0036925124,0.0004343971,0.009903229,0.00083310297,3.4550183e-05,2.138631e-06,1.4753233e-06,37.2399,37.2399
162532346,3932210,3932210,0,0,0,0,0,400.36832,400.36832,4003.6833,8007.3667,0.03157641,0.0017581896,3.418099e-11,-0.14579122,0.018580187,-9.837553,0.03546841,-0.015943808,0.004548642,0.00082548166,0.0038764712,0.0007289441,3.56093e-06,1.5856596e-06,1.638821e-06,36.94616,36.94616
163466537,3932210,3932210,0,0,0,0,0,400.36832,400.36832,4003.6833,8007.3667,0.030049838,0.001667903,3.7877982e-11,-0.16801848,-0.057870522,-9.844007,0.039450042,-0.014348583,0.0021127486,0.00042092224,0.00993113,0.00059909746,2.0161595e-05,1.6024375e-06,3.023379e-06,37.018417,37.018417
164505635,3932210,3932210,0,0,0,0,0,400.36832,400.36832,4003.6833,8007.3667,0.04386675,0.0018043574,3.1201992e-11,-0.18013535,0.050576806,-9.831669,0.03897024,-0.012917336,-0.00013997943,0.00037891118,0.024366027,0.0014696668,1.4000337e-05,1.0712712e-06,5.96241e-06,37.09302,37.09302
165544757,3932210,3932210,0,0,0,0,0,400.36832,400.36832,4003.6833,8007.3667,0.038677208,0.0017995668,2.0189699e-11,-0.1562683,-0.018935926,-9.828634,0.025431614,-0.014050861,0.0033828877,0.0015472324,0.0011429457,0.0013787203,4.8763577e-06,1.141833e-06,4.060835e-06,37.044064,37.044064
166483922,3932210,3932210,0,0,0,0,0,400.36832,400.36832,4003.6833,8007.3667,0.042684916,0.0018023513,3.6047266e-11,-0.19317384,0.00946669,-9.836819,0.036633164,-0.013467175,0.0027286182,0.00039223934,0.0015628837,0.0021200124,6.744711e-06,1.8318602e-06,2.586509e-06,36.960148,36.960148
167523023,3932210,3932210,0,0,0,0,0,400.36832,400.36832,4003.6833,8007.3667,0.045230426,0.0020133215,3.26215e-11,-0.1222253,-0.023206117,-9.839081,0.04496944,-0.014352997,0.0022592794,0.00041919562,0.0018961412,0.0011419604,9.987066e-06,1.8431705e-06,9.955363e-07,36.94616,36.94616
168457264,3932210,3932210,0,0,0,0,0,400.36832,400.36832,4003.6833,8007.3667,0.037302732,0.001797217,3.133213e-11,-0.12461415,-0.18414968,-9.850703,0.035096053,-0.013364755,0.005210117,0.0005247419,0.0020142102,0.0011443663,1.0070259e-05,3.5555518e-06,3.1761906e-06,36.94616,36.94616
169501308,3932210,3932210,0,0,0,0,0,400.36832,400.36832,4003.6833,8007.3667,0.032555323,0.0017274928,2.9245766e-11,-0.16667007,-0.21495076,-9.854908,0.038488355,-0.012677979,0.005494534,0.0010296128,0.008219827,0.001581386,1.4018627e-05,3.6870479e-06,4.975575e-06,36.94616,36.94616
170445491,3932210,3932210,0,0,0,0,0,400.36832,400.36832,4003.6833,8007.3667,0.040206023,0.0018173293,3.3975885e-11,-0.17743827,-0.12283384,-9.83441,0.040056057,-0.011511534,0.003955317,0.0009236717,0.0056180693,0.00061028806,3.9412935e-06,2.3001983e-06,1.6877846e-06,36.988117,36.988117
171489739,3932210,3932210,0,0,0,0,0,400.36832,400.36832,4003.6833,8007.3667,0.05477299,0.0020299184,3.9239008e-11,-0.12038938,-0.15478629,-9.829098,0.035885025,-0.010524974,0.0048593245,0.00047069747,0.005284345,0.0014813364,3.685346e-06,1.5189927e-06,1.5016493e-06,37.12973,37.12973
172528822,3932210,3932210,0,0,0,0,0,400.36832,400.36832,4003.6833,8007.3667,0.063410036,0.0018052126,3.350045e-11,-0.18106179,-0.08011643,-9.845834,0.032577224,-0.014307153,0.0068588317,0.00064700266,0.010157018,0.002395777,2.5083402e-06,1.9806314e-06,2.7594015e-06,37.044064,37.044064
173463016,3932210,3932210,0,0,0,0,0,400.36832,400.36832,4003.6833,8007.3667,0.03406981,0.0017571672,3.7875293e-11,-0.14531566,-0.16455337,-9.832716,0.038578145,-0.013085966,0.0039234837,0.00032334382,0.0010643749,0.00056021207,3.2643536e-06,1.8946296e-06,2.2126824e-06,37.044064,37.044064
174507100,3932210,3932210,0,0,0,0,0,400.36832,400.36832,4003.6833,8007.3667,0.031565394,0.0017748355,3.2669676e-11,-0.13153161,-0.18217462,-9.835564,0.03336047,-0.0137428045,0.00469644,0.00024732974,0.0011959329,0.0011992139,7.99984e-06,1.6254539e-06,1.2086309e-06,37.090687,37.090687
175451280,3932210,3932210,0,0,0,0,0,400.36832,400.36832,4003.6833,8007.3667,0.03678772,0.0017855832,2.8767879e-11,-0.1617328,-0.04784349,-9.830737,0.029511916,-0.014888674,0.004594088,0.0003572464,0.004087801,0.00080843386,1.137422e-05,1.4351762e-06,3.4809993e-06,37.073204,37.073204
176495380,3932210,3932210,0,0,0,0,0,400.36832,400.36832,4003.6833,8007.3667,0.040798385,0.0018212782,2.6249638e-11,-0.13617705,-0.14477493,-9.833177,0.03382458,-0.014124551,0.0043294714,0.0002795585,0.013500549,0.0016031034,8.459541e-06,2.2077888e-06,1.5221816e-06,37.12332,37.12332
177539561,3932210,3932210,0,0,0,0,0,400.36832,400.36832,4003.6833,8007.3667,0.030523662,0.0017566893,3.477577e-11,-0.16394027,-0.12154045,-9.838732,0.032601804,-0.014281798,0.004522465,0.0004305385,0.0017246918,0.0004404589,5.4842944e-06,2.2130116e-06,1.3025307e-06,37.09302,37.09302
178483661,3932210,3932210,0,0,0,0,0,400.36832,400.36832,4003.6833,8007.3667,0.029550761,0.0016214547,3.6011954e-11,-0.16396472,-0.13564186,-9.844438,0.0381821,-0.01447525,0.003844215,0.00024996808,0.00974983,0.00051513605,5.8933006e-06,9.830776e-07,3.0900708e-06,36.995117,36.995117
179532751,3932210,3932210,0,0,0,0,0,400.36832,400.36832,4003.6833,8007.3667,0.030571932,0.0016759663,4.186392e-11,-0.16157493,-0.12910484,-9.841097,0.045262244,-0.014474142,0.004054133,0.0004633513,0.00060450326,0.0004949795,2.5304946e-06,2.6516627e-06,1.2400128e-06,37.044064,37.044064
180471942,3932210,3932210,0,0,0,0,0,400.36832,400.36832,4003.6833,8007.3667,0.040628865,0.0017058325,3.2216223e-11,-0.14843614,-0.1718934,-9.829637,0.035637077,-0.014371634,0.0058389707,0.00035218266,0.012559022,0.0018100576,5.138178e-06,1.2514475e-06,1.9869747e-06,37.06971,37.06971
181511182,3932210,3932210,0,0,0,0,0,400.36832,400.36832,4003.6833,8007.3667,0.03787111,0.0017354081,4.1618136e-11,-0.20199549,-0.20031586,-9.833758,0.038780842,-0.013858447,0.004318983,0.00050788565,0.0017522487,0.00093509996,7.062663e-06,2.0507994e-06,1.6565859e-06,37.049896,37.049896
182445473,3932210,3932210,0,0,0,0,0,400.36832,400.36832,4003.6833,8007.3667,0.031552725,0.0017713166,3.0382e-11,-0.15404642,-0.14572175,-9.842499,0.033623613,-0.013788913,0.00477269,0.00046872598,0.0009988062,0.000349927,2.4682397e-06,2.53231e-06,1.2484321e-06,37.06854,37.06854
183484636,3932210,3932210,0,0,0,0,0,400.36832,400.36832,4003.6833,8007.3667,0.026611557,0.0016132885,3.1069435e-11,-0.17340918,-0.15399492,-9.83267,0.039677814,-0.014148886,0.0023297493,0.00020756849,0.0006763156,0.00029058944,3.9419724e-06,1.700564e-06,1.5588972e-06,37.20026,37.20026
184528431,3932210,3932210,0,0,0,0,0,400.36832,400.36832,4003.6833,8007.3667,0.028004495,0.0017056523,3.3381253e-11,-0.17294453,-0.20927384,-9.832436,0.029652914,-0.014579874,0.0025460632,0.00029823123,0.0019402313,0.00066275237,3.2915448e-06,2.4361646e-06,1.900939e-06,37.09302,37.09302
185467640,3932210,3932210,0,0,0,0,0,400.36832,400.36832,4003.6833,8007.3667,0.038975634,0.0017348671,3.2940033e-11,-0.1726751,-0.15413599,-9.836959,0.033994988,-0.015323499,0.004418484,0.00040823262,0.0011129678,0.00063743227,2.945101e-06,1.5064546e-06,1.423001e-06,37.112835,37.112835
186516725,3932210,3932210,0,0,0,0,0,400.36832,400.36832,4003.6833,8007.3667,0.025572632,0.0016163174,3.3712564e-11,-0.16832869,-0.17243415,-9.830732,0.031532843,-0.015116772,0.0053123785,0.0003220866,0.00047949707,0.0004238064,2.5004626e-06,1.2839893e-06,1.3767342e-06,36.974136,36.974136
187455900,3932210,3932210,0,0,0,0,0,400.36832,400.36832,4003.6833,8007.3667,0.024119789,0.001639797,2.917983e-11,-0.16959183,-0.1840184,-9.83982,0.03733721,-0.014298565,0.0040847613,0.00040273083,0.000508118,0.00041914417,2.9270211e-06,8.886845e-07,1.2570309e-06,37.02308,37.02308
188500169,3932210,3932210,0,0,0,0,0,400.36832,400.36832,4003.6833,8007.3667,0.023317534,0.0016192476,3.549448e-11,-0.17374858,-0.16240902,-9.83733,0.03532279,-0.014395072,0.0036303403,0.00033241796,0.00027803454,0.00034533977,2.2067613e-06,1.7126173e-06,1.074676e-06,37.3427,37.3427
189444308,3932210,3932210,0,0,0,0,0,400.36832,400.36832,4003.6833,8007.3667,0.023720909,0.0016912764,3.4017088e-11,-0.17441738,-0.16882554,-9.836779,0.03798308,-0.013950435,0.0040068654,0.00031906826,0.00046793357,0.00032705383,2.0098669e-06,1.3611856e-06,1.0081147e-06,37.369278,37.369278
