timestamp,timestamp_sample,states[0],states[1],states[2],states[3],states[4],states[5],states[6],states[7],states[8],states[9],states[10],states[11],states[12],states[13],states[14],states[15],states[16],states[17],states[18],states[19],states[20],states[21],states[22],states[23],covariances[0],covariances[1],covariances[2],covariances[3],covariances[4],covariances[5],covariances[6],covariances[7],covariances[8],covariances[9],covariances[10],covariances[11],covariances[12],covariances[13],covariances[14],covariances[15],covariances[16],covariances[17],covariances[18],covariances[19],covariances[20],covariances[21],covariances[22],covariances[23],n_states
17761614,17661186,0.4653309,0.009476678,-0.019000197,0.88488215,-0.00029392616,0.00062405673,0.00015571265,-0.06615825,-0.006279248,-0.9403718,-3.45356e-05,1.6061427e-05,-1.1597461e-05,-4.240802e-05,2.8197044e-06,9.146799e-05,0.18275866,-0.032953165,0.37098524,0.0,0.0,0.0,0.0,0.0,0.0003696167,3.6267113e-05,3.60906e-05,0.00010259569,0.0001166877,0.00011668823,0.00011501829,0.008370663,0.008370661,0.039037608,3.3921463e-11,3.2347215e-11,2.9041265e-09,1.300421e-06,1.301045e-06,5.0000793e-08,0.0,0.0,0.0,0.0,0.0,0.0,0.0,0.0,24
18761129,18660503,0.46521682,0.009605771,-0.018662399,0.88494784,0.0007491824,0.00064470805,-0.00017695237,-0.08304337,-0.006842426,-0.94209373,-3.4644992e-05,1.5928941e-05,-1.1449558e-05,-4.3811353e-05,3.8151434e-06,9.511336e-05,0.18275866,-0.032953165,0.37098524,0.0,0.0,0.0,0.0,0.0,0.00034312828,3.6107103e-05,3.5949302e-05,9.515475e-05,5.1026243e-05,5.1026902e-05,5.0723705e-05,0.006605922,0.0066059204,0.036703005,3.0842977e-11,2.955949e-11,2.3569977e-09,1.3000863e-06,1.3007054e-06,5.000036e-08,0.0,0.0,0.0,0.0,0.0,0.0,0.0,0.0,24
19760298,19659820,0.4649917,0.009373877,-0.018958546,0.8850624,0.0005730785,0.00012425998,-3.700753e-05,-0.09780924,-0.008139313,-0.9434915,-3.472588e-05,1.576571e-05,-1.1160513e-05,-4.548305e-05,4.4742765e-06,8.779111e-05,0.18275866,-0.032953165,0.37098524,0.0,0.0,0.0,0.0,0.0,0.0003202181,3.6192458e-05,3.603704e-05,8.8635024e-05,0.00027229963,0.0002723105,0.0002647306,0.0054595405,0.0054595396,0.034634847,2.8978498e-11,2.792651e-11,1.9393311e-09,1.2998371e-06,1.3004574e-06,5.000072e-08,0.0,0.0,0.0,0.0,0.0,0.0,0.0,0.0,24
20759629,20659136,0.46473688,0.009293466,-0.019269316,0.8851905,-0.0002838186,-0.00022119565,-0.0002510071,-0.11035109,-0.011021134,-0.9486269,-3.4823883e-05,1.5765447e-05,-1.1061663e-05,-4.5675322e-05,5.4712873e-06,8.560334e-05,0.18275866,-0.032953165,0.37098524,0.0,0.0,0.0,0.0,0.0,0.00030018666,3.607414e-05,3.592288e-05,8.296563e-05,0.00019923686,0.00019924232,0.0001952744,0.0046505895,0.004650588,0.032784153,2.7006454e-11,2.6119988e-11,1.6153829e-09,1.299601e-06,1.3002189e-06,5.0000786e-08,0.0,0.0,0.0,0.0,0.0,0.0,0.0,0.0,24
21758884,21658453,0.4646974,0.00947014,-0.01887455,0.88521785,0.0010460374,-0.00033834227,-0.00035561665,-0.12246084,-0.015128214,-0.95203745,-3.4884015e-05,1.5723928e-05,-1.0833756e-05,-4.612413e-05,5.9594677e-06,8.757738e-05,0.18275866,-0.032953165,0.37098524,0.0,0.0,0.0,0.0,0.0,0.00028727733,3.5967558e-05,3.58286e-05,7.934177e-05,0.00012981756,0.0001298208,0.0001281599,0.0040517137,0.0040517123,0.031201558,2.5427866e-11,2.4672464e-11,1.3773487e-09,1.2994201e-06,1.3000412e-06,5.000085e-08,0.0,0.0,0.0,0.0,0.0,0.0,0.0,0.0,24
22758201,22657769,0.4647894,0.009511832,-0.018976128,0.8851668,0.0006083936,-0.0003725937,-0.0004386127,-0.13191034,-0.020510355,-0.95547366,-3.4971534e-05,1.5752543e-05,-1.0534623e-05,-4.5886463e-05,6.8110003e-06,8.716081e-05,0.18275866,-0.032953165,0.37098524,0.0,0.0,0.0,0.0,0.0,0.00027513542,3.5876532e-05,3.574068e-05,7.597574e-05,6.3785636e-05,6.378644e-05,6.339159e-05,0.003590755,0.003590753,0.029693533,2.4132776e-11,2.347937e-11,1.1832261e-09,1.2992726e-06,1.2998854e-06,5.000045e-08,0.0,0.0,0.0,0.0,0.0,0.0,0.0,0.0,24
23757596,23657085,0.46336624,0.00951197,-0.018862309,0.8859151,7.7605046e-07,3.0282472e-06,1.6013675e-05,-0.13901186,-0.02754377,-0.9582041,-3.5126483e-05,1.5612099e-05,-1.2857782e-05,-4.739119e-05,7.5398266e-06,9.964779e-05,0.18275866,-0.032953165,0.37098524,0.0,0.0,0.0,0.0,0.0,0.00025995422,3.580259e-05,3.5672947e-05,7.177427e-05,1e-06,1e-06,1e-06,0.0032250737,0.0032250728,0.028325234,2.3030937e-11,2.2483704e-11,1.0127001e-09,1.2991678e-06,1.2997829e-06,5e-08,0.0,0.0,0.0,0.0,0.0,0.0,0.0,0.0,24
24756829,24656401,0.45859468,0.009827598,-0.018984606,0.88838845,0.0012570672,-0.00072905293,-0.0007855639,-0.1451188,-0.034657232,-0.95877534,-3.5453755e-05,1.5502264e-05,-1.9915067e-05,-5.0492e-05,5.6565996e-06,8.35058e-05,0.18275866,-0.032953165,0.37098524,0.0,0.0,0.0,0.0,0.0,0.0002465691,3.5892364e-05,3.5765614e-05,6.7803216e-05,0.00021296195,0.0002129686,0.00020898413,0.0029285185,0.0029285182,0.02707862,2.244675e-11,2.1987233e-11,8.738812e-10,1.2988777e-06,1.2995017e-06,5.000072e-08,0.0,0.0,0.0,0.0,0.0,0.0,0.0,0.0,24
25756261,25655717,0.4545436,0.009668718,-0.019408783,0.89046055,0.005803074,-0.008598903,-0.0013411279,-0.15164612,-0.041096658,-0.9600698,-3.568685e-05,1.4762861e-05,-2.4117217e-05,-5.8890004e-05,-9.8639075e-06,7.407136e-05,0.18275866,-0.032953165,0.37098524,0.0,0.0,0.0,0.0,0.0,0.00023432226,3.5786543e-05,3.5659727e-05,6.3776446e-05,0.0001433104,0.00014324475,0.00014141727,0.0026811678,0.0026811673,0.025935857,2.1627778e-11,2.1263217e-11,7.586608e-10,1.2977953e-06,1.2987709e-06,5.0000803e-08,0.0,0.0,0.0,0.0,0.0,0.0,0.0,0.0,24
26755460,26655033,0.4531651,0.009747143,-0.020014806,0.8911487,-0.001137986,0.003162325,0.00046896422,-0.15712246,-0.04620265,-0.9614394,-3.5702265e-05,1.563298e-05,-2.4886534e-05,-5.081791e-05,1.1213625e-05,7.598517e-05,0.18275866,-0.032953165,0.37098524,0.0,0.0,0.0,0.0,0.0,0.0002250883,3.568165e-05,3.5568664e-05,6.0813927e-05,7.6673634e-05,7.6666234e-05,7.61542e-05,0.002473451,0.0024734503,0.024937201,2.10131e-11,2.0657543e-11,6.6752953e-10,1.2956608e-06,1.2979582e-06,5.0000537e-08,0.0,0.0,0.0,0.0,0.0,0.0,0.0,0.0,24
27754776,27654349,0.45221785,0.010356733,-0.01939393,0.8916365,-2.2459675e-05,0.00019021679,-0.00011863604,-0.16061312,-0.052290406,-0.9621076,-3.5674377e-05,1.5926465e-05,-2.5280684e-05,-4.793326e-05,1.572043e-05,7.8380464e-05,0.18275866,-0.032953165,0.37098524,0.0,0.0,0.0,0.0,0.0,0.00021542709,3.5598503e-05,3.550099e-05,5.7833764e-05,1.3303492e-05,1.3303492e-05,1.32877985e-05,0.0022965255,0.0022965241,0.023966303,2.0463797e-11,2.0139087e-11,5.8855293e-10,1.2949913e-06,1.2974418e-06,5.0000093e-08,0.0,0.0,0.0,0.0,0.0,0.0,0.0,0.0,24
28754103,28653664,0.4513032,0.010541098,-0.019257542,0.8921006,-0.0032667837,0.00085595995,-0.0005608395,-0.16230059,-0.059094615,-0.96108943,-3.5741246e-05,1.5848193e-05,-2.5498925e-05,-4.907055e-05,1.4879019e-05,8.934286e-05,0.18275866,-0.032953165,0.37098524,0.0,0.0,0.0,0.0,0.0,0.00020679447,3.5718193e-05,3.562561e-05,5.514248e-05,0.00022692264,0.00022694291,0.00022270388,0.0021448806,0.00214488,0.023069603,2.0252532e-11,1.9966034e-11,5.2227705e-10,1.2947188e-06,1.297221e-06,5.000063e-08,0.0,0.0,0.0,0.0,0.0,0.0,0.0,0.0,24
29753607,29652980,0.4504792,0.010818252,-0.018855143,0.8925222,-0.00071085885,0.0017081415,9.772479e-05,-0.16175455,-0.06571328,-0.96115196,-3.5758567e-05,1.5787333e-05,-2.5687114e-05,-4.9357935e-05,1.4341257e-05,9.434903e-05,0.18275866,-0.032953165,0.37098524,0.0,0.0,0.0,0.0,0.0,0.00019888989,3.5652134e-05,3.5566783e-05,5.2705596e-05,0.00015671666,0.00015671871,0.00015469319,0.0020106083,0.002010608,0.0222358,1.9821034e-11,1.956554e-11,4.659833e-10,1.294531e-06,1.2970384e-06,5.000079e-08,0.0,0.0,0.0,0.0,0.0,0.0,0.0,0.0,24
30762898,30662289,0.44947302,0.010621168,-0.019310454,0.893022,0.0010113838,0.0024678078,5.5685823e-06,-0.16072422,-0.0715645,-0.96239424,-3.5650046e-05,1.5745285e-05,-2.5717074e-05,-4.881204e-05,1.343986e-05,9.480581e-05,0.18275866,-0.032953165,0.37098524,0.0,0.0,0.0,0.0,0.0,0.00019188863,3.5602217e-05,3.5511213e-05,5.045894e-05,0.000102841426,0.00010283942,0.00010195898,0.0018932578,0.0018932576,0.021461146,1.9455864e-11,1.922847e-11,4.178225e-10,1.2943926e-06,1.2969147e-06,5.000072e-08,0.0,0.0,0.0,0.0,0.0,0.0,0.0,0.0,24
31762219,31661604,0.4487817,0.010508105,-0.019359188,0.8933699,0.0003465751,0.0010276834,-0.00023082347,-0.16021374,-0.07754792,-0.9625291,-3.5667756e-05,1.5665883e-05,-2.5529562e-05,-4.9354057e-05,1.298354e-05,9.686975e-05,0.18275866,-0.032953165,0.37098524,0.0,0.0,0.0,0.0,0.0,0.0001869784,3.554567e-05,3.5455072e-05,4.8836e-05,3.8271137e-05,3.8270686e-05,3.814802e-05,0.0017895786,0.0017895802,0.02077439,1.9130374e-11,1.8922818e-11,3.7893788e-10,1.2942987e-06,1.2967864e-06,5.0000267e-08,0.0,0.0,0.0,0.0,0.0,0.0,0.0,0.0,24
32761475,32660920,0.4482683,0.009795414,-0.020986503,0.8935991,0.00056044175,-0.0034579248,-0.00057272316,-0.15795165,-0.08224148,-0.96296495,-3.5608773e-05,1.5501582e-05,-2.5330957e-05,-4.9841452e-05,1.1802548e-05,9.750438e-05,0.18275866,-0.032953165,0.37098524,0.0,0.0,0.0,0.0,0.0,0.00018225372,3.567595e-05,3.5568297e-05,4.7335503e-05,0.0002556715,0.00025567162,0.00025055488,0.0016990678,0.0016990692,0.020099469,1.9085837e-11,1.890152e-11,3.4492575e-10,1.2942482e-06,1.2966974e-06,5.000063e-08,0.0,0.0,0.0,0.0,0.0,0.0,0.0,0.0,24
33760837,33660236,0.448099,0.009845423,-0.02045742,0.89369565,-0.0018287345,-0.005689469,0.0005895416,-0.15652137,-0.0866057,-0.96235454,-3.5584515e-05,1.542488e-05,-2.505228e-05,-5.001597e-05,1.2254931e-05,9.271382e-05,0.18275866,-0.032953165,0.37098524,0.0,0.0,0.0,0.0,0.0,0.00017599692,3.560688e-05,3.55098e-05,4.552679e-05,0.00018433695,0.00018431422,0.00018161397,0.0016146434,0.0016146459,0.019464081,1.8822858e-11,1.8656736e-11,3.1290812e-10,1.2941911e-06,1.2965388e-06,5.0000853e-08,0.0,0.0,0.0,0.0,0.0,0.0,0.0,0.0,24
34760110,34659551,0.4466557,0.010802245,-0.018639753,0.89444655,-0.0019604284,0.0009249607,0.0003186345,-0.15436131,-0.09097783,-0.96336794,-3.566128e-05,1.5521711e-05,-2.5649839e-05,-4.9641087e-05,1.2211017e-05,9.354243e-05,0.18275866,-0.032953165,0.37098524,0.0,0.0,0.0,0.0,0.0,0.00017179284,3.55392e-05,3.5463992e-05,4.4148877e-05,0.000116080686,0.00011608639,0.000114996925,0.0015392654,0.0015392671,0.018868625,1.8595552e-11,1.8439016e-11,2.8675148e-10,1.2941638e-06,1.2964333e-06,5.0000793e-08,0.0,0.0,0.0,0.0,0.0,0.0,0.0,0.0,24
35759454,35658867,0.43762293,0.0068273274,-0.018458156,0.89894325,-0.022298973,0.024200365,0.00023901791,-0.15159689,-0.09591822,-0.96368307,-3.5708294e-05,1.1503193e-05,-3.073586e-05,-6.382085e-05,-7.029709e-05,7.69844e-05,0.18275866,-0.032953165,0.37098524,0.0,0.0,0.0,0.0,0.0,0.00016397872,3.5355883e-05,3.534154e-05,4.1024054e-05,5.138695e-05,5.13072e-05,5.0890547e-05,0.0014714663,0.001471462,0.01830927,1.8297497e-11,1.8247955e-11,2.5875604e-10,1.2892666e-06,1.2959131e-06,5.000036e-08,0.0,0.0,0.0,0.0,0.0,0.0,0.0,0.0,24
36758769,36658184,0.41514692,0.005619971,-0.02253141,0.90945804,-0.5088021,0.52518296,0.003952261,-0.3381301,0.08921335,-0.959646,-3.617252e-05,1.0607667e-05,-4.4700173e-05,-7.3603136e-05,-0.00013110101,6.145867e-05,0.18275866,-0.032953165,0.37098524,0.0,0.0,0.0,0.0,0.0,0.00016008985,3.5896253e-05,3.591532e-05,3.7960526e-05,0.001638696,0.0016008592,0.0014016367,0.0017108987,0.0017077867,0.018088723,1.8988387e-11,1.8975644e-11,2.3715305e-10,1.2856698e-06,1.2951031e-06,5.0000526e-08,0.0,0.0,0.0,0.0,0.0,0.0,0.0,0.0,24
37758204,37657748,0.41538304,-0.017177302,-0.02772227,0.90906185,-0.48623443,0.74201965,-0.09521537,-0.3128826,0.2640137,-1.0325947,-3.1233692e-05,-1.3402734e-05,-4.16205e-05,0.00036684712,-0.0026603679,-1.04495975e-05,0.18275866,-0.032953165,0.37098524,0.0,0.0,0.0,0.0,0.0,0.00011421902,3.272087e-05,3.5554902e-05,2.6254265e-05,0.0011678328,0.001299778,0.0010834506,0.0016228592,0.0017286635,0.017594947,1.8823013e-11,1.8777011e-11,1.7930954e-10,1.1733049e-06,1.2796776e-06,5.000047e-08,0.0,0.0,0.0,0.0,0.0,0.0,0.0,0.0,24
38757506,38657064,0.39741617,-0.017166285,-0.02835374,0.91703975,-1.4229357,1.7332641,-0.14254597,-1.3183272,1.5221679,-1.1391041,-3.0965744e-05,-1.28070005e-05,-5.4550634e-05,0.00056518504,-0.0026234381,-4.2199943e-05,0.18275866,-0.032953165,0.37098524,0.0,0.0,0.0,0.0,0.0,0.00011617077,3.3196466e-05,3.6415386e-05,2.5835285e-05,0.0048879245,0.005261701,0.0036961047,0.004868664,0.0054647047,0.019714886,1.9811458e-11,1.976446e-11,1.712412e-10,1.1605413e-06,1.278517e-06,5.000018e-08,0.0,0.0,0.0,0.0,0.0,0.0,0.0,0.0,24
39756806,39656380,0.3815355,-0.017968075,-0.030667746,0.92367053,-2.1781232,2.5090168,-0.16399552,-3.1796496,3.6305249,-1.240337,-3.0690975e-05,-1.23520085e-05,-6.6711604e-05,0.0008940647,-0.0025466562,-0.00011751085,0.18275866,-0.032953165,0.37098524,0.0,0.0,0.0,0.0,0.0,0.00011696393,3.3127017e-05,3.7365742e-05,2.5325899e-05,0.011279704,0.011992085,0.006395035,0.021102987,0.023208037,0.02821213,2.0799792e-11,2.0748915e-11,1.6280699e-10,1.1276078e-06,1.2754194e-06,5.000009e-08,0.0,0.0,0.0,0.0,0.0,0.0,0.0,0.0,24
40756155,40655695,0.36850244,-0.01861618,-0.032314036,0.92887855,-2.6710234,3.2086546,-0.16389632,-5.6960144,6.4270554,-1.2410582,-3.04916e-05,-1.1894736e-05,-7.7182835e-05,0.0012946563,-0.002439588,-0.00023047446,0.18275866,-0.032953165,0.37098524,0.0,0.0,0.0,0.0,0.0,0.00011739483,3.28812e-05,3.841546e-05,2.4878611e-05,0.021189915,0.02181084,0.008125962,0.06799507,0.073034264,0.043020416,2.1789062e-11,2.1730501e-11,1.5476348e-10,1.08755e-06,1.2714025e-06,5e-08,0.0,0.0,0.0,0.0,0.0,0.0,0.0,0.0,24
41755491,41655011,0.35779822,-0.01519054,-0.028541546,0.9332391,-2.924057,3.730702,-0.12958184,-8.60329,9.842082,-1.1995376,-3.0338746e-05,-1.1546731e-05,-8.49299e-05,0.0015768065,-0.0023660269,-0.00032277984,0.18275866,-0.032953165,0.37098524,0.0,0.0,0.0,0.0,0.0,0.00011775231,3.2973174e-05,3.9509167e-05,2.4319988e-05,0.035208914,0.03555425,0.008780394,0.17353037,0.18209912,0.060502086,2.2780354e-11,2.2711699e-11,1.471322e-10,1.0556358e-06,1.2684985e-06,5.0000345e-08,0.0,0.0,0.0,0.0,0.0,0.0,0.0,0.0,24
42754758,42654327,0.35354742,-0.032813538,-0.019055529,0.9346467,-2.3343465,3.5125468,-0.63114697,-11.354727,13.552042,-1.460027,-3.0337938e-05,-1.1476363e-05,-8.584261e-05,0.0016739361,-0.0023392416,-0.00034895205,0.18275866,-0.032953165,0.37098524,0.0,0.0,0.0,0.0,0.0,0.00011856916,3.370558e-05,4.1012583e-05,2.3692599e-05,0.05432386,0.05450579,0.008661867,0.37736022,0.38961136,0.076466925,2.3773436e-11,2.3698434e-11,1.4048615e-10,1.0401669e-06,1.2669815e-06,5.000018e-08,0.0,0.0,0.0,0.0,0.0,0.0,0.0,0.0,24
43754070,43653643,0.3772622,-0.051289245,-0.0021242679,0.9246828,0.1323223,-0.17253517,0.07751864,-7.4229836,7.1721373,-0.81377834,-3.965209e-05,-3.0345342e-05,-6.4097425e-05,0.00096052914,-0.0033771677,-0.00090363785,0.18275866,-0.032953165,0.37098524,0.0,0.0,0.0,0.0,0.0,9.085872e-05,2.729108e-05,3.385611e-05,1.739933e-05,0.0001819845,0.00018452937,0.00016946626,0.053836357,0.057773303,0.036607824,1.8884668e-11,1.901824e-11,1.1500102e-10,9.74612e-07,1.2155677e-06,5.000009e-08,0.0,0.0,0.0,0.0,0.0,0.0,0.0,0.0,24
44753436,44652959,0.39282015,-0.023202967,-0.020080607,0.9191032,0.03367023,-0.03410127,0.022203522,-5.9763503,6.002276,-0.7409266,-3.547059e-05,1.0819782e-05,-4.5463406e-05,0.00023639694,-0.0039980947,-0.00032430983,0.18275866,-0.032953165,0.37098524,0.0,0.0,0.0,0.0,0.0,6.932716e-05,2.6242005e-05,3.3389093e-05,1.2920839e-05,0.000103231796,0.000103114275,0.0001020468,0.043992247,0.047280572,0.034114476,1.8519308e-11,1.8510886e-11,9.771013e-11,9.1302866e-07,1.2060871e-06,5e-08,0.0,0.0,0.0,0.0,0.0,0.0,0.0,0.0,24
45762732,45662268,0.38671646,-0.0069985464,-0.02199481,0.9219098,0.00898248,-0.010618226,0.0014018035,-5.517042,5.726167,-0.73772544,-3.8285354e-05,2.8281653e-05,-4.3203752e-05,0.0003929938,-0.0039981147,-2.9917745e-05,0.18275866,-0.032953165,0.37098524,0.0,0.0,0.0,0.0,0.0,7.110114e-05,2.5770696e-05,3.3136257e-05,1.2567566e-05,5.0979037e-05,5.0974428e-05,5.0731458e-05,0.042141356,0.045194313,0.032174863,1.8325287e-11,1.8219419e-11,9.531138e-11,8.929104e-07,1.2024454e-06,5.00001e-08,0.0,0.0,0.0,0.0,0.0,0.0,0.0,0.0,24
46752024,46651591,0.39187282,-0.0052358783,-0.024638228,0.9196746,-0.0007996968,-0.07015564,-0.0020732775,-5.4532204,5.56585,-0.78825665,-3.077547e-05,3.5287336e-05,-3.5575842e-05,0.00029107794,-0.0039972607,-8.2971834e-05,0.18275866,-0.032953165,0.37098524,0.0,0.0,0.0,0.0,0.0,7.168118e-05,2.5677917e-05,3.2801723e-05,1.2503457e-05,0.0002567332,0.00025677806,0.00025043814,0.041141402,0.04463859,0.030609475,1.8339401e-11,1.8410863e-11,9.201656e-11,8.857305e-07,1.1951793e-06,5.0000438e-08,0.0,0.0,0.0,0.0,0.0,0.0,0.0,0.0,24
47761335,47660900,0.3980778,-0.0046757353,-0.031527977,0.9167978,-0.007593038,0.011710332,-0.003351596,-5.438465,5.4828353,-0.8448672,-2.798077e-05,4.037569e-05,-3.59021e-05,0.00017782048,-0.00399622,-0.00012724896,0.18275866,-0.032953165,0.37098524,0.0,0.0,0.0,0.0,0.0,7.293309e-05,2.539644e-05,3.2550754e-05,1.3289911e-05,0.00019906148,0.0001989254,0.0001948284,0.04076723,0.044256948,0.029139703,1.8104936e-11,1.82919e-11,8.97831e-11,8.7940464e-07,1.1907408e-06,5.0000576e-08,0.0,0.0,0.0,0.0,0.0,0.0,0.0,0.0,24
48760742,48660217,0.40093398,-0.0014419474,-0.037533425,0.9153366,0.003051825,0.05483548,0.009933101,-5.4713826,5.4596744,-0.8965027,-3.0059997e-05,3.883482e-05,-4.1005947e-05,0.00023645822,-0.0038862834,1.2682627e-05,0.18275866,-0.032953165,0.37098524,0.0,0.0,0.0,0.0,0.0,7.2947114e-05,2.5167536e-05,3.2338696e-05,1.396013e-05,0.00013087977,0.00012947615,0.00012816393,0.040607784,0.043911383,0.027809521,1.7809821e-11,1.8050662e-11,8.701398e-11,8.7144105e-07,1.1813278e-06,5.0000647e-08,0.0,0.0,0.0,0.0,0.0,0.0,0.0,0.0,24
49759975,49659533,0.3962406,0.0018440022,-0.03075959,0.91762954,0.0055523305,0.00020444117,-0.002370265,-5.4726086,5.4759293,-0.93403715,-4.0030867e-05,3.495701e-05,-4.528104e-05,0.00064137334,-0.0034106437,4.1358966e-05,0.18275866,-0.032953165,0.37098524,0.0,0.0,0.0,0.0,0.0,7.1713446e-05,2.4760344e-05,3.1720796e-05,1.366508e-05,6.372774e-05,6.373527e-05,6.337805e-05,0.04042873,0.043437075,0.026594764,1.7589274e-11,1.7709282e-11,8.3372406e-11,8.6331175e-07,1.164851e-06,5.0000445e-08,0.0,0.0,0.0,0.0,0.0,0.0,0.0,0.0,24
50759414,50658849,0.38510445,0.0046079108,-0.027447963,0.9224532,0.00010695947,-0.00021467429,-0.00026756778,-5.464552,5.471777,-0.99426603,-4.3008025e-05,3.7203903e-05,-4.6175643e-05,0.0006171456,-0.0033751815,-6.968966e-05,0.18275866,-0.032953165,0.37098524,0.0,0.0,0.0,0.0,0.0,7.37782e-05,2.4526014e-05,3.1403404e-05,1.3219886e-05,1e-06,1e-06,1.0022777e-06,0.040289234,0.04318462,0.025485508,1.7516277e-11,1.7605023e-11,8.1413785e-11,8.588041e-07,1.1616739e-06,5e-08,0.0,0.0,0.0,0.0,0.0,0.0,0.0,0.0,24
51758601,51658168,0.3889795,0.0048216297,-0.034250364,0.9205969,-0.033713102,-0.03936209,-0.0021233673,-5.471602,5.4584312,-1.0481889,-3.8105103e-05,3.8620183e-05,-4.6489935e-05,0.00061883376,-0.0033986464,0.00015702912,0.18275866,-0.032953165,0.37098524,0.0,0.0,0.0,0.0,0.0,7.428746e-05,2.4716712e-05,3.1552565e-05,1.3597927e-05,0.0002129511,0.0002130527,0.000208952,0.040130515,0.042980563,0.02451879,1.767535e-11,1.7845893e-11,7.909176e-11,8.553535e-07,1.1556017e-06,5.0000736e-08,0.0,0.0,0.0,0.0,0.0,0.0,0.0,0.0,24
52758101,52657483,0.39428666,0.0021789377,-0.044021428,0.9179299,-6.564219,3.5725675,-0.08340234,-100.19085,56.996265,-1.1970721,-3.8160568e-05,3.8695332e-05,-4.7493315e-05,0.0005444912,-0.003426254,0.0001580392,0.18275866,-0.032953165,0.37098524,0.0,0.0,0.0,0.0,0.0,7.545671e-05,2.549885e-05,3.24037e-05,1.43362695e-05,0.012897389,0.012886109,0.024925472,0.026458895,0.026458813,0.039456308,1.8655988e-11,1.8817236e-11,7.7508555e-11,8.5376365e-07,1.1552212e-06,5.000045e-08,0.0,0.0,0.0,0.0,0.0,0.0,0.0,0.0,24
53757414,53656800,0.3729515,0.005064871,-0.037408013,0.92708266,-6.3061166,3.854959,-0.06499906,-106.6698,60.669853,-1.3677616,-3.8612223e-05,3.8603877e-05,-4.7671536e-05,0.0004915202,-0.0034416334,0.00015405047,0.18275866,-0.032953165,0.37098524,0.0,0.0,0.0,0.0,0.0,7.8416946e-05,2.6274865e-05,3.309005e-05,1.3076485e-05,0.006828966,0.006807443,0.013308917,0.019790323,0.019787977,0.059790168,1.9507283e-11,1.9640244e-11,7.58853e-11,8.522833e-07,1.1541674e-06,5.000042e-08,0.0,0.0,0.0,0.0,0.0,0.0,0.0,0.0,24
54756761,54656116,0.35974044,0.009577357,-0.032935664,0.93242186,-6.393328,3.7021065,-0.008069281,-113.0359,64.300804,-1.4809667,-3.954944e-05,3.7872836e-05,-4.756709e-05,0.00043314317,-0.0034681237,0.00014049257,0.18275866,-0.032953165,0.37098524,0.0,0.0,0.0,0.0,0.0,8.057405e-05,2.6803202e-05,3.359907e-05,1.2331034e-05,0.0060388064,0.0060311076,0.009850219,0.017677367,0.017672582,0.076591365,2.0009796e-11,2.0119243e-11,7.422804e-11,8.509399e-07,1.1535346e-06,5.0000025e-08,0.0,0.0,0.0,0.0,0.0,0.0,0.0,0.0,24
55755989,55655433,0.36872432,-0.07496836,-0.0383703,0.9257159,0.33979338,-0.114252955,0.012163545,-108.45041,61.80397,-1.5849342,-1.7840443e-05,-4.753497e-05,-5.6091725e-05,0.0021542627,-0.0018586083,-0.00043152497,0.18275866,-0.032953165,0.37098524,0.0,0.0,0.0,0.0,0.0,7.593272e-05,2.467605e-05,3.210534e-05,1.2440282e-05,0.00031231783,0.0003174554,0.00029268587,0.010995525,0.011047329,0.034192935,1.845336e-11,1.8440279e-11,6.986644e-11,8.4527795e-07,1.1426297e-06,5.0000356e-08,0.0,0.0,0.0,0.0,0.0,0.0,0.0,0.0,24
56755344,56654750,0.34429684,-0.02551061,-0.037895348,0.93774885,0.0007649013,0.036697805,-0.12655593,-107.80308,61.69996,-1.7272313,-5.3043746e-05,-2.5284921e-06,-7.564793e-05,0.0035240166,-0.0025072095,-0.00065985933,0.18275866,-0.032953165,0.37098524,0.0,0.0,0.0,0.0,0.0,6.7503766e-05,2.3585466e-05,3.1632473e-05,1.1645767e-05,1e-06,1.7753335e-06,1.0090182e-05,0.010907219,0.011033121,0.031673793,1.7988652e-11,1.766303e-11,6.4163244e-11,8.417587e-07,1.1337786e-06,5e-08,0.0,0.0,0.0,0.0,0.0,0.0,0.0,0.0,24
57754627,57654067,0.32848796,-0.011223376,-0.022884723,0.9441642,0.091801845,-0.0038128847,0.007520671,-107.60518,61.71406,-1.8371589,-6.6564775e-05,1.1377988e-05,-7.735347e-05,0.002168817,-0.0022563955,-0.0007375548,0.18275866,-0.032953165,0.37098524,0.0,0.0,0.0,0.0,0.0,6.937115e-05,2.3697177e-05,3.1649033e-05,1.0953506e-05,0.00021355887,0.00021404428,0.00020892869,0.0108267665,0.010940677,0.029797725,1.8026696e-11,1.7810564e-11,6.3126636e-11,8.3535434e-07,1.1239407e-06,5.0000178e-08,0.0,0.0,0.0,0.0,0.0,0.0,0.0,0.0,24
58753884,58653384,0.32664767,-4.752423e-05,-0.01129257,0.94507873,0.026941193,-0.027214471,-0.0011396914,-107.54604,61.663525,-1.8704423,-6.784163e-05,2.20411e-05,-6.805109e-05,0.0019815494,-0.0011833437,-0.00072253356,0.18275866,-0.032953165,0.37098524,0.0,0.0,0.0,0.0,0.0,6.9400834e-05,2.3373963e-05,3.0897685e-05,9.840714e-06,0.00014323177,0.00014353887,0.00014134172,0.010792346,0.01087627,0.028261464,1.7872426e-11,1.7824438e-11,6.114006e-11,8.254712e-07,1.1122509e-06,5.0000086e-08,0.0,0.0,0.0,0.0,0.0,0.0,0.0,0.0,24
59763258,59662694,0.3488214,0.0077528018,-0.016964788,0.9370037,0.010513815,-0.0149171315,0.008250175,-107.53548,61.59097,-1.8818629,-5.9221744e-05,3.2187265e-05,-5.3152864e-05,0.0020575174,-0.0007323072,-0.0004800096,0.18275866,-0.032953165,0.37098524,0.0,0.0,0.0,0.0,0.0,6.816698e-05,2.3426144e-05,3.076502e-05,9.609555e-06,8.9597364e-05,8.963936e-05,8.895962e-05,0.010782638,0.010849451,0.02694057,1.7832508e-11,1.7895206e-11,5.911635e-11,8.207055e-07,1.107176e-06,5.0000377e-08,0.0,0.0,0.0,0.0,0.0,0.0,0.0,0.0,24
60752451,60652019,0.36644214,0.00952113,-0.025156407,0.93005204,0.0014842995,0.0023064397,0.00043980734,-107.53211,61.578022,-1.8927361,-5.8262034e-05,3.557153e-05,-5.1524865e-05,0.0020549868,-0.0008712368,-0.00028311103,0.18275866,-0.032953165,0.37098524,0.0,0.0,0.0,0.0,0.0,6.758193e-05,2.3271961e-05,3.0385565e-05,1.048658e-05,1.3307943e-05,1.3303314e-05,1.3287825e-05,0.010782303,0.01084145,0.025832975,1.761317e-11,1.7726527e-11,5.805377e-11,8.1538974e-07,1.0963706e-06,5.000009e-08,0.0,0.0,0.0,0.0,0.0,0.0,0.0,0.0,24
61761785,61661329,0.35840532,0.016798882,-0.018936481,0.9332229,0.04935168,0.042617876,0.010665092,-107.5191,61.59932,-1.8928562,-6.837583e-05,3.491829e-05,-5.5135966e-05,0.0027351428,-0.00067971187,-0.00027653025,0.18275866,-0.032953165,0.37098524,0.0,0.0,0.0,0.0,0.0,6.665128e-05,2.3175882e-05,2.9785962e-05,1.0187135e-05,0.00024172176,0.00024127627,0.0002372613,0.010785806,0.01084143,0.024777701,1.7666351e-11,1.7726032e-11,5.6479866e-11,8.0948627e-07,1.0729783e-06,5.0000704e-08,0.0,0.0,0.0,0.0,0.0,0.0,0.0,0.0,24
62761077,62660647,0.3430626,0.023143368,-0.0063277227,0.93900603,-0.038680073,-0.17250387,0.03722192,-107.491646,61.57201,-1.8923029,-7.059596e-05,3.5179703e-05,-5.4179058e-05,0.0028161905,-0.0006803648,-0.00023751188,0.18275866,-0.032953165,0.37098524,0.0,0.0,0.0,0.0,0.0,6.89745e-05,2.381644e-05,3.0323468e-05,9.431004e-06,0.0018509403,0.001851954,0.0016071261,0.01126273,0.011306843,0.024156537,1.8443113e-11,1.8495797e-11,5.5985164e-11,8.0851106e-07,1.0689365e-06,5.000035e-08,0.0,0.0,0.0,0.0,0.0,0.0,0.0,0.0,24
63760415,63659964,0.34782162,0.02359719,-0.014939136,0.93714476,-0.0061880527,-0.010296908,-0.001961638,-107.44785,61.657497,-1.9196811,-5.8310376e-05,3.7452388e-05,-5.1667816e-05,0.002972779,-0.0007639702,-0.00019718839,0.18275866,-0.032953165,0.37098524,0.0,0.0,0.0,0.0,0.0,6.847008e-05,2.3039125e-05,2.9370267e-05,9.291357e-06,5.0953407e-05,5.0946757e-05,5.0719293e-05,0.011017817,0.0110826865,0.023114605,1.7536177e-11,1.7684182e-11,5.4667666e-11,8.0666564e-07,1.0668068e-06,5.000035e-08,0.0,0.0,0.0,0.0,0.0,0.0,0.0,0.0,24
64759740,64659282,0.35590494,0.021754213,-0.022288878,0.9340031,0.019953303,0.019247204,0.012482315,-107.44821,61.653973,-1.9301506,-5.526582e-05,3.810179e-05,-5.0983857e-05,0.0029320144,-0.000801688,-0.00023030891,0.18275866,-0.032953165,0.37098524,0.0,0.0,0.0,0.0,0.0,6.926508e-05,2.3102084e-05,2.9405765e-05,9.810568e-06,0.00027056085,0.00027040078,0.0002645509,0.011023685,0.011085783,0.022277193,1.7669e-11,1.7821302e-11,5.41474e-11,8.054329e-07,1.0656024e-06,5.0000644e-08,0.0,0.0,0.0,0.0,0.0,0.0,0.0,0.0,24
65759032,65658600,0.35343793,0.027150638,-0.017857768,0.93489337,0.003219705,0.0070923558,0.0088717295,-107.44759,61.653435,-1.9360263,-5.961749e-05,3.816729e-05,-4.97013e-05,0.0031029067,-0.0007748488,-1.1310489e-05,0.18275866,-0.032953165,0.37098524,0.0,0.0,0.0,0.0,0.0,7.008024e-05,2.3069493e-05,2.9344184e-05,9.67468e-06,0.00019823814,0.00019822188,0.00019516026,0.011026907,0.011086103,0.021535208,1.7583712e-11,1.7664181e-11,5.344148e-11,8.033387e-07,1.059759e-06,5.0000676e-08,0.0,0.0,0.0,0.0,0.0,0.0,0.0,0.0,24
66758397,66657918,0.34389162,0.028590411,-0.012746857,0.93848747,-0.046974313,-0.02322232,0.0006033808,-107.4496,61.650597,-1.9433479,-5.623753e-05,3.6209756e-05,-4.927482e-05,0.0031585728,-0.0008118105,7.037647e-05,0.18275866,-0.032953165,0.37098524,0.0,0.0,0.0,0.0,0.0,7.1028604e-05,2.2997761e-05,2.9183357e-05,9.122537e-06,0.00012959901,0.00013000087,0.00012821746,0.01103085,0.011087014,0.020807456,1.7520358e-11,1.7625791e-11,5.2672408e-11,8.026093e-07,1.0570666e-06,5.00007e-08,0.0,0.0,0.0,0.0,0.0,0.0,0.0,0.0,24
67757756,67657236,0.34756505,0.022960886,-0.022339014,0.93710846,-0.0058812276,-0.0017202897,0.0007353495,-107.45097,61.648758,-1.9484154,-4.79808e-05,3.3913508e-05,-4.99515e-05,0.0032261624,-0.0009260233,-0.00017979865,0.18275866,-0.032953165,0.37098524,0.0,0.0,0.0,0.0,0.0,7.085959e-05,2.2779806e-05,2.8835908e-05,9.308973e-06,6.369497e-05,6.369532e-05,6.336707e-05,0.01103534,0.011088683,0.020127967,1.7461227e-11,1.763137e-11,5.182773e-11,8.015279e-07,1.0521813e-06,5.00004e-08,0.0,0.0,0.0,0.0,0.0,0.0,0.0,0.0,24
68757121,68656554,0.35215038,0.024174282,-0.023556063,0.9353347,0.00010999285,0.0003363759,-6.592493e-05,-107.45143,61.646557,-1.9510982,-5.0950923e-05,3.1197644e-05,-4.855138e-05,0.0033188474,-0.00084846205,-3.6404454e-05,0.18275866,-0.032953165,0.37098524,0.0,0.0,0.0,0.0,0.0,7.093617e-05,2.277323e-05,2.8831058e-05,9.493112e-06,1e-06,1.000124e-06,1e-06,0.011040049,0.01109087,0.019492133,1.7393574e-11,1.7494005e-11,5.1140578e-11,8.0042156e-07,1.0488934e-06,5e-08,0.0,0.0,0.0,0.0,0.0,0.0,0.0,0.0,24
69756464,69655872,0.33937913,0.029129751,-0.01566089,0.9400681,0.015592295,0.107535206,0.005309822,-204.19116,118.74383,-1.9523321,-5.2774663e-05,3.0206731e-05,-4.7384918e-05,0.0033607602,-0.0008245957,-6.0185303e-06,0.18275866,-0.032953165,0.37098524,0.0,0.0,0.0,0.0,0.0,7.25528e-05,2.3385877e-05,2.9386667e-05,8.817682e-06,0.00095461356,0.00095268217,0.0008651454,0.036035854,0.036035627,0.018978948,1.8176832e-11,1.8254478e-11,5.070111e-11,7.9996227e-07,1.046849e-06,5.0000395e-08,0.0,0.0,0.0,0.0,0.0,0.0,0.0,0.0,24
70755687,70655190,0.33617985,0.027259612,-0.018283179,0.9412257,-0.005156095,-0.007856276,-0.008196371,-204.0998,118.84115,-1.9436364,-4.5060282e-05,2.7616219e-05,-4.798797e-05,0.0035247572,-0.00093002943,-1.5471205e-05,0.18275866,-0.032953165,0.37098524,0.0,0.0,0.0,0.0,0.0,7.305829e-05,2.2810711e-05,2.8791268e-05,8.68537e-06,7.672742e-05,7.681282e-05,7.682983e-05,0.03631399,0.03631136,0.018699868,1.7554892e-11,1.7702074e-11,5.006853e-11,7.9873564e-07,1.0443174e-06,5.0000487e-08,0.0,0.0,0.0,0.0,0.0,0.0,0.0,0.0,24
71755012,71654509,0.3439937,0.02468311,-0.024813185,0.93831944,0.00037814653,0.00081192993,-0.00028953745,-204.10135,118.83897,-1.9424131,-4.4265755e-05,2.7624072e-05,-4.765292e-05,0.003569121,-0.00094294135,-0.00015847823,0.18275866,-0.032953165,0.37098524,0.0,0.0,0.0,0.0,0.0,7.293258e-05,2.2633703e-05,2.8614459e-05,9.120544e-06,1.3303425e-05,1.3303671e-05,1.3286672e-05,0.036316946,0.03631469,0.018150395,1.745145e-11,1.7563067e-11,4.9479382e-11,7.9778187e-07,1.042334e-06,5.000009e-08,0.0,0.0,0.0,0.0,0.0,0.0,0.0,0.0,24
72754327,72653827,0.34558067,0.025956197,-0.023619074,0.93773264,0.0050652204,0.0070685707,-0.0028181865,-204.09833,118.841995,-1.9407138,-4.7710262e-05,2.7557959e-05,-4.625274e-05,0.0036700086,-0.0009618596,-0.00017313691,0.18275866,-0.032953165,0.37098524,0.0,0.0,0.0,0.0,0.0,7.347862e-05,2.2693515e-05,2.8689175e-05,9.188857e-06,0.00022693661,0.0002269983,0.00022240684,0.036321476,0.036319353,0.01763341,1.7578472e-11,1.7633159e-11,4.9038103e-11,7.966241e-07,1.0403304e-06,5.000057e-08,0.0,0.0,0.0,0.0,0.0,0.0,0.0,0.0,24
73763636,73663139,0.34273884,0.026826864,-0.022089235,0.93878776,0.005604667,0.00093491795,0.0013101652,-204.09706,118.84081,-1.9397855,-4.9035938e-05,2.9020037e-05,-4.4940814e-05,0.0036936733,-0.0010061953,-0.00019768167,0.18275866,-0.032953165,0.37098524,0.0,0.0,0.0,0.0,0.0,7.42989e-05,2.2636592e-05,2.8638655e-05,9.012821e-06,0.00017036982,0.00017040163,0.0001678874,0.036324978,0.03632306,0.017143631,1.7529679e-11,1.7550095e-11,4.8598518e-11,7.9544145e-07,1.0395113e-06,5.0000722e-08,0.0,0.0,0.0,0.0,0.0,0.0,0.0,0.0,24
74752983,74652465,0.33930266,0.026821485,-0.023098812,0.9400111,0.011074881,0.020976933,0.00063681556,-204.09674,118.84043,-1.9378875,-4.976912e-05,2.9453848e-05,-4.420207e-05,0.0036882004,-0.0010106523,-0.00021827081,0.18275866,-0.032953165,0.37098524,0.0,0.0,0.0,0.0,0.0,7.4978074e-05,2.2587124e-05,2.8530725e-05,8.836243e-06,8.9756686e-05,8.9666915e-05,8.89848e-05,0.03632893,0.03632712,0.016703686,1.746932e-11,1.747277e-11,4.8174204e-11,7.9497295e-07,1.0376082e-06,5.0000573e-08,0.0,0.0,0.0,0.0,0.0,0.0,0.0,0.0,24
75762280,75661777,0.32908008,0.030848337,-0.01527253,0.94367445,-0.00612084,-0.005531773,-0.00010424152,-204.09433,118.84185,-1.9355767,-4.995029e-05,2.9333063e-05,-4.2996064e-05,0.0037657714,-0.0009891673,-9.22891e-05,0.18275866,-0.032953165,0.37098524,0.0,0.0,0.0,0.0,0.0,7.5097036e-05,2.258776e-05,2.8461574e-05,8.136236e-06,3.827577e-05,3.8274728e-05,3.8137314e-05,0.03633351,0.036331788,0.016264673,1.7456776e-11,1.7460625e-11,4.7456688e-11,7.9378196e-07,1.0323573e-06,5.000027e-08,0.0,0.0,0.0,0.0,0.0,0.0,0.0,0.0,24
76761633,76661096,0.3292239,0.03149885,-0.021992076,0.9434701,-0.013309212,-0.008866312,0.0020176242,-204.09727,118.83816,-1.9283102,-4.358176e-05,2.971063e-05,-4.2892425e-05,0.003997275,-0.0009711604,-2.2818644e-05,0.18275866,-0.032953165,0.37098524,0.0,0.0,0.0,0.0,0.0,7.503419e-05,2.2730468e-05,2.8544577e-05,8.10318e-06,0.00025571234,0.00025570413,0.00024986567,0.036339577,0.036338065,0.015849981,1.7650619e-11,1.7693975e-11,4.6921533e-11,7.9227226e-07,1.0277686e-06,5.0000647e-08,0.0,0.0,0.0,0.0,0.0,0.0,0.0,0.0,24
77760910,77660415,0.3344189,0.032097254,-0.026432462,0.94150686,-0.0017744916,0.017075406,0.00021806316,-204.09636,118.83947,-1.9259074,-4.300911e-05,2.8252598e-05,-4.17937e-05,0.0039972765,-0.0009845432,8.108557e-05,0.18275866,-0.032953165,0.37098524,0.0,0.0,0.0,0.0,0.0,7.534962e-05,2.2704351e-05,2.8562456e-05,8.359311e-06,0.0001844385,0.00018432942,0.00018121021,0.03634276,0.03634131,0.015453507,1.7599536e-11,1.7637341e-11,4.6645795e-11,7.918269e-07,1.0272184e-06,5.0000562e-08,0.0,0.0,0.0,0.0,0.0,0.0,0.0,0.0,24
78760230,78659734,0.33601892,0.034443986,-0.025731632,0.9408735,-0.012849163,0.0151572395,0.004336561,-204.0959,118.83901,-1.9207703,-4.5564622e-05,2.6573342e-05,-4.0300798e-05,0.0039972826,-0.0009515593,0.00020360792,0.18275866,-0.032953165,0.37098524,0.0,0.0,0.0,0.0,0.0,7.562056e-05,2.2654474e-05,2.854939e-05,8.388641e-06,0.00011608608,0.00011605908,0.000114833856,0.036346674,0.036345314,0.015077164,1.752856e-11,1.753867e-11,4.63239e-11,7.9107565e-07,1.0261786e-06,5.0000683e-08,0.0,0.0,0.0,0.0,0.0,0.0,0.0,0.0,24
79759584,79659053,0.3343851,0.027148237,-0.02264703,0.9417732,-0.010113015,-0.0059596943,-0.005142131,-204.09633,118.83881,-1.9138421,-4.527857e-05,2.093895e-05,-3.9986317e-05,0.0039268048,-0.0008208822,-0.00022309773,0.18275866,-0.032953165,0.37098524,0.0,0.0,0.0,0.0,0.0,7.5976495e-05,2.2245882e-05,2.8004843e-05,8.301155e-06,5.0960654e-05,5.096109e-05,5.0707262e-05,0.036351148,0.03634989,0.014718881,1.742151e-11,1.7444844e-11,4.6026474e-11,7.885494e-07,1.0232725e-06,5.0000313e-08,0.0,0.0,0.0,0.0,0.0,0.0,0.0,0.0,24
80758967,80658372,0.34015664,0.023303885,-0.026263207,0.93971306,-0.009341628,0.0064850864,0.0024743653,-204.09682,118.83972,-1.9058683,-4.3110766e-05,2.0271655e-05,-3.9990446e-05,0.003902944,-0.00078060204,-0.00036991586,0.18275866,-0.032953165,0.37098524,0.0,0.0,0.0,0.0,0.0,7.5983524e-05,2.2315759e-05,2.8061735e-05,8.662305e-06,0.00027024807,0.00027023055,0.0002639905,0.03635816,0.036356926,0.014397571,1.7577979e-11,1.75999e-11,4.5727214e-11,7.8778976e-07,1.0215148e-06,5.000065e-08,0.0,0.0,0.0,0.0,0.0,0.0,0.0,0.0,24
81758277,81657692,0.34454253,0.02630722,-0.026965102,0.93801457,0.028227575,0.07547832,0.014536323,-204.09303,118.84567,-1.8956794,-4.8834805e-05,1.820613e-05,-3.8692557e-05,0.0039973864,-0.0007585235,-0.00019291998,0.18275866,-0.032953165,0.37098524,0.0,0.0,0.0,0.0,0.0,7.513186e-05,2.2359342e-05,2.8067803e-05,8.77602e-06,0.00019964945,0.00019844274,0.00019546514,0.03636123,0.03635989,0.014069507,1.7508437e-11,1.7492372e-11,4.5214964e-11,7.846918e-07,1.0150579e-06,5.0000665e-08,0.0,0.0,0.0,0.0,0.0,0.0,0.0,0.0,24
82757521,82657012,0.3361155,0.025202267,-0.014056095,0.9413786,-0.017490204,-0.03725034,-0.0061915596,-204.0953,118.8406,-1.8861898,-5.229874e-05,1.588407e-05,-3.7703172e-05,0.0039891703,-0.0006477766,-0.00047929774,0.18275866,-0.032953165,0.37098524,0.0,0.0,0.0,0.0,0.0,7.498258e-05,2.2105814e-05,2.7598453e-05,8.191295e-06,0.00013010568,0.00012954365,0.00012817721,0.036364697,0.036363628,0.013756773,1.7427669e-11,1.7399132e-11,4.471283e-11,7.8233137e-07,1.008568e-06,5.0000732e-08,0.0,0.0,0.0,0.0,0.0,0.0,0.0,0.0,24
83756837,83656331,0.33862096,0.021063799,-0.020624302,0.94046104,0.00046756578,-0.0007719734,0.0046701757,-297.87122,168.59673,-1.879603,-4.5260673e-05,1.6113765e-05,-3.9055158e-05,0.003997289,-0.00055824016,-0.0006876901,0.18275866,-0.032953165,0.37098524,0.0,0.0,0.0,0.0,0.0,7.3478535e-05,2.217023e-05,2.7563423e-05,8.3001505e-06,6.3774554e-05,6.377681e-05,6.3326224e-05,0.06812242,0.06812242,0.013459763,1.7598993e-11,1.7581875e-11,4.4028163e-11,7.8197576e-07,1.0041193e-06,5.0000416e-08,0.0,0.0,0.0,0.0,0.0,0.0,0.0,0.0,24
84756163,84655651,0.34401566,0.024109794,-0.020842064,0.938423,0.0002332917,1.587825e-05,-3.8770537e-05,-298.88953,169.1606,-1.8748997,-5.0033086e-05,1.9527934e-05,-3.774984e-05,0.004033499,-0.00073771935,-0.00025635102,0.18275866,-0.032953165,0.37098524,0.0,0.0,0.0,0.0,0.0,7.288187e-05,2.2256609e-05,2.77331e-05,8.4937255e-06,1e-06,1e-06,1e-06,0.03748613,0.037486114,0.013189159,1.7448232e-11,1.7375618e-11,4.366535e-11,7.793021e-07,9.986214e-07,5e-08,0.0,0.0,0.0,0.0,0.0,0.0,0.0,0.0,24
85755465,85654971,0.33926404,0.030505572,-0.018730445,0.94000983,-0.007840753,-0.00974142,-0.0052732727,-298.88748,169.16055,-1.8730543,-5.0952276e-05,2.1111604e-05,-3.643066e-05,0.003996931,-0.0007949293,0.00010693029,0.18275866,-0.032953165,0.37098524,0.0,0.0,0.0,0.0,0.0,7.3366326e-05,2.246274e-05,2.7995016e-05,8.184931e-06,0.00021306318,0.00021307309,0.00020857941,0.037491646,0.037491634,0.01291603,1.7572877e-11,1.7485742e-11,4.3482887e-11,7.775058e-07,9.969907e-07,5.0000597e-08,0.0,0.0,0.0,0.0,0.0,0.0,0.0,0.0,24
86754718,86654291,0.3374594,0.028448487,-0.019137667,0.94071555,0.0008163251,-0.009150244,-0.0016565666,-298.88782,169.15993,-1.8723886,-4.752168e-05,2.0516596e-05,-3.5656492e-05,0.0039810287,-0.0008593199,-0.000100252684,0.18275866,-0.032953165,0.37098524,0.0,0.0,0.0,0.0,0.0,7.390778e-05,2.2207196e-05,2.7628243e-05,8.070089e-06,0.00014306021,0.00014304143,0.00014118834,0.037495427,0.037495412,0.012653045,1.7473554e-11,1.7403811e-11,4.3370762e-11,7.768669e-07,9.956691e-07,5.0000754e-08,0.0,0.0,0.0,0.0,0.0,0.0,0.0,0.0,24
87764110,87663604,0.33354208,0.031627066,-0.017254055,0.9420466,-0.0020821341,0.0018485853,0.0046240953,-298.88742,169.16028,-1.8736914,-4.7158923e-05,2.1918726e-05,-3.4507033e-05,0.0039864616,-0.0008456409,-2.0751137e-05,0.18275866,-0.032953165,0.37098524,0.0,0.0,0.0,0.0,0.0,7.454316e-05,2.2176337e-05,2.7626724e-05,7.842836e-06,8.961022e-05,8.9609886e-05,8.892608e-05,0.037499953,0.03749994,0.012401402,1.744805e-11,1.7366811e-11,4.3263476e-11,7.7628454e-07,9.951553e-07,5.0000597e-08,0.0,0.0,0.0,0.0,0.0,0.0,0.0,0.0,24
88753406,88652932,0.33046415,0.03329555,-0.018460076,0.9430505,-0.002113639,-0.00081952167,-0.00039935132,-298.8874,169.16016,-1.8742362,-4.1451818e-05,2.0784424e-05,-3.3851302e-05,0.003997304,-0.0008794186,0.00016282508,0.18275866,-0.032953165,0.37098524,0.0,0.0,0.0,0.0,0.0,7.4728116e-05,2.2184715e-05,2.7625989e-05,7.623998e-06,1.3302906e-05,1.3303665e-05,1.3285932e-05,0.037504733,0.037504725,0.012159907,1.7393174e-11,1.7353717e-11,4.3069083e-11,7.754924e-07,9.93319e-07,5.0000057e-08,0.0,0.0,0.0,0.0,0.0,0.0,0.0,0.0,24
89762729,89662245,0.33262262,0.03356793,-0.018554531,0.9422798,-0.05651354,-0.0051462194,-0.0059033963,-298.89243,169.15988,-1.8750285,-3.877668e-05,1.773475e-05,-3.3242683e-05,0.0039800266,-0.0009485977,0.00015514717,0.18275866,-0.032953165,0.37098524,0.0,0.0,0.0,0.0,0.0,7.4999676e-05,2.222764e-05,2.7667076e-05,7.737544e-06,0.0002413265,0.00024198242,0.0002361456,0.03751096,0.037510954,0.011929612,1.754022e-11,1.7533761e-11,4.3013423e-11,7.7507906e-07,9.924087e-07,5.000065e-08,0.0,0.0,0.0,0.0,0.0,0.0,0.0,0.0,24
90761999,90661565,0.3394926,0.027378364,-0.023706336,0.9399113,-0.0037115663,0.0056226156,0.0030507625,-298.89,169.1599,-1.8733878,-3.367964e-05,1.4536055e-05,-3.3266602e-05,0.0039251545,-0.00096285855,-2.3050245e-05,0.18275866,-0.032953165,0.37098524,0.0,0.0,0.0,0.0,0.0,7.4419615e-05,2.205413e-05,2.7429282e-05,8.070769e-06,0.00017036208,0.00017034059,0.00016782597,0.037514366,0.03751435,0.011716006,1.7463558e-11,1.7492431e-11,4.2804364e-11,7.743696e-07,9.904578e-07,5.0000832e-08,0.0,0.0,0.0,0.0,0.0,0.0,0.0,0.0,24
91761322,91660886,0.34188718,0.028386481,-0.021319197,0.9390702,0.014657699,0.011905571,-0.006310557,-298.8891,169.16028,-1.8680059,-3.730789e-05,1.4332496e-05,-3.18968e-05,0.00399729,-0.00096377684,-2.7425864e-05,0.18275866,-0.032953165,0.37098524,0.0,0.0,0.0,0.0,0.0,7.4304386e-05,2.194999e-05,2.7311353e-05,8.1384005e-06,0.00010289502,0.00010294416,0.00010189924,0.037518594,0.037518587,0.011500123,1.7405946e-11,1.737748e-11,4.2660993e-11,7.7310335e-07,9.871943e-07,5.0000647e-08,0.0,0.0,0.0,0.0,0.0,0.0,0.0,0.0,24
92760639,92660207,0.3366705,0.031981643,-0.021537729,0.94083273,0.00096994115,-0.0011646677,0.0056586666,-298.88898,169.15994,-1.8642217,-3.6752335e-05,1.672633e-05,-3.093314e-05,0.003987548,-0.00097641215,0.000110987785,0.18275866,-0.032953165,0.37098524,0.0,0.0,0.0,0.0,0.0,7.456125e-05,2.19836e-05,2.7361662e-05,7.830324e-06,3.8245653e-05,3.8247017e-05,3.8130453e-05,0.037523326,0.03752331,0.0112927295,1.7387909e-11,1.7328266e-11,4.2492225e-11,7.7152083e-07,9.854316e-07,5.0000242e-08,0.0,0.0,0.0,0.0,0.0,0.0,0.0,0.0,24
93760085,93659527,0.33231524,0.032819286,-0.019346097,0.9423986,-0.011522095,-0.0032255054,-0.013704017,-298.8905,169.15933,-1.8582629,-3.6503596e-05,1.5259102e-05,-2.9940697e-05,0.0039737904,-0.0010101292,0.000105641084,0.18275866,-0.032953165,0.37098524,0.0,0.0,0.0,0.0,0.0,7.5061325e-05,2.2026696e-05,2.737517e-05,7.5878115e-06,0.0002560574,0.00025606592,0.00024987682,0.03752998,0.037529968,0.011094725,1.7530687e-11,1.7481957e-11,4.244435e-11,7.7066665e-07,9.84304e-07,5.0000654e-08,0.0,0.0,0.0,0.0,0.0,0.0,0.0,0.0,24
94759284,94658848,0.33336377,0.03151157,-0.023071777,0.9419891,-0.005948554,-0.032488976,0.008802707,-298.89056,169.15733,-1.8474072,-3.1182524e-05,1.6070966e-05,-2.9487632e-05,0.0039971787,-0.0009944987,1.340645e-05,0.18275866,-0.032953165,0.37098524,0.0,0.0,0.0,0.0,0.0,7.5043696e-05,2.1955819e-05,2.7233635e-05,7.6135975e-06,0.00018434977,0.0001841186,0.0001812302,0.037533175,0.037533164,0.010910093,1.7502524e-11,1.7470693e-11,4.2307054e-11,7.698095e-07,9.817261e-07,5.000085e-08,0.0,0.0,0.0,0.0,0.0,0.0,0.0,0.0,24
95758710,95658170,0.34658995,0.030417103,-0.034629475,0.9368837,-0.0054224106,0.016276723,0.013190492,-298.89465,169.15546,-1.828434,-2.8123024e-05,1.6891137e-05,-2.9098705e-05,0.0039928053,-0.0009787864,8.975382e-05,0.18275866,-0.032953165,0.37098524,0.0,0.0,0.0,0.0,0.0,7.422316e-05,2.2511413e-05,2.772821e-05,8.284877e-06,0.0012312679,0.0012304173,0.0011024517,0.037724253,0.037724204,0.0108931875,1.8092595e-11,1.8070748e-11,4.2174035e-11,7.693298e-07,9.794624e-07,5.000049e-08,0.0,0.0,0.0,0.0,0.0,0.0,0.0,0.0,24
96757918,96657491,0.35077474,0.0330586,-0.030936627,0.9353647,0.029769072,0.056820303,-0.0027811085,-298.90988,169.08261,-1.8103738,-3.756532e-05,1.3462264e-05,-2.7550921e-05,0.003997294,-0.00073384395,-5.7220568e-05,0.18275866,-0.032953165,0.37098524,0.0,0.0,0.0,0.0,0.0,7.244474e-05,2.1765858e-05,2.6901562e-05,8.318529e-06,0.00013040671,0.00012979918,0.0001281983,0.03771929,0.037717566,0.0107018845,1.7419602e-11,1.734777e-11,4.1767027e-11,7.656692e-07,9.714555e-07,5.00008e-08,0.0,0.0,0.0,0.0,0.0,0.0,0.0,0.0,24
97757241,97656812,0.3406251,0.034599185,-0.020963363,0.9393285,-2.5046582e-05,-0.004285525,-0.001208723,-298.90753,169.08939,-1.791607,-4.2865664e-05,1.01505375e-05,-2.5880427e-05,0.0039972938,-0.00060780405,-0.0001252414,0.18275866,-0.032953165,0.37098524,0.0,0.0,0.0,0.0,0.0,7.266572e-05,2.1690774e-05,2.67014e-05,7.687071e-06,6.373238e-05,6.371511e-05,6.333732e-05,0.03772338,0.03772191,0.010522473,1.7348907e-11,1.7279653e-11,4.1640608e-11,7.6442325e-07,9.672528e-07,5.0000427e-08,0.0,0.0,0.0,0.0,0.0,0.0,0.0,0.0,24
98756705,98656133,0.3405715,0.03205938,-0.024934849,0.93934107,-0.00012309503,-0.0002428683,-0.00032881415,-390.5292,221.3558,-1.7730547,-3.535018e-05,1.06997895e-05,-2.6296417e-05,0.004004137,-0.00055806123,-0.00024929942,0.18275866,-0.032953165,0.37098524,0.0,0.0,0.0,0.0,0.0,7.138099e-05,2.1713324e-05,2.6571452e-05,7.590784e-06,1e-06,1e-06,1.002074e-06,0.03767886,0.037678856,0.010349657,1.7424614e-11,1.7355208e-11,4.12104e-11,7.6378376e-07,9.623776e-07,5e-08,0.0,0.0,0.0,0.0,0.0,0.0,0.0,0.0,24
99755882,99655455,0.3492716,0.032932315,-0.029195528,0.9359875,0.04428811,0.062976174,-0.0005862236,-390.5267,221.35939,-1.7526771,-4.0413473e-05,1.1917526e-05,-2.4666077e-05,0.003997295,-0.00061060063,-0.00010334686,0.18275866,-0.032953165,0.37098524,0.0,0.0,0.0,0.0,0.0,6.994022e-05,2.1860957e-05,2.670239e-05,7.8738985e-06,0.00021398698,0.00021348649,0.00020861873,0.037684426,0.03768441,0.010191596,1.7539603e-11,1.7437184e-11,4.091576e-11,7.628396e-07,9.577683e-07,5.0000594e-08,0.0,0.0,0.0,0.0,0.0,0.0,0.0,0.0,24
100755232,100654776,0.34182656,0.036377635,-0.020840172,0.93882746,-0.009524255,-0.0031877293,0.00022622495,-390.52948,221.35649,-1.7301013,-4.494229e-05,1.0576516e-05,-2.297757e-05,0.0039972956,-0.00059565157,-9.404913e-05,0.18275866,-0.032953165,0.37098524,0.0,0.0,0.0,0.0,0.0,7.007836e-05,2.1776765e-05,2.6551357e-05,7.4139084e-06,0.00014307926,0.00014308566,0.00014105432,0.037688203,0.037688196,0.010028517,1.7448806e-11,1.7347936e-11,4.084204e-11,7.6247295e-07,9.54471e-07,5.0000764e-08,0.0,0.0,0.0,0.0,0.0,0.0,0.0,0.0,24
101754545,101654098,0.34246504,0.03529741,-0.024536688,0.9385466,-0.007974462,-0.0012429885,-0.002684929,-390.52972,221.35625,-1.7052548,-3.8487193e-05,9.282984e-06,-2.2870026e-05,0.0039972933,-0.0006155858,-9.2624396e-05,0.18275866,-0.032953165,0.37098524,0.0,0.0,0.0,0.0,0.0,6.959077e-05,2.1728963e-05,2.6436497e-05,7.394418e-06,7.663845e-05,7.664616e-05,7.604543e-05,0.037692677,0.037692674,0.0098713795,1.7390277e-11,1.7300538e-11,4.069597e-11,7.6208846e-07,9.515091e-07,5.0000505e-08,0.0,0.0,0.0,0.0,0.0,0.0,0.0,0.0,24
102754115,102653419,0.35065925,0.034555424,-0.027054489,0.93547434,0.00019162882,0.0011581472,0.00010203122,-390.53027,221.35559,-1.6783726,-3.9017144e-05,8.606049e-06,-2.1703043e-05,0.003997294,-0.0006269308,-6.0068363e-05,0.18275866,-0.032953165,0.37098524,0.0,0.0,0.0,0.0,0.0,6.981821e-05,2.1690857e-05,2.641522e-05,7.822185e-06,1.3302396e-05,1.3302159e-05,1.3284584e-05,0.037697498,0.037697487,0.0097195525,1.7341397e-11,1.724219e-11,4.0843225e-11,7.6166225e-07,9.5071755e-07,5.000009e-08,0.0,0.0,0.0,0.0,0.0,0.0,0.0,0.0,24
103753201,103652741,0.35138083,0.03602493,-0.024129305,0.9352281,-0.011022008,0.004489154,0.0042307265,-390.5309,221.3568,-1.6480672,-4.132257e-05,7.65467e-06,-2.031861e-05,0.0039931484,-0.0006063132,-6.594595e-05,0.18275866,-0.032953165,0.37098524,0.0,0.0,0.0,0.0,0.0,7.0052236e-05,2.1768461e-05,2.6472268e-05,7.840486e-06,0.00022668339,0.00022671056,0.00022184281,0.037703343,0.037703324,0.009573574,1.7492122e-11,1.7388858e-11,4.0902302e-11,7.611097e-07,9.4910473e-07,5.000057e-08,0.0,0.0,0.0,0.0,0.0,0.0,0.0,0.0,24
104762502,104662057,0.34675258,0.036134504,-0.020331878,0.93703985,0.0022163899,0.0036069723,0.0006255205,-390.5304,221.35704,-1.6185708,-4.221099e-05,5.9727445e-06,-1.9170046e-05,0.0039972938,-0.00059443864,-0.00010167309,0.18275866,-0.032953165,0.37098524,0.0,0.0,0.0,0.0,0.0,7.062875e-05,2.170784e-05,2.635518e-05,7.61014e-06,0.00017036793,0.00017037574,0.00016765001,0.037707113,0.037707098,0.009437238,1.7445134e-11,1.7344928e-11,4.0978044e-11,7.609021e-07,9.4791807e-07,5.0000864e-08,0.0,0.0,0.0,0.0,0.0,0.0,0.0,0.0,24
105761828,105661379,0.3430296,0.033567052,-0.019183936,0.9385286,-0.0058410894,-0.012967085,-0.004596551,-390.53098,221.3565,-1.5835682,-3.8203987e-05,5.311124e-06,-1.883524e-05,0.003997294,-0.0006394139,-0.00032358346,0.18275866,-0.032953165,0.37098524,0.0,0.0,0.0,0.0,0.0,7.089943e-05,2.1537207e-05,2.6114632e-05,7.4362233e-06,0.000102861064,0.0001028074,0.00010177831,0.037711345,0.037711326,0.009298195,1.7396203e-11,1.7301193e-11,4.09702e-11,7.6017403e-07,9.459815e-07,5.0000693e-08,0.0,0.0,0.0,0.0,0.0,0.0,0.0,0.0,24
106761155,106660701,0.3474738,0.03325648,-0.02208884,0.9368394,0.00028301068,-0.0036114762,-0.0006308675,-390.53113,221.35562,-1.5485135,-3.4121585e-05,8.274767e-06,-1.83929e-05,0.0039946768,-0.00059629447,-0.0004215084,0.18275866,-0.032953165,0.37098524,0.0,0.0,0.0,0.0,0.0,7.064496e-05,2.1498687e-05,2.609142e-05,7.653789e-06,3.8263745e-05,3.82625e-05,3.8117614e-05,0.037716057,0.037716046,0.009163806,1.7391307e-11,1.7270206e-11,4.091337e-11,7.596588e-07,9.4520004e-07,5.0000246e-08,0.0,0.0,0.0,0.0,0.0,0.0,0.0,0.0,24
107760453,107660023,0.35028744,0.03658632,-0.021951621,0.93567,0.009684026,0.0032161314,0.015080939,-390.53018,221.35556,-1.5106853,-3.570372e-05,8.834256e-06,-1.7543922e-05,0.0039972947,-0.00059639494,-0.0001989558,0.18275866,-0.032953165,0.37098524,0.0,0.0,0.0,0.0,0.0,7.08968e-05,2.1750442e-05,2.638219e-05,7.851815e-06,0.00025541818,0.00025544863,0.00024942958,0.03772272,0.03772271,0.009035218,1.7567002e-11,1.7429221e-11,4.1016038e-11,7.5909304e-07,9.4347007e-07,5.0000665e-08,0.0,0.0,0.0,0.0,0.0,0.0,0.0,0.0,24
108760060,108659346,0.34411085,0.040986344,-0.018542161,0.93785083,-0.024599358,-0.009771787,0.00036936897,-390.53204,221.35522,-1.4732972,-3.672501e-05,7.589717e-06,-1.6547143e-05,0.0039985636,-0.00057811465,7.398967e-05,0.18275866,-0.032953165,0.37098524,0.0,0.0,0.0,0.0,0.0,7.148768e-05,2.1818618e-05,2.6460548e-05,7.5688044e-06,0.0001843893,0.00018450482,0.00018101638,0.037725925,0.03772591,0.008907146,1.7508958e-11,1.738015e-11,4.10961e-11,7.587579e-07,9.423025e-07,5.000083e-08,0.0,0.0,0.0,0.0,0.0,0.0,0.0,0.0,24
109759099,109658668,0.34952056,0.03434008,-0.026108302,0.9359351,-0.011069018,-0.017004903,-0.012493861,-390.53223,221.35434,-1.435328,-2.682443e-05,6.1640876e-06,-1.7066845e-05,0.003985788,-0.0006611335,-0.00018066353,0.18275866,-0.032953165,0.37098524,0.0,0.0,0.0,0.0,0.0,7.023581e-05,2.1619506e-05,2.6031472e-05,7.768152e-06,0.00011623206,0.000116183866,0.00011474136,0.03773002,0.037730005,0.008789803,1.7434783e-11,1.7362733e-11,4.0830873e-11,7.581722e-07,9.363003e-07,5.000077e-08,0.0,0.0,0.0,0.0,0.0,0.0,0.0,0.0,24
110758419,110657994,0.36194918,0.032638375,-0.030500343,0.93112695,0.0065140505,0.007718887,-0.0007918824,-390.53235,221.35408,-1.39258,-3.1615404e-05,7.1781465e-06,-1.6063652e-05,0.003997294,-0.0007051099,-0.000374169,0.18275866,-0.032953165,0.37098524,0.0,0.0,0.0,0.0,0.0,6.869671e-05,2.1441041e-05,2.5801248e-05,8.328702e-06,5.094682e-05,5.0947772e-05,5.0666244e-05,0.03773466,0.037734654,0.008669936,1.738784e-11,1.7257421e-11,4.0621402e-11,7.562817e-07,9.3171525e-07,5.0000335e-08,0.0,0.0,0.0,0.0,0.0,0.0,0.0,0.0,24
111757772,111657313,0.35990387,0.035317674,-0.025035337,0.9319845,0.0023577432,-0.01149418,0.007326397,-390.5311,221.35423,-1.3486149,-3.733537e-05,7.864082e-06,-1.46071425e-05,0.0039972956,-0.0007893913,-0.00036932694,0.18275866,-0.032953165,0.37098524,0.0,0.0,0.0,0.0,0.0,6.878971e-05,2.1538548e-05,2.5877987e-05,8.214193e-06,0.00027030203,0.00027020625,0.0002632872,0.03774178,0.037741773,0.008555816,1.7560398e-11,1.7404553e-11,4.0636425e-11,7.5452664e-07,9.2772854e-07,5.0000676e-08,0.0,0.0,0.0,0.0,0.0,0.0,0.0,0.0,24
112757181,112656636,0.35529226,0.036568817,-0.022838736,0.9337605,0.0018703893,0.0098869745,0.0031951026,-481.04434,272.48285,-1.3056117,-3.7581198e-05,7.454121e-06,-1.39033e-05,0.0039972956,-0.0008047697,-0.00025410755,0.18275866,-0.032953165,0.37098524,0.0,0.0,0.0,0.0,0.0,6.947221e-05,2.1743455e-05,2.6068688e-05,8.043121e-06,0.00019949258,0.00019949808,0.0001943639,0.06877028,0.06877028,0.0084418915,1.7726709e-11,1.7569739e-11,4.076548e-11,7.541246e-07,9.269448e-07,5.0000647e-08,0.0,0.0,0.0,0.0,0.0,0.0,0.0,0.0,24
113756440,113655959,0.35416552,0.035383254,-0.025066808,0.9341769,-0.006058028,-0.00029940478,0.0013666555,-482.02518,273.03308,-1.2599992,-3.4229284e-05,6.1838878e-06,-1.3659686e-05,0.003998758,-0.0008246854,-0.00021870385,0.18275866,-0.032953165,0.37098524,0.0,0.0,0.0,0.0,0.0,6.9588095e-05,2.1624557e-05,2.5905647e-05,8.014817e-06,0.00012967802,0.00012968467,0.00012779998,0.03768111,0.037681106,0.008330935,1.752923e-11,1.7388372e-11,4.0791155e-11,7.5389363e-07,9.256325e-07,5.0000807e-08,0.0,0.0,0.0,0.0,0.0,0.0,0.0,0.0,24
114755715,114655282,0.353891,0.03492159,-0.023414573,0.9343412,0.0025453528,0.006378325,0.0015601247,-482.02466,273.03317,-1.2159524,-3.6426223e-05,4.8870043e-06,-1.28887905e-05,0.0039952695,-0.00083353877,-0.00018982677,0.18275866,-0.032953165,0.37098524,0.0,0.0,0.0,0.0,0.0,7.01244e-05,2.1536142e-05,2.5803949e-05,8.083088e-06,6.372996e-05,6.372419e-05,6.331253e-05,0.03768569,0.03768568,0.008229089,1.7423835e-11,1.7283544e-11,4.094938e-11,7.537239e-07,9.24843e-07,5.000043e-08,0.0,0.0,0.0,0.0,0.0,0.0,0.0,0.0,24
115755175,115654605,0.34946784,0.03620406,-0.020350982,0.93602747,-8.556884e-05,-0.0001794562,-9.952395e-05,-482.0244,273.03366,-1.1689867,-3.533173e-05,5.4472707e-06,-1.1964883e-05,0.004028836,-0.0008175097,-0.00019635004,0.18275866,-0.032953165,0.37098524,0.0,0.0,0.0,0.0,0.0,7.048659e-05,2.1451207e-05,2.570307e-05,7.853153e-06,1e-06,1e-06,1e-06,0.03769055,0.03769054,0.008124806,1.7371639e-11,1.7221714e-11,4.096571e-11,7.531647e-07,9.233708e-07,5e-08,0.0,0.0,0.0,0.0,0.0,0.0,0.0,0.0,24
116754413,116653929,0.3566758,0.033256147,-0.027979719,0.9332168,-0.0014464855,-0.011645441,-0.009115583,-482.02536,273.0313,-1.1203734,-2.8020017e-05,6.3547686e-06,-1.2156113e-05,0.003997293,-0.0007833504,-0.00025608836,0.18275866,-0.032953165,0.37098524,0.0,0.0,0.0,0.0,0.0,6.9307534e-05,2.1563597e-05,2.5677382e-05,8.1695e-06,0.00021267125,0.00021267148,0.0002079551,0.0376961,0.03769608,0.008023911,1.7537666e-11,1.740812e-11,4.074953e-11,7.527332e-07,9.1859044e-07,5.000058e-08,0.0,0.0,0.0,0.0,0.0,0.0,0.0,0.0,24
117753709,117653252,0.3649335,0.03479195,-0.030180523,0.92989373,0.022122217,0.019580407,0.005413876,-482.02438,273.0321,-1.0688559,-3.4231245e-05,7.4016143e-06,-1.1130403e-05,0.003998908,-0.0008307361,-0.0002706838,0.18275866,-0.032953165,0.37098524,0.0,0.0,0.0,0.0,0.0,6.783163e-05,2.1471902e-05,2.5560928e-05,8.5272795e-06,0.00014302754,0.00014306176,0.00014096338,0.037699867,0.037699837,0.007923821,1.7494655e-11,1.7320876e-11,4.052416e-11,7.5148773e-07,9.141205e-07,5.0000764e-08,0.0,0.0,0.0,0.0,0.0,0.0,0.0,0.0,24
118753004,118652576,0.3585481,0.038131174,-0.024706263,0.9324049,0.0011759498,0.007533337,-0.0010499288,-482.0242,273.03195,-1.0211384,-3.7952555e-05,6.822777e-06,-1.0152449e-05,0.003997295,-0.0008461231,-0.00012563482,0.18275866,-0.032953165,0.37098524,0.0,0.0,0.0,0.0,0.0,6.8393594e-05,2.1476957e-05,2.5549905e-05,8.2509005e-06,7.663054e-05,7.662347e-05,7.602278e-05,0.03770433,0.037704293,0.00783198,1.7444905e-11,1.7271152e-11,4.0625357e-11,7.507792e-07,9.117608e-07,5.0000523e-08,0.0,0.0,0.0,0.0,0.0,0.0,0.0,0.0,24
119752341,119651899,0.3543718,0.03496132,-0.020347329,0.9342293,-0.00071841513,-0.0008924375,-0.0003865406,-482.0245,273.03168,-0.96997356,-3.675047e-05,7.344508e-06,-9.324374e-06,0.003997296,-0.00082943693,-0.0004188599,0.18275866,-0.032953165,0.37098524,0.0,0.0,0.0,0.0,0.0,6.8741334e-05,2.1214206e-05,2.5231368e-05,8.031021e-06,1.3302281e-05,1.33021595e-05,1.328402e-05,0.037709143,0.037709095,0.007737764,1.7392742e-11,1.7208629e-11,4.0651007e-11,7.489551e-07,9.1005313e-07,5.000009e-08,0.0,0.0,0.0,0.0,0.0,0.0,0.0,0.0,24
120761669,120661216,0.35731676,0.033129517,-0.023426523,0.9331015,-0.006389896,-0.03038243,0.011165644,-482.02484,273.02945,-0.9176231,-3.1812142e-05,1.0131523e-05,-9.011138e-06,0.0039972803,-0.0007464964,-0.00043064792,0.18275866,-0.032953165,0.37098524,0.0,0.0,0.0,0.0,0.0,6.827233e-05,2.1384669e-05,2.5352305e-05,8.1568305e-06,0.00024099625,0.00024083829,0.00023537102,0.037715368,0.037715327,0.0076474906,1.7604161e-11,1.7399221e-11,4.0553744e-11,7.4824317e-07,9.0785693e-07,5.0000693e-08,0.0,0.0,0.0,0.0,0.0,0.0,0.0,0.0,24
121760975,121660543,0.3710097,0.032045342,-0.03228303,0.9275143,-0.0060119154,0.05239495,0.03331384,-482.0248,273.03232,-0.8662751,-2.9484023e-05,1.0174745e-05,-8.616978e-06,0.003997305,-0.0007096447,-0.00014630884,0.18275866,-0.032953165,0.37098524,0.0,0.0,0.0,0.0,0.0,6.785659e-05,2.1518383e-05,2.5478634e-05,8.934312e-06,0.00017098394,0.00017004841,0.00016768514,0.03771877,0.03771874,0.007556627,1.7559041e-11,1.7367762e-11,4.067376e-11,7.4689757e-07,9.049833e-07,5.0000818e-08,0.0,0.0,0.0,0.0,0.0,0.0,0.0,0.0,24
122760293,122659864,0.37100244,0.029039916,-0.024272885,0.9278603,0.010846828,0.020646205,0.0031632215,-482.02338,273.03146,-0.8133165,-3.863457e-05,1.002976e-05,-7.1113973e-06,0.0039972984,-0.00059633935,-0.0005692999,0.18275866,-0.032953165,0.37098524,0.0,0.0,0.0,0.0,0.0,6.6421926e-05,2.1051206e-05,2.482593e-05,8.77596e-06,0.00010281977,0.000102747836,0.000101815705,0.03772299,0.03772297,0.00746833,1.7475217e-11,1.7273115e-11,4.034743e-11,7.41982e-07,8.955215e-07,5.0000672e-08,0.0,0.0,0.0,0.0,0.0,0.0,0.0,0.0,24
123759650,123659188,0.36461467,0.031514373,-0.020879027,0.9303909,-0.0039017533,-0.0022288146,0.002821656,-482.02313,273.03265,-0.76295894,-3.8189723e-05,9.777911e-06,-6.3312177e-06,0.0039866646,-0.00062282867,-0.00014813457,0.18275866,-0.032953165,0.37098524,0.0,0.0,0.0,0.0,0.0,6.713815e-05,2.1250253e-05,2.5046744e-05,8.495015e-06,3.8258273e-05,3.8261347e-05,3.8124912e-05,0.037727717,0.0377277,0.007383051,1.744805e-11,1.7249919e-11,4.047986e-11,7.406889e-07,8.928995e-07,5.000026e-08,0.0,0.0,0.0,0.0,0.0,0.0,0.0,0.0,24
124758972,124658512,0.36636642,0.028772682,-0.020963222,0.9297894,-0.03492598,-0.033533923,0.009625803,-482.02628,273.02942,-0.71136093,-3.6075504e-05,1.0451013e-05,-5.524231e-06,0.003996925,-0.00062797463,-0.00017708077,0.18275866,-0.032953165,0.37098524,0.0,0.0,0.0,0.0,0.0,6.732368e-05,2.1301217e-05,2.50792e-05,8.59711e-06,0.00025585052,0.00025585014,0.00024985458,0.03773437,0.037734345,0.0073062135,1.7604551e-11,1.740422e-11,4.0559986e-11,7.39769e-07,8.9165763e-07,5.000069e-08,0.0,0.0,0.0,0.0,0.0,0.0,0.0,0.0,24
125758265,125657836,0.3742606,0.019796306,-0.02119866,0.92686987,-0.025096808,-0.19256581,-0.10822334,-482.07993,272.9121,-0.77573925,-3.5986504e-05,1.0443228e-05,-4.6305854e-06,0.003997297,-0.0006330625,-0.00020312762,0.18275866,-0.032953165,0.37098524,0.0,0.0,0.0,0.0,0.0,6.773595e-05,2.2103522e-05,2.5826717e-05,9.0976655e-06,0.0025137719,0.0025046165,0.0020310918,0.03875646,0.038753662,0.008080524,1.8594007e-11,1.8401367e-11,4.0786128e-11,7.397356e-07,8.914881e-07,5.000018e-08,0.0,0.0,0.0,0.0,0.0,0.0,0.0,0.0,24
126757614,126657160,0.37382182,0.024604619,-0.024517711,0.92684996,0.14228952,-0.18631583,-0.0836566,-481.99136,272.7063,-0.78907984,-3.5897774e-05,1.0439925e-05,-3.7457298e-06,0.0039972956,-0.0006297905,-0.00028197325,0.18275866,-0.032953165,0.37098524,0.0,0.0,0.0,0.0,0.0,6.844842e-05,2.3014243e-05,2.6753576e-05,9.166533e-06,0.0067858123,0.0067849774,0.004256858,0.046331637,0.046308603,0.012923851,1.9583493e-11,1.939852e-11,4.0997487e-11,7.3969414e-07,8.9132647e-07,5.000009e-08,0.0,0.0,0.0,0.0,0.0,0.0,0.0,0.0,24
127757112,127656485,0.36700842,0.03652451,-0.02606753,0.9291347,-5.1845436,2.8757873,0.059116766,-573.8879,322.8204,-0.65848887,-3.5798508e-05,1.0413084e-05,-2.8315592e-06,0.0039990246,-0.0006264962,-0.00037561174,0.18275866,-0.032953165,0.37098524,0.0,0.0,0.0,0.0,0.0,6.9198824e-05,2.3995497e-05,2.7799986e-05,8.8628285e-06,0.015206053,0.015205781,0.02823289,0.036216736,0.03621673,0.02871708,2.0549736e-11,2.0372865e-11,4.1132323e-11,7.396463e-07,8.9119135e-07,5e-08,0.0,0.0,0.0,0.0,0.0,0.0,0.0,0.0,24
128756400,128655809,0.3658858,0.040686276,-0.02407471,0.9294583,-5.188914,2.7417457,0.1571855,-579.0026,325.5844,-0.38635463,-3.541723e-05,9.677375e-06,-2.072575e-06,0.003997295,-0.00063183444,-0.00043874275,0.18275866,-0.032953165,0.37098524,0.0,0.0,0.0,0.0,0.0,6.9907466e-05,2.4790923e-05,2.8627437e-05,8.892861e-06,0.007750115,0.0077518383,0.013979722,0.021603247,0.021603452,0.05088537,2.1220983e-11,2.1053761e-11,4.1309917e-11,7.395868e-07,8.9104566e-07,5.000036e-08,0.0,0.0,0.0,0.0,0.0,0.0,0.0,0.0,24
129755689,129655134,0.37472814,0.03781646,-0.023884429,0.92605525,-5.0392165,2.5328758,0.20537789,-583.9787,328.1499,0.0010195315,-3.4373083e-05,7.987714e-06,-1.3794568e-06,0.0039972975,-0.0006492995,-0.0004766597,0.18275866,-0.032953165,0.37098524,0.0,0.0,0.0,0.0,0.0,6.982679e-05,2.4972209e-05,2.8806286e-05,9.414551e-06,0.0071079587,0.0071044196,0.0099649215,0.018252268,0.018252172,0.06987473,2.1223488e-11,2.1061335e-11,4.1397837e-11,7.393865e-07,8.908606e-07,5.0000263e-08,0.0,0.0,0.0,0.0,0.0,0.0,0.0,0.0,24
130755021,130654459,0.38043997,0.034127906,-0.030033706,0.9236876,-4.752448,2.4978547,0.23747207,-588.7273,330.65015,0.44155097,-3.304327e-05,6.397329e-06,-7.2617433e-07,0.0039972956,-0.00064994127,-0.0004726857,0.18275866,-0.032953165,0.37098524,0.0,0.0,0.0,0.0,0.0,6.985773e-05,2.4561901e-05,2.8370083e-05,9.788718e-06,0.0073820762,0.007383316,0.008465794,0.017490808,0.017490298,0.08489881,2.0676731e-11,2.0506189e-11,4.1474935e-11,7.390357e-07,8.907515e-07,5.0000178e-08,0.0,0.0,0.0,0.0,0.0,0.0,0.0,0.0,24
