timestamp,timestamp_sample,device_id,sensor_sample_rate_hz,resolution_hz,peak_frequencies_x[0],peak_frequencies_x[1],peak_frequencies_x[2],peak_frequencies_y[0],peak_frequencies_y[1],peak_frequencies_y[2],peak_frequencies_z[0],peak_frequencies_z[1],peak_frequencies_z[2],peak_snr_x[0],peak_snr_x[1],peak_snr_x[2],peak_snr_y[0],peak_snr_y[1],peak_snr_y[2],peak_snr_z[0],peak_snr_z[1],peak_snr_z[2]
16793985,16791040,2490402,7917.6562,15.464172,47.170288,nan,nan,nan,nan,nan,nan,nan,nan,9.169279,nan,nan,0.0,0.0,0.0,0.0,0.0,0.0
16985956,16983014,2490402,7917.6562,15.464172,47.170288,nan,nan,nan,nan,nan,nan,nan,nan,8.824259,nan,nan,0.0,0.0,0.0,0.0,0.0,0.0
17147612,17144676,2490402,7917.6562,15.464172,47.170288,nan,nan,nan,nan,nan,nan,nan,nan,8.835725,nan,nan,0.0,0.0,0.0,0.0,0.0,0.0
17213253,17210351,2490402,7917.6562,15.464172,47.170288,nan,nan,nan,nan,nan,nan,nan,nan,8.769514,nan,nan,0.0,0.0,0.0,0.0,0.0,0.0
17243605,17243189,2490402,7917.6562,15.464172,46.392517,nan,nan,nan,nan,nan,nan,nan,nan,7.3362837,nan,nan,0.0,0.0,0.0,0.0,0.0,0.0
17294132,17291183,2490402,7917.6562,15.464172,46.392517,nan,nan,nan,nan,nan,nan,nan,nan,8.791538,nan,nan,0.0,0.0,0.0,0.0,0.0,0.0
17359775,17356857,2490402,7917.6562,15.464172,46.392517,46.392517,nan,nan,nan,nan,nan,nan,nan,8.791538,7.606964,nan,0.0,0.0,0.0,0.0,0.0,0.0
17420440,17420006,2490402,7917.6562,15.464172,46.392517,46.392517,nan,nan,nan,nan,nan,nan,nan,7.4264984,7.606964,nan,0.0,0.0,0.0,0.0,0.0,0.0
17521517,17518519,2490402,7917.6562,15.464172,46.392517,46.392517,nan,nan,nan,nan,nan,nan,nan,7.4264984,8.689915,nan,0.0,0.0,0.0,0.0,0.0,0.0
17683125,17680181,2490402,7917.6562,15.464172,46.392517,nan,nan,nan,nan,nan,nan,nan,nan,7.652573,nan,nan,0.0,0.0,0.0,0.0,0.0,0.0
17713537,17710493,2490402,7917.6562,15.464172,46.392517,46.392517,nan,nan,nan,nan,nan,nan,nan,7.652573,7.7673416,nan,0.0,0.0,0.0,0.0,0.0,0.0
17859895,17856999,2490402,7917.6562,15.464172,46.392517,nan,nan,nan,nan,nan,nan,nan,nan,8.8856735,nan,nan,0.0,0.0,0.0,0.0,0.0,0.0
17890381,17889837,2490402,7917.6562,15.464172,46.392517,46.392517,nan,nan,nan,nan,nan,nan,nan,8.8856735,7.937174,nan,0.0,0.0,0.0,0.0,0.0,0.0
17905430,17904993,2490402,7917.6562,15.464172,46.392517,46.392517,46.392517,nan,nan,nan,nan,nan,nan,8.8856735,7.937174,7.3618264,0.0,0.0,0.0,0.0,0.0,0.0
17925616,17922674,2490402,7917.6562,15.464172,46.392517,46.392517,46.392517,nan,nan,nan,nan,nan,nan,8.905579,7.937174,7.3618264,0.0,0.0,0.0,0.0,0.0,0.0
18006500,18003506,2490402,7917.6562,15.464172,46.392517,46.392517,46.392517,nan,nan,nan,nan,nan,nan,8.905579,9.0529175,7.4528313,0.0,0.0,0.0,0.0,0.0,0.0
18051873,18051499,2490402,7917.6562,15.464172,47.170288,46.392517,46.392517,nan,nan,nan,nan,nan,nan,8.964184,9.0529175,7.4528313,0.0,0.0,0.0,0.0,0.0,0.0
18329764,18326829,2490402,7917.6562,15.464172,47.170288,nan,nan,nan,nan,nan,nan,nan,nan,7.6312838,nan,nan,0.0,0.0,0.0,0.0,0.0,0.0
18345102,18341985,2490402,7917.6562,15.464172,46.392517,nan,nan,nan,nan,nan,nan,nan,nan,7.4381685,nan,nan,0.0,0.0,0.0,0.0,0.0,0.0
18572261,18569323,2490402,7917.6562,15.464172,46.48719,nan,nan,nan,nan,nan,nan,nan,nan,9.284145,nan,nan,0.0,0.0,0.0,0.0,0.0,0.0
18814748,18811816,2490402,7917.6562,15.464172,46.48719,nan,nan,nan,nan,nan,nan,nan,nan,9.269432,nan,nan,0.0,0.0,0.0,0.0,0.0,0.0
18911207,18907802,2490402,7917.6562,15.464172,46.392517,nan,nan,nan,nan,nan,nan,nan,nan,7.493608,nan,nan,0.0,0.0,0.0,0.0,0.0,0.0
18925966,18922958,2490402,7917.6562,15.464172,46.392517,46.392517,nan,nan,nan,nan,nan,nan,nan,7.493608,8.826572,nan,0.0,0.0,0.0,0.0,0.0,0.0
19072439,19069464,2490402,7917.6562,15.464172,46.392517,nan,nan,nan,nan,nan,nan,nan,nan,8.351918,nan,nan,0.0,0.0,0.0,0.0,0.0,0.0
19153213,19150295,2490402,7917.6562,15.464172,46.392517,46.392517,nan,nan,nan,nan,nan,nan,nan,8.351918,7.7769175,nan,0.0,0.0,0.0,0.0,0.0,0.0
19168389,19165451,2490402,7917.6562,15.464172,46.392517,46.392517,46.392517,nan,nan,nan,nan,nan,nan,8.351918,7.7769175,8.597984,0.0,0.0,0.0,0.0,0.0,0.0
19234034,19231126,2490402,7917.6562,15.464172,46.392517,46.392517,46.392517,nan,nan,nan,nan,nan,nan,7.4114466,7.7769175,8.597984,0.0,0.0,0.0,0.0,0.0,0.0
19264371,19263964,2490402,7917.6562,15.464172,46.392517,nan,46.392517,nan,nan,nan,nan,nan,nan,8.810087,nan,8.597984,0.0,0.0,0.0,0.0,0.0,0.0
19299723,19296802,2490402,7917.6562,15.464172,46.392517,46.392517,nan,nan,nan,nan,nan,nan,nan,8.810087,7.929364,nan,0.0,0.0,0.0,0.0,0.0,0.0
19345187,19344795,2490402,7917.6562,15.464172,46.392517,46.392517,46.392517,nan,nan,nan,nan,nan,nan,8.810087,7.929364,7.403055,0.0,0.0,0.0,0.0,0.0,0.0
19360353,19359951,2490402,7917.6562,15.464172,46.392517,46.392517,46.392517,nan,nan,nan,nan,nan,nan,8.49973,7.929364,7.403055,0.0,0.0,0.0,0.0,0.0,0.0
19461381,19458464,2490402,7917.6562,15.464172,46.392517,nan,nan,nan,nan,nan,nan,nan,nan,8.682761,nan,nan,0.0,0.0,0.0,0.0,0.0,0.0
19734228,19731268,2490402,7917.6562,15.464172,46.392517,nan,nan,nan,nan,nan,nan,nan,nan,8.095196,nan,nan,0.0,0.0,0.0,0.0,0.0,0.0
19845374,19844937,2490402,7917.6562,15.464172,46.392517,nan,nan,nan,nan,nan,nan,nan,nan,7.72176,nan,nan,0.0,0.0,0.0,0.0,0.0,0.0
19865527,19862619,2490402,7917.6562,15.464172,46.392517,nan,nan,nan,nan,nan,nan,nan,nan,9.125111,nan,nan,0.0,0.0,0.0,0.0,0.0,0.0
19926200,19925768,2490402,7917.6562,15.464172,46.392517,46.392517,nan,nan,nan,nan,nan,nan,nan,9.125111,7.8906155,nan,0.0,0.0,0.0,0.0,0.0,0.0
20057548,20054592,2490402,7917.6562,15.464172,46.392517,nan,nan,nan,nan,nan,nan,nan,nan,7.775087,nan,nan,0.0,0.0,0.0,0.0,0.0,0.0
20072643,20072274,2490402,7917.6562,15.464172,46.392517,nan,nan,nan,nan,nan,nan,nan,nan,9.267029,nan,nan,0.0,0.0,0.0,0.0,0.0,0.0
20108022,20105112,2490402,7917.6562,15.464172,46.392517,46.392517,nan,nan,nan,nan,nan,nan,nan,9.267029,7.662758,nan,0.0,0.0,0.0,0.0,0.0,0.0
20153498,20153105,2490402,7917.6562,15.464172,46.392517,46.392517,nan,nan,nan,nan,nan,nan,nan,9.4441595,7.662758,nan,0.0,0.0,0.0,0.0,0.0,0.0
20168689,20168261,2490402,7917.6562,15.464172,46.48719,46.392517,nan,nan,nan,nan,nan,nan,nan,9.520962,7.662758,nan,0.0,0.0,0.0,0.0,0.0,0.0
20300368,20297085,2490402,7917.6562,15.464172,46.48719,nan,nan,nan,nan,nan,nan,nan,nan,7.63885,nan,nan,0.0,0.0,0.0,0.0,0.0,0.0
20608176,20605253,2490402,7917.6562,15.464172,46.48719,nan,nan,nan,nan,nan,nan,nan,nan,9.007607,nan,nan,0.0,0.0,0.0,0.0,0.0,0.0
20623339,20620409,2490402,7917.6562,15.464172,46.48719,nan,nan,nan,nan,nan,nan,nan,nan,9.000679,nan,nan,0.0,0.0,0.0,0.0,0.0,0.0
20785038,20782071,2490402,7917.6562,15.464172,46.48719,nan,nan,nan,nan,nan,nan,nan,nan,7.317809,nan,nan,0.0,0.0,0.0,0.0,0.0,0.0
20800131,20799753,2490402,7917.6562,15.464172,46.48719,46.392517,nan,nan,nan,nan,nan,nan,nan,7.317809,9.011137,nan,0.0,0.0,0.0,0.0,0.0,0.0
20835531,20832590,2490402,7917.6562,15.464172,46.392517,46.392517,46.392517,nan,nan,nan,nan,nan,nan,9.118044,9.011137,8.972178,0.0,0.0,0.0,0.0,0.0,0.0
20880955,20880588,2490402,7917.6562,15.464172,46.392517,46.392517,46.392517,nan,nan,nan,nan,nan,nan,9.118044,9.162814,8.972178,0.0,0.0,0.0,0.0,0.0,0.0
20896287,20895740,2490402,7917.6562,15.464172,46.392517,46.392517,46.392517,nan,nan,nan,nan,nan,nan,9.118044,9.162814,7.888646,0.0,0.0,0.0,0.0,0.0,0.0
20976998,20976571,2490402,7917.6562,15.464172,46.392517,46.392517,46.392517,nan,nan,nan,nan,nan,nan,7.235054,9.162814,7.888646,0.0,0.0,0.0,0.0,0.0,0.0
21057834,21057401,2490402,7917.6562,15.464172,46.392517,46.392517,nan,nan,nan,nan,nan,nan,nan,7.235054,7.5899267,nan,0.0,0.0,0.0,0.0,0.0,0.0
21108335,21105395,2490402,7917.6562,15.464172,46.392517,46.392517,nan,nan,nan,nan,nan,nan,nan,8.619142,7.5899267,nan,0.0,0.0,0.0,0.0,0.0,0.0
21138639,21138233,2490402,7917.6562,15.464172,46.392517,46.392517,46.392517,nan,nan,nan,nan,nan,nan,8.619142,7.5899267,9.161583,0.0,0.0,0.0,0.0,0.0,0.0
21189521,21186226,2490402,7917.6562,15.464172,46.392517,nan,46.392517,nan,nan,nan,nan,nan,nan,9.525497,nan,9.161583,0.0,0.0,0.0,0.0,0.0,0.0
21270212,21267057,2490402,7917.6562,15.464172,46.392517,46.392517,nan,nan,nan,nan,nan,nan,nan,9.525497,7.426775,nan,0.0,0.0,0.0,0.0,0.0,0.0
21350870,21347888,2490402,7917.6562,15.464172,46.392517,46.392517,nan,nan,nan,nan,nan,nan,nan,8.858545,7.426775,nan,0.0,0.0,0.0,0.0,0.0,0.0
21381140,21380726,2490402,7917.6562,15.464172,46.392517,46.392517,nan,nan,nan,nan,nan,nan,nan,8.858545,7.1907134,nan,0.0,0.0,0.0,0.0,0.0,0.0
21431672,21428719,2490402,7917.6562,15.464172,46.392517,46.392517,46.392517,nan,nan,nan,nan,nan,nan,8.858545,7.1907134,7.4006805,0.0,0.0,0.0,0.0,0.0,0.0
21446770,21446401,2490402,7917.6562,15.464172,46.392517,46.392517,46.392517,nan,nan,nan,nan,nan,nan,9.315474,7.1907134,7.4006805,0.0,0.0,0.0,0.0,0.0,0.0
21512503,21509550,2490402,7917.6562,15.464172,46.392517,nan,46.392517,nan,nan,nan,nan,nan,nan,9.012596,nan,7.4006805,0.0,0.0,0.0,0.0,0.0,0.0
21674148,21671212,2490402,7917.6562,15.464172,46.392517,nan,nan,nan,nan,nan,nan,nan,nan,8.275663,nan,nan,0.0,0.0,0.0,0.0,0.0,0.0
21689306,21688894,2490402,7917.6562,15.464172,46.392517,46.392517,nan,nan,nan,nan,nan,nan,nan,8.275663,8.900271,nan,0.0,0.0,0.0,0.0,0.0,0.0
21739784,21736887,2490402,7917.6562,15.464172,46.392517,46.392517,nan,nan,nan,nan,nan,nan,nan,9.38028,8.900271,nan,0.0,0.0,0.0,0.0,0.0,0.0
21755279,21752043,2490402,7917.6562,15.464172,46.392517,46.392517,46.392517,nan,nan,nan,nan,nan,nan,9.38028,8.900271,9.363204,0.0,0.0,0.0,0.0,0.0,0.0
21866198,21865711,2490402,7917.6562,15.464172,46.392517,nan,nan,nan,nan,nan,nan,nan,nan,9.339931,nan,nan,0.0,0.0,0.0,0.0,0.0,0.0
21967137,21964225,2490402,7917.6562,15.464172,46.48719,nan,nan,nan,nan,nan,nan,nan,nan,8.959428,nan,nan,0.0,0.0,0.0,0.0,0.0,0.0
21997467,21994535,2490402,7917.6562,15.464172,46.48719,nan,nan,nan,nan,nan,nan,nan,nan,7.3835464,nan,nan,0.0,0.0,0.0,0.0,0.0,0.0
22063242,22060211,2490402,7917.6562,15.464172,46.48719,nan,nan,nan,nan,nan,nan,nan,nan,8.793031,nan,nan,0.0,0.0,0.0,0.0,0.0,0.0
22108945,22108204,2490402,7917.6562,15.464172,46.48719,46.392517,nan,nan,nan,nan,nan,nan,nan,8.793031,8.98353,nan,0.0,0.0,0.0,0.0,0.0,0.0
22305622,22302704,2490402,7917.6562,15.464172,46.392517,nan,nan,nan,nan,nan,nan,nan,nan,8.238281,nan,nan,0.0,0.0,0.0,0.0,0.0,0.0
22416760,22416372,2490402,7917.6562,15.464172,46.48719,nan,nan,nan,nan,nan,nan,nan,nan,8.856567,nan,nan,0.0,0.0,0.0,0.0,0.0,0.0
22467276,22464366,2490402,7917.6562,15.464172,46.392517,nan,nan,nan,nan,nan,nan,nan,nan,8.948114,nan,nan,0.0,0.0,0.0,0.0,0.0,0.0
22482494,22479521,2490402,7917.6562,15.464172,46.392517,46.392517,nan,nan,nan,nan,nan,nan,nan,8.948114,7.9334307,nan,0.0,0.0,0.0,0.0,0.0,0.0
22512790,22512359,2490402,7917.6562,15.464172,46.392517,46.392517,46.392517,nan,nan,nan,nan,nan,nan,7.2161074,7.9334307,7.7619176,0.0,0.0,0.0,0.0,0.0,0.0
22563410,22560352,2490402,7917.6562,15.464172,46.392517,46.392517,46.392517,nan,nan,nan,nan,nan,nan,7.2161074,8.026356,8.926829,0.0,0.0,0.0,0.0,0.0,0.0
22578691,22578034,2490402,7917.6562,15.464172,46.392517,46.392517,46.392517,nan,nan,nan,nan,nan,nan,9.164232,8.026356,8.926829,0.0,0.0,0.0,0.0,0.0,0.0
22724974,22722014,2490402,7917.6562,15.464172,46.392517,nan,nan,nan,nan,nan,nan,nan,nan,7.74446,nan,nan,0.0,0.0,0.0,0.0,0.0,0.0
22820900,22820533,2490402,7917.6562,15.464172,46.392517,nan,nan,nan,nan,nan,nan,nan,nan,9.157059,nan,nan,0.0,0.0,0.0,0.0,0.0,0.0
22856431,22853364,2490402,7917.6562,15.464172,46.392517,46.392517,nan,nan,nan,nan,nan,nan,nan,9.157059,7.5854588,nan,0.0,0.0,0.0,0.0,0.0,0.0
22871459,22868520,2490402,7917.6562,15.464172,46.392517,46.392517,46.392517,nan,nan,nan,nan,nan,nan,9.157059,7.5854588,8.489019,0.0,0.0,0.0,0.0,0.0,0.0
22916949,22916514,2490402,7917.6562,15.464172,46.392517,46.392517,46.392517,nan,nan,nan,nan,nan,nan,9.266489,7.5854588,8.489019,0.0,0.0,0.0,0.0,0.0,0.0
23018244,23015028,2490402,7917.6562,15.464172,46.392517,46.392517,nan,nan,nan,nan,nan,nan,nan,9.266489,7.9948387,nan,0.0,0.0,0.0,0.0,0.0,0.0
23078606,23078176,2490402,7917.6562,15.464172,46.392517,46.392517,nan,nan,nan,nan,nan,nan,nan,9.052769,7.9948387,nan,0.0,0.0,0.0,0.0,0.0,0.0
23114173,23111013,2490402,7917.6562,15.464172,46.392517,46.392517,46.392517,nan,nan,nan,nan,nan,nan,9.052769,7.9948387,7.948123,0.0,0.0,0.0,0.0,0.0,0.0
23209956,23207000,2490402,7917.6562,15.464172,46.392517,nan,46.392517,nan,nan,nan,nan,nan,nan,9.079261,nan,7.948123,0.0,0.0,0.0,0.0,0.0,0.0
23275582,23272675,2490402,7917.6562,15.464172,46.392517,46.392517,nan,nan,nan,nan,nan,nan,nan,9.079261,9.392302,nan,0.0,0.0,0.0,0.0,0.0,0.0
23305904,23305513,2490402,7917.6562,15.464172,46.392517,46.392517,46.392517,nan,nan,nan,nan,nan,nan,9.079261,9.392302,8.723603,0.0,0.0,0.0,0.0,0.0,0.0
23422095,23419181,2490402,7917.6562,15.464172,46.392517,nan,nan,nan,nan,nan,nan,nan,nan,8.881914,nan,nan,0.0,0.0,0.0,0.0,0.0,0.0
23548461,23548005,2490402,7917.6562,15.464172,46.392517,nan,nan,nan,nan,nan,nan,nan,nan,9.628693,nan,nan,0.0,0.0,0.0,0.0,0.0,0.0
23664625,23661674,2490402,7917.6562,15.464172,46.392517,46.392517,46.392517,nan,nan,nan,nan,nan,nan,10.288616,11.388399,11.333345,0.0,0.0,0.0,0.0,0.0,0.0
23679751,23676830,2490402,7917.6562,15.464172,46.392517,46.392517,46.392517,nan,nan,nan,nan,nan,nan,9.143524,12.589097,11.333345,nan,nan,nan,0.0,0.0,0.0
23710062,23709667,2490402,7917.6562,15.464172,46.392517,46.392517,46.392517,nan,nan,nan,nan,nan,nan,12.059883,10.514916,11.333345,nan,nan,nan,0.0,0.0,0.0
23760585,23757661,2490402,7917.6562,15.464172,49.37135,46.392517,46.392517,nan,nan,nan,nan,nan,nan,10.4792595,10.702677,10.39225,nan,nan,nan,0.0,0.0,0.0
23790893,23790498,2490402,7917.6562,15.464172,49.37135,44.348858,46.392517,nan,nan,nan,nan,nan,nan,10.4792595,11.825532,10.39225,nan,nan,nan,0.0,0.0,0.0
23841393,23838492,2490402,7917.6562,15.464172,49.37135,44.348858,46.392517,nan,nan,nan,nan,nan,nan,8.758391,11.825532,10.39225,nan,nan,nan,0.0,0.0,0.0
23907111,23904167,2490402,7917.6562,15.464172,49.37135,nan,46.392517,nan,nan,nan,nan,nan,nan,8.758391,nan,8.637081,nan,nan,nan,0.0,0.0,0.0
23938192,23934478,2490402,7917.6562,15.464172,49.37135,nan,46.392517,nan,nan,nan,nan,nan,nan,8.758391,nan,10.041868,nan,nan,nan,0.0,0.0,0.0
23987915,23984998,2490402,7917.6562,15.464172,nan,nan,46.22656,nan,nan,nan,nan,nan,nan,nan,nan,9.024704,nan,nan,nan,0.0,0.0,0.0
24048552,24048147,2490402,7917.6562,15.464172,nan,nan,46.22656,nan,nan,nan,nan,nan,nan,nan,nan,8.4946575,nan,nan,nan,0.0,0.0,0.0
24083879,24080984,2490402,7917.6562,15.464172,nan,nan,46.22656,nan,nan,nan,nan,nan,nan,nan,nan,9.444856,nan,nan,nan,0.0,0.0,0.0
24164737,24161815,2490402,7917.6562,15.464172,nan,nan,46.392517,nan,nan,nan,nan,nan,nan,nan,nan,9.334441,nan,nan,nan,0.0,0.0,0.0
24195287,24194653,2490402,7917.6562,15.464172,nan,nan,46.611443,nan,nan,nan,nan,nan,nan,nan,nan,8.943319,nan,nan,nan,0.0,0.0,0.0
24311234,24308321,2490402,7917.6562,15.464172,nan,nan,46.392517,nan,nan,nan,nan,nan,nan,nan,nan,10.195133,nan,nan,nan,0.0,0.0,0.0
24356709,24356315,2490402,7917.6562,15.464172,nan,nan,46.392517,nan,nan,nan,nan,nan,nan,nan,nan,9.157514,nan,nan,nan,0.0,0.0,0.0
24392172,24389152,2490402,7917.6562,15.464172,55.33364,nan,46.48719,nan,nan,nan,nan,nan,nan,10.119132,nan,8.946579,nan,nan,nan,0.0,0.0,0.0
24407487,24404308,2490402,7917.6562,15.464172,60.927986,nan,46.48719,nan,nan,nan,nan,nan,nan,11.118727,nan,8.856477,nan,nan,nan,0.0,0.0,0.0
24437559,24437146,2490402,7917.6562,15.464172,60.927986,nan,46.392517,nan,nan,nan,nan,nan,nan,10.370203,nan,8.543443,nan,nan,nan,0.0,0.0,0.0
24503250,24500295,2490402,7917.6562,15.464172,138.20085,nan,46.392517,nan,nan,nan,nan,nan,nan,9.491933,nan,8.543443,nan,nan,nan,0.0,0.0,0.0
24553765,24550814,2490402,7917.6562,15.464172,138.20085,nan,46.392517,nan,nan,nan,nan,nan,nan,10.173693,nan,8.642711,nan,nan,nan,0.0,0.0,0.0
24599184,24598808,2490402,7917.6562,15.464172,138.00865,nan,46.392517,nan,nan,nan,nan,nan,nan,9.490547,nan,7.7331085,nan,nan,nan,0.0,0.0,0.0
24664922,24661957,2490402,7917.6562,15.464172,136.71556,44.348858,46.392517,nan,nan,nan,nan,nan,nan,8.994814,7.3404226,7.7331085,nan,nan,nan,0.0,0.0,0.0
24730529,24727632,2490402,7917.6562,15.464172,136.71556,44.348858,46.48719,nan,nan,nan,nan,nan,nan,8.994814,7.3404226,8.909901,nan,nan,nan,0.0,0.0,0.0
24760851,24760470,2490402,7917.6562,15.464172,136.71556,44.348858,46.48719,nan,nan,nan,nan,nan,nan,8.994814,9.036083,8.909901,nan,nan,nan,0.0,0.0,0.0
24796244,24793307,2490402,7917.6562,15.464172,nan,44.348858,46.48719,nan,nan,nan,nan,nan,nan,nan,9.036083,7.617219,nan,nan,nan,0.0,0.0,0.0
24922676,24922132,2490402,7917.6562,15.464172,nan,nan,46.392517,nan,nan,nan,nan,nan,nan,nan,nan,7.5798273,nan,nan,nan,0.0,0.0,0.0
25018524,25018118,2490402,7917.6562,15.464172,nan,nan,46.392517,nan,nan,nan,nan,nan,nan,nan,nan,8.424462,nan,nan,nan,0.0,0.0,0.0
25164994,25164624,2490402,7917.6562,15.464172,136.71556,nan,nan,nan,nan,nan,nan,nan,nan,7.4377446,nan,nan,nan,nan,nan,0.0,0.0,0.0
25503530,25503104,2490402,7917.6562,15.464172,136.71556,nan,nan,nan,nan,nan,nan,nan,nan,6.893221,nan,nan,nan,nan,nan,0.0,0.0,0.0
25538887,25535941,2490402,7917.6562,15.464172,138.00865,nan,nan,nan,nan,nan,nan,nan,nan,7.5652885,nan,nan,nan,nan,nan,0.0,0.0,0.0
25766591,25763279,2490402,7917.6562,15.464172,138.00865,nan,nan,nan,nan,nan,nan,nan,nan,7.446451,nan,nan,nan,nan,nan,0.0,0.0,0.0
25973304,25972934,2490402,7917.6562,15.464172,139.17755,nan,nan,nan,nan,nan,nan,nan,nan,7.2216644,nan,nan,nan,nan,nan,0.0,0.0,0.0
26104651,26101758,2490402,7917.6562,15.464172,139.17755,nan,nan,nan,nan,nan,nan,nan,nan,5.37596,nan,nan,nan,nan,nan,0.0,0.0,0.0
26170363,26167433,2490402,7917.6562,15.464172,139.17755,nan,nan,nan,nan,nan,nan,nan,nan,7.542452,nan,nan,nan,nan,nan,0.0,0.0,0.0
26200792,26197745,2490402,7917.6562,15.464172,139.17755,44.348858,nan,nan,nan,nan,nan,nan,nan,7.542452,7.632498,nan,nan,nan,nan,0.0,0.0,0.0
26251593,26248264,2490402,7917.6562,15.464172,139.17755,44.348858,47.170288,nan,nan,nan,nan,nan,nan,7.542452,7.632498,5.598719,nan,nan,nan,0.0,0.0,0.0
26347149,26344251,2490402,7917.6562,15.464172,nan,nan,46.392517,nan,nan,nan,nan,nan,nan,nan,nan,8.906026,nan,nan,nan,0.0,0.0,0.0
26458460,26457919,2490402,7917.6562,15.464172,139.17755,nan,nan,nan,nan,nan,nan,nan,nan,7.2708106,nan,nan,nan,nan,nan,0.0,0.0,0.0
26670948,26667574,2490402,7917.6562,15.464172,139.17755,nan,nan,nan,nan,nan,nan,nan,nan,6.9029546,nan,nan,nan,nan,nan,0.0,0.0,0.0
26781677,26781243,2490402,7917.6562,15.464172,139.17755,nan,nan,nan,nan,nan,nan,nan,nan,5.5617294,nan,nan,nan,nan,nan,0.0,0.0,0.0
26912989,26910067,2490402,7917.6562,15.464172,139.39648,nan,nan,nan,nan,nan,nan,nan,nan,7.4521713,nan,nan,nan,nan,nan,0.0,0.0,0.0
26928160,26925223,2490402,7917.6562,15.464172,139.39648,nan,nan,nan,nan,nan,nan,nan,nan,7.594413,nan,nan,nan,nan,nan,0.0,0.0,0.0
27221154,27218235,2490402,7917.6562,15.464172,139.24794,nan,nan,nan,nan,nan,nan,nan,nan,7.4449086,nan,nan,nan,nan,nan,0.0,0.0,0.0
27317189,27314222,2490402,7917.6562,15.464172,139.24794,nan,nan,nan,nan,nan,nan,nan,nan,7.2312756,nan,nan,nan,nan,nan,0.0,0.0,0.0
27428259,27427890,2490402,7917.6562,15.464172,139.24794,nan,nan,nan,nan,nan,nan,nan,nan,7.269574,nan,nan,nan,nan,nan,0.0,0.0,0.0
27575531,27571870,2490402,7917.6562,15.464172,139.24794,nan,nan,nan,nan,nan,nan,nan,nan,7.6240807,nan,nan,nan,nan,nan,0.0,0.0,0.0
27640558,27637545,2490402,7917.6562,15.464172,139.24794,nan,nan,nan,nan,nan,nan,nan,nan,7.4311852,nan,nan,nan,nan,nan,0.0,0.0,0.0
27685941,27685539,2490402,7917.6562,15.464172,139.24794,nan,nan,nan,nan,nan,nan,nan,nan,8.480484,nan,nan,nan,nan,nan,0.0,0.0,0.0
27802154,27799207,2490402,7917.6562,15.464172,140.25749,nan,nan,nan,nan,nan,nan,nan,nan,7.2836266,nan,nan,nan,nan,nan,0.0,0.0,0.0
27913362,27912876,2490402,7917.6562,15.464172,140.32623,nan,nan,nan,nan,nan,nan,nan,nan,7.755271,nan,nan,nan,nan,nan,0.0,0.0,0.0
28287092,28284194,2490402,7917.6562,15.464172,140.32623,nan,nan,nan,nan,nan,nan,nan,nan,7.1799574,nan,nan,nan,nan,nan,0.0,0.0,0.0
28448777,28445855,2490402,7917.6562,15.464172,140.32623,nan,nan,nan,nan,nan,nan,nan,nan,6.7691684,nan,nan,nan,nan,nan,0.0,0.0,0.0
28559893,28559523,2490402,7917.6562,15.464172,140.32623,nan,nan,nan,nan,nan,nan,nan,nan,7.2743616,nan,nan,nan,nan,nan,0.0,0.0,0.0
28595299,28592361,2490402,7917.6562,15.464172,140.32623,nan,nan,nan,nan,nan,nan,nan,nan,7.3468943,nan,nan,nan,nan,nan,0.0,0.0,0.0
28706528,28703503,2490402,7917.6562,15.464172,140.32623,nan,nan,nan,nan,nan,nan,nan,nan,7.761381,nan,nan,nan,nan,nan,0.0,0.0,0.0
28736775,28736341,2490402,7917.6562,15.464172,140.25749,nan,nan,nan,nan,nan,nan,nan,nan,5.3081994,nan,nan,nan,nan,nan,0.0,0.0,0.0
28787295,28784334,2490402,7917.6562,15.464172,139.24794,nan,nan,nan,nan,nan,nan,nan,nan,7.643854,nan,nan,nan,nan,nan,0.0,0.0,0.0
29044884,29044509,2490402,7917.6562,15.464172,139.24794,nan,nan,nan,nan,nan,nan,nan,nan,7.5445914,nan,nan,nan,nan,nan,0.0,0.0,0.0
29257060,29254164,2490402,7917.6562,15.464172,139.17755,nan,nan,nan,nan,nan,nan,nan,nan,8.005246,nan,nan,nan,nan,nan,0.0,0.0,0.0
29302560,29302157,2490402,7917.6562,15.464172,139.17755,nan,nan,nan,nan,nan,nan,nan,nan,7.132262,nan,nan,nan,nan,nan,0.0,0.0,0.0
29353098,29350151,2490402,7917.6562,15.464172,139.24794,nan,nan,nan,nan,nan,nan,nan,nan,7.746583,nan,nan,nan,nan,nan,0.0,0.0,0.0
29691526,29691156,2490402,7917.6562,15.464172,139.24794,nan,nan,nan,nan,nan,nan,nan,nan,7.5582275,nan,nan,nan,nan,nan,0.0,0.0,0.0
29757237,29754305,2490402,7917.6562,15.464172,139.24794,nan,nan,nan,nan,nan,nan,nan,nan,8.724527,nan,nan,nan,nan,nan,0.0,0.0,0.0
29808456,29804824,2490402,7917.6562,15.464172,139.24794,nan,nan,nan,nan,nan,nan,nan,nan,8.6437,nan,nan,nan,nan,nan,0.0,0.0,0.0
29868481,29867973,2490402,7917.6562,15.464172,140.25583,nan,nan,nan,nan,nan,nan,nan,nan,7.2675934,nan,nan,nan,nan,nan,0.0,0.0,0.0
29918897,29915967,2490402,7917.6562,15.464172,140.25583,nan,nan,nan,nan,nan,nan,nan,nan,6.762068,nan,nan,nan,nan,nan,0.0,0.0,0.0
30307891,30304966,2490402,7917.6562,15.464172,139.24794,nan,nan,nan,nan,nan,nan,nan,nan,7.7879286,nan,nan,nan,nan,nan,0.0,0.0,0.0
30676734,30676283,2490402,7917.6562,15.464172,139.17755,nan,nan,nan,nan,nan,nan,nan,nan,5.532585,nan,nan,nan,nan,nan,0.0,0.0,0.0
30712103,30709120,2490402,7917.6562,15.464172,139.17755,46.392517,nan,nan,nan,nan,nan,nan,nan,5.532585,5.466156,nan,nan,nan,nan,0.0,0.0,0.0
30727528,30724276,2490402,7917.6562,15.464172,139.17755,46.392517,47.170288,nan,nan,nan,nan,nan,nan,5.532585,5.466156,7.436432,nan,nan,nan,0.0,0.0,0.0
30742335,30741958,2490402,7917.6562,15.464172,139.17755,46.392517,47.170288,nan,nan,nan,nan,nan,nan,7.6525474,5.466156,7.436432,nan,nan,nan,0.0,0.0,0.0
30823182,30822789,2490402,7917.6562,15.464172,139.17755,46.48719,47.170288,nan,nan,nan,nan,nan,nan,7.6525474,8.584505,7.436432,nan,nan,nan,0.0,0.0,0.0
30838401,30837944,2490402,7917.6562,15.464172,139.17755,46.48719,46.392517,nan,nan,nan,nan,nan,nan,7.0706024,8.584505,8.853216,nan,nan,nan,0.0,0.0,0.0
30904018,30903620,2490402,7917.6562,15.464172,139.17755,47.170288,47.170288,nan,nan,nan,nan,nan,nan,7.2889414,8.81299,5.6156597,nan,nan,nan,0.0,0.0,0.0
30954511,30951613,2490402,7917.6562,15.464172,139.17755,47.170288,47.170288,nan,nan,nan,nan,nan,nan,7.278934,8.570843,5.6156597,nan,nan,nan,0.0,0.0,0.0
31020388,31017288,2490402,7917.6562,15.464172,139.17755,47.170288,nan,nan,nan,nan,nan,nan,nan,8.700697,8.817764,nan,nan,nan,nan,0.0,0.0,0.0
31065654,31065281,2490402,7917.6562,15.464172,139.17755,46.392517,47.170288,nan,nan,nan,nan,nan,nan,7.2814326,7.702016,8.805449,nan,nan,nan,0.0,0.0,0.0
31116173,31113275,2490402,7917.6562,15.464172,139.17755,46.392517,47.170288,nan,nan,nan,nan,nan,nan,8.302373,7.702016,8.805449,nan,nan,nan,0.0,0.0,0.0
31181860,31178950,2490402,7917.6562,15.464172,140.32623,nan,nan,nan,nan,nan,nan,nan,nan,7.635002,nan,nan,nan,nan,nan,0.0,0.0,0.0
31343547,31340612,2490402,7917.6562,15.464172,140.32623,nan,nan,nan,nan,nan,nan,nan,nan,7.4440565,nan,nan,nan,nan,nan,0.0,0.0,0.0
31697272,31694247,2490402,7917.6562,15.464172,140.32623,nan,nan,nan,nan,nan,nan,nan,nan,7.2826867,nan,nan,nan,nan,nan,0.0,0.0,0.0
31762830,31759922,2490402,7917.6562,15.464172,139.32608,nan,nan,nan,nan,nan,nan,nan,nan,7.402972,nan,nan,nan,nan,nan,0.0,0.0,0.0
31909342,31906428,2490402,7917.6562,15.464172,140.32623,nan,nan,nan,nan,nan,nan,nan,nan,7.132804,nan,nan,nan,nan,nan,0.0,0.0,0.0
31924504,31921584,2490402,7917.6562,15.464172,139.32608,nan,nan,nan,nan,nan,nan,nan,nan,7.625798,nan,nan,nan,nan,nan,0.0,0.0,0.0
31990179,31987259,2490402,7917.6562,15.464172,139.24794,nan,nan,nan,nan,nan,nan,nan,nan,6.975688,nan,nan,nan,nan,nan,0.0,0.0,0.0
32131671,32131239,2490402,7917.6562,15.464172,139.24794,nan,nan,nan,nan,nan,nan,nan,nan,7.6774178,nan,nan,nan,nan,nan,0.0,0.0,0.0
32152217,32148921,2490402,7917.6562,15.464172,139.17755,nan,nan,nan,nan,nan,nan,nan,nan,7.618795,nan,nan,nan,nan,nan,0.0,0.0,0.0
32197282,32196914,2490402,7917.6562,15.464172,139.17755,nan,nan,nan,nan,nan,nan,nan,nan,7.6775455,nan,nan,nan,nan,nan,0.0,0.0,0.0
32247824,32244907,2490402,7917.6562,15.464172,141.94962,nan,nan,nan,nan,nan,nan,nan,nan,7.4782267,nan,nan,nan,nan,nan,0.0,0.0,0.0
32313511,32310583,2490402,7917.6562,15.464172,139.24794,nan,nan,nan,nan,nan,nan,nan,nan,7.3347893,nan,nan,nan,nan,nan,0.0,0.0,0.0
32359191,32358576,2490402,7917.6562,15.464172,141.15265,nan,nan,nan,nan,nan,nan,nan,nan,8.334876,nan,nan,nan,nan,nan,0.0,0.0,0.0
32409467,32406569,2490402,7917.6562,15.464172,141.15265,nan,nan,nan,nan,nan,nan,nan,nan,8.620842,nan,nan,nan,nan,nan,0.0,0.0,0.0
32424682,32421725,2490402,7917.6562,15.464172,140.32623,nan,nan,nan,nan,nan,nan,nan,nan,7.411826,nan,nan,nan,nan,nan,0.0,0.0,0.0
32520618,32520238,2490402,7917.6562,15.464172,140.32623,nan,nan,nan,nan,nan,nan,nan,nan,7.91348,nan,nan,nan,nan,nan,0.0,0.0,0.0
32586366,32583387,2490402,7917.6562,15.464172,139.24794,nan,nan,nan,nan,nan,nan,nan,nan,7.572617,nan,nan,nan,nan,nan,0.0,0.0,0.0
32697507,32697055,2490402,7917.6562,15.464172,139.24794,nan,nan,nan,nan,nan,nan,nan,nan,7.2809286,nan,nan,nan,nan,nan,0.0,0.0,0.0
32813639,32810724,2490402,7917.6562,15.464172,139.24794,nan,nan,nan,nan,nan,nan,nan,nan,7.1179557,nan,nan,nan,nan,nan,0.0,0.0,0.0
33071660,33068372,2490402,7917.6562,15.464172,139.24794,nan,nan,nan,nan,nan,nan,nan,nan,7.295827,nan,nan,nan,nan,nan,0.0,0.0,0.0
33328919,33328547,2490402,7917.6562,15.464172,139.24794,nan,nan,nan,nan,nan,nan,nan,nan,7.119302,nan,nan,nan,nan,nan,0.0,0.0,0.0
33460268,33457371,2490402,7917.6562,15.464172,139.24794,nan,nan,nan,nan,nan,nan,nan,nan,6.9863977,nan,nan,nan,nan,nan,0.0,0.0,0.0
33505773,33505364,2490402,7917.6562,15.464172,139.24794,46.392517,nan,nan,nan,nan,nan,nan,nan,6.9863977,7.2232122,nan,nan,nan,nan,0.0,0.0,0.0
33606788,33603877,2490402,7917.6562,15.464172,139.24794,46.392517,nan,nan,nan,nan,nan,nan,nan,7.2979536,7.2232122,nan,nan,nan,nan,0.0,0.0,0.0
33621951,33619033,2490402,7917.6562,15.464172,139.24794,nan,nan,nan,nan,nan,nan,nan,nan,7.3451614,nan,nan,nan,nan,nan,0.0,0.0,0.0
33667444,33667026,2490402,7917.6562,15.464172,139.24794,46.392517,nan,nan,nan,nan,nan,nan,nan,7.3451614,7.3951435,nan,nan,nan,nan,0.0,0.0,0.0
33687622,33684708,2490402,7917.6562,15.464172,139.24794,46.392517,46.392517,nan,nan,nan,nan,nan,nan,7.3451614,7.3951435,7.5455246,nan,nan,nan,0.0,0.0,0.0
33748285,33747857,2490402,7917.6562,15.464172,140.25749,46.392517,46.392517,nan,nan,nan,nan,nan,nan,7.58147,7.807395,7.5455246,nan,nan,nan,0.0,0.0,0.0
33798795,33795850,2490402,7917.6562,15.464172,140.25749,46.392517,46.392517,nan,nan,nan,nan,nan,nan,7.58147,7.807395,8.596046,nan,nan,nan,0.0,0.0,0.0
33849378,33846370,2490402,7917.6562,15.464172,139.26865,46.392517,46.392517,nan,nan,nan,nan,nan,nan,8.689257,7.807395,8.596046,nan,nan,nan,0.0,0.0,0.0
33894736,33894364,2490402,7917.6562,15.464172,139.7068,nan,46.392517,nan,nan,nan,nan,nan,nan,8.613594,nan,8.596046,nan,nan,nan,0.0,0.0,0.0
33945389,33942356,2490402,7917.6562,15.464172,139.7068,46.392517,nan,nan,nan,nan,nan,nan,nan,6.7669625,8.548108,nan,nan,nan,nan,0.0,0.0,0.0
34091791,34088862,2490402,7917.6562,15.464172,139.26865,nan,nan,nan,nan,nan,nan,nan,nan,7.165673,nan,nan,nan,nan,nan,0.0,0.0,0.0
34106918,34104018,2490402,7917.6562,15.464172,139.26865,nan,nan,nan,nan,nan,nan,nan,nan,7.339606,nan,nan,nan,nan,nan,0.0,0.0,0.0
34122113,34119174,2490402,7917.6562,15.464172,139.24794,nan,nan,nan,nan,nan,nan,nan,nan,7.277028,nan,nan,nan,nan,nan,0.0,0.0,0.0
34152417,34152012,2490402,7917.6562,15.464172,139.17755,nan,nan,nan,nan,nan,nan,nan,nan,6.699298,nan,nan,nan,nan,nan,0.0,0.0,0.0
34233251,34232842,2490402,7917.6562,15.464172,139.17755,nan,nan,nan,nan,nan,nan,nan,nan,5.4704742,nan,nan,nan,nan,nan,0.0,0.0,0.0
34284081,34280836,2490402,7917.6562,15.464172,139.17755,47.170288,nan,nan,nan,nan,nan,nan,nan,5.4704742,7.1514297,nan,nan,nan,nan,0.0,0.0,0.0
34379716,34379348,2490402,7917.6562,15.464172,139.17755,47.170288,nan,nan,nan,nan,nan,nan,nan,6.496325,7.1514297,nan,nan,nan,nan,0.0,0.0,0.0
34511094,34508173,2490402,7917.6562,15.464172,nan,47.170288,nan,nan,nan,nan,nan,nan,nan,nan,6.9307365,nan,nan,nan,nan,0.0,0.0,0.0
34576784,34573848,2490402,7917.6562,15.464172,nan,46.392517,nan,nan,nan,nan,nan,nan,nan,nan,8.858867,nan,nan,nan,nan,0.0,0.0,0.0
34657638,34654679,2490402,7917.6562,15.464172,139.17755,46.392517,nan,nan,nan,nan,nan,nan,nan,7.294756,8.858867,nan,nan,nan,nan,0.0,0.0,0.0
34687956,34684990,2490402,7917.6562,15.464172,139.17755,46.392517,nan,nan,nan,nan,nan,nan,nan,7.294756,7.826369,nan,nan,nan,nan,0.0,0.0,0.0
34718292,34717829,2490402,7917.6562,15.464172,139.17755,46.392517,46.392517,nan,nan,nan,nan,nan,nan,7.294756,7.826369,8.514232,nan,nan,nan,0.0,0.0,0.0
34768774,34765821,2490402,7917.6562,15.464172,139.17755,46.392517,46.392517,nan,nan,nan,nan,nan,nan,7.5480976,7.826369,8.514232,nan,nan,nan,0.0,0.0,0.0
34783876,34783503,2490402,7917.6562,15.464172,139.17755,46.392517,46.392517,nan,nan,nan,nan,nan,nan,7.5480976,9.021786,8.514232,nan,nan,nan,0.0,0.0,0.0
34864724,34864334,2490402,7917.6562,15.464172,139.17755,46.392517,nan,nan,nan,nan,nan,nan,nan,9.339583,9.021786,nan,nan,nan,nan,0.0,0.0,0.0
34996052,34993158,2490402,7917.6562,15.464172,137.27086,nan,nan,nan,nan,nan,nan,nan,nan,7.2237635,nan,nan,nan,nan,nan,0.0,0.0,0.0
35041578,35041152,2490402,7917.6562,15.464172,137.27086,nan,nan,nan,nan,nan,nan,nan,nan,7.3635893,nan,nan,nan,nan,nan,0.0,0.0,0.0
35142592,35139664,2490402,7917.6562,15.464172,137.27086,nan,nan,nan,nan,nan,nan,nan,nan,7.337186,nan,nan,nan,nan,nan,0.0,0.0,0.0
35304269,35301326,2490402,7917.6562,15.464172,137.27086,nan,nan,nan,nan,nan,nan,nan,nan,7.2467947,nan,nan,nan,nan,nan,0.0,0.0,0.0
35400212,35397313,2490402,7917.6562,15.464172,139.10716,nan,nan,nan,nan,nan,nan,nan,nan,7.549985,nan,nan,nan,nan,nan,0.0,0.0,0.0
35708398,35705481,2490402,7917.6562,15.464172,139.17755,nan,nan,nan,nan,nan,nan,nan,nan,6.8095284,nan,nan,nan,nan,nan,0.0,0.0,0.0
35804461,35801467,2490402,7917.6562,15.464172,139.17755,nan,nan,nan,nan,nan,nan,nan,nan,7.7549133,nan,nan,nan,nan,nan,0.0,0.0,0.0
36208519,36205622,2490402,7917.6562,15.464172,139.17755,nan,nan,nan,nan,nan,nan,nan,nan,14.257737,nan,nan,nan,nan,nan,0.0,0.0,0.0
36238839,36238459,2490402,7917.6562,15.464172,139.17755,nan,nan,nan,nan,nan,nan,nan,nan,8.822166,nan,nan,nan,nan,nan,0.0,0.0,0.0
36254114,36253615,2490402,7917.6562,15.464172,139.10716,nan,nan,nan,nan,nan,nan,nan,nan,14.562746,nan,nan,nan,nan,nan,0.0,0.0,0.0
36304563,36301608,2490402,7917.6562,15.464172,139.10716,nan,nan,nan,nan,nan,nan,nan,nan,6.2862234,nan,nan,nan,nan,nan,0.0,0.0,0.0
36355038,36352128,2490402,7917.6562,15.464172,137.27086,nan,nan,nan,nan,nan,nan,nan,nan,6.8872633,nan,nan,nan,nan,nan,0.0,0.0,0.0
36415715,36415277,2490402,7917.6562,15.464172,137.27086,nan,nan,nan,nan,nan,nan,nan,nan,8.15102,nan,nan,nan,nan,nan,0.0,0.0,0.0
36451039,36448115,2490402,7917.6562,15.464172,137.27086,nan,nan,nan,nan,nan,nan,nan,nan,13.4730015,nan,nan,nan,nan,nan,0.0,0.0,0.0
36481345,36480952,2490402,7917.6562,15.464172,137.98022,nan,nan,nan,nan,nan,nan,nan,nan,6.0487413,nan,nan,nan,nan,nan,0.0,0.0,0.0
36522073,36518842,2490402,7917.6562,15.464172,137.98022,nan,nan,45.031002,nan,nan,nan,nan,nan,6.0487413,nan,nan,11.546098,nan,nan,0.0,0.0,0.0
36577370,36576939,2490402,7917.6562,15.464172,136.3351,nan,nan,45.031002,nan,nan,nan,nan,nan,10.053969,nan,nan,11.546098,nan,nan,0.0,0.0,0.0
36642982,36642614,2490402,7917.6562,15.464172,138.03996,46.392517,nan,45.031002,nan,nan,nan,nan,nan,7.4783278,11.03691,nan,11.546098,nan,nan,0.0,0.0,0.0
36714022,36710815,2490402,7917.6562,15.464172,138.03996,46.392517,nan,45.72322,nan,nan,nan,nan,nan,7.4783278,11.03691,nan,8.411791,nan,nan,0.0,0.0,0.0
36759253,36756282,2490402,7917.6562,15.464172,138.03996,46.392517,nan,46.392517,nan,nan,nan,nan,nan,9.3377285,10.377702,nan,10.710788,nan,nan,0.0,0.0,0.0
36809755,36809328,2490402,7917.6562,15.464172,138.03996,46.392517,nan,58.78745,nan,nan,nan,nan,nan,9.3377285,9.046343,nan,10.052723,nan,nan,0.0,0.0,0.0
36855163,36852269,2490402,7917.6562,15.464172,138.03996,46.769165,nan,60.685654,nan,nan,nan,nan,nan,10.605194,9.403196,nan,7.5939965,nan,nan,0.0,0.0,0.0
36900720,36900262,2490402,7917.6562,15.464172,137.48376,46.769165,nan,60.685654,nan,nan,nan,nan,nan,7.338353,10.890497,nan,9.363508,nan,nan,0.0,0.0,0.0
36956241,36953308,2490402,7917.6562,15.464172,135.19386,47.89354,nan,64.246864,nan,nan,nan,nan,nan,11.071811,10.117952,nan,10.568365,nan,nan,0.0,0.0,0.0
37006721,37003827,2490402,7917.6562,15.464172,128.62859,43.223972,nan,66.74495,nan,nan,nan,nan,nan,10.544257,11.8908615,nan,10.061281,nan,nan,0.0,0.0,0.0
37052401,37051820,2490402,7917.6562,15.464172,125.46932,43.223972,nan,77.32086,nan,nan,nan,nan,nan,11.044226,11.745039,nan,10.096068,nan,nan,0.0,0.0,0.0
37102750,37099814,2490402,7917.6562,15.464172,124.27034,76.90585,46.392517,86.89976,36.66282,nan,nan,nan,nan,9.142187,9.314252,11.47629,9.773904,10.494829,nan,0.0,0.0,0.0
37143275,37142755,2490402,7917.6562,15.464172,124.27034,77.32086,46.392517,83.30765,36.66282,nan,nan,nan,nan,9.142187,10.875185,11.231504,11.715761,12.117596,nan,0.0,0.0,0.0
37208959,37208430,2490402,7917.6562,15.464172,124.27034,78.48523,43.019768,80.846436,44.340725,nan,nan,nan,nan,7.904129,10.33471,11.649431,10.981819,11.840168,nan,0.0,0.0,0.0
37259326,37256424,2490402,7917.6562,15.464172,125.005165,76.5912,43.019768,80.553955,42.695446,nan,nan,nan,nan,11.094759,10.209408,11.649431,10.338152,10.392913,nan,0.0,0.0,0.0
37309836,37309469,2490402,7917.6562,15.464172,125.005165,74.71687,41.70976,95.09913,44.340725,nan,nan,nan,nan,10.281554,7.131472,13.5525875,10.020066,10.890616,nan,0.0,0.0,0.0
37355350,37352410,2490402,7917.6562,15.464172,125.09566,74.71687,43.019768,95.09913,47.394073,nan,nan,nan,nan,10.434057,7.131472,12.365435,9.899722,9.270271,nan,0.0,0.0,0.0
37405943,37402930,2490402,7917.6562,15.464172,126.59638,74.71687,48.495777,95.09913,51.553513,nan,nan,nan,nan,10.611211,12.658508,14.994719,12.17271,11.397229,nan,0.0,0.0,0.0
37456380,37455975,2490402,7917.6562,15.464172,137.75624,71.926796,49.783596,95.09913,60.804844,nan,nan,nan,nan,10.740492,8.714102,13.192329,12.733678,11.829842,nan,nan,nan,nan
37507102,37503968,2490402,7917.6562,15.464172,137.75624,71.926796,49.783596,92.864006,65.600494,nan,nan,nan,nan,10.740492,11.613728,13.192329,8.05915,11.17914,nan,nan,nan,nan
37552334,37551962,2490402,7917.6562,15.464172,137.75624,71.039764,49.180176,92.864006,66.36725,nan,nan,nan,nan,11.607679,10.7692995,10.780025,10.464518,10.464518,nan,nan,nan,nan
37602874,37599955,2490402,7917.6562,15.464172,140.50008,65.641685,49.180176,92.864006,67.44632,nan,nan,nan,nan,9.896528,10.563874,10.780025,12.106146,12.843006,nan,nan,nan,nan
37653427,37650474,2490402,7917.6562,15.464172,142.43698,65.641685,48.939896,119.319756,65.54496,67.6832,nan,nan,nan,13.302307,10.563874,9.848768,10.182352,11.753844,13.142972,nan,nan,nan
37708983,37708571,2490402,7917.6562,15.464172,137.9545,65.5203,53.777794,125.00268,65.54496,74.61561,131.05064,nan,nan,16.259295,11.684702,10.3320875,14.454533,10.514492,14.022467,12.185174,nan,nan
37759503,37756565,2490402,7917.6562,15.464172,137.9545,72.40612,53.777794,138.01596,65.54496,74.14836,136.7957,nan,nan,15.248318,12.371274,10.3320875,13.901918,10.000998,15.621588,10.502388,nan,nan
37810004,37807084,2490402,7917.6562,15.464172,140.57158,72.90104,56.501232,140.0481,65.54496,73.94083,139.68173,nan,nan,14.196301,14.843914,9.336099,11.485878,10.000998,16.329918,10.110674,nan,nan
37860890,37860129,2490402,7917.6562,15.464172,141.64189,75.674194,56.501232,142.8102,nan,76.08042,142.46686,71.17796,nan,8.23341,15.037217,9.336099,11.636921,nan,16.131544,10.755373,12.365766,nan
37905967,37903071,2490402,7917.6562,15.464172,141.64189,77.92421,nan,143.12317,nan,76.685196,142.77788,73.68823,nan,8.23341,13.9387665,nan,12.614232,nan,13.657188,10.274553,11.248503,nan
37961590,37961168,2490402,7917.6562,15.464172,140.57158,78.77927,56.501232,142.8102,nan,79.440094,143.0988,76.72267,nan,11.76013,14.286185,10.431505,11.451649,nan,14.937166,11.115665,7.993046,nan
38007023,38004110,2490402,7917.6562,15.464172,140.29503,80.866844,56.501232,143.61218,nan,81.03727,143.0988,76.946625,nan,10.693958,13.503271,10.431505,9.852281,nan,15.750403,11.115665,10.468568,nan
38057579,38054629,2490402,7917.6562,15.464172,139.27103,81.94071,69.28099,142.01807,65.54496,82.15169,143.16124,79.40329,nan,7.3339987,14.578709,8.858244,9.199692,16.178627,4.2181067,8.623411,10.53566,nan
38108316,38107674,2490402,7917.6562,15.464172,139.07237,88.76984,69.28099,136.92302,65.54496,89.66734,143.16124,80.92537,nan,12.240243,13.043052,8.47356,11.148992,16.178627,16.499773,6.822792,8.834389,nan
38158567,38155667,2490402,7917.6562,15.464172,139.07237,90.52532,69.28099,142.01807,67.25462,91.32657,143.16264,82.18981,nan,13.275749,14.167107,8.47356,12.637023,10.630006,16.642048,8.283997,10.394068,nan
38204068,38203661,2490402,7917.6562,15.464172,139.07237,91.78697,nan,139.42099,67.25462,92.153694,143.16264,82.18981,nan,10.08122,11.298722,nan,8.446963,11.491513,18.106064,8.283997,8.146411,nan
38259622,38259232,2490402,7917.6562,15.464172,140.04062,95.408676,nan,141.15544,68.09851,93.91782,141.94962,82.18981,nan,11.659699,11.370296,nan,9.568756,6.8455944,17.299778,8.886113,8.146411,nan
38310133,38307225,2490402,7917.6562,15.464172,140.51343,96.294525,61.671494,141.15544,82.52839,95.542534,141.94962,82.08372,nan,10.921454,13.35535,8.93747,10.541692,10.3930855,16.259504,11.824121,10.541148,nan
38360670,38360271,2490402,7917.6562,15.464172,140.51343,105.22971,69.8893,139.58482,82.52839,102.137184,141.94962,91.091255,nan,10.813269,15.788833,11.531853,11.360271,11.804239,18.271301,8.944549,9.872824,nan
38406157,38403212,2490402,7917.6562,15.464172,142.70714,105.60239,69.8893,141.907,82.52839,105.03199,141.94962,92.785034,nan,10.362159,14.141549,11.531853,10.275875,11.804239,16.883305,8.944549,10.799693,nan
38456673,38453731,2490402,7917.6562,15.464172,142.70714,106.32135,69.8893,139.5841,82.52839,106.4866,nan,107.09857,nan,10.362159,13.15462,11.531853,6.190198,8.803864,17.20184,nan,11.102115,nan
38512264,38511829,2490402,7917.6562,15.464172,143.46472,108.05208,nan,139.5841,83.520355,107.56379,nan,108.24921,nan,10.98247,14.416236,nan,11.652567,7.7550297,16.563555,nan,10.433521,nan
38558120,38554770,2490402,7917.6562,15.464172,140.71404,110.32973,nan,139.03212,83.520355,109.693565,nan,109.72661,nan,10.197893,15.857296,nan,13.648996,7.7550297,17.73912,nan,11.085758,nan
38603160,38602763,2490402,7917.6562,15.464172,140.71404,111.38302,nan,138.40666,84.5307,111.78212,nan,110.24239,nan,10.197893,15.473188,nan,12.364164,11.514627,16.839752,nan,10.419512,nan
38658753,38655809,2490402,7917.6562,15.464172,140.71404,111.598236,nan,138.40666,83.520355,112.288284,nan,110.24239,nan,15.322855,15.090487,nan,12.364164,10.559622,16.432283,nan,8.931285,nan
38709286,38706328,2490402,7917.6562,15.464172,140.71404,118.406395,nan,138.40666,83.520355,119.92896,nan,111.79812,nan,15.322855,16.15041,nan,12.364164,11.008382,17.620049,nan,10.025477,nan
38760126,38759373,2490402,7917.6562,15.464172,133.61913,121.683556,nan,nan,89.25549,121.1037,141.71732,114.00489,nan,10.151295,15.107623,nan,nan,13.40094,16.982388,10.533576,8.86671,nan
38805200,38802315,2490402,7917.6562,15.464172,133.61913,122.5977,nan,nan,89.25549,123.5087,141.71732,121.17363,nan,10.151295,14.74739,nan,nan,11.019693,16.441772,10.533576,9.46144,nan
38860860,38857886,2490402,7917.6562,15.464172,nan,125.38905,nan,nan,80.55524,124.679596,140.19202,122.39678,nan,nan,15.355395,nan,nan,11.453547,16.714224,11.800531,10.0915165,nan
38911398,38910931,2490402,7917.6562,15.464172,120.16947,125.73288,nan,nan,71.539,126.923,139.6793,122.39678,nan,10.112398,15.058255,nan,nan,10.657567,16.716116,11.547558,10.813137,nan
38956785,38953873,2490402,7917.6562,15.464172,120.16947,128.30426,nan,nan,71.539,127.54373,139.6793,125.01947,nan,10.112398,15.164299,nan,nan,10.657567,16.924765,11.547558,13.189796,nan
39012449,39011970,2490402,7917.6562,15.464172,114.98695,133.64412,nan,137.8644,68.913895,127.66759,134.37766,126.75213,nan,11.005672,16.170004,nan,16.705168,11.129625,16.316092,14.474075,13.446888,nan
39057808,39054911,2490402,7917.6562,15.464172,112.88796,137.46884,nan,137.74019,71.539,127.66759,136.44173,126.75213,nan,8.306095,17.211838,nan,17.371952,10.58248,16.316092,15.303041,13.446888,nan
39108320,39105431,2490402,7917.6562,15.464172,112.88796,138.00436,nan,138.31284,79.881775,127.66759,137.79253,nan,nan,9.087664,18.690088,nan,18.90456,9.838063,10.639419,15.902152,nan,nan
39158889,39158476,2490402,7917.6562,15.464172,112.88796,138.42886,nan,139.00117,80.91098,128.01071,138.68207,nan,nan,9.087664,19.405445,nan,19.054922,10.063015,7.991216,16.745173,nan,nan
39209704,39206469,2490402,7917.6562,15.464172,nan,139.93393,nan,140.09468,79.881775,128.01071,139.93243,nan,nan,nan,19.03685,nan,18.808348,11.251705,7.991216,17.03163,nan,nan
39254860,39254463,2490402,7917.6562,15.464172,nan,140.60161,nan,141.617,79.881775,126.767715,140.74452,nan,nan,nan,19.63534,nan,20.260914,10.643577,9.283024,17.265509,nan,nan
39310396,39310034,2490402,7917.6562,15.464172,113.85955,141.91391,nan,142.40276,80.91098,126.52428,140.97925,nan,nan,7.778566,17.435123,nan,19.129427,6.2852983,11.47892,16.777084,nan,nan
39360923,39358027,2490402,7917.6562,15.464172,114.11094,143.93364,nan,143.35867,89.851425,126.52428,141.62344,nan,nan,6.971047,16.03339,nan,19.170956,10.607587,11.47892,12.7444315,nan,nan
39411459,39411072,2490402,7917.6562,15.464172,114.11094,144.90097,nan,145.30663,91.86449,126.767715,144.42041,nan,nan,6.971047,13.098973,nan,19.571964,4.6227474,4.273052,16.185509,nan,nan
39457449,39454014,2490402,7917.6562,15.464172,114.98695,145.40587,nan,145.86205,89.86755,126.767715,144.56863,nan,nan,7.3574615,15.276781,nan,18.394588,8.150662,4.273052,16.434471,nan,nan
39507444,39504533,2490402,7917.6562,15.464172,114.11094,144.50963,nan,147.06735,89.86755,nan,145.41315,nan,nan,8.613361,14.787409,nan,17.910938,8.150662,nan,14.83789,nan,nan
39557985,39557578,2490402,7917.6562,15.464172,115.36168,145.40587,nan,147.93758,nan,nan,145.41315,nan,nan,8.897494,11.70733,nan,16.753004,nan,nan,14.433523,nan,nan
39608511,39605572,2490402,7917.6562,15.464172,115.36168,146.48637,nan,148.07239,nan,nan,146.65497,nan,nan,8.897494,14.773126,nan,15.745052,nan,nan,12.87747,nan,nan
39654039,39653565,2490402,7917.6562,15.464172,nan,146.68742,nan,147.36447,nan,nan,147.79224,nan,nan,nan,13.072897,nan,11.300134,nan,nan,10.061834,nan,nan
39709517,39706610,2490402,7917.6562,15.464172,nan,147.88612,nan,148.2475,nan,nan,145.5221,nan,nan,nan,14.616028,nan,15.99045,nan,nan,11.969837,nan,nan
39760059,39757130,2490402,7917.6562,15.464172,nan,147.88612,nan,145.6621,89.86755,nan,145.5221,nan,nan,nan,8.243896,nan,11.349459,10.089536,nan,11.469482,nan,nan
39810576,39810175,2490402,7917.6562,15.464172,nan,147.88612,nan,145.6621,89.86755,nan,143.59225,nan,nan,nan,11.317588,nan,11.31281,10.089536,nan,10.439655,nan,nan
39856024,39853117,2490402,7917.6562,15.464172,nan,146.21085,nan,141.92307,92.53443,nan,143.59225,nan,nan,nan,13.986795,nan,14.6791935,10.861685,nan,12.136116,nan,nan
39901512,39901110,2490402,7917.6562,15.464172,nan,145.49805,nan,141.92307,93.641075,nan,142.01054,nan,nan,nan,12.328738,nan,12.778039,11.250177,nan,10.009811,nan,nan
39952004,39949103,2490402,7917.6562,15.464172,nan,143.61317,nan,141.92307,96.56899,nan,139.8008,nan,nan,nan,9.525154,nan,10.90678,10.8906555,nan,10.210695,nan,nan
40007564,40004674,2490402,7917.6562,15.464172,nan,141.68233,nan,142.73434,94.236786,nan,140.0835,nan,nan,nan,13.2996855,nan,12.53721,10.39391,nan,12.051199,nan,nan
40058081,40057720,2490402,7917.6562,15.464172,nan,142.82437,nan,140.77641,94.027504,nan,139.8008,nan,nan,nan,10.251854,nan,10.144673,9.920207,nan,10.644674,nan,nan
40108948,40105713,2490402,7917.6562,15.464172,nan,143.85904,nan,140.77641,94.236786,nan,141.0451,nan,nan,nan,10.6035595,nan,16.474838,11.328291,nan,9.943351,nan,nan
40159348,40156232,2490402,7917.6562,15.464172,113.47219,143.85904,69.8893,142.41415,93.92925,109.805664,138.31056,126.75213,nan,10.147875,12.473898,11.750246,11.60524,11.412203,10.959929,14.425774,10.649921,nan
40209642,40209278,2490402,7917.6562,15.464172,113.96265,142.53278,69.8893,142.41415,95.24941,109.83161,138.31056,127.007385,nan,10.517339,11.950947,11.750246,12.829386,9.710497,12.82552,12.85282,11.099305,nan
40260154,40257271,2490402,7917.6562,15.464172,111.678406,139.6425,69.8893,141.74042,95.24941,109.83161,138.09705,127.007385,nan,6.064068,12.077045,11.750246,14.21422,9.710497,6.5932775,11.078163,10.404858,nan
40305720,40305264,2490402,7917.6562,15.464172,111.678406,139.6425,70.465294,141.74042,95.24941,109.83161,138.09705,127.330315,nan,6.064068,12.077045,5.77063,14.21422,8.24974,11.915755,11.377845,10.456923,nan
40356211,40353258,2490402,7917.6562,15.464172,111.678406,139.6425,70.465294,140.0114,92.16851,109.83161,139.87083,127.330315,nan,5.5786233,9.4788475,5.77063,14.793817,11.167117,13.479824,11.558681,10.456923,nan
40411727,40408829,2490402,7917.6562,15.464172,111.70328,139.6425,74.958015,140.0114,91.51303,112.938835,140.56935,127.007385,nan,8.377896,10.315193,10.71855,10.069327,13.004606,10.147386,10.805943,8.97499,nan
40457245,40456822,2490402,7917.6562,15.464172,112.769806,140.26428,75.3128,141.26924,89.15872,122.854454,140.66457,127.007385,nan,10.478943,13.022804,8.381678,11.818971,11.636345,12.051133,8.721987,8.782784,nan
40507764,40504816,2490402,7917.6562,15.464172,112.769806,139.91985,75.00036,138.22389,89.15872,122.854454,142.27861,128.08208,nan,6.57515,12.914312,5.3826814,15.259838,6.138876,12.051133,11.42762,9.913094,nan
40558774,40555335,2490402,7917.6562,15.464172,112.769806,138.95888,75.00036,139.8504,89.15872,nan,142.88667,128.5932,nan,6.514766,11.664324,5.3826814,11.471749,6.138876,nan,10.693084,9.442991,nan
40603711,40603328,2490402,7917.6562,15.464172,112.769806,140.88457,75.00036,139.94363,nan,nan,144.2519,128.5932,nan,4.0041714,5.392046,5.8225336,11.930079,nan,nan,10.932578,9.442991,nan
40659329,40656374,2490402,7917.6562,15.464172,112.46976,141.15761,75.00036,140.655,nan,nan,142.27861,nan,nan,5.855091,13.642369,5.8225336,12.493945,nan,nan,13.0253935,nan,nan
40709833,40709419,2490402,7917.6562,15.464172,112.46976,141.20058,75.00036,140.655,nan,nan,140.00597,nan,nan,5.855091,9.24024,4.026242,10.771881,nan,nan,6.666194,nan,nan
40750282,40747308,2490402,7917.6562,15.464172,111.781235,141.15761,75.00036,140.655,nan,nan,140.00597,nan,nan,7.039311,7.7112017,4.026242,10.771881,nan,nan,10.465614,nan,nan
40805789,40802880,2490402,7917.6562,15.464172,111.781235,141.15761,75.00036,140.68445,nan,nan,140.00597,nan,nan,7.039311,7.7112017,4.026242,10.4747505,nan,nan,10.465614,nan,nan
40856478,40855926,2490402,7917.6562,15.464172,111.781235,140.79326,nan,140.68445,nan,nan,139.94186,nan,nan,7.039311,7.154836,nan,10.387584,nan,nan,9.341988,nan,nan
40896702,40893814,2490402,7917.6562,15.464172,112.46976,140.29492,nan,140.68445,nan,nan,139.94186,nan,nan,1.0090175,3.9646554,nan,6.1334662,nan,nan,8.615507,nan,nan
40962400,40959490,2490402,7917.6562,15.464172,112.46976,140.29492,nan,140.97484,nan,nan,140.00597,nan,nan,1.7558622,3.2169623,nan,7.3600025,nan,nan,10.404225,nan,nan
41008235,41007483,2490402,7917.6562,15.464172,112.46976,141.99281,nan,140.97484,nan,nan,140.77417,nan,nan,1.7558622,10.436012,nan,10.449406,nan,nan,9.13652,nan,nan
41058440,41055476,2490402,7917.6562,15.464172,112.46976,142.52571,nan,142.19228,nan,nan,140.77417,nan,nan,10.911408,9.456436,nan,8.236376,nan,nan,9.13652,nan,nan
41108882,41108522,2490402,7917.6562,15.464172,112.46976,142.52571,nan,141.98708,89.58897,nan,139.94186,nan,nan,10.911408,8.806228,nan,5.4150553,7.1178966,nan,8.566568,nan,nan
41159406,41156515,2490402,7917.6562,15.464172,112.46976,143.20673,nan,143.40483,89.698784,nan,139.17755,nan,nan,10.911408,11.646609,nan,11.875498,7.248874,nan,9.464758,nan,nan
41204919,41201982,2490402,7917.6562,15.464172,nan,144.55826,nan,143.40483,89.698784,nan,139.1759,nan,nan,nan,11.101044,nan,10.690488,7.248874,nan,8.728951,nan,nan
41250377,41249976,2490402,7917.6562,15.464172,nan,144.55826,nan,143.90349,90.69351,nan,139.17755,nan,nan,nan,11.410746,nan,9.127862,5.702598,nan,8.545679,nan,nan
41300910,41297969,2490402,7917.6562,15.464172,nan,138.76949,nan,144.33882,90.69351,nan,139.17755,nan,nan,nan,10.672691,nan,10.844473,5.702598,nan,8.647268,nan,nan
41346364,41345963,2490402,7917.6562,15.464172,nan,127.98885,nan,144.33882,90.69351,nan,140.00597,nan,nan,nan,10.695362,nan,10.844473,5.702598,nan,8.677936,nan,nan
41396880,41393956,2490402,7917.6562,15.464172,111.781235,127.95508,nan,143.90349,nan,nan,140.00597,nan,nan,11.067387,10.484331,nan,7.797121,nan,nan,8.677936,nan,nan
41462606,41459631,2490402,7917.6562,15.464172,77.8973,138.66446,nan,140.77417,nan,nan,141.94962,nan,nan,11.183096,12.957201,nan,5.7912006,nan,nan,10.951285,nan,nan
41508067,41507624,2490402,7917.6562,15.464172,78.018196,139.97786,75.00036,140.77417,nan,nan,141.94962,nan,nan,11.125309,10.322857,10.089374,7.0211563,nan,nan,10.951285,nan,nan
41558537,41555618,2490402,7917.6562,15.464172,78.018196,140.92354,75.00036,140.77417,nan,nan,141.94962,nan,nan,10.093245,10.732298,10.089374,7.636113,nan,nan,10.951285,nan,nan
41609038,41606137,2490402,7917.6562,15.464172,79.91088,140.92354,74.533104,140.47476,nan,nan,141.94962,nan,nan,12.393776,8.090867,9.987658,6.866954,nan,nan,10.951285,nan,nan
41654551,41654130,2490402,7917.6562,15.464172,79.91088,139.17755,73.59375,140.47476,nan,nan,141.94962,nan,nan,8.863477,4.97325,8.390176,6.6549883,nan,nan,6.579824,nan,nan
41705029,41702124,2490402,7917.6562,15.464172,79.91088,139.17755,73.22616,140.47476,nan,nan,141.94962,nan,nan,8.292507,8.447915,7.156441,6.6549883,nan,nan,6.579824,nan,nan
41750599,41750117,2490402,7917.6562,15.464172,79.759735,139.17755,73.22616,140.47476,nan,nan,141.94962,nan,nan,6.7617435,8.359621,7.156441,6.6549883,nan,nan,6.579824,nan,nan
41811119,41808214,2490402,7917.6562,15.464172,79.759735,139.17755,72.76165,140.47476,nan,nan,141.94962,nan,nan,6.7617435,8.702958,10.249682,6.6549883,nan,nan,5.504287,nan,nan
41851541,41848630,2490402,7917.6562,15.464172,nan,139.17755,70.219765,140.25749,nan,nan,141.94962,nan,nan,nan,7.1872973,10.008903,6.194956,nan,nan,5.504287,nan,nan
41896983,41896623,2490402,7917.6562,15.464172,nan,138.77255,46.392517,140.25749,nan,nan,141.94962,nan,nan,nan,9.347166,12.436054,6.194956,nan,nan,5.504287,nan,nan
41952592,41949668,2490402,7917.6562,15.464172,nan,138.77255,43.13655,139.24794,nan,nan,141.94962,nan,nan,nan,6.8283234,10.013952,6.064842,nan,nan,5.504287,nan,nan
41987923,41987558,2490402,7917.6562,15.464172,nan,140.00597,43.13655,139.17755,nan,nan,139.17755,nan,nan,nan,6.795267,8.808645,6.6096277,nan,nan,6.802948,nan,nan
42058644,42058285,2490402,7917.6562,15.464172,nan,140.25749,43.13655,139.17755,91.70675,nan,139.17755,nan,nan,nan,9.325467,9.06636,6.6096277,6.0207696,nan,6.802948,nan,nan
42104175,42101227,2490402,7917.6562,15.464172,nan,140.25749,43.401527,139.24794,92.785034,nan,139.17755,nan,nan,nan,9.325467,8.548202,5.9678516,6.4563675,nan,6.7348504,nan,nan
42159706,42159324,2490402,7917.6562,15.464172,nan,140.25749,45.195187,139.17755,92.785034,123.227974,139.17755,nan,nan,nan,9.121064,8.310917,6.341387,6.4563675,5.9925795,6.7348504,nan,nan
42210267,42207317,2490402,7917.6562,15.464172,79.91088,140.25749,45.195187,139.17755,92.785034,123.71338,139.17755,nan,nan,5.2103167,9.121064,8.808221,6.341387,5.3711276,5.1753926,6.7348504,nan,nan
42260820,42257836,2490402,7917.6562,15.464172,79.759735,140.25749,45.195187,139.17755,92.785034,123.71338,139.17755,nan,nan,6.9127216,6.9127216,11.377726,5.6441345,5.3711276,5.7201004,6.7348504,nan,nan
42306275,42305830,2490402,7917.6562,15.464172,79.759735,140.25749,45.195187,139.17755,92.785034,123.71338,139.17755,nan,nan,6.9127216,6.9127216,11.377726,5.9478083,5.9478083,5.7201004,7.157061,nan,nan
42357073,42353823,2490402,7917.6562,15.464172,77.250465,139.17755,43.401527,139.17755,92.785034,123.71338,139.17755,nan,nan,8.660385,6.710087,7.136988,5.432399,5.5023813,5.5830336,7.157061,nan,nan
42397268,42396765,2490402,7917.6562,15.464172,77.10193,139.17755,44.41542,139.17755,92.785034,123.71338,139.17755,nan,nan,7.4729924,6.710087,8.997861,5.432399,5.5023813,5.5830336,7.157061,nan,nan
42447704,42444758,2490402,7917.6562,15.464172,77.10193,139.17755,44.41542,139.17755,123.71338,123.71338,139.17755,nan,nan,7.4729924,10.9807,8.997861,7.347617,4.3150883,5.8297567,7.157061,nan,nan
42498213,42495277,2490402,7917.6562,15.464172,76.54309,139.17755,44.41542,139.17755,123.71338,123.71338,139.17755,nan,nan,8.380789,10.9807,6.9973717,7.347617,4.3150883,5.8297567,7.157061,nan,nan
42548770,42548322,2490402,7917.6562,15.464172,76.79161,139.17755,44.41542,nan,123.71338,nan,139.17755,nan,nan,8.999868,9.579059,9.499023,nan,4.9223757,nan,7.157061,nan,nan
42594173,42591264,2490402,7917.6562,15.464172,76.79161,139.17755,44.41542,nan,123.71338,nan,139.17755,nan,nan,8.999868,7.480674,9.499023,nan,4.9223757,nan,7.157061,nan,nan
42659952,42656939,2490402,7917.6562,15.464172,76.79161,139.17755,nan,nan,123.71338,nan,139.17755,nan,nan,10.770704,7.480674,nan,nan,4.9223757,nan,7.157061,nan,nan
42705300,42704934,2490402,7917.6562,15.464172,76.17218,139.94339,nan,137.98022,nan,nan,139.17755,nan,nan,6.9219055,8.451069,nan,6.6656775,nan,nan,7.157061,nan,nan
42760938,42757978,2490402,7917.6562,15.464172,76.17218,139.94339,nan,137.98022,nan,nan,139.17755,nan,nan,6.6369004,8.451069,nan,6.227429,nan,nan,7.157061,nan,nan
42801433,42800921,2490402,7917.6562,15.464172,76.17218,139.24794,46.392517,137.98022,nan,nan,139.17755,nan,nan,10.224071,9.595146,8.728125,6.227429,nan,nan,7.040028,nan,nan
42851880,42848912,2490402,7917.6562,15.464172,76.17218,139.24794,47.472454,139.17755,nan,nan,139.17755,129.72525,nan,10.224071,9.595146,10.881649,6.5339003,nan,nan,7.040028,7.0046425,nan
42907395,42904484,2490402,7917.6562,15.464172,77.32086,140.25749,46.392517,139.17755,123.71338,nan,139.17755,129.72525,nan,6.7345943,8.565475,7.042472,6.5339003,6.655344,nan,7.040028,7.0046425,nan
42947788,42947425,2490402,7917.6562,15.464172,77.32086,140.34859,46.392517,139.17755,123.71338,nan,139.17755,130.50769,nan,6.7345943,8.156968,9.4043045,6.5339003,6.655344,nan,7.3479853,7.0913763,nan
42998331,42995418,2490402,7917.6562,15.464172,77.32086,140.34859,46.392517,137.98022,123.71338,nan,139.17755,130.50769,nan,6.7345943,8.014873,11.07098,5.219858,6.655344,nan,7.3479853,7.0913763,nan
43048824,43048464,2490402,7917.6562,15.464172,nan,140.34859,43.453583,137.98022,123.71338,nan,139.17755,130.50769,nan,nan,8.6210785,11.7330065,5.219858,6.997818,nan,7.3479853,7.0913763,nan
43109527,43109087,2490402,7917.6562,15.464172,nan,139.3018,43.453583,139.17755,123.71338,nan,139.17755,nan,nan,nan,8.630016,9.990777,6.8631096,6.997818,nan,7.669578,nan,nan
43159967,43157080,2490402,7917.6562,15.464172,nan,139.3018,41.15063,139.17755,123.71338,nan,139.17755,130.50769,nan,nan,8.140535,11.3626995,6.8631096,6.997818,nan,7.669578,6.8073874,nan
43205468,43205074,2490402,7917.6562,15.464172,nan,139.3018,41.15063,139.17755,124.79331,nan,139.17755,130.50769,nan,nan,8.140535,8.28845,6.8631096,7.16543,nan,7.669578,6.8073874,nan
43230844,43227807,2490402,7917.6562,15.464172,nan,139.3018,41.15063,nan,124.79331,nan,139.17755,130.50769,nan,nan,8.140535,8.28845,nan,7.2146873,nan,7.669578,6.8073874,nan
43266537,43263171,2490402,7917.6562,15.464172,nan,139.3018,41.15063,nan,124.79331,nan,nan,130.81447,nan,nan,8.140535,8.28845,nan,7.2146873,nan,nan,7.1808796,nan
43367136,43366736,2490402,7917.6562,15.464172,nan,140.34859,nan,nan,124.79331,nan,nan,130.81447,nan,nan,8.516985,nan,nan,7.2146873,nan,nan,7.1808796,nan
43422663,43419781,2490402,7917.6562,15.464172,nan,140.34859,nan,nan,124.79331,nan,nan,130.81447,nan,nan,8.516985,nan,nan,7.152541,nan,nan,7.1808796,nan
43766171,43762583,3932210,8007.3667,15.639388,nan,140.34859,nan,nan,124.79331,nan,nan,132.07646,nan,nan,8.516985,nan,nan,7.152541,nan,nan,7.24706,nan
43786353,43785064,3932210,8007.3667,15.639388,nan,140.75449,nan,nan,124.79331,nan,nan,132.07646,nan,nan,6.706624,nan,nan,7.152541,nan,nan,7.24706,nan
43850728,43850006,3932210,8007.3667,15.639388,77.32086,140.75449,nan,nan,124.79331,nan,nan,132.07646,nan,6.18884,6.706624,nan,nan,7.152541,nan,nan,7.24706,nan
43930861,43929935,3932210,8007.3667,15.639388,77.32086,140.75449,nan,nan,124.79331,nan,nan,132.07646,nan,6.18884,6.14102,nan,nan,7.152541,nan,nan,7.24706,nan
43946135,43944922,3932210,8007.3667,15.639388,77.32086,140.75449,nan,nan,124.79331,nan,nan,132.07646,nan,7.0973024,6.14102,nan,nan,7.152541,nan,nan,7.24706,nan
43966067,43962406,3932210,8007.3667,15.639388,78.19694,140.75449,nan,nan,124.79331,nan,nan,132.07646,nan,6.2499995,6.14102,nan,nan,7.152541,nan,nan,7.24706,nan
44240373,44237163,3932210,8007.3667,15.639388,78.19694,140.75449,nan,nan,124.79331,nan,nan,132.07646,nan,6.2499995,6.14102,nan,nan,6.6858597,nan,nan,7.24706,nan
44335599,44334577,3932210,8007.3667,15.639388,78.19694,140.75449,nan,nan,125.115105,nan,nan,132.07646,nan,6.2499995,6.14102,nan,nan,7.411309,nan,nan,7.24706,nan
44400326,44397021,3932210,8007.3667,15.639388,78.19694,140.75449,nan,139.17755,125.115105,nan,nan,132.07646,nan,6.2499995,6.14102,nan,6.6092834,7.411309,nan,nan,7.24706,nan
44430257,44429492,3932210,8007.3667,15.639388,78.19694,140.75449,nan,139.17755,125.115105,nan,nan,132.07646,nan,6.2499995,6.14102,nan,6.7908535,7.411309,nan,nan,7.24706,nan
44465450,44461963,3932210,8007.3667,15.639388,78.19694,140.75449,nan,139.17755,125.115105,nan,nan,132.07646,nan,6.2499995,6.14102,nan,6.7908535,6.68926,nan,nan,7.24706,nan
44699979,44696756,3932210,8007.3667,15.639388,78.19694,nan,nan,139.17755,125.115105,nan,nan,132.07646,nan,6.343427,nan,nan,6.7908535,6.68926,nan,nan,7.24706,nan
44719951,44716738,3932210,8007.3667,15.639388,78.19694,nan,nan,139.24794,nan,nan,nan,132.07646,nan,6.343427,nan,nan,7.3977127,nan,nan,nan,7.24706,nan
44855404,44851618,3932210,8007.3667,15.639388,78.19694,nan,nan,139.24794,nan,nan,nan,132.29665,nan,6.343427,nan,nan,7.3977127,nan,nan,nan,7.3523417,nan
44860256,44856614,3932210,8007.3667,15.639388,78.19694,nan,nan,139.24794,nan,nan,nan,132.29665,nan,6.4235897,nan,nan,7.3977127,nan,nan,nan,7.3523417,nan
45019686,45016472,3932210,8007.3667,15.639388,78.19694,nan,nan,139.24794,nan,nan,nan,132.29665,nan,6.9072123,nan,nan,7.3977127,nan,nan,nan,7.3523417,nan
45029694,45026463,3932210,8007.3667,15.639388,78.19694,nan,nan,139.24794,nan,nan,nan,132.29665,nan,6.9072123,nan,nan,7.3977127,nan,nan,nan,7.1412125,nan
45199518,45196313,3932210,8007.3667,15.639388,78.19694,nan,nan,139.24794,nan,nan,nan,132.29665,nan,6.9072123,nan,nan,7.4635305,nan,nan,nan,7.1412125,nan
45224760,45223788,3932210,8007.3667,15.639388,78.19694,nan,nan,139.24794,nan,nan,nan,132.29665,nan,6.56324,nan,nan,7.4635305,nan,nan,nan,7.1412125,nan
45289538,45288731,3932210,8007.3667,15.639388,78.19694,140.75449,nan,139.24794,nan,nan,nan,132.29665,nan,6.56324,6.224612,nan,7.4635305,nan,nan,nan,7.1412125,nan
45374656,45373655,3932210,8007.3667,15.639388,78.19694,140.75449,nan,140.75449,nan,nan,nan,132.29665,nan,6.56324,6.224612,nan,6.9927845,nan,nan,nan,7.1412125,nan
45434710,45431105,3932210,8007.3667,15.639388,78.19694,nan,nan,140.75449,nan,nan,nan,132.29665,nan,6.308618,nan,nan,6.9927845,nan,nan,nan,7.1412125,nan
45474583,45473567,3932210,8007.3667,15.639388,78.19694,nan,nan,140.75449,nan,nan,nan,132.29665,nan,6.308618,nan,nan,6.9927845,nan,nan,nan,6.8287067,nan
