timestamp,timestamp_sample,gyro_device_id,gyro_bias[0],gyro_bias[1],gyro_bias[2],gyro_bias_limit,gyro_bias_variance[0],gyro_bias_variance[1],gyro_bias_variance[2],accel_device_id,accel_bias[0],accel_bias[1],accel_bias[2],accel_bias_limit,accel_bias_variance[0],accel_bias_variance[1],accel_bias_variance[2],mag_device_id,mag_bias[0],mag_bias[1],mag_bias[2],mag_bias_limit,mag_bias_variance[0],mag_bias_variance[1],mag_bias_variance[2],gyro_bias_valid,gyro_bias_stable,accel_bias_valid,accel_bias_stable,mag_bias_valid,mag_bias_stable
15920193,15819770,3932210,0.00504511,-0.0041816244,-0.00081349176,0.34906584,4.0204014e-07,3.8281945e-07,4.4177355e-05,3932210,0.002632021,0.003268967,0.009770459,0.4,0.01417577,0.014180669,0.0005009231,458770,0.0,0.0,0.0,0.5,0.0025000002,0.0025000002,0.0025000002,1,0,1,0,1,0
16929457,16828852,3932210,0.0050518396,-0.004179411,-0.00078625634,0.34906584,3.545283e-07,3.3954333e-07,3.470872e-05,3932210,0.0026715333,0.0032093625,0.009624283,0.4,0.0141699165,0.014174785,0.0005009116,458770,0.0,0.0,0.0,0.5,0.0025000002,0.0025000002,0.0025000002,1,0,1,0,1,0
17259102,17158552,3932210,0.005051752,-0.0041689062,-0.00077616854,0.34906584,3.3935046e-07,3.2520072e-07,3.2519172e-05,3932210,0.002772756,0.0032502615,0.010992901,0.4,0.014168568,0.01417342,0.00050091045,458770,0.0,0.0,0.0,0.5,0.0025000002,0.0025000002,0.0025000002,1,0,1,0,1,0
17888495,17787981,3932210,0.005057958,-0.0041648666,-0.0007771372,0.34906584,3.1954286e-07,3.0730791e-07,2.822741e-05,3932210,0.002821176,0.003194593,0.0122313695,0.4,0.014166359,0.014171207,0.00050090865,458770,0.0,0.0,0.0,0.5,0.0025000002,0.0025000002,0.0025000002,1,0,1,0,1,0
18897493,18797066,3932210,0.005041328,-0.0041507944,-0.0007651056,0.34906584,2.9897942e-07,2.888581e-07,2.2958677e-05,3932210,0.0029505093,0.0034048092,0.0130272955,0.4,0.014163481,0.014168219,0.00050091353,458770,0.0,0.0,0.0,0.5,0.0025000002,0.0025000002,0.0025000002,1,0,1,0,1,0
19906573,19806153,3932210,0.0050521977,-0.0041460614,-0.0007389702,0.34906584,2.77009e-07,2.6871905e-07,1.8919658e-05,3932210,0.003033027,0.003337737,0.013952876,0.4,0.014160592,0.014165303,0.0005009155,458770,0.0,0.0,0.0,0.5,0.0025000002,0.0025000002,0.0025000002,1,0,1,0,1,0
20915810,20815365,3932210,0.0050576464,-0.0041413335,-0.00074206904,0.34906584,2.594438e-07,2.525506e-07,1.5785225e-05,3932210,0.0030824463,0.0032867708,0.014438266,0.4,0.0141559895,0.014160626,0.00050084083,458770,0.0,0.0,0.0,0.5,0.0025000002,0.0025000002,0.0025000002,1,0,1,0,1,0
21924875,21824453,3932210,0.005059206,-0.004153272,-0.0007341297,0.34906584,2.4530001e-07,2.395059e-07,1.34760185e-05,3932210,0.002974405,0.0032581782,0.0147502,0.4,0.014155353,0.014160054,0.00050088204,458770,0.0,0.0,0.0,0.5,0.0025000002,0.0025000002,0.0025000002,1,0,1,0,1,0
22935242,22833543,3932210,0.0050556557,-0.0041498267,-0.00070568075,0.34906584,2.3364967e-07,2.2869911e-07,1.1458864e-05,3932210,0.0030039798,0.0032972654,0.014765778,0.4,0.0141541585,0.014158809,0.0005008917,458770,0.0,0.0,0.0,0.5,0.0025000002,0.0025000002,0.0025000002,1,0,1,0,1,0
23943179,23842757,3932210,0.0050448016,-0.0041416525,-0.0011453978,0.34906584,2.2760867e-07,2.233372e-07,9.930385e-06,3932210,0.003014412,0.0032936276,0.015211439,0.4,0.014151547,0.01415619,0.00050083385,458770,0.0,0.0,0.0,0.5,0.0025000002,0.0025000002,0.0025000002,1,0,1,0,1,0
24183193,24082541,3932210,0.0050434596,-0.004147434,-0.0014004337,0.34906584,2.2251491e-07,2.1848997e-07,9.515946e-06,3932210,0.0030011954,0.0031532866,0.01406396,0.4,0.014150609,0.014155235,0.0005008475,458770,0.0,0.0,0.0,0.5,0.0025000002,0.0025000002,0.0025000002,1,0,1,0,1,0
25192057,25091633,3932210,0.005038341,-0.0041501345,-0.0020323556,0.34906584,2.1800462e-07,2.1460451e-07,8.241168e-06,3932210,0.0031732342,0.0028200299,0.014955315,0.4,0.014146844,0.014151544,0.0005008803,458770,0.0,0.0,0.0,0.5,0.0025000002,0.0025000002,0.0025000002,1,0,1,0,1,0
25441909,25341408,3932210,0.005017527,-0.004259735,-0.0021137595,0.34906584,2.1332094e-07,2.1042236e-07,7.984629e-06,3932210,0.0019060778,0.00037438344,0.015542654,0.4,0.0141391875,0.0141477175,0.0005008841,458770,0.0,0.0,0.0,0.5,0.0025000002,0.0025000002,0.0025000002,1,0,1,0,1,0
25651750,25551219,3932210,0.0050158706,-0.004221892,-0.0021553638,0.34906584,2.1222577e-07,2.0923115e-07,7.749632e-06,3932210,0.002170774,0.0013491695,0.014468621,0.4,0.014135666,0.014145216,0.00050088717,458770,0.0,0.0,0.0,0.5,0.0025000002,0.0025000002,0.0025000002,1,0,1,0,1,0
25861539,25761030,3932210,0.005020648,-0.004103338,-0.0021511249,0.34906584,2.1150068e-07,2.081014e-07,7.4965556e-06,3932210,0.0031271495,0.004430204,0.014303647,0.4,0.0141220465,0.014142777,0.0005008894,458770,0.0,0.0,0.0,0.5,0.0025000002,0.0025000002,0.0025000002,1,0,1,0,1,0
26071340,25970843,3932210,0.0050373725,-0.004101826,-0.0021855664,0.34906584,2.1031647e-07,2.0706624e-07,7.285349e-06,3932210,0.003745379,0.0042673447,0.01610815,0.4,0.014119759,0.014140355,0.00050088944,458770,0.0,0.0,0.0,0.5,0.0025000002,0.0025000002,0.0025000002,1,0,1,0,1,0
26281228,26180654,3932210,0.0050310474,-0.004052878,-0.0022131267,0.34906584,2.0935556e-07,2.0598628e-07,7.0777096e-06,3932210,0.003975755,0.005468489,0.016233424,0.4,0.014115105,0.014138481,0.00050089136,458770,0.0,0.0,0.0,0.5,0.0025000002,0.0025000002,0.0025000002,1,0,1,0,1,0
26491483,26390465,3932210,0.0050253603,-0.0040706717,-0.0022287972,0.34906584,2.0817862e-07,2.0494896e-07,6.9465873e-06,3932210,0.003703965,0.00512516,0.0151974065,0.4,0.014113197,0.014136636,0.0005008933,458770,0.0,0.0,0.0,0.5,0.0025000002,0.0025000002,0.0025000002,1,0,1,0,1,0
26700836,26600276,3932210,0.0050274357,-0.004134508,-0.0022481107,0.34906584,2.0681628e-07,2.0395257e-07,6.7484007e-06,3932210,0.0033248088,0.003760089,0.014579228,0.4,0.014109093,0.014135036,0.0005008949,458770,0.0,0.0,0.0,0.5,0.0025000002,0.0025000002,0.0025000002,1,0,1,0,1,0
27709861,27609369,3932210,0.005046875,-0.004103654,-0.002301113,0.34906584,2.0462421e-07,2.0202414e-07,5.948642e-06,3932210,0.003941683,0.004216053,0.014790266,0.4,0.014102005,0.014129567,0.0005008968,458770,0.0,0.0,0.0,0.5,0.0025000002,0.0025000002,0.0025000002,1,0,1,0,1,0
28719373,28618463,3932210,0.005044111,-0.0041187187,-0.002336173,0.34906584,2.0000618e-07,1.9771745e-07,5.277296e-06,3932210,0.0038219432,0.0039644563,0.015162526,0.4,0.014097314,0.014125552,0.00050089933,458770,0.0,0.0,0.0,0.5,0.0025000002,0.0025000002,0.0025000002,1,0,1,0,1,0
29727977,29627558,3932210,0.0050555784,-0.0041311258,-0.0023648476,0.34906584,1.9603105e-07,1.9401092e-07,4.707174e-06,3932210,0.003886866,0.0037214872,0.014909833,0.4,0.014094851,0.014123123,0.0005009014,458770,0.0,0.0,0.0,0.5,0.0025000002,0.0025000002,0.0025000002,1,0,1,0,1,0
30737209,30636653,3932210,0.0050763055,-0.004132323,-0.0023756684,0.34906584,1.9261819e-07,1.9080294e-07,4.2193187e-06,3932210,0.0040626195,0.003588823,0.014802303,0.4,0.014093055,0.014121609,0.0005009002,458770,0.0,0.0,0.0,0.5,0.0025000002,0.0025000002,0.0025000002,1,0,1,0,1,0
31746178,31645749,3932210,0.0050775036,-0.004143255,-0.0023599076,0.34906584,1.8963699e-07,1.8797445e-07,3.8259136e-06,3932210,0.004023638,0.0035054714,0.014790464,0.4,0.014091868,0.014120067,0.000500896,458770,0.0,0.0,0.0,0.5,0.0025000002,0.0025000002,0.0025000002,1,0,1,0,1,0
32755282,32654846,3932210,0.0050937724,-0.004150205,-0.0023431417,0.34906584,1.8946716e-07,1.8798076e-07,3.4563586e-06,3932210,0.004094658,0.0033598596,0.015056363,0.4,0.014091324,0.014118933,0.00050090085,458770,0.0,0.0,0.0,0.5,0.0025000002,0.0025000002,0.0025000002,1,0,1,0,1,0
33764365,33663944,3932210,0.0051011294,-0.004157635,-0.002316904,0.34906584,1.8708326e-07,1.8573925e-07,3.1356078e-06,3932210,0.0040941774,0.0033642359,0.01490427,0.4,0.014090701,0.014117354,0.00050090376,458770,0.0,0.0,0.0,0.5,0.0025000002,0.0025000002,0.0025000002,1,0,1,0,1,0
34773477,34673042,3932210,0.0051096873,-0.0041524274,-0.0023840922,0.34906584,1.850118e-07,1.8376369e-07,2.873362e-06,3932210,0.0041150986,0.0033078585,0.015059623,0.4,0.0140903,0.014115974,0.00050090434,458770,0.0,0.0,0.0,0.5,0.0025000002,0.0025000002,0.0025000002,1,0,1,0,1,0
35303111,35202569,3932210,0.005114035,-0.0042782845,-0.0026292852,0.34906584,1.8288368e-07,1.8195401e-07,2.7411672e-06,3932210,0.0037187485,0.0016763922,0.015122326,0.4,0.014084271,0.014114326,0.00050089444,458770,0.0,0.0,0.0,0.5,0.0025000002,0.0025000002,0.0025000002,1,0,1,0,1,0
35512886,35412382,3932210,0.0051092086,-0.0044964296,-0.0027068902,0.34906584,1.8223422e-07,1.8169122e-07,2.6586017e-06,3932210,0.0027477595,-0.0029809065,0.016904453,0.4,0.014040424,0.01411277,0.0005008944,458770,0.0,0.0,0.0,0.5,0.0025000002,0.0025000002,0.0025000002,1,0,1,0,1,0
35722702,35622194,3932210,0.0051037585,-0.004574701,-0.0028519863,0.34906584,1.8187588e-07,1.8143213e-07,2.6069665e-06,3932210,0.002480453,-0.0057697245,0.013938639,0.4,0.014029366,0.014109323,0.0005008952,458770,0.0,0.0,0.0,0.5,0.0025000002,0.0025000002,0.0025000002,1,0,1,0,1,0
35932656,35832007,3932210,0.0051156683,-0.0047374214,-0.003014248,0.34906584,1.8145474e-07,1.8122599e-07,2.5456786e-06,3932210,0.0027381098,-0.014265576,0.012593136,0.4,0.013995521,0.014102646,0.000500895,458770,0.0,0.0,0.0,0.5,0.0025000002,0.0025000002,0.0025000002,1,0,1,0,1,0
36562148,36461446,3932210,0.005082138,-0.004696854,-0.003961353,0.34906584,1.8752186e-07,1.8731612e-07,2.4216395e-06,3932210,0.0018091459,-0.01302616,0.012672913,0.4,0.013990215,0.014101254,0.0005008931,458770,0.0,0.0,0.0,0.5,0.0025000002,0.0025000002,0.0025000002,1,0,1,0,1,0
36681924,36581338,3932210,0.005064388,-0.0046811136,-0.0042754384,0.34906584,1.885769e-07,1.8839168e-07,2.3881323e-06,3932210,0.0005082449,-0.012322072,0.012845818,0.4,0.013985515,0.014100173,0.00050089427,458770,0.0,0.0,0.0,0.5,0.0025000002,0.0025000002,0.0025000002,1,0,1,0,1,0
36811787,36711223,3932210,0.0050419495,-0.004662363,-0.0046311426,0.34906584,1.8967218e-07,1.8951692e-07,2.352803e-06,3932210,-0.0007190668,-0.011305804,0.01281703,0.4,0.013978104,0.014098396,0.00050089334,458770,0.0,0.0,0.0,0.5,0.0025000002,0.0025000002,0.0025000002,1,0,1,0,1,0
36941680,36841107,3932210,0.005014083,-0.004640826,-0.0050271875,0.34906584,1.9069762e-07,1.905819e-07,2.3146536e-06,3932210,-0.0029829224,-0.010044402,0.012982232,0.4,0.0139669115,0.014095795,0.0005008934,458770,0.0,0.0,0.0,0.5,0.0025000002,0.0025000002,0.0025000002,1,0,1,0,1,0
37061573,36961000,3932210,0.0049823807,-0.004618041,-0.0053363624,0.34906584,1.915549e-07,1.9148918e-07,2.287181e-06,3932210,-0.0060261795,-0.008304861,0.013163141,0.4,0.013951564,0.0140921045,0.0005008934,458770,0.0,0.0,0.0,0.5,0.0025000002,0.0025000002,0.0025000002,1,0,1,0,1,0
37101471,37000964,3932210,0.0054276404,-0.00708195,-0.0033072378,0.34906584,1.8236248e-07,1.8083134e-07,1.8626779e-06,3932210,0.032131545,-0.28465652,0.007567664,0.4,0.012701092,0.013931287,0.0005008937,458770,0.0,0.0,0.0,0.5,0.0025000002,0.0025000002,0.0025000002,1,0,1,0,1,0
37221946,37120857,3932210,0.00543418,-0.0070730015,-0.0035190554,0.34906584,1.8353842e-07,1.8202178e-07,1.849209e-06,3932210,0.033428334,-0.28463072,0.0075639756,0.4,0.012700183,0.013931231,0.000500896,458770,0.0,0.0,0.0,0.5,0.0025000002,0.0025000002,0.0025000002,1,0,1,0,1,0
37321313,37220768,3932210,0.0054382556,-0.0070712073,-0.0036219566,0.34906584,1.8452637e-07,1.8301722e-07,1.8429237e-06,3932210,0.034536622,-0.28482607,0.007509911,0.4,0.012699152,0.013931175,0.0005008924,458770,0.0,0.0,0.0,0.5,0.0025000002,0.0025000002,0.0025000002,1,0,1,0,1,0
37431196,37330670,3932210,0.0054421113,-0.007068778,-0.0037256144,0.34906584,1.8561416e-07,1.8411245e-07,1.8367462e-06,3932210,0.035609733,-0.28500438,0.0074657043,0.4,0.012697409,0.013931032,0.0005008924,458770,0.0,0.0,0.0,0.5,0.0025000002,0.0025000002,0.0025000002,1,0,1,0,1,0
37531085,37430581,3932210,0.0054501076,-0.0070646363,-0.003940953,0.34906584,1.865924e-07,1.8510532e-07,1.8232619e-06,3932210,0.037186045,-0.28503275,0.007493289,0.4,0.0126966415,0.013931041,0.00050090085,458770,0.0,0.0,0.0,0.5,0.0025000002,0.0025000002,0.0025000002,1,0,1,0,1,0
37590997,37490534,3932210,0.0054532853,-0.0070608244,-0.0040444136,0.34906584,1.8717866e-07,1.8569871e-07,1.8166243e-06,3932210,0.038209293,-0.28514776,0.0074525382,0.4,0.012693198,0.0139306085,0.00050088845,458770,0.0,0.0,0.0,0.5,0.0025000002,0.0025000002,0.0025000002,1,0,1,0,1,0
37700941,37600430,3932210,0.005455477,-0.007054684,-0.0041523203,0.34906584,1.8826785e-07,1.8679461e-07,1.8105352e-06,3932210,0.03938432,-0.2850397,0.007355917,0.4,0.012688334,0.013930277,0.00050089223,458770,0.0,0.0,0.0,0.5,0.0025000002,0.0025000002,0.0025000002,1,0,1,0,1,0
37810903,37710332,3932210,0.005460151,-0.0070434087,-0.004371966,0.34906584,1.8934387e-07,1.878836e-07,1.797231e-06,3932210,0.041766852,-0.2846313,0.0071291793,0.4,0.012681002,0.013929712,0.00050089223,458770,0.0,0.0,0.0,0.5,0.0025000002,0.0025000002,0.0025000002,1,0,1,0,1,0
37930780,37830225,3932210,0.0054590255,-0.0070299767,-0.004493294,0.34906584,1.9052709e-07,1.8907143e-07,1.7911484e-06,3932210,0.04311386,-0.28396317,0.006929509,0.4,0.012671169,0.013928966,0.0005008923,458770,0.0,0.0,0.0,0.5,0.0025000002,0.0025000002,0.0025000002,1,0,1,0,1,0
38020643,37920145,3932210,0.005466653,-0.0070259217,-0.0047028633,0.34906584,1.9140657e-07,1.8996444e-07,1.777819e-06,3932210,0.044618882,-0.2839927,0.0069571934,0.4,0.01267042,0.013928966,0.0005008975,458770,0.0,0.0,0.0,0.5,0.0025000002,0.0025000002,0.0025000002,1,0,1,0,1,0
38060755,37960110,3932210,0.0054587643,-0.007008538,-0.004731302,0.34906584,1.9179619e-07,1.9034968e-07,1.7779222e-06,3932210,0.04537382,-0.28274992,0.006637147,0.4,0.012658239,0.013927822,0.0005008915,458770,0.0,0.0,0.0,0.5,0.0025000002,0.0025000002,0.0025000002,1,0,1,0,1,0
38170578,38070012,3932210,0.005466313,-0.0070044873,-0.0049398514,0.34906584,1.9287563e-07,1.914424e-07,1.7648609e-06,3932210,0.0468968,-0.28277218,0.006652918,0.4,0.012657457,0.013927823,0.00050089497,458770,0.0,0.0,0.0,0.5,0.0025000002,0.0025000002,0.0025000002,1,0,1,0,1,0
38180524,38080003,3932210,0.0054660803,-0.0070042466,-0.0049399408,0.34906584,1.9297451e-07,1.915412e-07,1.764961e-06,3932210,0.047833137,-0.28249115,0.0063973814,0.4,0.012641733,0.013926414,0.00050089153,458770,0.0,0.0,0.0,0.5,0.0025000002,0.0025000002,0.0025000002,1,0,1,0,1,0
38320408,38219879,3932210,0.005473248,-0.006999886,-0.005147585,0.34906584,1.9435232e-07,1.9293175e-07,1.7522689e-06,3932210,0.0505233,-0.28215966,0.006091307,0.4,0.01262141,0.013924689,0.00050089095,458770,0.0,0.0,0.0,0.5,0.0025000002,0.0025000002,0.0025000002,1,0,1,0,1,0
38430265,38329781,3932210,0.0054766694,-0.0069975676,-0.005250969,0.34906584,1.9543995e-07,1.9402533e-07,1.7463497e-06,3932210,0.052382294,-0.28184098,0.005797689,0.4,0.012597569,0.013922694,0.000500891,458770,0.0,0.0,0.0,0.5,0.0025000002,0.0025000002,0.0025000002,1,0,1,0,1,0
38540255,38439684,3932210,0.0054839123,-0.0069935615,-0.005455197,0.34906584,1.9651984e-07,1.951177e-07,1.7334629e-06,3932210,0.053949587,-0.28181705,0.005785052,0.4,0.012596416,0.013922633,0.00050089,458770,0.0,0.0,0.0,0.5,0.0025000002,0.0025000002,0.0025000002,1,0,1,0,1,0
38560486,38459670,3932210,0.0054832855,-0.0069928365,-0.005455346,0.34906584,1.967162e-07,1.9531352e-07,1.7336491e-06,3932210,0.056354783,-0.2811081,0.005143246,0.4,0.012568463,0.013920114,0.00050088624,458770,0.0,0.0,0.0,0.5,0.0025000002,0.0025000002,0.0025000002,1,0,1,0,1,0
38680060,38579559,3932210,0.0054864297,-0.0069903987,-0.0055559925,0.34906584,1.979049e-07,1.9650756e-07,1.7278784e-06,3932210,0.058796663,-0.2805955,0.0046857023,0.4,0.012536571,0.013917447,0.0005008903,458770,0.0,0.0,0.0,0.5,0.0025000002,0.0025000002,0.0025000002,1,0,1,0,1,0
38780073,38679471,3932210,0.0054933806,-0.0069865026,-0.005754106,0.34906584,1.988853e-07,1.9750001e-07,1.7149529e-06,3932210,0.060300242,-0.28056815,0.004675794,0.4,0.012535338,0.013917373,0.00050089264,458770,0.0,0.0,0.0,0.5,0.0025000002,0.0025000002,0.0025000002,1,0,1,0,1,0
38809937,38709444,3932210,0.005492724,-0.0069857007,-0.0057542585,0.34906584,1.9918261e-07,1.9779618e-07,1.7152532e-06,3932210,0.06291503,-0.27980265,0.003972665,0.4,0.01249921,0.01391429,0.0005008895,458770,0.0,0.0,0.0,0.5,0.0025000002,0.0025000002,0.0025000002,1,0,1,0,1,0
38919851,38819346,3932210,0.005499424,-0.006981919,-0.0059465095,0.34906584,2.0026363e-07,1.9888891e-07,1.7025197e-06,3932210,0.06438487,-0.2797597,0.0039583794,0.4,0.012497795,0.013914228,0.00050089206,458770,0.0,0.0,0.0,0.5,0.0025000002,0.0025000002,0.0025000002,1,0,1,0,1,0
38939840,38839329,3932210,0.00549869,-0.0069810026,-0.005946643,0.34906584,2.0046029e-07,1.9908411e-07,1.7027164e-06,3932210,0.067258045,-0.27891016,0.0031886462,0.4,0.012456827,0.0139106335,0.0005008887,458770,0.0,0.0,0.0,0.5,0.0025000002,0.0025000002,0.0025000002,1,0,1,0,1,0
39059752,38959222,3932210,0.005504833,-0.006976781,-0.006135539,0.34906584,2.0163878e-07,2.0027204e-07,1.6901635e-06,3932210,0.07023468,-0.27839833,0.0027614306,0.4,0.012411361,0.01390689,0.0005008888,458770,0.0,0.0,0.0,0.5,0.0025000002,0.0025000002,0.0025000002,1,0,1,0,1,0
39189613,39089107,3932210,0.005507324,-0.0069740238,-0.0062285927,0.34906584,2.0292505e-07,2.015615e-07,1.6846121e-06,3932210,0.07374786,-0.27753395,0.001984323,0.4,0.01236245,0.0139027275,0.00050088804,458770,0.0,0.0,0.0,0.5,0.0025000002,0.0025000002,0.0025000002,1,0,1,0,1,0
39289525,39189018,3932210,0.005513574,-0.0069704093,-0.006411666,0.34906584,2.0390709e-07,2.025545e-07,1.6719665e-06,3932210,0.07515791,-0.27744278,0.0019635595,0.4,0.0123610785,0.013902668,0.0005008924,458770,0.0,0.0,0.0,0.5,0.0025000002,0.0025000002,0.0025000002,1,0,1,0,1,0
39309486,39209000,3932210,0.005512907,-0.006969487,-0.0064117773,0.34906584,2.0410391e-07,2.0274858e-07,1.6721666e-06,3932210,0.07791287,-0.27664506,0.001193762,0.4,0.01231198,0.013898577,0.0005008882,458770,0.0,0.0,0.0,0.5,0.0025000002,0.0025000002,0.0025000002,1,0,1,0,1,0
39399372,39298920,3932210,0.005515892,-0.0069675725,-0.006502578,0.34906584,2.0499422e-07,2.036442e-07,1.6662766e-06,3932210,0.07901938,-0.27647945,0.0010667365,0.4,0.012309834,0.0138984155,0.0005008881,458770,0.0,0.0,0.0,0.5,0.0025000002,0.0025000002,0.0025000002,1,0,1,0,1,0
39429452,39328894,3932210,0.0055182143,-0.006964798,-0.0065919906,0.34906584,2.052825e-07,2.0393479e-07,1.6598082e-06,3932210,0.082585864,-0.27558884,0.00024503065,0.4,0.012259066,0.013893988,0.00050088746,458770,0.0,0.0,0.0,0.5,0.0025000002,0.0025000002,0.0025000002,1,0,1,0,1,0
39509296,39408823,3932210,0.00552106,-0.0069628996,-0.0066799875,0.34906584,2.0607251e-07,2.0473001e-07,1.6538503e-06,3932210,0.0837574,-0.2754038,9.272365e-05,0.4,0.012256663,0.01389377,0.0005008869,458770,0.0,0.0,0.0,0.5,0.0025000002,0.0025000002,0.0025000002,1,0,1,0,1,0
39559241,39458778,3932210,0.005520406,-0.006961974,-0.006680059,0.34906584,2.0656864e-07,2.0522273e-07,1.6543513e-06,3932210,0.08642677,-0.2745989,-0.0006686518,0.4,0.012203049,0.01388891,0.0005008867,458770,0.0,0.0,0.0,0.5,0.0025000002,0.0025000002,0.0025000002,1,0,1,0,1,0
39659179,39558690,3932210,0.0055262065,-0.0069585233,-0.0068527823,0.34906584,2.0755095e-07,2.062153e-07,1.6419026e-06,3932210,0.087791435,-0.27451536,-0.0007028092,0.4,0.012199941,0.013888673,0.0005008867,458770,0.0,0.0,0.0,0.5,0.0025000002,0.0025000002,0.0025000002,1,0,1,0,1,0
39679265,39578672,3932210,0.005525339,-0.006957234,-0.0068528554,0.34906584,2.0774762e-07,2.064082e-07,1.6421034e-06,3932210,0.0913812,-0.2734305,-0.0017461397,0.4,0.0121467635,0.013883825,0.00050088635,458770,0.0,0.0,0.0,0.5,0.0025000002,0.0025000002,0.0025000002,1,0,1,0,1,0
39799034,39698565,3932210,0.005528062,-0.006955363,-0.006938291,0.34906584,2.0893776e-07,2.0760329e-07,1.6366104e-06,3932210,0.092608705,-0.2732254,-0.0019214056,0.4,0.012142212,0.01388346,0.0005008867,458770,0.0,0.0,0.0,0.5,0.0025000002,0.0025000002,0.0025000002,1,0,1,0,1,0
39809067,39708556,3932210,0.0055302246,-0.0069526806,-0.0070226793,0.34906584,2.0902691e-07,2.0769328e-07,1.6300326e-06,3932210,0.09596119,-0.2723578,-0.0027344788,0.4,0.0120878415,0.013878339,0.0005008868,458770,0.0,0.0,0.0,0.5,0.0025000002,0.0025000002,0.0025000002,1,0,1,0,1,0
39899682,39798480,3932210,0.0055328407,-0.00695083,-0.007105848,0.34906584,2.0991598e-07,2.085872e-07,1.6242725e-06,3932210,0.09713326,-0.27216113,-0.0028997557,0.4,0.012084263,0.013877947,0.00050088286,458770,0.0,0.0,0.0,0.5,0.0025000002,0.0025000002,0.0025000002,1,0,1,0,1,0
39928978,39828450,3932210,0.0055319457,-0.0069493805,-0.0071059116,0.34906584,2.1021386e-07,2.0888014e-07,1.6245835e-06,3932210,0.10100817,-0.27099204,-0.0040522525,0.4,0.012028955,0.013872996,0.0005008864,458770,0.0,0.0,0.0,0.5,0.0025000002,0.0025000002,0.0025000002,1,0,1,0,1,0
40008885,39908379,3932210,0.005537312,-0.006946037,-0.0072696335,0.34906584,2.1099746e-07,2.0967327e-07,1.6121606e-06,3932210,0.102491714,-0.27084842,-0.00414375,0.4,0.012024961,0.013872692,0.00050088717,458770,0.0,0.0,0.0,0.5,0.0025000002,0.0025000002,0.0025000002,1,0,1,0,1,0
40058818,39958336,3932210,0.005536609,-0.006944894,-0.0072696465,0.34906584,2.1149287e-07,2.1016325e-07,1.6126548e-06,3932210,0.10547224,-0.2699428,-0.0050444887,0.4,0.011967884,0.013867384,0.0005008849,458770,0.0,0.0,0.0,0.5,0.0025000002,0.0025000002,0.0025000002,1,0,1,0,1,0
40098774,39998299,3932210,0.0055391705,-0.0069431327,-0.007350777,0.34906584,2.1188546e-07,2.105605e-07,1.6064837e-06,3932210,0.106573716,-0.26975697,-0.005195725,0.4,0.011965761,0.013867263,0.0005008865,458770,0.0,0.0,0.0,0.5,0.0025000002,0.0025000002,0.0025000002,1,0,1,0,1,0
40188705,40088219,3932210,0.0055410457,-0.006940243,-0.0074308687,0.34906584,2.1277376e-07,2.1144764e-07,1.6008214e-06,3932210,0.11048105,-0.26870683,-0.00622969,0.4,0.0119089475,0.013861981,0.0005008866,458770,0.0,0.0,0.0,0.5,0.0025000002,0.0025000002,0.0025000002,1,0,1,0,1,0
40258631,40158157,3932210,0.005543488,-0.006938449,-0.007510359,0.34906584,2.1346514e-07,2.1214343e-07,1.5949829e-06,3932210,0.11172175,-0.26847187,-0.0064258254,0.4,0.011904514,0.013861608,0.0005008865,458770,0.0,0.0,0.0,0.5,0.0025000002,0.0025000002,0.0025000002,1,0,1,0,1,0
40308679,40208113,3932210,0.005545333,-0.0069356128,-0.007589325,0.34906584,2.1395422e-07,2.1263106e-07,1.5889588e-06,3932210,0.11549509,-0.26743698,-0.007439608,0.4,0.011848733,0.01385619,0.00050088624,458770,0.0,0.0,0.0,0.5,0.0025000002,0.0025000002,0.0025000002,1,0,1,0,1,0
40438477,40337997,3932210,0.0055472753,-0.006932979,-0.007667184,0.34906584,2.1524244e-07,2.1391693e-07,1.5837594e-06,3932210,0.11875941,-0.26657674,-0.008306652,0.4,0.011791183,0.013850871,0.0005008868,458770,0.0,0.0,0.0,0.5,0.0025000002,0.0025000002,0.0025000002,1,0,1,0,1,0
40508413,40407935,3932210,0.005549567,-0.006931188,-0.007743822,0.34906584,2.1593398e-07,2.1461264e-07,1.5779826e-06,3932210,0.12011506,-0.26629877,-0.008545301,0.4,0.011786148,0.01385044,0.0005008867,458770,0.0,0.0,0.0,0.5,0.0025000002,0.0025000002,0.0025000002,1,0,1,0,1,0
40558426,40457891,3932210,0.005551212,-0.006928154,-0.007819347,0.34906584,2.1642369e-07,2.1510016e-07,1.5720293e-06,3932210,0.12435529,-0.26510164,-0.009780687,0.4,0.011733515,0.013845252,0.0005008864,458770,0.0,0.0,0.0,0.5,0.0025000002,0.0025000002,0.0025000002,1,0,1,0,1,0
40658341,40557802,3932210,0.00555588,-0.0069249175,-0.007969477,0.34906584,2.1740817e-07,2.160929e-07,1.5601956e-06,3932210,0.12613836,-0.26481888,-0.009998226,0.4,0.011727838,0.013844793,0.0005008866,458770,0.0,0.0,0.0,0.5,0.0025000002,0.0025000002,0.0025000002,1,0,1,0,1,0
40678297,40577784,3932210,0.0055552814,-0.006923629,-0.007969444,0.34906584,2.1760596e-07,2.162836e-07,1.560396e-06,3932210,0.12912388,-0.26390535,-0.011020113,0.4,0.0116792675,0.013840252,0.0005008868,458770,0.0,0.0,0.0,0.5,0.0025000002,0.0025000002,0.0025000002,1,0,1,0,1,0
40728245,40627740,3932210,0.005557506,-0.0069219843,-0.0080428,0.34906584,2.1809815e-07,2.1677984e-07,1.5545133e-06,3932210,0.1301714,-0.2637123,-0.011178697,0.4,0.011676425,0.013840011,0.0005008881,458770,0.0,0.0,0.0,0.5,0.0025000002,0.0025000002,0.0025000002,1,0,1,0,1,0
40809150,40707669,3932210,0.005559392,-0.006919506,-0.008116412,0.34906584,2.1888816e-07,2.1756568e-07,1.548947e-06,3932210,0.13303684,-0.26297462,-0.011974212,0.4,0.011622849,0.013835293,0.0005008866,458770,0.0,0.0,0.0,0.5,0.0025000002,0.0025000002,0.0025000002,1,0,1,0,1,0
40878118,40777607,3932210,0.0055615893,-0.00691788,-0.008189381,0.34906584,2.1958029e-07,2.1826166e-07,1.5433046e-06,3932210,0.13404402,-0.26278037,-0.012123817,0.4,0.011619844,0.013835044,0.00050088804,458770,0.0,0.0,0.0,0.5,0.0025000002,0.0025000002,0.0025000002,1,0,1,0,1,0
40928050,40827563,3932210,0.005561027,-0.0069165938,-0.008189333,0.34906584,2.2007745e-07,2.1875039e-07,1.5438023e-06,3932210,0.13694984,-0.2619125,-0.013125442,0.4,0.011570661,0.013830661,0.00050088606,458770,0.0,0.0,0.0,0.5,0.0025000002,0.0025000002,0.0025000002,1,0,1,0,1,0
41007945,40907492,3932210,0.0055631953,-0.0069149677,-0.008261888,0.34906584,2.2086934e-07,2.1954587e-07,1.5382839e-06,3932210,0.13797618,-0.26170638,-0.013282555,0.4,0.011564691,0.013830144,0.00050088606,458770,0.0,0.0,0.0,0.5,0.0025000002,0.0025000002,0.0025000002,1,0,1,0,1,0
41057970,40957447,3932210,0.0055650272,-0.006912416,-0.008334122,0.34906584,2.2136102e-07,2.200331e-07,1.5324921e-06,3932210,0.14095145,-0.26091698,-0.01417344,0.4,0.011518338,0.013826088,0.0005008867,458770,0.0,0.0,0.0,0.5,0.0025000002,0.0025000002,0.0025000002,1,0,1,0,1,0
41167890,41067350,3932210,0.0055670515,-0.0069106934,-0.008405272,0.34906584,2.2245221e-07,2.2112772e-07,1.5273108e-06,3932210,0.14230548,-0.26060474,-0.014434488,0.4,0.011512015,0.013825528,0.0005008861,458770,0.0,0.0,0.0,0.5,0.0025000002,0.0025000002,0.0025000002,1,0,1,0,1,0
41177888,41077341,3932210,0.005568703,-0.006908646,-0.008466397,0.34906584,2.2254497e-07,2.2121615e-07,1.5211491e-06,3932210,0.1444475,-0.2600635,-0.015099653,0.4,0.011471578,0.013822113,0.00050088635,458770,0.0,0.0,0.0,0.5,0.0025000002,0.0025000002,0.0025000002,1,0,1,0,1,0
41268102,41167261,3932210,0.0055703754,-0.0069072563,-0.008524642,0.34906584,2.2343694e-07,2.221115e-07,1.5158096e-06,3932210,0.14548963,-0.25983626,-0.015294819,0.4,0.01146525,0.01382157,0.0005008865,458770,0.0,0.0,0.0,0.5,0.0025000002,0.0025000002,0.0025000002,1,0,1,0,1,0
41307838,41207225,3932210,0.0055701467,-0.0069064843,-0.008524615,0.34906584,2.2383561e-07,2.2250222e-07,1.51621e-06,3932210,0.14709544,-0.25936684,-0.015936105,0.4,0.011427828,0.013818383,0.0005008869,458770,0.0,0.0,0.0,0.5,0.0025000002,0.0025000002,0.0025000002,1,0,1,0,1,0
41367770,41267297,3932210,0.0055711656,-0.0069042165,-0.008582904,0.34906584,2.2437433e-07,2.2304458e-07,1.5102304e-06,3932210,0.14818995,-0.25909317,-0.016149161,0.4,0.011418745,0.013814511,0.0005007664,458770,0.0,0.0,0.0,0.5,0.0025000002,0.0025000002,0.0025000002,1,0,1,0,1,0
41437715,41337235,3932210,0.0055727735,-0.006902282,-0.00864172,0.34906584,2.2507002e-07,2.2373594e-07,1.5047635e-06,3932210,0.15035208,-0.25855204,-0.016837507,0.4,0.011381009,0.0138115,0.0005007745,458770,0.0,0.0,0.0,0.5,0.0025000002,0.0025000002,0.0025000002,1,0,1,0,1,0
41517640,41417164,3932210,0.0055743586,-0.0069008847,-0.008697947,0.34906584,2.258663e-07,2.245354e-07,1.4994139e-06,3932210,0.1516662,-0.2582551,-0.017122563,0.4,0.011374688,0.013811179,0.00050078327,458770,0.0,0.0,0.0,0.5,0.0025000002,0.0025000002,0.0025000002,1,0,1,0,1,0
41557620,41457129,3932210,0.005575763,-0.0068989303,-0.008749099,0.34906584,2.262609e-07,2.2492583e-07,1.4936728e-06,3932210,0.15387115,-0.2577077,-0.017935427,0.4,0.011342665,0.013808643,0.00050078693,458770,0.0,0.0,0.0,0.5,0.0025000002,0.0025000002,0.0025000002,1,0,1,0,1,0
41617530,41517076,3932210,0.0055770758,-0.006897801,-0.008795287,0.34906584,2.2685616e-07,2.2552422e-07,1.4881607e-06,3932210,0.15485287,-0.25749728,-0.018140806,0.4,0.011336311,0.013808238,0.0005007926,458770,0.0,0.0,0.0,0.5,0.0025000002,0.0025000002,0.0025000002,1,0,1,0,1,0
41687925,41587013,3932210,0.005577967,-0.00689633,-0.008830184,0.34906584,2.2755198e-07,2.2621575e-07,1.4827772e-06,3932210,0.15680097,-0.2569906,-0.018857388,0.4,0.011303934,0.013805722,0.0005008,458770,0.0,0.0,0.0,0.5,0.0025000002,0.0025000002,0.0025000002,1,0,1,0,1,0
41767394,41666942,3932210,0.0055784597,-0.006895614,-0.008851801,0.34906584,2.2834757e-07,2.2701433e-07,1.4775154e-06,3932210,0.15787248,-0.25670776,-0.019143647,0.4,0.011297488,0.013805339,0.0005008067,458770,0.0,0.0,0.0,0.5,0.0025000002,0.0025000002,0.0025000002,1,0,1,0,1,0
41807363,41706907,3932210,0.00557839,-0.006895123,-0.008851796,0.34906584,2.28748e-07,2.2740768e-07,1.477923e-06,3932210,0.15883951,-0.2564273,-0.019608574,0.4,0.011271443,0.01380321,0.0005008095,458770,0.0,0.0,0.0,0.5,0.0025000002,0.0025000002,0.0025000002,1,0,1,0,1,0
41867303,41766854,3932210,0.005578703,-0.0068944604,-0.008868642,0.34906584,2.2934293e-07,2.2800549e-07,1.4724778e-06,3932210,0.15995134,-0.25612187,-0.019917719,0.4,0.011265016,0.013802765,0.0005008139,458770,0.0,0.0,0.0,0.5,0.0025000002,0.0025000002,0.0025000002,1,0,1,0,1,0
41967269,41866765,3932210,0.005579261,-0.006893649,-0.008892365,0.34906584,2.303324e-07,2.2899506e-07,1.4614435e-06,3932210,0.16108815,-0.25581607,-0.020258235,0.4,0.011236358,0.01380039,0.00050081994,458770,0.0,0.0,0.0,0.5,0.0025000002,0.0025000002,0.0025000002,1,0,1,0,1,0
42107115,42006641,3932210,0.00558053,-0.0068925004,-0.008939827,0.34906584,2.3172295e-07,2.3038675e-07,1.4509109e-06,3932210,0.16216381,-0.2555515,-0.020461595,0.4,0.011211777,0.013798328,0.00050083105,458770,0.0,0.0,0.0,0.5,0.0025000002,0.0025000002,0.0025000002,1,0,1,0,1,0
42177110,42076579,3932210,0.0055814153,-0.0068914974,-0.008975602,0.34906584,2.3241806e-07,2.3108424e-07,1.4456754e-06,3932210,0.16326687,-0.25525215,-0.020739099,0.4,0.01120524,0.013797857,0.0005008325,458770,0.0,0.0,0.0,0.5,0.0025000002,0.0025000002,0.0025000002,1,0,1,0,1,0
42226989,42126535,3932210,0.005581343,-0.0068911235,-0.008975612,0.34906584,2.3291815e-07,2.315805e-07,1.4461814e-06,3932210,0.16416751,-0.25497517,-0.02119204,0.4,0.011187042,0.01379615,0.0005008349,458770,0.0,0.0,0.0,0.5,0.0025000002,0.0025000002,0.0025000002,1,0,1,0,1,0
42376932,42276402,3932210,0.00558303,-0.0068896543,-0.009042372,0.34906584,2.344085e-07,2.3307283e-07,1.4358743e-06,3932210,0.16527754,-0.2546847,-0.021204561,0.4,0.011164791,0.013794142,0.00050084206,458770,0.0,0.0,0.0,0.5,0.0025000002,0.0025000002,0.0025000002,1,0,1,0,1,0
42526725,42426269,3932210,0.0055824476,-0.0068893726,-0.009032835,0.34906584,2.3589772e-07,2.3456651e-07,1.4256149e-06,3932210,0.16656744,-0.25425118,-0.021641156,0.4,0.011145792,0.013792357,0.0005008484,458770,0.0,0.0,0.0,0.5,0.0025000002,0.0025000002,0.0025000002,1,0,1,0,1,0
42556983,42456242,3932210,0.005581037,-0.0068902425,-0.008992715,0.34906584,2.3619167e-07,2.3486456e-07,1.4200535e-06,3932210,0.16574472,-0.2544551,-0.0209582,0.4,0.011139424,0.013791558,0.0005008499,458770,0.0,0.0,0.0,0.5,0.0025000002,0.0025000002,0.0025000002,1,0,1,0,1,0
42676596,42576136,3932210,0.00557995,-0.0068903896,-0.008964803,0.34906584,2.3738505e-07,2.3606131e-07,1.4154132e-06,3932210,0.1666681,-0.25411764,-0.021295898,0.4,0.01113044,0.013790849,0.00050085364,458770,0.0,0.0,0.0,0.5,0.0025000002,0.0025000002,0.0025000002,1,0,1,0,1,0
42876538,42775959,3932210,0.0055774376,-0.0068912962,-0.008893054,0.34906584,2.3937068e-07,2.3805522e-07,1.4057548e-06,3932210,0.1677051,-0.25365078,-0.021744642,0.4,0.0111131,0.013788894,0.0005008595,458770,0.0,0.0,0.0,0.5,0.0025000002,0.0025000002,0.0025000002,1,0,1,0,1,0
43186231,43085684,3932210,0.0055720704,-0.006892757,-0.008746711,0.34906584,2.424339e-07,2.4113194e-07,1.3800397e-06,3932210,0.16873097,-0.2531245,-0.02145724,0.4,0.011095094,0.013786892,0.0005008657,458770,0.0,0.0,0.0,0.5,0.0025000002,0.0025000002,0.0025000002,1,0,1,0,1,0
43336050,43235551,3932210,0.0055713537,-0.006891792,-0.008742075,0.34906584,2.4391898e-07,2.4261814e-07,1.370158e-06,3932210,0.16980387,-0.25289783,-0.021121474,0.4,0.011087065,0.013786174,0.00050086883,458770,0.0,0.0,0.0,0.5,0.0025000002,0.0025000002,0.0025000002,1,0,1,0,1,0
43406051,43305489,3932210,0.004829459,-0.009905465,-0.0093762465,0.34906584,1.9185434e-07,1.9025423e-07,1.3563681e-06,3932210,0.11435428,-0.527166,-0.11898818,0.4,0.010667192,0.013219331,0.00050086976,458770,0.0,0.0,0.0,0.5,0.0025000002,0.0025000002,0.0025000002,1,0,1,0,1,0
43415910,43315480,3932210,0.00482946,-0.009905467,-0.009376249,0.34906584,1.9195429e-07,1.9035417e-07,1.3564688e-06,3932210,0.11435431,-0.4000001,-0.11898821,0.4,0.010667197,0.01321934,0.000500871,458770,0.0,0.0,0.0,0.5,0.0025000002,0.0025000002,0.0025000002,1,0,1,0,1,0
43535916,43435374,3932210,0.0048262663,-0.009907052,-0.00930722,0.34906584,1.9313171e-07,1.9154942e-07,1.352126e-06,3932210,0.113362834,-0.3998534,-0.11904571,0.4,0.010657825,0.013219125,0.0005008714,458770,0.0,0.0,0.0,0.5,0.0025000002,0.0025000002,0.0025000002,1,0,1,0,1,0
43615931,43515303,3932210,0.004661952,-0.008779441,-0.0066849915,0.34906584,1.8849555e-07,1.8955737e-07,1.1524749e-06,3932210,0.09532356,-0.32036656,-0.07735511,0.4,0.010332451,0.01310652,0.0005008726,458770,0.0,0.0,0.0,0.5,0.0025000002,0.0025000002,0.0025000002,1,0,1,0,1,0
43825696,43725117,3932210,0.004790635,-0.0076405564,-0.006098157,0.34906584,1.8684088e-07,1.885032e-07,1.0734298e-06,3932210,0.050172027,-0.32875034,-0.052999225,0.4,0.010100362,0.013058959,0.0005008754,458770,0.0,0.0,0.0,0.5,0.0025000002,0.0025000002,0.0025000002,1,0,1,0,1,0
43995490,43894966,3932210,0.004791701,-0.0076422696,-0.006054856,0.34906584,1.88532e-07,1.9018738e-07,1.0674634e-06,3932210,0.04906939,-0.3284755,-0.053002942,0.4,0.010090063,0.013057699,0.00050087756,458770,0.0,0.0,0.0,0.5,0.0025000002,0.0025000002,0.0025000002,1,0,1,0,1,0
44035514,43934931,3932210,0.0049397,-0.0067551206,-0.005592615,0.34906584,1.8593383e-07,1.8758578e-07,1.0354196e-06,3932210,0.024214331,-0.35471335,-0.033483125,0.4,0.009955791,0.013034988,0.00050087733,458770,0.0,0.0,0.0,0.5,0.0025000002,0.0025000002,0.0025000002,1,0,1,0,1,0
44245355,44144746,3932210,0.0050072595,-0.005922194,-0.005198162,0.34906584,1.8531051e-07,1.8658544e-07,1.0075919e-06,3932210,0.020977322,-0.39399722,-0.026867408,0.4,0.009823731,0.013025767,0.00050087634,458770,0.0,0.0,0.0,0.5,0.0025000002,0.0025000002,0.0025000002,1,0,1,0,1,0
44455133,44354559,3932210,0.0050732596,-0.005162941,-0.004860293,0.34906584,1.8488258e-07,1.856328e-07,9.874907e-07,3932210,0.024786582,-0.43361995,-0.030615266,0.4,0.00970421,0.013007927,0.00050087855,458770,0.0,0.0,0.0,0.5,0.0025000002,0.0025000002,0.0025000002,1,0,1,0,1,0
44465047,44364550,3932210,0.0050732605,-0.0051629418,-0.004860294,0.34906584,1.8498248e-07,1.857327e-07,9.875909e-07,3932210,0.024786586,-0.4000001,-0.03061527,0.4,0.009704214,0.013007932,0.0005008797,458770,0.0,0.0,0.0,0.5,0.0025000002,0.0025000002,0.0025000002,1,0,1,0,1,0
44644978,44544390,3932210,0.005073332,-0.0051621734,-0.0048734676,0.34906584,1.8675661e-07,1.8751314e-07,9.834727e-07,3932210,0.023774408,-0.40010995,-0.03065208,0.4,0.009695691,0.013006781,0.00050088007,458770,0.0,0.0,0.0,0.5,0.0025000002,0.0025000002,0.0025000002,1,0,1,0,1,0
44664949,44564373,3932210,0.005078089,-0.004643349,-0.00469001,0.34906584,1.8446866e-07,1.849043e-07,9.79817e-07,3932210,0.021369765,-0.43273577,-0.019320715,0.4,0.009633961,0.012994337,0.0005008794,458770,0.0,0.0,0.0,0.5,0.0025000002,0.0025000002,0.0025000002,1,0,1,0,1,0
44674911,44574364,3932210,0.005078086,-0.004643346,-0.00469001,0.34906584,1.8456858e-07,1.8500423e-07,9.799172e-07,3932210,0.021374706,-0.40000266,-0.019314544,0.4,0.009633968,0.012994344,0.0005008804,458770,0.0,0.0,0.0,0.5,0.0025000002,0.0025000002,0.0025000002,1,0,1,0,1,0
44854911,44754204,3932210,0.0050776456,-0.004642128,-0.0047113597,0.34906584,1.8633531e-07,1.8678426e-07,9.758406e-07,3932210,0.020208037,-0.4001214,-0.019348187,0.4,0.009625549,0.01299362,0.00050088094,458770,0.0,0.0,0.0,0.5,0.0025000002,0.0025000002,0.0025000002,1,0,1,0,1,0
44874787,44774187,3932210,0.005083143,-0.0042316676,-0.0045483727,0.34906584,1.8403846e-07,1.8430248e-07,9.743936e-07,3932210,0.020375537,-0.42545033,-0.0077032773,0.4,0.009581539,0.01298271,0.00050088024,458770,0.0,0.0,0.0,0.5,0.0025000002,0.0025000002,0.0025000002,1,0,1,0,1,0
44884677,44784178,3932210,0.0050831437,-0.0042316685,-0.0045483736,0.34906584,1.8413837e-07,1.844024e-07,9.74494e-07,3932210,0.02037554,-0.40000007,-0.007703278,0.4,0.0095815435,0.012982717,0.00050088135,458770,0.0,0.0,0.0,0.5,0.0025000002,0.0025000002,0.0025000002,1,0,1,0,1,0
45054608,44954027,3932210,0.0050836704,-0.004231366,-0.004552569,0.34906584,1.8581193e-07,1.8608745e-07,9.722784e-07,3932210,0.019238299,-0.4000768,-0.0076699993,0.4,0.009573504,0.012982118,0.0005008815,458770,0.0,0.0,0.0,0.5,0.0025000002,0.0025000002,0.0025000002,1,0,1,0,1,0
45084640,44984001,3932210,0.0050238683,-0.003770577,-0.004449163,0.34906584,1.8370926e-07,1.8358435e-07,9.681096e-07,3932210,0.028750807,-0.42217988,-0.010120664,0.4,0.009517708,0.012967748,0.0005008811,458770,0.0,0.0,0.0,0.5,0.0025000002,0.0025000002,0.0025000002,1,0,1,0,1,0
45094485,44993992,3932210,0.005023869,-0.0037705777,-0.004449164,0.34906584,1.8380918e-07,1.8368426e-07,9.682097e-07,3932210,0.02875081,-0.40000007,-0.010120665,0.4,0.0095177125,0.012967754,0.0005008822,458770,0.0,0.0,0.0,0.5,0.0025000002,0.0025000002,0.0025000002,1,0,1,0,1,0
45254412,45153850,3932210,0.0050237346,-0.003769682,-0.0044639218,0.34906584,1.8538003e-07,1.8526937e-07,9.659014e-07,3932210,0.02744438,-0.4000881,-0.010160229,0.4,0.0095100105,0.012967151,0.0005008822,458770,0.0,0.0,0.0,0.5,0.0025000002,0.0025000002,0.0025000002,1,0,1,0,1,0
45294801,45193815,3932210,0.0049880967,-0.003347087,-0.0043534464,0.34906584,1.834985e-07,1.83064e-07,9.623583e-07,3932210,0.033018418,-0.4178721,-0.008170812,0.4,0.009457542,0.0129601555,0.0005008807,458770,0.0,0.0,0.0,0.5,0.0025000002,0.0025000002,0.0025000002,1,0,1,0,1,0
45304755,45203806,3932210,0.0049883598,-0.0033470758,-0.0043534352,0.34906584,1.8359756e-07,1.8316392e-07,9.624586e-07,3932210,0.032636277,-0.4000757,-0.008191285,0.4,0.009455746,0.012960091,0.00050088094,458770,0.0,0.0,0.0,0.5,0.0025000002,0.0025000002,0.0025000002,1,0,1,0,1,0
45504286,45403629,3932210,0.0048664887,-0.0030654492,-0.0044286735,0.34906584,1.831623e-07,1.8258862e-07,9.584776e-07,3932210,0.038157426,-0.40970957,0.0020167697,0.4,0.00942141,0.012950929,0.0005008815,458770,0.0,0.0,0.0,0.5,0.0025000002,0.0025000002,0.0025000002,1,0,1,0,1,0
45514145,45413620,3932210,0.0048664897,-0.0030654497,-0.004428674,0.34906584,1.8326219e-07,1.8268851e-07,9.585777e-07,3932210,0.038157433,-0.40000007,0.00201677,0.4,0.009421415,0.0129509345,0.0005008826,458770,0.0,0.0,0.0,0.5,0.0025000002,0.0025000002,0.0025000002,1,0,1,0,1,0
45714126,45613443,3932210,0.0047899606,-0.0028901573,-0.0044614645,0.34906584,1.8271417e-07,1.8225313e-07,9.543992e-07,3932210,0.040535837,-0.4022562,0.009547605,0.4,0.0094028395,0.012947999,0.0005008824,458770,0.0,0.0,0.0,0.5,0.0025000002,0.0025000002,0.0025000002,1,0,1,0,1,0
45723932,45623434,3932210,0.004789961,-0.0028901575,-0.0044614654,0.34906584,1.8281408e-07,1.8235305e-07,9.544995e-07,3932210,0.04053584,-0.40000007,0.009547607,0.4,0.009402844,0.012948005,0.00050088344,458770,0.0,0.0,0.0,0.5,0.0025000002,0.0025000002,0.0025000002,1,0,1,0,1,0
45863888,45763310,3932210,0.0047891494,-0.0028889726,-0.0044815564,0.34906584,1.8418348e-07,1.8373825e-07,9.5192445e-07,3932210,0.03948636,-0.40020847,0.009529551,0.4,0.009397544,0.0129474215,0.0005008843,458770,0.0,0.0,0.0,0.5,0.0025000002,0.0025000002,0.0025000002,1,0,1,0,1,0
45923870,45823257,3932210,0.0049300836,-0.0026911066,-0.004243558,0.34906584,1.8237068e-07,1.8221469e-07,9.494724e-07,3932210,0.039238483,-0.40353122,0.00787077,0.4,0.009379888,0.012933029,0.00050088327,458770,0.0,0.0,0.0,0.5,0.0025000002,0.0025000002,0.0025000002,1,0,1,0,1,0
45933829,45833248,3932210,0.00492904,-0.0026903183,-0.004256384,0.34906584,1.8245747e-07,1.8230723e-07,9.475998e-07,3932210,0.03935272,-0.40014106,0.007869826,0.4,0.009379745,0.012932823,0.0005008836,458770,0.0,0.0,0.0,0.5,0.0025000002,0.0025000002,0.0025000002,1,0,1,0,1,0
46063678,45963133,3932210,0.004928674,-0.0026893253,-0.0042710984,0.34906584,1.8374013e-07,1.8359775e-07,9.469207e-07,3932210,0.038251188,-0.40007883,0.007865239,0.4,0.009374715,0.0129324235,0.00050088385,458770,0.0,0.0,0.0,0.5,0.0025000002,0.0025000002,0.0025000002,1,0,1,0,1,0
46133650,46033071,3932210,0.0051787784,-0.002513612,-0.003971637,0.34906584,1.820254e-07,1.8237058e-07,9.39288e-07,3932210,0.036082786,-0.4039696,0.0051440755,0.4,0.009359677,0.012897428,0.0005008841,458770,0.0,0.0,0.0,0.5,0.0025000002,0.0025000002,0.0025000002,1,0,1,0,1,0
46143618,46043062,3932210,0.005176839,-0.0025119937,-0.0039954614,0.34906584,1.8211242e-07,1.8246152e-07,9.374465e-07,3932210,0.036292985,-0.4002444,0.0051307436,0.4,0.009359531,0.012897231,0.00050088455,458770,0.0,0.0,0.0,0.5,0.0025000002,0.0025000002,0.0025000002,1,0,1,0,1,0
46313482,46212912,3932210,0.005176345,-0.0025106855,-0.0040128147,0.34906584,1.8378091e-07,1.8414059e-07,9.3523994e-07,3932210,0.035075877,-0.40013087,0.005171404,0.4,0.009352893,0.01289656,0.00050088426,458770,0.0,0.0,0.0,0.5,0.0025000002,0.0025000002,0.0025000002,1,0,1,0,1,0
46343467,46242885,3932210,0.005351122,-0.0023749617,-0.0038031759,0.34906584,1.8164756e-07,1.8243972e-07,9.32246e-07,3932210,0.03341835,-0.40327585,0.0011819093,0.4,0.0093452195,0.012879292,0.0005008849,458770,0.0,0.0,0.0,0.5,0.0025000002,0.0025000002,0.0025000002,1,0,1,0,1,0
46353367,46252877,3932210,0.0053511173,-0.0023749596,-0.0038031726,0.34906584,1.8174707e-07,1.8253922e-07,9.323442e-07,3932210,0.03341832,-0.39999968,0.0011819084,0.4,0.009345204,0.012879268,0.0005008849,458770,0.0,0.0,0.0,0.5,0.0025000002,0.0025000002,0.0025000002,1,0,1,0,1,0
46523248,46422726,3932210,0.0053487024,-0.0023717298,-0.00384595,0.34906584,1.834043e-07,1.8420604e-07,9.282209e-07,3932210,0.032251526,-0.4000804,0.001162583,0.4,0.009338579,0.012878441,0.0005008899,458770,0.0,0.0,0.0,0.5,0.0025000002,0.0025000002,0.0025000002,1,0,1,0,1,0
46553293,46452700,3932210,0.0055323043,-0.0022199145,-0.0036426876,0.34906584,1.8137463e-07,1.8256448e-07,9.2546054e-07,3932210,0.028779767,-0.40375578,0.0033479535,0.4,0.009328895,0.012862876,0.00050088455,458770,0.0,0.0,0.0,0.5,0.0025000002,0.0025000002,0.0025000002,1,0,1,0,1,0
46563220,46462691,3932210,0.0055323048,-0.0022199124,-0.003642688,0.34906584,1.8147452e-07,1.8266437e-07,9.2556064e-07,3932210,0.028781414,-0.40000322,0.0033515338,0.4,0.009328899,0.012862881,0.00050088554,458770,0.0,0.0,0.0,0.5,0.0025000002,0.0025000002,0.0025000002,1,0,1,0,1,0
46723127,46622549,3932210,0.005528205,-0.0022147654,-0.003707544,0.34906584,1.8303243e-07,1.8422735e-07,9.213548e-07,3932210,0.02770578,-0.40030888,0.0033324857,0.4,0.009322413,0.012862043,0.00050088746,458770,0.0,0.0,0.0,0.5,0.0025000002,0.0025000002,0.0025000002,1,0,1,0,1,0
46763294,46662514,3932210,0.005694226,-0.002080201,-0.0035398626,0.34906584,1.8105685e-07,1.8262183e-07,9.194204e-07,3932210,0.023707971,-0.40523624,0.0020940707,0.4,0.009314644,0.012847013,0.0005008853,458770,0.0,0.0,0.0,0.5,0.0025000002,0.0025000002,0.0025000002,1,0,1,0,1,0
46773048,46672505,3932210,0.0056944923,-0.0020801716,-0.0035398416,0.34906584,1.8115612e-07,1.8272172e-07,9.195206e-07,3932210,0.023293458,-0.40008768,0.0020839195,0.4,0.009313159,0.012846953,0.0005008855,458770,0.0,0.0,0.0,0.5,0.0025000002,0.0025000002,0.0025000002,1,0,1,0,1,0
46972944,46872328,3932210,0.0057477597,-0.0019553252,-0.0035248245,0.34906584,1.80722e-07,1.8245913e-07,9.152547e-07,3932210,0.020991674,-0.4056642,0.0024687396,0.4,0.009299978,0.012841055,0.00050088606,458770,0.0,0.0,0.0,0.5,0.0025000002,0.0025000002,0.0025000002,1,0,1,0,1,0
46982814,46882319,3932210,0.005747761,-0.0019553257,-0.0035248254,0.34906584,1.8082189e-07,1.8255902e-07,9.153549e-07,3932210,0.020991677,-0.4000001,0.0024687403,0.4,0.009299982,0.012841061,0.0005008871,458770,0.0,0.0,0.0,0.5,0.0025000002,0.0025000002,0.0025000002,1,0,1,0,1,0
47172684,47072151,3932210,0.0057450775,-0.0019512874,-0.0035724086,0.34906584,1.8268109e-07,1.8441644e-07,9.114173e-07,3932210,0.0197956,-0.4000908,0.002434529,0.4,0.009293789,0.012840205,0.000500893,458770,0.0,0.0,0.0,0.5,0.0025000002,0.0025000002,0.0025000002,1,1,1,0,1,0
47182756,47082142,3932210,0.005765934,-0.0018174817,-0.003546208,0.34906584,1.8042623e-07,1.8221715e-07,9.113942e-07,3932210,0.019809524,-0.40716094,0.0038506489,0.4,0.009284941,0.012833783,0.0005008865,458770,0.0,0.0,0.0,0.5,0.0025000002,0.0025000002,0.0025000002,1,1,1,0,1,0
47192640,47092134,3932210,0.005765929,-0.0018174802,-0.0035462051,0.34906584,1.8052575e-07,1.8231667e-07,9.1149246e-07,3932210,0.019809509,-0.3999997,0.0038506456,0.4,0.009284926,0.012833763,0.0005008866,458770,0.0,0.0,0.0,0.5,0.0025000002,0.0025000002,0.0025000002,1,1,1,0,1,0
47392533,47291957,3932210,0.0057793697,-0.0017237716,-0.0036095686,0.34906584,1.8002945e-07,1.819382e-07,9.072226e-07,3932210,0.018931944,-0.40527225,0.0019767694,0.4,0.009271416,0.012823365,0.0005008857,458770,0.0,0.0,0.0,0.5,0.0025000002,0.0025000002,0.0025000002,1,1,1,0,1,0
47402445,47301948,3932210,0.0057793707,-0.0017237718,-0.003609569,0.34906584,1.8012933e-07,1.820381e-07,9.073227e-07,3932210,0.018931946,-0.4000001,0.0019767697,0.4,0.00927142,0.01282337,0.00050088676,458770,0.0,0.0,0.0,0.5,0.0025000002,0.0025000002,0.0025000002,1,1,1,0,1,0
47602421,47501771,3932210,0.0058146156,-0.0017331784,-0.003691657,0.34906584,1.794396e-07,1.8167472e-07,9.0133017e-07,3932210,0.016170649,-0.39921287,-0.0015905711,0.4,0.009256365,0.012809113,0.0005008849,458770,0.0,0.0,0.0,0.5,0.0025000002,0.0025000002,0.0025000002,1,1,1,0,1,0
47732205,47631656,3932210,0.005813443,-0.001730794,-0.003719075,0.34906584,1.8072626e-07,1.829589e-07,9.0066135e-07,3932210,0.015095194,-0.3997834,-0.0015789077,0.4,0.009252192,0.012808731,0.0005008894,458770,0.0,0.0,0.0,0.5,0.0025000002,0.0025000002,0.0025000002,1,1,1,0,1,0
47812197,47711585,3932210,0.0058333534,-0.0017871446,-0.0037263173,0.34906584,1.7885063e-07,1.8138029e-07,8.9686563e-07,3932210,0.013225177,-0.39551547,-0.002833182,0.4,0.009238861,0.012793627,0.0005008857,458770,0.0,0.0,0.0,0.5,0.0025000002,0.0025000002,0.0025000002,1,1,1,0,1,0
47932359,47831480,3932210,0.0058315517,-0.0017838544,-0.0037645225,0.34906584,1.8003016e-07,1.8255061e-07,8.9414345e-07,3932210,0.012289373,-0.3961832,-0.0028406365,0.4,0.0092346305,0.012792992,0.0005008847,458770,0.0,0.0,0.0,0.5,0.0025000002,0.0025000002,0.0025000002,1,1,1,0,1,0
48021978,47921400,3932210,0.005788953,-0.0017818231,-0.0038114027,0.34906584,1.7843695e-07,1.8098359e-07,8.91946e-07,3932210,0.014339337,-0.3968751,0.0020560878,0.4,0.009222911,0.012774513,0.0005008853,458770,0.0,0.0,0.0,0.5,0.0025000002,0.0025000002,0.0025000002,1,1,1,0,1,0
48131826,48031302,3932210,0.005786422,-0.0017774455,-0.0038637195,0.34906584,1.7951918e-07,1.8205576e-07,8.8912196e-07,3932210,0.013477454,-0.3976906,0.002021747,0.4,0.0092188185,0.01277394,0.00050089223,458770,0.0,0.0,0.0,0.5,0.0025000002,0.0025000002,0.0025000002,1,1,1,0,1,0
48232070,48131214,3932210,0.0057945503,-0.001768497,-0.003888138,0.34906584,1.7803922e-07,1.8067578e-07,8.874063e-07,3932210,0.012268751,-0.39904904,0.0032980288,0.4,0.009205324,0.01275428,0.0005008861,458770,0.0,0.0,0.0,0.5,0.0025000002,0.0025000002,0.0025000002,1,1,1,0,1,0
48391601,48291073,3932210,0.0057917316,-0.0017634173,-0.0039489297,0.34906584,1.7962154e-07,1.8224654e-07,8.8506494e-07,3932210,0.011306139,-0.40000165,0.0032606702,0.4,0.009201321,0.0127536645,0.0005008909,458770,0.0,0.0,0.0,0.5,0.0025000002,0.0025000002,0.0025000002,1,1,1,0,1,0
48441797,48341028,3932210,0.0057429126,-0.0017811427,-0.004006969,0.34906584,1.7761786e-07,1.8023628e-07,8.8243524e-07,3932210,0.014258953,-0.39796826,0.0043688985,0.4,0.009187398,0.01273082,0.0005008865,458770,0.0,0.0,0.0,0.5,0.0025000002,0.0025000002,0.0025000002,1,1,1,0,1,0
48591420,48490896,3932210,0.00573971,-0.0017754973,-0.0040764096,0.34906584,1.7910203e-07,1.8170815e-07,8.799911e-07,3932210,0.013513221,-0.39897424,0.0043596574,0.4,0.00918349,0.0127301905,0.0005008885,458770,0.0,0.0,0.0,0.5,0.0025000002,0.0025000002,0.0025000002,1,1,1,0,1,0
48651491,48550843,3932210,0.005630327,-0.0019018758,-0.0041738357,0.34906584,1.7712105e-07,1.7970098e-07,8.744504e-07,3932210,0.020404669,-0.38749045,0.01219814,0.4,0.009164244,0.012699191,0.00050088466,458770,0.0,0.0,0.0,0.5,0.0025000002,0.0025000002,0.0025000002,1,1,1,0,1,0
48791493,48690719,3932210,0.0056277057,-0.0018967474,-0.004239413,0.34906584,1.7850847e-07,1.8107558e-07,8.7195184e-07,3932210,0.019661734,-0.3884392,0.012153769,0.4,0.009160463,0.012698601,0.0005008947,458770,0.0,0.0,0.0,0.5,0.0025000002,0.0025000002,0.0025000002,1,1,1,0,1,0
48861576,48760657,3932210,0.0054312013,-0.0021100927,-0.004362137,0.34906584,1.7658382e-07,1.7898401e-07,8.6240414e-07,3932210,0.030992178,-0.36594215,0.018936485,0.4,0.009135548,0.012654966,0.0005008852,458770,0.0,0.0,0.0,0.5,0.0025000002,0.0025000002,0.0025000002,1,1,1,0,1,0
48991048,48890542,3932210,0.005430116,-0.002106974,-0.004404566,0.34906584,1.7787447e-07,1.8026255e-07,8.5991826e-07,3932210,0.029876463,-0.366659,0.018914074,0.4,0.009131884,0.012654436,0.0005008894,458770,0.0,0.0,0.0,0.5,0.0025000002,0.0025000002,0.0025000002,1,1,1,0,1,0
49070994,48970472,3932210,0.0052809524,-0.0022552419,-0.0044839378,0.34906584,1.7618054e-07,1.7841808e-07,8.5474113e-07,3932210,0.037927985,-0.35087204,0.021536632,0.4,0.009116283,0.012622707,0.000500885,458770,0.0,0.0,0.0,0.5,0.0025000002,0.0025000002,0.0025000002,1,1,1,0,1,0
49200929,49100357,3932210,0.0052800816,-0.002252465,-0.0045242533,0.34906584,1.7747298e-07,1.796991e-07,8.522981e-07,3932210,0.036924914,-0.35151276,0.021545839,0.4,0.009112718,0.012622212,0.00050088664,458770,0.0,0.0,0.0,0.5,0.0025000002,0.0025000002,0.0025000002,1,1,1,0,1,0
49280957,49180286,3932210,0.005119759,-0.0023500584,-0.004577852,0.34906584,1.7585762e-07,1.7787124e-07,8.4853497e-07,3932210,0.044628385,-0.3400709,0.02006575,0.4,0.009101097,0.01259162,0.0005008858,458770,0.0,0.0,0.0,0.5,0.0025000002,0.0025000002,0.0025000002,1,1,1,0,1,0
49400658,49300180,3932210,0.0051202164,-0.0023497373,-0.004581544,0.34906584,1.7705298e-07,1.7906186e-07,8.4787587e-07,3932210,0.04335445,-0.3403755,0.020056006,0.4,0.009097655,0.012591309,0.0005008946,458770,0.0,0.0,0.0,0.5,0.0025000002,0.0025000002,0.0025000002,1,1,1,0,1,0
49490614,49390101,3932210,0.0048302608,-0.0023648937,-0.0046262033,0.34906584,1.7563201e-07,1.7718295e-07,8.3980785e-07,3932210,0.057081606,-0.33265465,0.016744727,0.4,0.009087865,0.012530572,0.0005008853,458770,0.0,0.0,0.0,0.5,0.0025000002,0.0025000002,0.0025000002,1,1,1,0,1,0
49600485,49500003,3932210,0.00483084,-0.002364831,-0.0046256986,0.34906584,1.7672808e-07,1.7827587e-07,8.3908435e-07,3932210,0.05574988,-0.33290887,0.016760955,0.4,0.009084512,0.012530303,0.00050088693,458770,0.0,0.0,0.0,0.5,0.0025000002,0.0025000002,0.0025000002,1,1,1,0,1,0
49701036,49599915,3932210,0.0046303724,-0.0022961965,-0.0046539493,0.34906584,1.7552863e-07,1.767665e-07,8.3426534e-07,3932210,0.06429079,-0.3343568,0.016425127,0.4,0.009070973,0.012500991,0.0005008858,458770,0.0,0.0,0.0,0.5,0.0025000002,0.0025000002,0.0025000002,1,1,1,0,1,0
49850306,49749782,3932210,0.004629658,-0.0022940915,-0.0046944846,0.34906584,1.770221e-07,1.7825515e-07,8.321286e-07,3932210,0.063150354,-0.33496755,0.016433412,0.4,0.009067674,0.012500624,0.0005008898,458770,0.0,0.0,0.0,0.5,0.0025000002,0.0025000002,0.0025000002,1,1,1,0,1,0
49910381,49809729,3932210,0.004550011,-0.0022582284,-0.0047108578,0.34906584,1.7540788e-07,1.7654313e-07,8.307736e-07,3932210,0.06513618,-0.33547875,0.012951197,0.4,0.009059304,0.012491539,0.00050088635,458770,0.0,0.0,0.0,0.5,0.0025000002,0.0025000002,0.0025000002,1,1,1,0,1,0
50060311,49959597,3932210,0.004549651,-0.002256777,-0.0047391606,0.34906584,1.7690093e-07,1.780319e-07,8.286211e-07,3932210,0.063927665,-0.33596706,0.012971067,0.4,0.009056051,0.012491147,0.00050088577,458770,0.0,0.0,0.0,0.5,0.0025000002,0.0025000002,0.0025000002,1,1,1,0,1,0
50120104,50019544,3932210,0.004390728,-0.0022567955,-0.0047540013,0.34906584,1.7530917e-07,1.7629182e-07,8.2821055e-07,3932210,0.066488124,-0.33413795,0.012069316,0.4,0.009052761,0.012476612,0.0005008857,458770,0.0,0.0,0.0,0.5,0.0025000002,0.0025000002,0.0025000002,1,1,1,0,1,0
50260226,50159420,3932210,0.0043906216,-0.002255827,-0.0047737956,0.34906584,1.7670286e-07,1.7768231e-07,8.259621e-07,3932210,0.06530329,-0.33454207,0.012083166,0.4,0.009049586,0.012476262,0.0005008922,458770,0.0,0.0,0.0,0.5,0.0025000002,0.0025000002,0.0025000002,1,1,1,0,1,0
50329956,50229358,3932210,0.004287837,-0.0022452637,-0.0047932877,0.34906584,1.7523463e-07,1.7614089e-07,8.246043e-07,3932210,0.06541625,-0.33362952,0.0097275255,0.4,0.009046675,0.012470179,0.00050088624,458770,0.0,0.0,0.0,0.5,0.0025000002,0.0025000002,0.0025000002,1,1,1,0,1,0
50460012,50359243,3932210,0.004287954,-0.0022445542,-0.004807417,0.34906584,1.7652856e-07,1.7743211e-07,8.222453e-07,3932210,0.064098895,-0.33402997,0.009759527,0.4,0.009043555,0.012469841,0.0005008891,458770,0.0,0.0,0.0,0.5,0.0025000002,0.0025000002,0.0025000002,1,1,1,0,1,0
50539876,50439173,3932210,0.004304357,-0.0022240076,-0.0047962884,0.34906584,1.7518227e-07,1.7614505e-07,8.2089366e-07,3932210,0.063162774,-0.33401453,0.006467941,0.4,0.009040463,0.012468266,0.0005008857,458770,0.0,0.0,0.0,0.5,0.0025000002,0.0025000002,0.0025000002,1,1,1,0,1,0
50660333,50559067,3932210,0.0043051974,-0.0022243403,-0.004786004,0.34906584,1.763763e-07,1.7733598e-07,8.1842e-07,3932210,0.061797373,-0.3342147,0.0064741075,0.4,0.009037392,0.01246793,0.00050089567,458770,0.0,0.0,0.0,0.5,0.0025000002,0.0025000002,0.0025000002,1,1,1,0,1,0
50749685,50648987,3932210,0.004357334,-0.0020741352,-0.004740724,0.34906584,1.7526258e-07,1.762172e-07,8.152747e-07,3932210,0.061628442,-0.33120865,0.004329046,0.4,0.00902085,0.012463145,0.00050088624,458770,0.0,0.0,0.0,0.5,0.0025000002,0.0025000002,0.0025000002,1,1,1,0,1,0
50859697,50758890,3932210,0.004358101,-0.002074335,-0.0047336854,0.34906584,1.7635591e-07,1.7730748e-07,8.1271565e-07,3932210,0.060269877,-0.33143458,0.0043650647,0.4,0.009017836,0.0124628,0.0005008913,458770,0.0,0.0,0.0,0.5,0.0025000002,0.0025000002,0.0025000002,1,1,1,0,1,0
50959523,50858802,3932210,0.004433083,-0.0019861069,-0.004705709,0.34906584,1.7535682e-07,1.7639296e-07,8.105434e-07,3932210,0.062171984,-0.32928383,0.014166903,0.4,0.009006332,0.012453912,0.00050088455,458770,0.0,0.0,0.0,0.5,0.0025000002,0.0025000002,0.0025000002,1,1,1,0,1,0
51069637,50968705,3932210,0.004432479,-0.0019844226,-0.004738133,0.34906584,1.7644987e-07,1.7748246e-07,8.079868e-07,3932210,0.06096575,-0.3298283,0.014171152,0.4,0.00900338,0.012453557,0.00050088525,458770,0.0,0.0,0.0,0.5,0.0025000002,0.0025000002,0.0025000002,1,1,1,0,1,0
51169499,51068618,3932210,0.004618287,-0.00195579,-0.004732977,0.34906584,1.7537756e-07,1.7668701e-07,8.0365135e-07,3932210,0.06380703,-0.32952967,0.024252564,0.4,0.008995968,0.012424316,0.0005008834,458770,0.0,0.0,0.0,0.5,0.0025000002,0.0025000002,0.0025000002,1,1,1,0,1,0
51319393,51218484,3932210,0.0046178126,-0.0019541937,-0.0047608116,0.34906584,1.7687059e-07,1.7817445e-07,8.0153063e-07,3932210,0.06270775,-0.33002824,0.024286736,0.4,0.008993116,0.012424011,0.000500885,458770,0.0,0.0,0.0,0.5,0.0025000002,0.0025000002,0.0025000002,1,1,1,0,1,0
51379363,51278431,3932210,0.0047464212,-0.0019474316,-0.004755301,0.34906584,1.7532501e-07,1.7684516e-07,7.9871944e-07,3932210,0.063498564,-0.33086398,0.024591662,0.4,0.008990516,0.012409653,0.00050088513,458770,0.0,0.0,0.0,0.5,0.0025000002,0.0025000002,0.0025000002,1,1,1,0,1,0
51519417,51418307,3932210,0.004746593,-0.0019469411,-0.0047624307,0.34906584,1.7671793e-07,1.7823095e-07,7.9650914e-07,3932210,0.06251706,-0.33114225,0.024609298,0.4,0.008987688,0.012409334,0.0005008936,458770,0.0,0.0,0.0,0.5,0.0025000002,0.0025000002,0.0025000002,1,1,1,0,1,0
51589638,51488246,3932210,0.004873448,-0.001949603,-0.0047570853,0.34906584,1.7526155e-07,1.7698686e-07,7.93984e-07,3932210,0.062161,-0.33202723,0.026814593,0.4,0.00898563,0.012394267,0.0005008849,458770,0.0,0.0,0.0,0.5,0.0025000002,0.0025000002,0.0025000002,1,1,1,0,1,0
51718931,51618131,3932210,0.0048738183,-0.0019491373,-0.004762967,0.34906584,1.7655687e-07,1.7827803e-07,7.934806e-07,3932210,0.06080501,-0.33236971,0.02682501,0.4,0.008982867,0.0123940455,0.0005008888,458770,0.0,0.0,0.0,0.5,0.0025000002,0.0025000002,0.0025000002,1,1,1,0,1,0
51878904,51777989,3932210,0.004873615,-0.0019477498,-0.0047841575,0.34906584,1.781478e-07,1.7985558e-07,7.8966195e-07,3932210,0.059667464,-0.33281815,0.026851078,0.4,0.008980107,0.012393584,0.00050089194,458770,0.0,0.0,0.0,0.5,0.0025000002,0.0025000002,0.0025000002,1,1,1,0,1,0
52028953,51927857,3932210,0.00487365,-0.0019466822,-0.0047997353,0.34906584,1.7964e-07,1.8133899e-07,7.8753453e-07,3932210,0.05836475,-0.33327165,0.026907954,0.4,0.008977359,0.012393125,0.0005008914,458770,0.0,0.0,0.0,0.5,0.0025000002,0.0025000002,0.0025000002,1,1,1,0,1,0
52179110,52077725,3932210,0.0048737675,-0.0019458538,-0.004811493,0.34906584,1.8113283e-07,1.8282303e-07,7.854039e-07,3932210,0.057107307,-0.33371925,0.02713187,0.4,0.0089746695,0.012392724,0.00050088397,458770,0.0,0.0,0.0,0.5,0.0025000002,0.0025000002,0.0025000002,1,1,1,0,1,0
52328043,52227592,3932210,0.0048739105,-0.0019453042,-0.004817921,0.34906584,1.8262357e-07,1.8430447e-07,7.832627e-07,3932210,0.05581002,-0.33407456,0.027162876,0.4,0.00897204,0.012392388,0.00050088484,458770,0.0,0.0,0.0,0.5,0.0025000002,0.0025000002,0.0025000002,1,1,1,0,1,0
52477931,52377460,3932210,0.00487416,-0.0019444304,-0.004830611,0.34906584,1.8410998e-07,1.8578042e-07,7.810919e-07,3932210,0.05450102,-0.33453485,0.027151681,0.4,0.008969421,0.012391939,0.000500887,458770,0.0,0.0,0.0,0.5,0.0025000002,0.0025000002,0.0025000002,1,1,1,0,1,0
52627781,52527328,3932210,0.0048736962,-0.0019435377,-0.004841636,0.34906584,1.8558985e-07,1.8724795e-07,7.7888023e-07,3932210,0.053302687,-0.3349232,0.027176347,0.4,0.008966826,0.01239134,0.0005008884,458770,0.0,0.0,0.0,0.5,0.0025000002,0.0025000002,0.0025000002,1,1,1,0,1,0
52787641,52687187,3932210,0.004872021,-0.0019429588,-0.0048561185,0.34906584,1.8715691e-07,1.888003e-07,7.767348e-07,3932210,0.052215777,-0.33525845,0.027218686,0.4,0.008964254,0.012390624,0.0005008897,458770,0.0,0.0,0.0,0.5,0.0025000002,0.0025000002,0.0025000002,1,1,1,0,1,0
52938837,52837054,3932210,0.00486857,-0.0019419135,-0.004878032,0.34906584,1.8855799e-07,1.9017162e-07,7.742738e-07,3932210,0.05112947,-0.33564442,0.027262995,0.4,0.008961624,0.012388946,0.0005008849,458770,0.0,0.0,0.0,0.5,0.0025000002,0.0025000002,0.0025000002,1,1,1,0,1,0
53087419,52986922,3932210,0.0048651597,-0.001941605,-0.0048809275,0.34906584,1.8997459e-07,1.9156396e-07,7.7190344e-07,3932210,0.05009158,-0.33595973,0.027243227,0.4,0.008959086,0.012387716,0.00050088606,458770,0.0,0.0,0.0,0.5,0.0025000002,0.0025000002,0.0025000002,1,1,1,0,1,0
53287221,53186745,3932210,0.0048630903,-0.0019418024,-0.00487117,0.34906584,1.9186335e-07,1.9342153e-07,7.68182e-07,3932210,0.048811004,-0.3362561,0.0272116,0.4,0.008955801,0.012386306,0.00050088944,458770,0.0,0.0,0.0,0.5,0.0025000002,0.0025000002,0.0025000002,1,1,1,0,1,0
53487048,53386569,3932210,0.0048538414,-0.0019438443,-0.0048658075,0.34906584,1.9354219e-07,1.9504483e-07,7.660079e-07,3932210,0.047604773,-0.33651122,0.027132353,0.4,0.008952499,0.0123839,0.00050088635,458770,0.0,0.0,0.0,0.5,0.0025000002,0.0025000002,0.0025000002,1,1,1,0,1,0
53696857,53596384,3932210,0.0048423023,-0.0019471135,-0.0048614135,0.34906584,1.9516779e-07,1.9660698e-07,7.6218504e-07,3932210,0.046468653,-0.3368236,0.026953075,0.4,0.00894931,0.012381934,0.00050088356,458770,0.0,0.0,0.0,0.5,0.0025000002,0.0025000002,0.0025000002,1,1,1,0,1,0
53846734,53746252,3932210,0.004834216,-0.0019507185,-0.0048583485,0.34906584,1.9635212e-07,1.9775646e-07,7.5982786e-07,3932210,0.04550545,-0.33708876,0.026830412,0.4,0.008947059,0.012381005,0.0005008847,458770,0.0,0.0,0.0,0.5,0.0025000002,0.0025000002,0.0025000002,1,1,1,0,1,0
