timestamp,timestamp_sample,accel_device_id,gyro_device_id,delta_angle[0],delta_angle[1],delta_angle[2],delta_velocity[0],delta_velocity[1],delta_velocity[2],delta_angle_dt,delta_velocity_dt,delta_velocity_clipping,accel_calibration_count,gyro_calibration_count
17064927,17063639,3932210,3932210,2.063117e-05,-2.0862324e-05,-3.4925329e-06,-0.0012640745,0.0007636668,-0.048810486,4996,4996,0,2,1
17563571,17563185,3932210,3932210,2.1743452e-05,-2.2796472e-05,7.177675e-07,-0.001264185,0.0009447842,-0.04900116,4995,4995,0,2,1
18058124,18057736,3932210,3932210,3.2223765e-05,-2.3586861e-05,-1.6539468e-06,-0.0012394411,0.0007223372,-0.048909463,4995,4995,0,2,1
18557666,18557284,3932210,3932210,2.1290502e-05,-2.0668922e-05,-1.2681487e-06,-0.001359381,0.00074978726,-0.048853837,4996,4996,0,2,1
19062211,19061826,3932210,3932210,4.1855397e-05,-2.1144371e-05,-8.214729e-06,-0.0012566032,0.0008846967,-0.048918795,4995,4995,0,2,1
19561758,19561375,3932210,3932210,1.720025e-05,-1.4187835e-05,-6.494052e-06,-0.0013157206,0.0007947531,-0.048925593,4996,4996,0,2,1
20061375,20060922,3932210,3932210,3.210454e-05,-2.5521509e-05,-3.249522e-06,-0.0013064968,0.0009877135,-0.048770856,4995,4995,0,2,1
20561016,20560595,3932210,3932210,2.084473e-05,-1.4475315e-05,6.1317496e-06,-0.001216121,0.0009021585,-0.048908647,4995,4995,0,2,1
21060530,21060144,3932210,3932210,3.244569e-05,-2.3800196e-05,-3.0573208e-06,-0.0012132943,0.0007145082,-0.04878983,4996,4996,0,2,1
21560089,21559692,3932210,3932210,2.6149151e-05,-1.6152046e-05,-7.1591234e-07,-0.0014423159,0.00089953473,-0.04887699,4995,4995,0,2,1
22059625,22059242,3932210,3932210,2.4881489e-05,-2.3177405e-05,-4.252688e-06,-0.0013035835,0.00090503955,-0.048935603,4996,4996,0,2,1
22559181,22558790,3932210,3932210,3.0852843e-05,-1.9407877e-05,-1.0410461e-05,-0.001345304,0.0007864446,-0.04874294,4995,4995,0,2,1
23058727,23058340,3932210,3932210,2.8692395e-05,-2.3593431e-05,-5.3033023e-06,-0.0012647515,0.000866618,-0.048963048,4996,4996,0,2,1
23563444,23563010,3932210,3932210,1.6411987e-05,-3.0250994e-05,-3.0408437e-06,-0.0014091771,0.00039860184,-0.04896481,4996,4996,0,2,1
24062943,24062559,3932210,3932210,3.127257e-05,-3.751285e-05,-6.0119532e-06,-0.0010602766,0.00073114684,-0.05001983,4995,4995,0,2,1
24557501,24557114,3932210,3932210,1.5852596e-05,-2.1377033e-05,-2.5446284e-06,-0.0015698167,0.0009745162,-0.048119918,4996,4996,0,2,1
25057576,25056664,3932210,3932210,4.332343e-05,-4.1063504e-05,8.413055e-06,-0.0010411991,0.0007148156,-0.04875738,4995,4995,0,2,1
25562193,25561210,3932210,3932210,1.3978689e-05,-5.1492323e-05,2.1130332e-05,-0.0016594733,0.00085585966,-0.048500527,4995,4995,0,2,1
26061142,26060761,3932210,3932210,5.0950686e-05,2.0605497e-05,-1.0419366e-05,-0.0018927745,0.0007101742,-0.048807256,4996,4996,0,2,1
26560692,26560311,3932210,3932210,2.0872956e-05,-2.9180233e-05,-5.0384683e-06,-0.0011189273,0.00091600814,-0.048710983,4995,4995,0,2,1
27060244,27059862,3932210,3932210,3.426064e-05,-1.5364192e-05,-9.319839e-06,-0.0017345024,0.0011295768,-0.050014846,5120,5120,0,2,1
27559899,27559416,3932210,3932210,4.891122e-05,-9.997497e-06,-1.0466538e-05,-0.0014090406,0.0007652764,-0.048797157,4995,4995,0,2,1
28064346,28063961,3932210,3932210,8.5742e-06,-2.0605472e-05,-4.704091e-06,-0.0015229115,0.0010567986,-0.048950624,4996,4996,0,2,1
28558911,28558517,3932210,3932210,3.8004422e-05,-2.2650282e-05,-1.36187155e-05,-0.0013338018,0.00086667784,-0.048694156,4996,4996,0,2,1
29058451,29058069,3932210,3932210,3.1829462e-05,-2.3774948e-05,-4.479933e-06,-0.0014339534,0.00083417783,-0.04893734,4996,4996,0,2,1
29563320,29562616,3932210,3932210,3.862041e-05,-1.3882931e-05,-8.844808e-06,-0.0012099055,0.00097366376,-0.04923003,4995,4995,0,2,1
30062550,30062168,3932210,3932210,2.4097973e-05,-2.4599663e-05,-2.5691077e-06,-0.00138843,0.0006378909,-0.048480336,4995,4995,0,2,1
30562103,30561720,3932210,3932210,2.8184073e-05,-1.0828878e-05,-8.364424e-06,-0.0013282306,0.0013604353,-0.048933968,4995,4995,0,2,1
31061656,31061273,3932210,3932210,6.261229e-06,-1.8423385e-05,7.4067552e-06,-0.0014406026,0.00029818923,-0.049040586,4996,4996,0,2,1
31561209,31560826,3932210,3932210,4.3042968e-05,-1.0227118e-05,-6.9404e-06,-0.0014123078,0.00078200334,-0.04883019,4996,4996,0,2,1
32060809,32060378,3932210,3932210,3.4498426e-05,-2.948425e-05,-8.670632e-06,-0.001365984,0.001011385,-0.04894177,4995,4995,0,2,1
32560312,32559931,3932210,3932210,1.0667195e-05,-2.0248175e-05,-2.0943894e-06,-0.0015041749,0.0008194081,-0.048827697,4995,4995,0,2,1
33059867,33059484,3932210,3932210,1.726348e-05,-1.712295e-05,1.5707649e-06,-0.001666601,0.00060728425,-0.04903173,4995,4995,0,2,1
33559421,33559038,3932210,3932210,3.5206696e-05,-1.9095414e-05,-5.769673e-06,-0.0015523044,0.0010885958,-0.048666008,4996,4996,0,2,1
34059486,34058591,3932210,3932210,2.4457684e-05,-2.8927076e-05,5.100238e-06,-0.0016340165,0.00070156675,-0.048982628,4995,4995,0,2,1
34563522,34563140,3932210,3932210,2.960755e-05,-3.0449894e-05,4.6108867e-06,-0.0012513051,0.0005947735,-0.04902225,4995,4995,0,2,1
35063078,35062694,3932210,3932210,3.9642968e-05,-3.5964662e-05,2.2985065e-05,-0.0011155859,0.0008606641,-0.04862965,4995,4995,0,2,1
35557634,35557252,3932210,3932210,-9.247182e-06,-2.0759293e-05,7.98698e-05,-0.00034951066,0.000374834,-0.048829712,4995,4995,0,2,1
36062242,36061804,3932210,3932210,0.00014863304,-4.1447875e-06,0.00015422983,0.0031674877,-0.0011226468,-0.0483723,4997,4997,0,2,1
36561741,36561356,3932210,3932210,-6.690898e-05,-2.9681241e-05,6.412097e-05,0.01093214,0.0010297723,-0.04973803,4995,4995,0,2,1
37061295,37060911,3932210,3932210,0.000111580055,-0.00011664205,-1.9640505e-05,0.0024788585,0.0011276812,-0.04071813,4996,4996,0,2,1
37560846,37560465,3932210,3932210,-2.2357472e-06,-3.048695e-05,3.0247602e-05,0.01711745,-0.0010907177,-0.049129315,4995,4995,0,2,1
38060535,38060021,3932210,3932210,-5.640268e-05,-0.00010088913,2.142264e-05,-0.0023698735,-9.682806e-05,-0.04358734,4995,4995,0,2,1
38560049,38559577,3932210,3932210,5.6581972e-05,-9.041886e-05,-2.3194209e-05,0.011839608,-0.0037623292,-0.03195882,4996,4996,0,2,1
39059516,39059133,3932210,3932210,8.025582e-05,-0.00011687516,-5.5212335e-05,0.00954636,0.004129017,-0.0400492,4995,4995,0,2,1
39559074,39558690,3932210,3932210,0.00011883391,1.4959889e-05,-5.058965e-07,-0.003559639,-0.006240274,-0.0502514,4996,4996,0,2,1
40058651,40058246,3932210,3932210,0.00023745735,-6.968322e-05,-3.1536474e-05,0.0034859187,0.0016780441,-0.037585247,4996,4996,0,2,1
40563183,40562798,3932210,3932210,3.104803e-05,-3.177765e-05,-6.0006754e-05,0.006796847,0.0047088447,-0.058428537,4996,4996,0,2,1
41062736,41062354,3932210,3932210,0.00015145454,-0.00012382198,3.5496945e-05,0.0032021953,-0.0014073732,-0.045857295,4995,4995,0,2,1
41562418,41562036,3932210,3932210,7.410639e-05,-1.6838405e-05,2.2338712e-05,0.0041653086,0.0018461437,-0.050317507,4996,4996,0,2,1
42057027,42056597,3932210,3932210,6.763797e-05,0.00020914715,7.5743187e-06,0.001896892,0.000613557,-0.051129997,4996,4996,0,2,1
42561534,42561151,3932210,3932210,3.9022987e-05,-1.6656631e-07,1.1124148e-05,-0.0028281847,0.00039522146,-0.05130962,4998,4998,0,2,1
43061088,43060706,3932210,3932210,0.0001256523,-9.940325e-05,-2.7693755e-05,-0.0030388166,-0.0006248638,-0.04730384,4996,4996,0,2,1
43560682,43560263,3932210,3932210,0.00010342316,-8.9780944e-05,4.1896287e-06,-0.0018987706,2.531855e-07,-0.046227254,4996,4996,0,2,1
44060238,44059820,3932210,3932210,4.260126e-05,1.6632176e-06,3.566152e-05,-0.002882058,0.00020548153,-0.048416115,4996,4996,0,2,1
44559793,44559377,3932210,3932210,2.699583e-05,-6.364606e-05,6.248105e-05,-0.00065203523,-0.00018553289,-0.046786476,4996,4996,0,2,1
45059381,45058934,3932210,3932210,6.863196e-05,-4.743666e-05,7.3387186e-05,-0.0025054293,-0.00067990576,-0.048429765,4995,4995,0,2,1
45563910,45563487,3932210,3932210,0.00011522908,-1.2700528e-06,8.979483e-05,-0.0012855761,-0.0008352088,-0.04864951,4995,4995,0,2,1
46058467,46058049,3932210,3932210,7.0627735e-05,7.3649803e-06,5.7132256e-05,-0.0010942405,0.0012347364,-0.04886569,4995,4995,0,2,1
46558026,46557607,3932210,3932210,3.3321343e-05,1.523631e-05,-5.095436e-05,-0.0013277665,0.0014971083,-0.04878702,4996,4996,0,2,1
47062855,47062160,3932210,3932210,-1.6598011e-06,3.9913803e-06,-7.6907156e-05,-0.0011240385,-0.00013378606,-0.04824088,4996,4996,0,2,1
47562142,47561718,3932210,3932210,-2.217526e-05,-1.6641801e-05,-9.511853e-05,0.00083543884,-0.0003405113,-0.04928733,4996,4996,0,2,1
48061696,48061276,3932210,3932210,-3.4658522e-06,-4.3871558e-05,-0.00012647087,-0.00061168376,0.0010397226,-0.04936801,4996,4996,0,2,1
48561258,48560834,3932210,3932210,-4.1457777e-05,-0.00010897715,-9.960511e-05,0.0011790075,-7.365129e-05,-0.04828493,4996,4996,0,2,1
49060835,49060392,3932210,3932210,-4.1247964e-05,-2.2690596e-05,-2.6843201e-05,0.00013055588,0.0009004899,-0.047968496,4994,4994,0,2,1
49560352,49559951,3932210,3932210,7.151442e-05,-7.2617454e-06,3.7651993e-05,-0.0009295899,-0.0013147928,-0.04912496,4997,4997,0,2,1
50060119,50059508,3932210,3932210,5.7136487e-05,9.335925e-06,6.624777e-05,-0.0006891341,-0.0014601287,-0.04900582,4995,4995,0,2,1
50559767,50559067,3932210,3932210,1.477838e-05,-4.4117493e-05,8.337114e-05,-0.0024163125,-0.00076950307,-0.04810398,4996,4996,0,2,1
51059333,51058625,3932210,3932210,-4.458737e-05,-2.1534875e-05,-5.830521e-06,-0.00070560497,0.00041654555,-0.048813716,4995,4995,0,2,1
51563562,51563179,3932210,3932210,-4.074709e-05,-5.3401727e-06,-0.00016974894,-0.0009862379,0.0020287547,-0.048080485,4995,4995,0,2,1
52063120,52062738,3932210,3932210,-8.395012e-05,-2.9878684e-05,-0.00017377766,-0.0009684511,-0.0036884185,-0.048596278,4996,4996,0,2,1
52562680,52562297,3932210,3932210,0.0001257852,-2.5022766e-05,-7.980028e-05,-0.0004949774,-0.0011465753,-0.049649697,4995,4995,0,2,1
53057263,53056860,3932210,3932210,0.0001793887,-2.0308536e-05,5.1858176e-05,-0.0009832163,-0.0026733442,-0.049655296,4996,4996,0,2,1
53562010,53561415,3932210,3932210,0.00012576907,-3.0563544e-05,0.00024720133,-0.0009188643,0.0009078618,-0.048963323,4996,4996,0,2,1
54061356,54060974,3932210,3932210,-3.6908237e-05,-5.7713823e-05,0.00031160258,-0.001302863,0.0024969238,-0.047781356,4996,4996,0,2,1
54560921,54560535,3932210,3932210,4.909895e-05,-4.954325e-05,1.6053476e-05,-0.0009039394,0.0042695026,-0.048739538,4998,4998,0,2,1
55060477,55060092,3932210,3932210,-3.546422e-05,-3.4801196e-05,-0.00012352252,-0.00052700355,0.0022359765,-0.048996948,4996,4996,0,2,1
55560246,55559651,3932210,3932210,-1.3591865e-05,1.4037016e-05,-0.00025782292,-0.0008516666,0.0016551164,-0.049072824,4995,4995,0,2,1
56064597,56064206,3932210,3932210,2.402001e-07,-5.0409002e-05,-0.0002066475,-0.0009081764,0.00026746193,-0.0482893,4996,4996,0,2,1
56559153,56558770,3932210,3932210,1.1409346e-05,-1.471396e-05,-6.797539e-06,-0.0010980747,0.00057153124,-0.04843953,4996,4996,0,2,1
57058718,57058329,3932210,3932210,0.00013165662,-5.747948e-05,8.4034955e-06,-0.00038556702,0.0012482312,-0.047895703,4995,4995,0,2,1
57558274,57557889,3932210,3932210,0.00017424753,-4.6883244e-05,4.7728e-05,-0.00033056093,-9.116068e-05,-0.048800714,4996,4996,0,2,1
58062845,58062444,3932210,3932210,0.00018019215,2.8621935e-06,7.160701e-05,-0.00092830136,-0.00086177676,-0.049762834,4995,4995,0,2,1
58562395,58562004,3932210,3932210,0.00010637569,2.0316082e-05,5.406217e-05,-0.0007773888,-0.000113789494,-0.04901138,4995,4995,0,2,1
59061954,59061564,3932210,3932210,3.0164514e-05,-2.0416108e-05,3.3328073e-05,-0.001752983,0.00012628872,-0.048695084,4996,4996,0,2,1
59561519,59561124,3932210,3932210,-8.912564e-05,-2.6654867e-05,-4.529938e-05,-0.0012280298,0.0013527303,-0.04857765,4996,4996,0,2,1
60061252,60060684,3932210,3932210,-9.811263e-05,-2.8621474e-05,-0.0001486952,-0.0009526961,0.0022548444,-0.048822824,4996,4996,0,2,1
60560635,60560244,3932210,3932210,-6.223032e-05,-3.605937e-05,-0.0001631408,-8.420536e-05,-1.8853056e-05,-0.049068436,4996,4996,0,2,1
61060193,61059804,3932210,3932210,-4.3069453e-05,-3.1741318e-05,4.8495726e-06,-3.2671236e-05,-0.0009189047,-0.048791528,4996,4996,0,2,1
61559755,61559364,3932210,3932210,4.4041255e-05,-2.5029103e-05,0.00015660888,-0.0005991953,-0.0023975414,-0.048273027,4996,4996,0,2,1
62059319,62058924,3932210,3932210,0.00021679174,-9.178788e-06,0.00019176106,-0.0009710768,0.0007313257,-0.049113218,4995,4995,0,2,1
62563863,62563480,3932210,3932210,0.00012078311,-3.0246425e-05,4.4452547e-05,-0.0009479114,0.0015768214,-0.048627913,4996,4996,0,2,1
63063421,63063040,3932210,3932210,0.00011909252,-1.7066677e-05,-6.6869914e-05,-0.00043978874,0.0010298677,-0.04927076,4995,4995,0,2,1
63557993,63557605,3932210,3932210,5.3702828e-05,-5.7940965e-06,-0.00013578335,-0.0007686718,0.00044669874,-0.04983292,4996,4996,0,2,1
64057830,64057166,3932210,3932210,-1.9275025e-05,-5.598235e-06,-0.00012713192,-0.00091886806,-0.00022636875,-0.04930628,4996,4996,0,2,1
64562110,64561722,3932210,3932210,-7.148106e-05,-3.7313825e-05,-8.940107e-06,-0.0011075543,-0.0007463883,-0.048310637,4996,4996,0,2,1
65061666,65061282,3932210,3932210,-2.7390319e-05,-3.5951234e-05,7.0211645e-05,-0.001045381,-0.00053495227,-0.048879113,4995,4995,0,2,1
65561376,65560718,3932210,3932210,5.6768105e-05,-3.128753e-05,0.00010413614,-0.001065454,-0.00029899974,-0.047435895,4871,4871,0,2,1
66060787,66060404,3932210,3932210,0.000116245836,-3.316177e-05,0.00011924908,-0.00041640483,0.00014586364,-0.04834117,4996,4996,0,2,1
66560412,66559964,3932210,3932210,6.4421e-05,3.856552e-06,3.9283786e-05,-7.768602e-05,0.0016939576,-0.04799309,4995,4995,0,2,1
67059909,67059525,3932210,3932210,2.6973994e-05,-1.8212664e-05,-0.00012359713,-0.0009670323,0.0022469198,-0.049357403,4996,4996,0,2,1
67559468,67559086,3932210,3932210,-3.6460875e-05,-3.1045158e-05,-6.1095016e-05,-0.00018507183,0.00062987657,-0.049077604,4996,4996,0,2,1
68059033,68058647,3932210,3932210,-5.2220254e-05,-4.7704594e-05,-8.208934e-05,-0.00019731482,0.00028993975,-0.049368612,4996,4996,0,2,1
68558627,68558209,3932210,3932210,-5.2341427e-05,-5.2386185e-05,8.145415e-05,-0.0007797029,-0.0016247327,-0.0481988,4996,4996,0,2,1
69063173,69062767,3932210,3932210,4.740257e-05,-3.8205668e-05,0.00014765307,-0.00049490604,-0.0009526052,-0.04862291,4996,4996,0,2,1
69562712,69562329,3932210,3932210,0.00020882676,-3.6640187e-05,0.0001493253,-0.00055067573,0.00046711272,-0.048855178,4996,4996,0,2,1
70062275,70061891,3932210,3932210,0.00015475882,-2.1043956e-05,-6.838979e-05,-0.0004687046,0.0026759394,-0.049337942,4996,4996,0,2,1
70556840,70556458,3932210,3932210,9.9889956e-05,-1.1610618e-05,-0.0002213942,-0.000948561,0.0006306385,-0.049093544,4996,4996,0,2,1
71061398,71061015,3932210,3932210,-2.4981628e-05,-3.4688483e-06,-0.00014216243,-0.00086948293,-4.0004816e-05,-0.04930183,4996,4996,0,2,1
71560964,71560580,3932210,3932210,-3.910882e-05,-1.3189391e-05,-3.0955922e-05,-0.0007271178,1.4269545e-05,-0.04853826,4999,4999,0,2,1
72060525,72060139,3932210,3932210,-2.3773959e-05,-2.2856726e-05,1.5815325e-05,-0.001009785,-0.00059418345,-0.048626795,4996,4996,0,2,1
72560084,72559701,3932210,3932210,1.419463e-05,-2.2970544e-05,3.3113603e-05,-0.0010855263,-0.00014984276,-0.049146432,4996,4996,0,2,1
73059647,73059263,3932210,3932210,3.200332e-05,-6.763814e-08,1.5100046e-05,-0.001250479,-3.6363603e-05,-0.049164243,4996,4996,0,2,1
73564330,73563820,3932210,3932210,5.580885e-05,-7.4952186e-06,2.8544178e-05,-0.00094565726,0.00045603447,-0.04925337,4995,4995,0,2,1
74058895,74058512,3932210,3932210,-1.7440918e-05,9.628882e-06,4.1230385e-05,-0.0011237015,0.00047019415,-0.04870048,4996,4996,0,2,1
74558458,74558074,3932210,3932210,-5.419965e-05,-1.1434986e-05,0.00013060818,-0.0007626027,-0.0013787093,-0.04938728,4996,4996,0,2,1
75063241,75062632,3932210,3932210,0.000102348684,-2.6468218e-05,0.0001605271,-0.0010989612,0.00010178673,-0.048633493,4996,4996,0,2,1
75562711,75562194,3932210,3932210,0.0001465791,-3.7624537e-05,2.6738277e-05,-0.0010163179,0.0022094122,-0.048842333,4996,4996,0,2,1
76062350,76061756,3932210,3932210,5.929752e-05,-3.0384632e-05,-8.651318e-05,-0.0011472484,0.0009356354,-0.04849981,4996,4996,0,2,1
76562224,76561318,3932210,3932210,1.1188995e-05,-3.2652144e-05,-0.0001117373,-0.0010552395,0.0002425288,-0.048453655,4996,4996,0,2,1
77061813,77060882,3932210,3932210,-5.1688326e-06,-4.7192363e-05,-5.378815e-05,-0.0010382822,-0.0003506292,-0.048942033,4997,4997,0,2,1
77561454,77560442,3932210,3932210,-3.1801846e-05,-5.1738174e-05,3.5593569e-06,-0.00089971576,-7.715734e-05,-0.048287038,4995,4995,0,2,1
78060388,78060005,3932210,3932210,-1.1931996e-05,-4.0671526e-05,1.8483042e-05,-0.001414661,-4.9102e-05,-0.047999065,4996,4996,0,2,1
78559950,78559567,3932210,3932210,2.7341164e-05,-5.4849963e-05,-4.2744205e-06,-0.0008672211,0.00035132095,-0.04802175,4996,4996,0,2,1
79059521,79059130,3932210,3932210,4.7636233e-05,3.479001e-05,-1.4852868e-05,-0.00015124479,-0.00014987323,-0.04951243,4996,4996,0,2,1
79559095,79558692,3932210,3932210,6.327619e-06,8.989403e-06,-3.596103e-05,-0.00042992915,-0.000834899,-0.050002865,4996,4996,0,2,1
80063633,80063250,3932210,3932210,2.4276113e-05,8.561644e-06,-5.342304e-05,-0.000491069,5.3909953e-05,-0.049625397,4996,4996,0,2,1
80563374,80562687,3932210,3932210,-7.718471e-06,-2.7995859e-05,-0.000109068525,-0.0005172974,-0.00029523205,-0.04714831,4870,4870,0,2,1
81057762,81057379,3932210,3932210,2.0278085e-06,-4.545838e-05,-9.078174e-05,-0.00033644494,-0.0008426335,-0.048375055,4995,4995,0,2,1
81557455,81556942,3932210,3932210,4.515177e-06,-9.2357994e-05,8.7370434e-05,-5.562583e-05,-0.003457619,-0.048542604,4996,4996,0,2,1
82061884,82061500,3932210,3932210,8.2899045e-05,3.2423854e-05,0.00016410062,-0.0005993108,0.0014432333,-0.050746713,4996,4996,0,2,1
82561445,82561063,3932210,3932210,0.000107957654,3.08046e-05,5.3805208e-05,-0.001124917,0.0014893574,-0.050114505,4996,4996,0,2,1
83061009,83060625,3932210,3932210,1.0736044e-05,3.2584332e-05,-6.137098e-05,-0.00012567468,0.0007886067,-0.04939257,4995,4995,0,2,1
83560573,83560188,3932210,3932210,-4.2853276e-06,-4.5475415e-05,-0.00013367324,-0.00053903187,0.0014201271,-0.049268927,4996,4996,0,2,1
84060149,84059751,3932210,3932210,-3.873172e-05,-1.1790841e-05,-8.890754e-05,-0.00054769963,-0.0011484077,-0.049245924,4996,4996,0,2,1
84559697,84559314,3932210,3932210,3.977843e-05,-2.3399889e-05,4.9593607e-05,-0.0016085106,-0.00025512453,-0.048227634,4996,4996,0,2,1
85059260,85058876,3932210,3932210,2.3792329e-05,-6.7069355e-05,7.8148456e-05,-0.00061269844,0.00095102214,-0.048209786,4995,4995,0,2,1
85558826,85558439,3932210,3932210,3.5941353e-05,-3.762621e-05,0.00011154967,-0.0011075105,-0.0005768824,-0.04899685,4995,4995,0,2,1
86058567,86058002,3932210,3932210,1.0520152e-05,-1.1862451e-05,6.178857e-05,-0.0007292401,0.00089730514,-0.0496906,4995,4995,0,2,1
86562941,86562561,3932210,3932210,1.9025045e-05,2.6409623e-06,2.0131443e-05,-0.0009636293,0.00067800516,-0.049421135,4996,4996,0,2,1
87062506,87062124,3932210,3932210,7.096169e-05,-3.3766315e-05,3.715025e-05,-0.0016488308,-0.00012287314,-0.04895483,4996,4996,0,2,1
87562069,87561687,3932210,3932210,7.057051e-05,-3.238855e-05,7.031681e-05,-0.0006730196,-7.324968e-05,-0.048641216,4996,4996,0,2,1
88061645,88061250,3932210,3932210,0.00010601669,-3.8193168e-05,3.118547e-05,-0.0014466837,0.0011619998,-0.048756637,4996,4996,0,2,1
88561195,88560813,3932210,3932210,7.772744e-05,-5.667128e-05,-4.308642e-05,-0.000602684,0.000256188,-0.048756704,4996,4996,0,2,1
89060757,89060376,3932210,3932210,1.1636974e-05,-5.3861157e-05,-2.618906e-05,-0.00039702666,0.0008105589,-0.048832696,4996,4996,0,2,1
89560323,89559940,3932210,3932210,6.908002e-05,-2.5786412e-05,-2.669844e-05,-2.2739587e-05,0.0011381399,-0.048761845,4996,4996,0,2,1
90059914,90059503,3932210,3932210,-1.7739369e-05,-1.4645748e-06,-3.890933e-05,-0.00067665684,0.0006128022,-0.049064863,4991,4991,0,2,1
90559450,90559066,3932210,3932210,-5.34854e-06,-2.3972863e-05,-7.389515e-05,-0.00060488994,0.00027794266,-0.049277317,4996,4996,0,2,1
91064009,91063625,3932210,3932210,4.1133495e-05,-1.8855642e-05,-7.034977e-05,-0.001089241,-0.00044028237,-0.048426196,4996,4996,0,2,1
91558576,91558193,3932210,3932210,8.378428e-05,-1.5009848e-05,-2.2349122e-06,-0.0011144725,-0.0009916425,-0.0489472,4996,4996,0,2,1
92058166,92057756,3932210,3932210,3.9734074e-05,-4.951162e-06,7.3075935e-05,-0.0013167663,-0.00011736951,-0.049084272,4996,4996,0,2,1
92562818,92562315,3932210,3932210,-1.4678705e-05,-8.361076e-05,0.00010093552,-0.0016559709,-0.00027211878,-0.04763695,4996,4996,0,2,1
93062261,93061878,3932210,3932210,2.7107199e-05,-4.6513433e-05,8.016223e-05,-0.0009769583,0.000373557,-0.04907622,4995,4995,0,2,1
93561824,93561442,3932210,3932210,8.1238075e-05,-1.5842224e-06,2.8808452e-05,-0.0009989481,0.0002904945,-0.0488643,4996,4996,0,2,1
94061388,94061005,3932210,3932210,3.1936393e-05,-1.7875558e-05,1.015951e-05,-0.00135543,0.00017803874,-0.04878748,4995,4995,0,2,1
94561502,94560573,3932210,3932210,5.3702453e-05,-1.1493908e-05,-7.725375e-05,-0.0017573446,0.0008671611,-0.04907426,5000,5000,0,2,1
95060520,95060132,3932210,3932210,-9.3142364e-05,-5.5341352e-05,-0.00011383768,-0.0013808878,0.0013736851,-0.048207045,4995,4995,0,2,1
95560079,95559696,3932210,3932210,-8.659607e-05,-4.3521206e-05,-0.00016982702,-0.0010828926,-0.00047168808,-0.048834506,4996,4996,0,2,1
96059643,96059260,3932210,3932210,3.5524037e-05,-2.8863471e-05,-0.00010455988,-0.00020108865,-0.00051405665,-0.04931072,4996,4996,0,2,1
96559228,96558823,3932210,3932210,1.5173425e-05,-5.3196134e-05,2.9068826e-05,-0.0010714045,-0.00012323917,-0.049098562,4995,4995,0,2,1
97058770,97058387,3932210,3932210,5.0072114e-05,-3.4477744e-05,0.00014562333,-0.0004216558,0.0011507171,-0.049402036,4996,4996,0,2,1
97563330,97562947,3932210,3932210,6.9695576e-05,-1.8047298e-05,0.00013994974,-0.0016039766,0.0003235049,-0.048929796,4996,4996,0,2,1
98062896,98062510,3932210,3932210,8.223551e-05,-9.502584e-06,1.3847468e-05,-0.0013997408,0.0014191562,-0.049378946,4995,4995,0,2,1
98557490,98557079,3932210,3932210,-3.949139e-05,4.808414e-06,-0.00010201338,-0.0014393697,0.0026611583,-0.049183704,4996,4996,0,2,1
99062063,99061638,3932210,3932210,-7.15941e-05,-2.2571929e-05,-0.00012766154,-0.001684825,0.00078531663,-0.048250593,4995,4995,0,2,1
99561625,99561204,3932210,3932210,1.5458612e-05,-3.4537115e-05,4.358103e-05,-0.001462725,-0.0017208089,-0.048539776,4997,4997,0,2,1
100061185,100060767,3932210,3932210,8.2583865e-05,-2.9141218e-05,0.00010862088,-0.0014258641,-0.0002685229,-0.049082052,4996,4996,0,2,1
100560751,100560332,3932210,3932210,7.735994e-05,-3.9415776e-05,0.00011396021,-0.0013121422,0.00014133562,-0.048853416,4996,4996,0,2,1
101060313,101059896,3932210,3932210,1.47250375e-05,-4.053538e-05,5.1927756e-05,-0.0013377507,0.0006282299,-0.04908886,4996,4996,0,2,1
101564931,101564456,3932210,3932210,-6.8271784e-06,-3.1411477e-05,-8.595238e-05,-0.0013530378,0.0007778398,-0.049019028,4996,4996,0,2,1
102059441,102059025,3932210,3932210,1.6217564e-06,-1.3498008e-05,-0.00010766536,-0.0016364205,-0.0001472595,-0.048845008,4996,4996,0,2,1
102559133,102558589,3932210,3932210,1.28384845e-05,-5.0421353e-05,-7.167621e-05,-0.0014589682,-0.00028229185,-0.04840776,4995,4995,0,2,1
103058751,103058154,3932210,3932210,5.2725103e-05,-2.9970206e-05,1.3426036e-06,-0.0015000324,-0.0007031241,-0.04901088,4996,4996,0,2,1
103563132,103562714,3932210,3932210,-2.7731572e-05,-3.024665e-05,5.3828284e-05,-0.0013727087,-6.6197696e-05,-0.04879486,4996,4996,0,2,1
104062697,104062278,3932210,3932210,0.00011752051,-4.0348226e-05,4.616773e-05,-0.0012360506,-0.0004903048,-0.049339987,4995,4995,0,2,1
104562264,104561843,3932210,3932210,4.1515083e-05,-2.8235829e-05,6.911653e-05,-0.0015575102,-0.00049316353,-0.049528383,4996,4996,0,2,1
105061847,105061408,3932210,3932210,9.446549e-05,5.9081594e-07,4.678361e-05,-0.0008851887,0.0008476059,-0.049874898,4996,4996,0,2,1
105561422,105560972,3932210,3932210,9.808128e-06,3.4532861e-06,3.077239e-05,-0.0015672623,0.0001869882,-0.0500305,4996,4996,0,2,1
106060976,106060543,3932210,3932210,-2.8526782e-07,7.551807e-06,-2.8694787e-06,-0.0017866613,0.0008657012,-0.049328007,5002,5002,0,2,1
106560524,106560101,3932210,3932210,1.04506935e-05,-4.163249e-05,-4.9438517e-05,-0.0020085415,0.00046895747,-0.04900546,4995,4995,0,2,1
107060091,107059670,3932210,3932210,1.1117366e-05,-4.4938744e-05,-5.884457e-05,-0.0017219938,0.00052119844,-0.04834039,5000,5000,0,2,1
107559647,107559231,3932210,3932210,9.523646e-05,-6.602313e-05,-2.0476504e-05,-0.0018416524,0.00024143621,-0.048685674,4996,4996,0,2,1
108064210,108063791,3932210,3932210,7.1095536e-05,-7.629862e-05,3.9924875e-05,-0.0016790776,-0.0003294339,-0.048374493,4996,4996,0,2,1
108563772,108563355,3932210,3932210,0.000110063615,-5.0156672e-05,7.815294e-05,-0.0017084029,0.00079489197,-0.0483709,4995,4995,0,2,1
109058341,109057925,3932210,3932210,-1.284112e-05,-1.07831165e-05,-6.79642e-06,-0.0014177719,0.0018242352,-0.0499571,4996,4996,0,2,1
109557948,109557490,3932210,3932210,-4.5874196e-05,3.397397e-05,-0.00016925823,-0.0017896562,0.002387647,-0.049199857,4996,4996,0,2,1
110062466,110062050,3932210,3932210,-5.3402153e-05,-4.809852e-06,-0.0001864863,-0.0019162468,-0.00066121574,-0.04881965,4996,4996,0,2,1
110562031,110561614,3932210,3932210,-3.9559287e-05,-2.0951078e-05,-7.290874e-05,-0.0018002412,-0.001917876,-0.04913072,4995,4995,0,2,1
111061608,111061179,3932210,3932210,-1.3581462e-06,4.5423826e-06,8.043536e-05,-0.0018298242,-0.0013221033,-0.049037237,4996,4996,0,2,1
111561164,111560744,3932210,3932210,6.424197e-05,-1.9498526e-05,9.40445e-05,-0.0018359335,0.00012977129,-0.04846336,4996,4996,0,2,1
112060725,112060309,3932210,3932210,8.102343e-05,-2.8792723e-05,5.906679e-06,-0.0016736024,-0.0010123599,-0.048902616,4996,4996,0,2,1
112560293,112559874,3932210,3932210,6.897767e-05,-2.5987982e-05,2.999233e-05,-0.0016648655,-0.00031444288,-0.048410125,4996,4996,0,2,1
113059820,113059438,3932210,3932210,3.960528e-05,-3.7292728e-05,1.7173175e-05,-0.001517543,0.0011938027,-0.04784791,4995,4995,0,2,1
113559387,113559004,3932210,3932210,-4.1779287e-05,-2.797392e-05,2.3232325e-05,-0.0016294577,-0.00027776652,-0.04908149,4996,4996,0,2,1
114058949,114058568,3932210,3932210,9.235321e-06,-2.3575833e-05,3.571776e-05,-0.0016051838,-0.00045469202,-0.048825704,4995,4995,0,2,1
114563533,114563129,3932210,3932210,2.021444e-05,-3.241209e-05,1.9465044e-05,-0.0012999121,-0.00044698585,-0.048247203,4996,4996,0,2,1
115063099,115062694,3932210,3932210,8.3844745e-05,-1.6826163e-05,4.6041147e-05,-0.001937908,-0.00062280014,-0.048757598,4996,4996,0,2,1
115562663,115562259,3932210,3932210,0.00011032193,-1.779032e-05,-3.5414545e-05,-0.0014313102,0.00016400631,-0.04874639,4996,4996,0,2,1
116057282,116056828,3932210,3932210,0.00012999299,-2.1738613e-05,-0.00014349469,-0.0020007945,0.0019097987,-0.048569266,4995,4995,0,2,1
116561795,116561389,3932210,3932210,-4.572336e-05,2.5653535e-06,-0.00016525705,-0.001754555,0.00031644644,-0.049749315,4996,4996,0,2,1
117061361,117060954,3932210,3932210,-4.8364407e-05,-2.9203535e-05,-8.578498e-05,-0.0017110758,9.502628e-05,-0.0485393,4995,4995,0,2,1
117561076,117560520,3932210,3932210,-1.2786291e-05,-3.1217398e-05,4.6441208e-05,-0.0020847707,-0.00071679195,-0.04856823,4996,4996,0,2,1
118060518,118060085,3932210,3932210,6.0174425e-05,-2.3665996e-05,8.5170956e-05,-0.0019432248,0.0011784916,-0.048752315,4996,4996,0,2,1
118560059,118559650,3932210,3932210,3.0471323e-05,-2.9383782e-05,6.643722e-05,-0.0017306437,-0.00012324925,-0.049628075,4996,4996,0,2,1
119064617,119064211,3932210,3932210,6.917901e-05,8.9029774e-05,4.639201e-05,-0.0024901489,0.0010329674,-0.05031922,4996,4996,0,2,1
119559192,119558780,3932210,3932210,0.00012695188,-1.9963765e-05,-6.4449855e-06,-0.0018350765,0.00053309434,-0.049046583,4995,4995,0,2,1
120058754,120058345,3932210,3932210,8.683243e-05,6.995418e-05,-4.2485113e-05,-0.002275279,0.0012502832,-0.049038522,4995,4995,0,2,1
120558570,120557911,3932210,3932210,5.7606285e-06,-4.772234e-05,-6.859494e-05,-0.0016581997,0.0010531034,-0.04884128,4996,4996,0,2,1
121062879,121062474,3932210,3932210,-4.0413193e-05,-4.94679e-05,-0.00013245623,-0.0019067638,0.00049712264,-0.04849163,4998,4998,0,2,1
121562446,121562037,3932210,3932210,-4.2568627e-05,3.841302e-06,-0.00011693113,-0.00011524908,7.4695956e-05,-0.04782244,4996,4996,0,2,1
122062011,122061602,3932210,3932210,3.4346e-05,9.179309e-05,-1.8404564e-05,-0.0025060673,-0.00043735685,-0.050817445,4995,4995,0,2,1
122561575,122561170,3932210,3932210,1.2909143e-05,-2.450847e-05,9.339309e-05,-0.0004302926,-0.00054438604,-0.048993897,4998,4998,0,2,1
123061142,123060733,3932210,3932210,4.3099273e-05,-5.5618177e-05,9.058702e-05,-0.0014302363,0.0004790373,-0.048769485,4995,4995,0,2,1
123560707,123560299,3932210,3932210,2.3481933e-05,-6.900179e-06,9.32367e-05,-0.00041244918,0.0004513991,-0.048627775,4996,4996,0,2,1
124060271,124059864,3932210,3932210,-5.0291696e-05,8.999674e-07,6.87151e-05,-0.002518169,-0.0003140201,-0.049734328,4995,4995,0,2,1
124559839,124559430,3932210,3932210,8.680299e-06,8.273925e-06,-6.6897624e-06,-0.0008339059,0.00036991766,-0.04879113,4996,4996,0,2,1
125059405,125058995,3932210,3932210,0.00016421372,-8.567794e-06,-0.00015718487,-0.00050241244,0.0017636756,-0.050963357,4996,4996,0,2,1
125563962,125563556,3932210,3932210,-8.1938015e-05,1.2037692e-05,-8.1386584e-05,-0.0013396111,-0.00096746674,-0.039729774,4995,4995,0,2,1
126063528,126063122,3932210,3932210,-8.597221e-05,-9.015885e-05,3.974094e-05,-0.003932187,-0.00085603085,-0.062080745,4996,4996,0,2,1
126558104,126557692,3932210,3932210,6.5086504e-05,-8.157027e-05,0.00012760669,0.0013944409,-0.00067913963,-0.046249557,4996,4996,0,2,1
127057853,127057257,3932210,3932210,-5.110632e-06,-0.0001499381,0.000100925274,-0.002065862,-8.133982e-05,-0.049230225,4995,4995,0,2,1
127562327,127561819,3932210,3932210,0.00016133474,-9.8577715e-05,7.2134804e-05,0.0005549053,0.004301439,-0.08658029,4994,4994,0,2,1
128061893,128061509,3932210,3932210,1.0328626e-05,-0.00012168938,2.1381347e-06,-0.0060423017,0.005307739,-0.035712488,4995,4995,0,2,1
128561477,128561075,3932210,3932210,9.4486415e-05,-2.4614968e-05,1.5961872e-05,-0.0034531902,0.00029236826,-0.05862742,4996,4996,0,2,1
129061126,129060641,3932210,3932210,2.4729827e-05,-2.4901194e-05,-2.730165e-05,-0.011384061,0.002136818,-0.05840953,4996,4996,0,2,1
129561420,129560206,3932210,3932210,-6.296313e-05,-5.638541e-05,-7.234624e-05,-0.008745811,3.240546e-05,-0.04192334,4995,4995,0,2,1
130060155,130059772,3932210,3932210,-3.778911e-06,5.664043e-05,-5.3550248e-05,-0.012093424,-0.0005321239,-0.05070604,4995,4995,0,2,1
130559720,130559338,3932210,3932210,5.4689586e-05,-7.475621e-05,-3.930042e-06,-0.003944455,-0.0019162163,-0.057949804,4996,4996,0,2,1
131059287,131058904,3932210,3932210,8.9852256e-05,5.501499e-05,-2.279977e-05,0.003100921,0.0019996976,-0.05217183,4996,4996,0,2,1
131558891,131558470,3932210,3932210,5.8933525e-05,-1.3886124e-05,-4.2999516e-05,0.0014312504,-0.002019133,-0.05686427,4996,4996,0,2,1
132063414,132063031,3932210,3932210,4.6479614e-05,8.526821e-06,-2.957371e-05,0.0009381259,0.00063644454,-0.051042236,4995,4995,0,2,1
132563105,132562722,3932210,3932210,-7.07827e-05,4.704275e-07,-1.9793531e-05,-0.0009506048,0.0062210164,-0.048165422,4996,4996,0,2,1
133062670,133062288,3932210,3932210,0.000101021054,8.365379e-05,-2.0766662e-05,-0.00064697664,0.0039059112,-0.06624527,4996,4996,0,2,1
133557271,133556858,3932210,3932210,1.22492e-05,-0.000105487845,-6.895719e-07,0.00077632937,-0.002331855,-0.05891713,4995,4995,0,2,1
134061805,134061420,3932210,3932210,-4.3348344e-05,-9.400248e-06,4.716803e-05,-0.0007856364,-0.0049523986,-0.057278465,4996,4996,0,2,1
134561368,134560986,3932210,3932210,8.585623e-05,-6.0557006e-05,3.3767185e-05,-0.0011700619,-0.0018919507,-0.049383946,4996,4996,0,2,1
135060956,135060557,3932210,3932210,-6.4094993e-06,2.9179511e-05,4.9009974e-05,-0.00089295127,-0.00062762556,-0.061417382,5001,5001,0,2,1
135560500,135560117,3932210,3932210,0.000111251975,-8.8919e-05,7.266451e-05,0.0041876454,0.0033836002,-0.049706608,4995,4995,0,2,1
136060069,136059683,3932210,3932210,3.0739266e-05,-4.3756405e-05,6.3839594e-05,-0.0053935437,0.003080225,-0.050326172,4995,4995,0,2,1
136559632,136559249,3932210,3932210,3.681584e-05,-1.9828622e-05,8.337883e-05,-0.0011559284,0.0024678009,-0.0490374,4995,4995,0,2,1
137059200,137058816,3932210,3932210,-3.233517e-05,-0.0001566666,6.905564e-05,-0.015076172,0.0053163925,-0.046776682,4996,4996,0,2,1
137558766,137558381,3932210,3932210,8.73783e-05,-2.1688003e-05,6.419962e-05,0.0033896407,-0.001828025,-0.034784526,4995,4995,0,2,1
138058864,138057948,3932210,3932210,0.00015848032,-0.000100193975,8.8402536e-05,-0.010241884,0.0016907408,-0.05168019,4996,4996,0,2,1
138562892,138562509,3932210,3932210,0.00023934654,7.232086e-05,-1.0287469e-05,0.003347362,-0.00049024064,-0.062247414,4995,4995,0,2,1
139062508,139062075,3932210,3932210,9.6738884e-05,-5.3071482e-05,-8.891899e-05,-0.006830542,-0.0033948119,-0.030534197,4995,4995,0,2,1
139562023,139561641,3932210,3932210,0.00015208616,8.9150344e-05,-0.00012966902,0.0065999785,0.0024322656,-0.07496193,4995,4995,0,2,1
140061592,140061208,3932210,3932210,1.2970623e-05,1.7730836e-05,-0.000107253094,0.0035280907,0.0031381405,-0.040707048,4996,4996,0,2,1
140561156,140560774,3932210,3932210,0.00010143339,-1.7622551e-05,-0.00017686833,0.0059415377,0.009312916,-0.051897895,4996,4996,0,2,1
141060721,141060340,3932210,3932210,-6.1609884e-05,0.00014159374,-0.0002236616,0.0049390844,0.007910089,-0.061516754,4996,4996,0,2,1
141560286,141559906,3932210,3932210,-3.4931512e-05,-6.127084e-05,-0.00015061189,-0.004136342,0.0065130917,-0.03714857,4996,4996,0,2,1
142060057,142059473,3932210,3932210,8.068738e-07,8.2399754e-05,-4.966823e-05,0.010751042,0.007846838,-0.055615462,4996,4996,0,2,1
142559420,142559038,3932210,3932210,-0.00018462999,-4.3159678e-05,2.5178932e-05,-0.009341996,-0.0032763188,-0.056812495,4995,4995,0,2,1
143064016,143063600,3932210,3932210,-0.000119635115,-0.00011413865,1.7471582e-05,-0.009460618,-0.004036597,-0.051174793,4995,4995,0,2,1
143558678,143558296,3932210,3932210,-1.382215e-05,-0.00018007563,-9.214792e-05,-0.01029869,0.016683849,-0.025379755,4996,4996,0,2,1
144058244,144057862,3932210,3932210,-4.3695676e-05,-8.9756526e-05,-2.1784523e-05,-0.014666327,0.010889368,-0.03767299,4996,4996,0,2,1
144557810,144557428,3932210,3932210,-0.0001159722,5.659742e-05,5.167633e-05,0.010738907,-0.008044273,-0.06293805,4995,4995,0,2,1
145062374,145061990,3932210,3932210,-8.267634e-05,-9.9677425e-05,6.876608e-05,-0.0009456828,0.010190224,-0.043007024,4995,4995,0,2,1
145562066,145561683,3932210,3932210,-1.6910753e-05,-1.0576611e-05,2.5269434e-05,0.0010459493,0.0037228419,-0.026355643,4997,4997,0,2,1
146061634,146061248,3932210,3932210,9.392874e-06,3.4923156e-05,4.03162e-05,-0.016725732,0.0016241776,-0.04742025,4996,4996,0,2,1
146561202,146560814,3932210,3932210,7.307003e-05,-1.8067976e-05,3.5471665e-05,0.006312517,-3.8788174e-05,-0.050951883,4996,4996,0,2,1
147060764,147060381,3932210,3932210,-3.8625538e-05,6.999911e-05,7.419605e-05,-0.013218262,-0.0038293405,-0.051688503,4996,4996,0,2,1
147560329,147559947,3932210,3932210,-1.25806555e-05,7.972209e-05,-3.977085e-05,0.0036286972,0.002341494,-0.05014337,4996,4996,0,2,1
148059896,148059513,3932210,3932210,-4.1135925e-05,-7.692281e-05,-9.011478e-06,-0.006550849,0.0043959366,-0.05352065,4995,4995,0,2,1
148559463,148559080,3932210,3932210,2.3474386e-05,2.8623492e-05,-1.5762811e-05,0.0010324188,0.00025281016,-0.043665446,4996,4996,0,2,1
149059029,149058646,3932210,3932210,0.0001233743,-5.963574e-05,-6.730824e-05,-0.0016161602,-0.0011842753,-0.04813131,4995,4995,0,2,1
149563592,149563208,3932210,3932210,2.2962813e-05,-1.09063485e-05,-9.245789e-05,-0.005633783,5.4783803e-05,-0.051285237,4995,4995,0,2,1
150063174,150062775,3932210,3932210,2.5109142e-05,6.111235e-05,-8.8538e-05,-0.0053741736,-0.0026042208,-0.052302513,4996,4996,0,2,1
150562726,150562342,3932210,3932210,-9.7796314e-05,-6.768919e-05,-4.4353306e-05,-0.0020150386,0.0008572561,-0.04883031,4996,4996,0,2,1
151057323,151056912,3932210,3932210,-3.3684686e-05,-2.9303064e-05,-5.2070813e-05,-0.0020645398,0.0048528356,-0.054097757,4995,4995,0,2,1
151561859,151561475,3932210,3932210,-4.966925e-05,-1.9259918e-05,6.4816422e-06,-0.0068040076,0.0014615175,-0.04035739,4996,4996,0,2,1
152061429,152061041,3932210,3932210,1.9056783e-05,-4.197756e-05,9.162849e-06,-0.0045166546,0.002656326,-0.041509178,4996,4996,0,2,1
152560994,152560608,3932210,3932210,3.101724e-06,-4.332069e-05,-8.797381e-06,-0.0057036425,0.0026450797,-0.039347216,4996,4996,0,2,1
153060618,153060174,3932210,3932210,8.789242e-05,-5.276527e-05,1.7006929e-05,-0.0033525596,0.002079163,-0.052874897,4995,4995,0,2,1
153560305,153559741,3932210,3932210,1.7305772e-06,-5.302165e-05,5.8354868e-05,-0.0029420222,0.0026654983,-0.045848604,4996,4996,0,2,1
154064692,154064303,3932210,3932210,0.00016561017,-8.583046e-06,7.567617e-05,-0.0016677118,0.0037654894,-0.048652437,4995,4995,0,2,1
154559715,154558874,3932210,3932210,0.0001320554,1.3295662e-05,4.0714807e-05,-0.0007614104,-0.001867786,-0.048963927,4995,4995,0,2,1
155059250,155058441,3932210,3932210,-0.0001283735,-2.4475854e-05,8.2480845e-05,-0.0010517911,0.0005278072,-0.04725092,4996,4996,0,2,1
155559419,155558008,3932210,3932210,7.080036e-05,-0.00012255942,6.735881e-05,-0.0025187423,0.0037409835,-0.047729123,4996,4996,0,2,1
156062951,156062570,3932210,3932210,0.00012259882,4.7282898e-05,7.5708325e-05,-0.00076945423,0.002069955,-0.051370993,4996,4996,0,2,1
156562579,156562137,3932210,3932210,-1.6355036e-06,-3.0477237e-05,3.074676e-05,-0.0037035749,0.0006693679,-0.05135782,4996,4996,0,2,1
157062251,157061704,3932210,3932210,6.338694e-05,-4.8138654e-06,2.7216524e-06,-0.0027978248,0.0007028159,-0.04944535,4996,4996,0,2,1
157562083,157561271,3932210,3932210,4.627307e-05,-7.1446004e-05,-6.6628836e-06,-0.0038651966,-0.0013783273,-0.050982524,4996,4996,0,2,1
158061223,158060837,3932210,3932210,6.5465785e-05,-2.775646e-05,-1.5665466e-05,-0.0025268735,-0.00082483893,-0.050492913,5120,5120,0,2,1
158560791,158560404,3932210,3932210,-2.0187139e-05,-2.7789305e-05,-2.2972301e-05,0.00012516826,-0.0004777827,-0.048929393,4995,4995,0,2,1
159060369,159059971,3932210,3932210,7.5202115e-05,-3.59539e-05,-3.0806754e-05,-0.0007223238,-0.00010090652,-0.048690103,4995,4995,0,2,1
159560186,159559539,3932210,3932210,2.2962036e-05,5.8567966e-06,2.6362319e-05,-0.0023494987,-0.00023171132,-0.048748907,4996,4996,0,2,1
160059488,160059105,3932210,3932210,9.33149e-05,-2.049988e-05,-2.6056598e-05,-0.00052529393,0.00076714985,-0.048949204,4993,4993,0,2,1
160564053,160563668,3932210,3932210,3.181058e-05,-4.3076572e-05,-6.017995e-06,-0.00071761804,-0.000701192,-0.048621055,4996,4996,0,2,1
161063616,161063235,3932210,3932210,1.05342015e-05,-2.798526e-05,1.9462414e-05,-0.0015533938,-0.00067729753,-0.04899826,4996,4996,0,2,1
161558191,161557806,3932210,3932210,3.6140522e-05,-3.063142e-05,-2.0376932e-05,-0.0013369994,-0.0006343669,-0.05020804,5120,5120,0,2,1
162057756,162057373,3932210,3932210,4.3647575e-05,-2.0668766e-05,2.449005e-06,-0.0009576674,-0.00060815027,-0.048820406,4995,4995,0,2,1
162562319,162561936,3932210,3932210,1.6322814e-05,-3.4125325e-05,-2.1764372e-06,-0.0007993615,0.00010057505,-0.0487042,4996,4996,0,2,1
163061886,163061503,3932210,3932210,4.2867516e-05,-6.6903185e-06,3.869557e-06,-0.0012187578,-0.0003325859,-0.048951354,4995,4995,0,2,1
163561455,163561070,3932210,3932210,-2.1360087e-05,-3.2074706e-05,6.5068602e-06,-0.0009338599,-0.0005391503,-0.04867664,4996,4996,0,2,1
164061020,164060637,3932210,3932210,2.1371541e-05,-1.7116092e-05,-2.5035713e-06,-0.0010139206,-0.00028030295,-0.048848175,4995,4995,0,2,1
164560588,164560205,3932210,3932210,7.6553784e-05,-1.1163346e-05,-2.2173708e-05,-0.0009213055,-0.00045603598,-0.049163885,4996,4996,0,2,1
165060154,165059772,3932210,3932210,2.046508e-05,-2.0353367e-05,-1.1599551e-05,-0.0009961462,0.00016247758,-0.049123123,4996,4996,0,2,1
165559721,165559339,3932210,3932210,7.854383e-06,-2.2937795e-05,4.9338073e-06,-0.0008908451,4.0320683e-05,-0.048817087,4996,4996,0,2,1
166059291,166058910,3932210,3932210,1.1612813e-06,-2.3328606e-05,-1.532072e-05,-0.00084015325,-0.00022489477,-0.0488495,5000,5000,0,2,1
166558855,166558473,3932210,3932210,3.52922e-05,-2.3439494e-05,1.2581817e-05,-0.0010971407,2.2036538e-05,-0.048785746,4995,4995,0,2,1
167063419,167063036,3932210,3932210,0.00012296475,-4.9453233e-06,-4.135683e-05,-0.0012697196,-0.00048013715,-0.04896513,4995,4995,0,2,1
167562989,167562604,3932210,3932210,0.00010734705,-2.8978262e-05,-1.2186211e-05,-0.00068090035,-0.00072504766,-0.048796084,4996,4996,0,2,1
168062554,168062171,3932210,3932210,6.2582134e-05,-1.4416082e-05,-1.6769569e-05,-0.0009296534,-0.00077408,-0.04862623,4996,4996,0,2,1
168557124,168556742,3932210,3932210,1.8846507e-05,-4.5779845e-05,1.4019592e-05,-0.0006597876,-0.0007589995,-0.04902536,4995,4995,0,2,1
169061688,169061305,3932210,3932210,2.1660655e-05,-3.2008807e-05,-8.724309e-06,-0.0012349989,-0.0012853655,-0.048862904,4995,4995,0,2,1
169561373,169560873,3932210,3932210,-2.5689886e-05,-4.6730802e-05,3.5878977e-05,-0.0008355454,-0.00032141857,-0.048924036,4996,4996,0,2,1
170060840,170060440,3932210,3932210,3.3205515e-06,-2.0522342e-05,-1.8101452e-06,-0.001437908,-0.00058608194,-0.048894163,4996,4996,0,2,1
170560390,170560007,3932210,3932210,7.146231e-05,-8.881022e-06,3.2469948e-06,-0.0008564651,-0.0007481184,-0.04892683,4995,4995,0,2,1
171059981,171059575,3932210,3932210,6.0367278e-05,-1.756511e-05,-4.002085e-05,-0.0010545605,-0.0012013853,-0.049205508,4996,4996,0,2,1
171564655,171564263,3932210,3932210,4.6760742e-05,-9.72789e-06,5.4191855e-07,-0.0009126905,-0.0012913633,-0.048924856,4996,4996,0,2,1
172059219,172058835,3932210,3932210,-4.9790175e-05,-3.138682e-05,7.466896e-06,-0.0010478919,0.00052254973,-0.04951466,4996,4996,0,2,1
172558800,172558402,3932210,3932210,3.240024e-05,-2.8904777e-05,1.8767237e-06,-0.00092039356,-0.0008346571,-0.04875286,4995,4995,0,2,1
173058677,173057970,3932210,3932210,5.660923e-05,-1.9626033e-05,-1.5557182e-05,-0.0009171239,-0.0014277156,-0.04867717,4996,4996,0,2,1
173562923,173562533,3932210,3932210,4.7387017e-05,-2.3904546e-05,-1.6184842e-05,-0.0010121453,-0.00039163788,-0.048843406,4996,4996,0,2,1
174062495,174062100,3932210,3932210,6.139306e-05,-1.7358523e-05,-2.1666526e-06,-0.0010859853,-0.00066369155,-0.04928148,4993,4993,0,2,1
174562058,174561668,3932210,3932210,-6.6961825e-06,-2.0843185e-05,3.297776e-06,-0.0007274717,-0.0007925521,-0.048887916,4996,4996,0,2,1
175061625,175061236,3932210,3932210,1.3463708e-05,-3.1114356e-05,6.7315483e-07,-0.000944246,-0.0008043574,-0.048962515,4996,4996,0,2,1
175561193,175560803,3932210,3932210,4.495969e-05,-2.1466552e-05,-2.4229992e-05,-0.0010579891,-0.0008216299,-0.048949026,4996,4996,0,2,1
176060762,176060371,3932210,3932210,5.767892e-05,-2.0282298e-05,6.5430654e-06,-0.0009943253,-0.0019374759,-0.048926093,4996,4996,0,2,1
176560328,176559938,3932210,3932210,4.949827e-05,-1.8885225e-05,4.970676e-06,-0.0009676108,-0.000666597,-0.048898946,4995,4995,0,2,1
177060260,177059506,3932210,3932210,3.215869e-05,-3.155906e-05,-1.0177458e-05,-0.00077291287,-0.00076858903,-0.049058158,4996,4996,0,2,1
177559467,177559074,3932210,3932210,2.7056722e-05,-2.1869477e-05,-3.056904e-06,-0.0010232899,-0.00083833194,-0.049020596,4996,4996,0,2,1
178064023,178063637,3932210,3932210,1.9767369e-05,-1.5532598e-05,-1.1237359e-05,-0.0009049063,-0.0009187965,-0.048783153,4995,4995,0,2,1
178563589,178563205,3932210,3932210,1.9497504e-05,-2.9787598e-05,-7.084156e-07,-0.0010990126,-0.00022757078,-0.048816353,4995,4995,0,2,1
179058174,179057777,3932210,3932210,3.6200734e-05,-2.558972e-05,8.108657e-06,-0.0008204015,-0.0007651442,-0.048912227,4995,4995,0,2,1
179562726,179562341,3932210,3932210,6.298842e-05,-3.2615648e-05,-5.351132e-06,-0.0010011737,-0.0010520276,-0.048850767,4996,4996,0,2,1
180062294,180061909,3932210,3932210,0.000101050784,-2.0879572e-05,-1.2930852e-05,-0.0010681361,-0.001138541,-0.049069323,4996,4996,0,2,1
180561862,180561477,3932210,3932210,2.5556104e-05,-1.6882019e-05,-1.4195902e-05,-0.00092299527,-0.0010563778,-0.049131062,4996,4996,0,2,1
181061619,181061045,3932210,3932210,-3.1805703e-06,-3.859019e-05,1.588066e-05,-0.0007724065,-0.00090341945,-0.048995826,4995,4995,0,2,1
181561271,181560613,3932210,3932210,3.9457136e-05,-2.6242305e-05,-1.1803537e-05,-0.0010356575,-0.00080098317,-0.048932113,4996,4996,0,2,1
182061872,182060181,3932210,3932210,5.709942e-05,-2.4890442e-05,-1.8914092e-08,-0.000986147,-0.0013329095,-0.0488931,4996,4996,0,2,1
182560692,182559749,3932210,3932210,3.728759e-05,-2.657863e-05,-9.686813e-06,-0.0011430674,-0.00065482565,-0.04859758,4996,4996,0,2,1
183060318,183059317,3932210,3932210,1.9992473e-05,-2.9038605e-05,1.4936018e-05,-0.00096320885,-0.0008288415,-0.04894855,4996,4996,0,2,1
183560041,183558885,3932210,3932210,5.0655948e-05,-2.3458391e-05,-1.910744e-06,-0.000996942,-0.0011203316,-0.04884701,4996,4996,0,2,1
184058835,184058453,3932210,3932210,6.745717e-05,-1.6221173e-05,-1.2569333e-05,-0.0009074249,-0.0011378103,-0.04873948,4996,4996,0,2,1
184563402,184563018,3932210,3932210,-7.4750624e-06,-2.4856043e-05,2.3056416e-06,-0.0009292266,-0.0011634671,-0.048902966,4997,4997,0,2,1
185062968,185062585,3932210,3932210,-3.023741e-05,-3.5877914e-05,2.0422565e-05,-0.00085453177,-0.00030396937,-0.048911985,4996,4996,0,2,1
185562557,185562153,3932210,3932210,2.5232466e-05,-1.8331642e-05,8.8817316e-08,-0.0011200423,-0.00075177546,-0.048938178,4996,4996,0,2,1
186057218,186056725,3932210,3932210,5.149978e-05,-1.6501308e-05,-6.807961e-08,-0.0010496499,-0.0008273435,-0.04886064,4995,4995,0,2,1
186561672,186561289,3932210,3932210,9.792615e-06,-2.071678e-05,-2.9600292e-07,-0.0011274451,-0.00092957343,-0.048834953,4996,4996,0,2,1
187061240,187060857,3932210,3932210,2.8348648e-05,-1.8169489e-05,2.3821092e-06,-0.0010633144,-0.0011153809,-0.04878173,4995,4995,0,2,1
187560811,187560426,3932210,3932210,1.6007756e-05,-2.8723642e-05,4.6766095e-06,-0.0010837893,-0.0009644771,-0.048858833,4996,4996,0,2,1
188060380,188059995,3932210,3932210,3.1418655e-05,-2.25955e-05,7.6246147e-06,-0.0010490802,-0.0009903272,-0.048873633,4997,4997,0,2,1
188560070,188559562,3932210,3932210,1.2767659e-05,-2.5562056e-05,8.795078e-07,-0.00086635695,-0.0010837525,-0.04885239,4996,4996,0,2,1
189064636,189064251,3932210,3932210,3.6823334e-05,-2.0421774e-05,-4.1493686e-06,-0.00097482244,-0.0008996281,-0.04887172,4996,4996,0,2,1
189559211,189558824,3932210,3932210,2.0803454e-05,-2.3954562e-05,-1.1134888e-05,-0.0010418543,-0.0009897006,-0.048803706,4996,4996,0,2,1
190058781,190058394,3932210,3932210,3.2074684e-05,-2.1638469e-05,-7.2751427e-06,-0.0008434767,-0.0007699695,-0.04904981,4998,4998,0,2,1
