timestamp,gyro_rad[0],gyro_rad[1],gyro_rad[2],gyro_integral_dt,accelerometer_timestamp_relative,accelerometer_m_s2[0],accelerometer_m_s2[1],accelerometer_m_s2[2],accelerometer_integral_dt,accelerometer_clipping,accel_calibration_count,gyro_calibration_count
16907235,0.0024125802,0.006151882,0.0008370397,5052,0,-0.2943369,0.2653899,-9.792359,5052,0,1,1
16912287,0.002636499,0.0070303376,0.001033029,5052,0,-0.2915182,0.26748255,-9.804123,5052,0,1,1
16917339,0.0017104207,0.0062624295,0.0006219036,5052,0,-0.29306033,0.28423202,-9.793211,5052,0,1,1
16922391,0.0021202392,0.006619643,0.0013761015,5052,0,-0.30368394,0.28013152,-9.793094,5052,0,1,1
16927442,0.0022942019,0.0059220553,0.00069700216,5051,0,-0.29633528,0.28433418,-9.804006,5051,0,1,1
16932494,0.0020915277,0.0075456877,0.0005299211,5052,0,-0.30750757,0.29210767,-9.79493,5052,0,1,1
16937546,0.0019771794,0.007533596,0.00050862704,5052,0,-0.31134045,0.30071104,-9.802396,5052,0,1,1
16942598,0.0019727254,0.0059844414,0.00089196145,5052,0,-0.30603877,0.29868916,-9.794743,5052,0,1,1
16947650,0.0020267235,0.007158222,0.0005422046,5052,0,-0.3002662,0.30112725,-9.802374,5052,0,1,1
16952702,0.003019093,0.006196388,0.0003839525,5052,0,-0.29215306,0.3055094,-9.799762,5052,0,1,1
16957754,0.003500394,0.00627942,0.001194907,5052,0,-0.2976706,0.30868155,-9.80305,5052,0,1,1
16962806,0.0027813006,0.006685702,0.0005504265,5052,0,-0.29644734,0.29444844,-9.81068,5052,0,1,1
16967858,0.0029100555,0.0055223713,0.000116871684,5052,0,-0.28996295,0.30359504,-9.806646,5052,0,1,1
16972910,0.0033074494,0.005943039,0.0006732827,5052,0,-0.2941558,0.29854122,-9.806864,5052,0,1,1
16977962,0.0036533657,0.005905332,2.121995e-05,5052,0,-0.28234032,0.28700212,-9.797663,5052,0,1,1
16983014,0.0031801113,0.005001919,0.00020432114,5052,0,-0.28679624,0.28937942,-9.794932,5052,0,1,1
16988066,0.003443545,0.005642938,0.00049890694,5052,0,-0.288854,0.2824343,-9.801645,5052,0,1,1
16993118,0.0034686571,0.0051592337,-1.0410229e-05,5052,0,-0.29146084,0.28110427,-9.794067,5052,0,1,1
16998170,0.0031664413,0.005622767,4.053445e-05,5052,0,-0.29146338,0.27632353,-9.799656,5052,0,1,1
17003222,0.00329609,0.00593875,1.9532214e-05,5052,0,-0.28961912,0.27256805,-9.800582,5052,0,1,1
17008274,0.0029705083,0.0062472536,9.485265e-05,5052,0,-0.2847951,0.25651965,-9.790298,5052,0,1,1
17013325,0.002472923,0.0063612475,0.0008691664,5051,0,-0.28738004,0.25387698,-9.791362,5051,0,1,1
17018377,0.0015511509,0.0061669354,-5.8218075e-06,5052,0,-0.28366572,0.25778404,-9.800797,5052,0,1,1
17023429,0.0013675987,0.005693767,0.0007118576,5052,0,-0.28473035,0.25804824,-9.802186,5052,0,1,1
17028481,0.001769693,0.0060634785,0.0010407709,5052,0,-0.29099423,0.25800952,-9.79313,5052,0,1,1
17033533,0.0017712464,0.0050120875,0.00035339224,5052,0,-0.2841969,0.24269503,-9.790431,5052,0,1,1
17038585,0.0021672829,0.0063561783,0.0007312173,5052,0,-0.2880928,0.24887457,-9.803027,5052,0,1,1
17043637,0.0014078157,0.0062396904,0.0012065739,5052,0,-0.29116806,0.26510456,-9.799977,5052,0,1,1
17048689,0.0009429241,0.006150464,0.0015963308,5052,0,-0.2931368,0.25642818,-9.801873,5052,0,1,1
17053742,0.0013066689,0.0058084666,0.0017190024,5053,0,-0.28947592,0.2633036,-9.796259,5053,0,1,1
17058793,0.0008991157,0.00507439,0.0012197478,5051,0,-0.2923972,0.2761305,-9.7903385,5051,0,1,1
17063845,0.0009101853,0.0063390196,0.0020498172,5052,0,-0.30102322,0.28945723,-9.795774,5052,0,1,1
17068897,0.0010915314,0.005949692,0.001220329,5052,0,-0.29453635,0.2954705,-9.793982,5052,0,1,1
17073949,0.0007035465,0.005930619,0.0013621824,5052,0,-0.29394153,0.299829,-9.796726,5052,0,1,1
17079001,0.0017805732,0.006157474,0.0018618535,5052,0,-0.2919731,0.3142918,-9.80224,5052,0,1,1
17084053,0.00068339024,0.0051675276,0.0012806726,5052,0,-0.29496768,0.29961511,-9.79986,5052,0,1,1
17089105,0.0010229013,0.006274054,0.0012493465,5052,0,-0.29417095,0.29961357,-9.786131,5052,0,1,1
17094157,0.001542332,0.0062178466,0.00036490808,5052,0,-0.29441184,0.3102398,-9.803242,5052,0,1,1
17099208,0.00066542963,0.005761103,0.0006342501,5051,0,-0.29084295,0.29677817,-9.7833185,5051,0,1,1
17104260,0.0013460094,0.0069383867,0.0007848868,5052,0,-0.29247728,0.30443224,-9.789598,5052,0,1,1
17109312,0.0018135976,0.005871422,0.0010218513,5052,0,-0.2897075,0.2965324,-9.793154,5052,0,1,1
17114364,0.001984738,0.005566372,0.0005138019,5052,0,-0.289759,0.2947751,-9.785162,5052,0,1,1
17119416,0.0023512768,0.0060299444,0.0009988893,5052,0,-0.29316285,0.28846696,-9.799122,5052,0,1,1
17124468,0.0011762186,0.005947746,0.0003855373,5052,0,-0.28573754,0.2825348,-9.798899,5052,0,1,1
17129520,0.0012822411,0.0057361736,0.00033885406,5052,0,-0.29061788,0.27301076,-9.791732,5052,0,1,1
17134572,0.0018760541,0.0056078606,4.476071e-06,5052,0,-0.28687724,0.26539117,-9.794219,5052,0,1,1
17139624,0.0018113069,0.0052623786,0.0005638719,5052,0,-0.28597763,0.25815418,-9.801392,5052,0,1,1
17144676,0.0016945611,0.005884491,0.0007545205,5052,0,-0.29126155,0.25719473,-9.797841,5052,0,1,1
17149728,0.0011308471,0.0052785943,0.00069161755,5052,0,-0.2836406,0.25767493,-9.796309,5052,0,1,1
17154780,0.0007319304,0.0061321575,0.0015036482,5052,0,-0.28129935,0.25569856,-9.803079,5052,0,1,1
17159832,0.0018144032,0.0057891635,0.00068056997,5052,0,-0.29095533,0.2571531,-9.780213,5052,0,1,1
17164884,0.0009531904,0.0055082687,0.00094022066,5052,0,-0.2866026,0.261077,-9.78891,5052,0,1,1
17169936,0.0010365538,0.0060751834,0.0018970245,5052,0,-0.2843401,0.26105654,-9.799653,5052,0,1,1
17174987,0.00013815706,0.005995719,0.0011678518,5051,0,-0.29075223,0.28116992,-9.797752,5051,0,1,1
17180039,0.000630577,0.005732501,0.0020658683,5052,0,-0.29282537,0.2878863,-9.798449,5052,0,1,1
17185091,0.0009731737,0.005945022,0.00087272073,5052,0,-0.29265082,0.29416993,-9.791546,5052,0,1,1
17190143,0.0007310502,0.0057419897,0.00034655794,5052,0,-0.2936225,0.28559205,-9.802429,5052,0,1,1
17195195,-0.00015400726,0.007127608,0.0006992033,5052,0,-0.2875644,0.2922762,-9.784367,5052,0,1,1
17200247,-0.00036772594,0.0060177366,-2.2378597e-05,5052,0,-0.29697978,0.29143703,-9.802855,5052,0,1,1
17205299,0.00012896072,0.006305539,0.00088861113,5052,0,-0.30086944,0.28828388,-9.795439,5052,0,1,1
17210351,0.0007381552,0.006426924,0.0011289759,5052,0,-0.29241925,0.28308016,-9.7873125,5052,0,1,1
17215403,-0.00027611293,0.006092203,0.0009956005,5052,0,-0.2891888,0.27434757,-9.799659,5052,0,1,1
17220455,0.00041647404,0.0061720205,0.0010418064,5052,0,-0.29099342,0.2785419,-9.793066,5052,0,1,1
17225507,0.0004133937,0.0055132606,0.0009944105,5052,0,-0.29775104,0.26799965,-9.809603,5052,0,1,1
17230559,-0.00041406558,0.006345464,0.0012164892,5052,0,-0.28935504,0.26449287,-9.805904,5052,0,1,1
17235611,0.00017908402,0.0066601383,0.0015122534,5052,0,-0.28437725,0.2626963,-9.802677,5052,0,1,1
17240663,-9.86496e-05,0.0058802413,0.0012062337,5052,0,-0.2983629,0.27716115,-9.813119,5052,0,1,1
17245715,0.0006711764,0.0063913856,0.0013032415,5052,0,-0.2951021,0.27510497,-9.803495,5052,0,1,1
17250767,-2.1624435e-05,0.005713117,0.0007650735,5052,0,-0.28599337,0.27209356,-9.785607,5052,0,1,1
17255818,-0.0006549542,0.0054205437,0.0010666819,5051,0,-0.2862516,0.27629036,-9.794482,5051,0,1,1
17260870,0.0002507236,0.0066291676,0.0013783972,5052,0,-0.29156932,0.29043925,-9.788779,5052,0,1,1
17265922,-0.00013303426,0.005968042,0.0011865491,5052,0,-0.29479513,0.27644837,-9.793117,5052,0,1,1
17270976,-0.0011616332,0.007076258,0.0013169361,5054,0,-0.2899387,0.2840832,-9.794901,5054,0,1,1
17276026,-0.0004186227,0.005942089,0.00071731646,5050,0,-0.2847286,0.27754468,-9.804594,5050,0,1,1
17281078,-0.00089308474,0.0059145857,0.00073268206,5052,0,-0.2878231,0.27743316,-9.798124,5052,0,1,1
17286130,-0.00062712794,0.0071073705,0.0010969427,5052,0,-0.29506224,0.2877705,-9.81731,5052,0,1,1
17291183,-0.001033277,0.006005758,0.0011833298,5053,0,-0.2834767,0.28112996,-9.8024845,5053,0,1,1
17296234,-0.00064617855,0.006628557,0.0012385967,5051,0,-0.2842462,0.276812,-9.796863,5051,0,1,1
17301286,-0.00029603965,0.0058652256,0.0010684646,5052,0,-0.28914624,0.2723371,-9.801073,5052,0,1,1
17306338,-0.0011623331,0.0055058496,0.00091451214,5052,0,-0.2868188,0.28142923,-9.804084,5052,0,1,1
17311390,-0.0005929168,0.005947611,0.0011701739,5052,0,-0.28602853,0.272825,-9.798228,5052,0,1,1
17316442,-0.0012117637,0.005200176,0.00082227314,5052,0,-0.28946587,0.28135356,-9.792976,5052,0,1,1
17321494,-0.00051286124,0.0060661193,0.0017218203,5052,0,-0.28523785,0.2866468,-9.782578,5052,0,1,1
17326546,-0.0009996854,0.006543241,0.0010715761,5052,0,-0.2864878,0.2913978,-9.799063,5052,0,1,1
17331598,-0.0012971107,0.005778503,0.0009926048,5052,0,-0.2880478,0.29217616,-9.787176,5052,0,1,1
17336649,-3.136273e-05,0.0066813007,0.0020141408,5051,0,-0.2951095,0.29661942,-9.789524,5051,0,1,1
17341701,-0.0007746389,0.006348022,0.0010878589,5052,0,-0.2940867,0.29233018,-9.789045,5052,0,1,1
17346753,-0.0004494965,0.006350293,0.001049753,5052,0,-0.2828013,0.30246282,-9.781581,5052,0,1,1
17351806,-0.0007275841,0.0070402543,0.00083810766,5053,0,-0.29486775,0.29366094,-9.791435,5053,0,1,1
17356857,-0.0007294723,0.007107512,0.0004260592,5051,0,-0.28570807,0.28571174,-9.794053,5051,0,1,1
17361909,-0.00018507159,0.0067709116,0.0009498168,5052,0,-0.28680742,0.29550162,-9.795842,5052,0,1,1
17366961,-0.00059787836,0.007220632,0.0007662627,5052,0,-0.28870252,0.2887267,-9.808811,5052,0,1,1
17372013,-0.0013712934,0.005783719,0.001122706,5052,0,-0.29722005,0.27836925,-9.788293,5052,0,1,1
17377065,-0.0005598461,0.00713649,0.0012865257,5052,0,-0.29507366,0.2852803,-9.808493,5052,0,1,1
17382117,-0.0009571512,0.005496756,0.0011442094,5052,0,-0.29152825,0.27254996,-9.792747,5052,0,1,1
17387169,-0.0009194404,0.0067002005,0.0010958442,5052,0,-0.29764846,0.27192122,-9.784183,5052,0,1,1
17392221,-0.001202782,0.006821422,0.0012147378,5052,0,-0.29115823,0.26690704,-9.7918625,5052,0,1,1
17397273,-0.0015349754,0.006825233,0.0008141001,5052,0,-0.29943317,0.28074124,-9.79547,5052,0,1,1
17402325,-0.00066064665,0.0075710313,0.00040174174,5052,0,-0.2993539,0.29035527,-9.789014,5052,0,1,1
17407377,-0.0005174071,0.006787206,0.0002662233,5052,0,-0.30212346,0.29876918,-9.797633,5052,0,1,1
17412429,-0.000518103,0.006187537,0.0010235716,5052,0,-0.29940143,0.30538586,-9.79776,5052,0,1,1
17417481,-0.0007263726,0.0064250054,0.0014917393,5052,0,-0.2977333,0.30030847,-9.798407,5052,0,1,1
17422532,-0.0008796577,0.0057367454,0.00080848666,5051,0,-0.29833177,0.31381807,-9.805736,5051,0,1,1
17427584,-0.0002926157,0.0064560333,0.0011438094,5052,0,-0.3029997,0.31434968,-9.793426,5052,0,1,1
17432636,-3.680534e-05,0.0061363657,0.00067341764,5052,0,-0.30571,0.31855598,-9.801883,5052,0,1,1
17437688,0.000275596,0.0067638247,0.00082659954,5052,0,-0.3033774,0.3217098,-9.794937,5052,0,1,1
17442740,-1.1736583e-05,0.0063636997,0.00075644004,5052,0,-0.30040103,0.31340817,-9.8011675,5052,0,1,1
17447792,0.00011849873,0.0054266425,0.0007149852,5052,0,-0.30890945,0.31394392,-9.804288,5052,0,1,1
17452844,0.000823455,0.006713081,0.00034423126,5052,0,-0.3071983,0.2990767,-9.801427,5052,0,1,1
17457896,0.0010800018,0.0061828494,-0.000193822,5052,0,-0.30738515,0.29303163,-9.794706,5052,0,1,1
17462950,-3.7707097e-05,0.0064692795,0.00040059417,5054,0,-0.3002987,0.2832155,-9.8170595,5054,0,1,1
17468000,0.0013349487,0.0067873136,0.00055735616,5050,0,-0.30383143,0.27591437,-9.805172,5050,0,1,1
17473056,0.00039153823,0.006458909,-0.0001105497,5056,0,-0.31065625,0.27478382,-9.800347,5056,0,1,1
17478104,0.0004374294,0.006803163,0.0009177297,5048,0,-0.30674335,0.26056245,-9.803667,5048,0,1,1
17483156,0.0011055622,0.006191704,0.00053146365,5052,0,-0.31550595,0.26527599,-9.807699,5052,0,1,1
17488208,0.0010478512,0.006488042,0.00091803086,5052,0,-0.31246543,0.27055177,-9.801386,5052,0,1,1
17493260,0.0010576621,0.006402674,0.0005640941,5052,0,-0.31237087,0.27136615,-9.803439,5052,0,1,1
17498312,0.00078705227,0.0051420406,0.0003636046,5052,0,-0.31033376,0.28771904,-9.805719,5052,0,1,1
17503364,0.00024571203,0.0061824885,0.0009699622,5052,0,-0.31354687,0.2843172,-9.7943945,5052,0,1,1
17508415,0.00023166995,0.0064138193,0.0003679439,5051,0,-0.29646027,0.29060343,-9.7946415,5051,0,1,1
17513467,-0.00033497234,0.0054127183,0.0010851133,5052,0,-0.309864,0.2969756,-9.794277,5052,0,1,1
17518519,0.0005600174,0.006766861,0.0014061809,5052,0,-0.31423768,0.27929598,-9.789716,5052,0,1,1
17523571,-0.00024901045,0.0057830294,0.0011005872,5052,0,-0.31271717,0.29458266,-9.792639,5052,0,1,1
17528623,0.0006289153,0.0060716085,0.0017270579,5052,0,-0.31941357,0.2783289,-9.799308,5052,0,1,1
17533675,0.00047004726,0.006399132,0.0018105812,5052,0,-0.31118938,0.29770643,-9.794964,5052,0,1,1
17538727,0.00057082,0.0056143715,0.0015398017,5052,0,-0.30615258,0.295059,-9.794266,5052,0,1,1
17543779,0.0007221903,0.006224837,0.0011123347,5052,0,-0.30539355,0.30131772,-9.803118,5052,0,1,1
17548831,0.0005953379,0.0059905793,0.0008914886,5052,0,-0.30177233,0.31917745,-9.800718,5052,0,1,1
17553883,0.0008244806,0.0061880327,0.0013094347,5052,0,-0.30281785,0.30699623,-9.795683,5052,0,1,1
17558935,0.0009479185,0.006148697,0.0014604788,5052,0,-0.29657963,0.31216776,-9.797076,5052,0,1,1
17563987,0.0009548892,0.005816466,0.0010788975,5052,0,-0.29155126,0.31209356,-9.794623,5052,0,1,1
17569039,0.0018248255,0.006126566,0.00057978445,5052,0,-0.28930125,0.3189791,-9.801505,5052,0,1,1
17574093,0.0018907351,0.0058710175,0.0002454638,5054,0,-0.29849938,0.31528825,-9.809449,5054,0,1,1
17579143,0.0022646745,0.005575727,0.0007337561,5050,0,-0.28902152,0.29408607,-9.810569,5050,0,1,1
17584195,0.0028617783,0.0069633443,0.0003902536,5052,0,-0.2917069,0.3125941,-9.797546,5052,0,1,1
17589247,0.0019328602,0.0056769936,-4.8995247e-05,5052,0,-0.29363042,0.29376554,-9.795793,5052,0,1,1
17594298,0.0024424603,0.0066470723,0.00090034516,5051,0,-0.28561866,0.29922038,-9.784388,5051,0,1,1
17599350,0.0032580465,0.0062741134,0.00017666779,5052,0,-0.29028687,0.29133585,-9.798898,5052,0,1,1
17604402,0.002711471,0.0065695876,0.0013737932,5052,0,-0.2811254,0.2861459,-9.7864685,5052,0,1,1
17609454,0.0028795667,0.006801382,0.0009727465,5052,0,-0.27845687,0.29458347,-9.798356,5052,0,1,1
17614506,0.0024587074,0.0065337215,0.00040778922,5052,0,-0.29226655,0.28255638,-9.799564,5052,0,1,1
17619558,0.0021853556,0.0069106626,3.2824533e-05,5052,0,-0.29093814,0.27903295,-9.805632,5052,0,1,1
17624610,0.0025340552,0.0066301,0.0003534192,5052,0,-0.2844012,0.26972184,-9.802195,5052,0,1,1
17629662,0.0022108706,0.0058781314,0.0002116905,5052,0,-0.2884815,0.26801762,-9.800557,5052,0,1,1
17634714,0.0022494493,0.00716279,0.0013191333,5052,0,-0.28002876,0.27760598,-9.799535,5052,0,1,1
17639766,0.0029093255,0.006881904,-0.00028140747,5052,0,-0.2791605,0.27360758,-9.801951,5052,0,1,1
17644818,0.0021313368,0.005916759,0.0008555065,5052,0,-0.276776,0.28197616,-9.79788,5052,0,1,1
17649870,0.002840663,0.007827044,0.00043406873,5052,0,-0.28928685,0.2943711,-9.797897,5052,0,1,1
17654922,0.0016695707,0.006651016,7.539296e-05,5052,0,-0.28594378,0.2956704,-9.798635,5052,0,1,1
17659977,0.0028660786,0.0066118017,0.00066440494,5055,0,-0.27870786,0.30500004,-9.794605,5055,0,1,1
17665026,0.0029557955,0.005874088,0.00038498352,5049,0,-0.27609485,0.30632553,-9.788633,5049,0,1,1
17670078,0.003242724,0.00618507,7.622571e-05,5052,0,-0.2840462,0.3121134,-9.797439,5052,0,1,1
17675129,0.00368914,0.006307521,0.00035765464,5051,0,-0.28414375,0.31780934,-9.786203,5051,0,1,1
17680181,0.0030500782,0.006131693,-9.0226185e-06,5052,0,-0.28127682,0.3199195,-9.77686,5052,0,1,1
17685233,0.0029983583,0.0066151344,0.0008655088,5052,0,-0.2858993,0.32428908,-9.785258,5052,0,1,1
17690286,0.002972442,0.0065158866,0.00011443992,5053,0,-0.2776927,0.2997261,-9.794594,5053,0,1,1
17695337,0.0027456284,0.0062931348,-0.00018564591,5051,0,-0.28117916,0.29860297,-9.805406,5051,0,1,1
17700389,0.0035736498,0.0072210953,0.0003111019,5052,0,-0.2815914,0.28635934,-9.795169,5052,0,1,1
17705441,0.0032046607,0.006678799,-0.00010204705,5052,0,-0.2852217,0.2781807,-9.803203,5052,0,1,1
17710493,0.0032940214,0.0070026433,-0.00028483252,5052,0,-0.28140932,0.28096792,-9.794967,5052,0,1,1
17715545,0.0036104412,0.00664653,-0.00035496813,5052,0,-0.28960982,0.25641742,-9.804699,5052,0,1,1
17720600,0.0037657684,0.00674589,0.00029711906,5055,0,-0.28949824,0.26626617,-9.797882,5055,0,1,1
17725649,0.0039425283,0.006989278,0.00022433426,5049,0,-0.28694355,0.27643266,-9.802406,5049,0,1,1
17730705,0.0039235326,0.0055818018,0.00036026546,5056,0,-0.2862094,0.26914644,-9.788175,5056,0,1,1
17735753,0.0034939835,0.00638021,0.00031543308,5048,0,-0.30162683,0.28258544,-9.803516,5048,0,1,1
17740805,0.0033177603,0.0069787693,0.0003599449,5052,0,-0.2959667,0.2760358,-9.793468,5052,0,1,1
17745857,0.0029846693,0.006355554,-4.5916076e-05,5052,0,-0.29609862,0.2774601,-9.79446,5052,0,1,1
17750910,0.0035730316,0.007625268,0.0005331977,5053,0,-0.301205,0.28638068,-9.791098,5053,0,1,1
17755961,0.0035245423,0.0065606944,0.0010620991,5051,0,-0.29545712,0.28432003,-9.803181,5051,0,1,1
17761012,0.0028393378,0.006534841,0.00060035643,5051,0,-0.29317138,0.2860303,-9.795005,5051,0,1,1
17766064,0.0033881536,0.0065528597,0.0008029894,5052,0,-0.29665908,0.28792095,-9.79867,5052,0,1,1
17771116,0.0032276483,0.0067851823,0.0002793206,5052,0,-0.3007549,0.3014609,-9.795927,5052,0,1,1
17776168,0.0038441545,0.006545302,0.0007064719,5052,0,-0.30241093,0.30108142,-9.784478,5052,0,1,1
17781220,0.0038185483,0.006228532,0.0007236878,5052,0,-0.3018991,0.29420733,-9.803733,5052,0,1,1
17786272,0.0038028073,0.006287913,0.00066245964,5052,0,-0.30268323,0.310374,-9.792033,5052,0,1,1
17791324,0.0044274502,0.007218662,0.00053295365,5052,0,-0.28687552,0.28541157,-9.777012,5052,0,1,1
17796376,0.003454386,0.00581427,0.00022861495,5052,0,-0.29439706,0.30001268,-9.785073,5052,0,1,1
17801428,0.003843036,0.0065678363,0.0007510248,5052,0,-0.28686535,0.30447477,-9.800563,5052,0,1,1
17806480,0.0050493707,0.005912344,-0.00015737717,5052,0,-0.29031986,0.30665246,-9.79671,5052,0,1,1
17811532,0.0045768605,0.006686841,8.6138294e-05,5052,0,-0.29321498,0.30733758,-9.786305,5052,0,1,1
17816584,0.0042485357,0.0064146314,0.00027193179,5052,0,-0.2789405,0.28564033,-9.781594,5052,0,1,1
17821636,0.0045672953,0.0062827743,0.00018906593,5052,0,-0.2775808,0.29040313,-9.7902975,5052,0,1,1
17826688,0.0049131517,0.0066928496,-0.00040012828,5052,0,-0.27286994,0.27939236,-9.799081,5052,0,1,1
17831740,0.004993873,0.0062825414,-0.00013350415,5052,0,-0.28509355,0.28604832,-9.792767,5052,0,1,1
17836792,0.0042177076,0.0060348953,0.00027060843,5052,0,-0.27998105,0.28115165,-9.8054,5052,0,1,1
17841843,0.0045460537,0.0067759682,0.0011741455,5051,0,-0.27274355,0.27458274,-9.81321,5051,0,1,1
17846895,0.004756719,0.0062868083,0.00028842356,5052,0,-0.27583703,0.2705389,-9.799412,5052,0,1,1
17851947,0.0049344916,0.0060480786,0.00093084853,5052,0,-0.28083208,0.27129292,-9.806461,5052,0,1,1
17856999,0.004768542,0.0062098554,0.0012514062,5052,0,-0.2763616,0.26656,-9.808006,5052,0,1,1
17862051,0.0038856782,0.0054911477,0.00022261457,5052,0,-0.28647715,0.27167034,-9.800637,5052,0,1,1
17867103,0.0047047143,0.0063728825,0.00046132074,5052,0,-0.28697887,0.26210433,-9.809811,5052,0,1,1
17872155,0.004621926,0.005152426,0.0009080569,5052,0,-0.28537863,0.28031257,-9.808672,5052,0,1,1
17877207,0.0036083309,0.006096057,0.00096546905,5052,0,-0.2839059,0.27213946,-9.798416,5052,0,1,1
17882259,0.0032538134,0.0063234093,0.0007814355,5052,0,-0.2882207,0.27243748,-9.791502,5052,0,1,1
17887311,0.0037368592,0.006032165,0.00024231242,5052,0,-0.28346574,0.2729808,-9.791821,5052,0,1,1
17892363,0.0036439688,0.0067883753,0.00095142634,5052,0,-0.27769715,0.28064036,-9.790021,5052,0,1,1
17897415,0.0037495291,0.006359111,0.0012065804,5052,0,-0.2807637,0.28858525,-9.800888,5052,0,1,1
17902467,0.0034547322,0.0053318203,5.3518783e-05,5052,0,-0.28721496,0.2820457,-9.794909,5052,0,1,1
17907519,0.0038954134,0.0067818793,0.00060840364,5052,0,-0.27873993,0.28697184,-9.799386,5052,0,1,1
17912571,0.0037842751,0.0055461596,-0.00043981403,5052,0,-0.2826739,0.2908604,-9.790707,5052,0,1,1
17917622,0.0044949935,0.0066655413,0.00053808873,5051,0,-0.28520814,0.2919005,-9.802122,5051,0,1,1
17922674,0.0034497138,0.0062695667,0.0005265497,5052,0,-0.28199968,0.2891071,-9.801613,5052,0,1,1
17927726,0.0037361977,0.005866645,0.0010738631,5052,0,-0.2844131,0.27863336,-9.798326,5052,0,1,1
17932778,0.0038020515,0.005697391,0.00019493476,5052,0,-0.27947772,0.28351137,-9.79842,5052,0,1,1
17937830,0.0034543944,0.005943495,-0.00010975844,5052,0,-0.28406003,0.2813427,-9.789033,5052,0,1,1
17942882,0.0040408177,0.0065367883,0.00024248696,5052,0,-0.29130217,0.27794006,-9.796275,5052,0,1,1
17947934,0.0037868763,0.0063511557,0.00038225745,5052,0,-0.27988726,0.28549367,-9.795325,5052,0,1,1
17952986,0.0030397167,0.005519168,0.000910633,5052,0,-0.278811,0.2664115,-9.797861,5052,0,1,1
17958038,0.0033579315,0.0061479956,0.0007154249,5052,0,-0.29193035,0.26763925,-9.801122,5052,0,1,1
17963090,0.0034751638,0.0058409367,-0.00014514534,5052,0,-0.29315257,0.2646117,-9.795653,5052,0,1,1
17968142,0.0032985706,0.005924834,0.0002891108,5052,0,-0.29499254,0.2632794,-9.80676,5052,0,1,1
17973194,0.0025898009,0.00611058,0.00048516085,5052,0,-0.30420277,0.2651593,-9.801223,5052,0,1,1
17978246,0.0022378906,0.005675319,0.00037768914,5052,0,-0.30421892,0.26100883,-9.800097,5052,0,1,1
17983298,0.0031726812,0.0067207846,0.0012950011,5052,0,-0.29565424,0.26686683,-9.799711,5052,0,1,1
17988350,0.0025269291,0.005696017,-9.107602e-05,5052,0,-0.29913616,0.26024252,-9.8127165,5052,0,1,1
17993402,0.0024367096,0.0058779097,0.000835244,5052,0,-0.29780367,0.26322067,-9.801695,5052,0,1,1
17998454,0.0024613133,0.0058215554,0.001008022,5052,0,-0.3078946,0.28250203,-9.806949,5052,0,1,1
18003506,0.0019111198,0.0044269436,0.00075779576,5052,0,-0.2995016,0.27059892,-9.805915,5052,0,1,1
18008557,0.0025483544,0.0060261018,0.00084067794,5051,0,-0.2925982,0.27164748,-9.804364,5051,0,1,1
18013609,0.001484218,0.0064149117,0.00071482523,5052,0,-0.29558226,0.26517323,-9.798725,5052,0,1,1
18018661,0.0020733266,0.005757553,0.00067516643,5052,0,-0.30272675,0.27104196,-9.800449,5052,0,1,1
18023713,0.002892907,0.005954906,0.0006194474,5052,0,-0.28859165,0.2789161,-9.79734,5052,0,1,1
18028765,0.0017434797,0.005526934,0.0005335627,5052,0,-0.2911062,0.2863797,-9.804692,5052,0,1,1
18033817,0.0018212977,0.0062067546,0.0010384981,5052,0,-0.2875079,0.2893961,-9.799265,5052,0,1,1
18038869,0.0025333443,0.0050095157,0.0012451743,5052,0,-0.3008876,0.28888625,-9.787167,5052,0,1,1
18043921,0.0027453676,0.0042790854,0.0011505603,5052,0,-0.28730103,0.28815964,-9.797045,5052,0,1,1
18048973,0.0022687989,0.0059640664,0.0013352268,5052,0,-0.2859183,0.289378,-9.79656,5052,0,1,1
18054025,0.0019546913,0.0048995903,0.0007797594,5052,0,-0.28821203,0.27950206,-9.793234,5052,0,1,1
18059077,0.0021747185,0.0058777533,0.00065855257,5052,0,-0.27445367,0.28392944,-9.791557,5052,0,1,1
18064129,0.0020607815,0.0053163823,0.0003318868,5052,0,-0.28817967,0.28795633,-9.790601,5052,0,1,1
18069181,0.0019384988,0.0051508574,0.00027466347,5052,0,-0.29426423,0.2837536,-9.786439,5052,0,1,1
18074233,0.002255781,0.006101715,0.00061403407,5052,0,-0.2997229,0.29237118,-9.794691,5052,0,1,1
18079285,0.0027508333,0.005776714,0.0007138312,5052,0,-0.2909606,0.26900622,-9.790393,5052,0,1,1
18084336,0.0019790924,0.005042534,0.00046210486,5051,0,-0.28801715,0.26729,-9.801774,5051,0,1,1
18089388,0.002317689,0.0058260993,0.0007050277,5052,0,-0.28869215,0.2641319,-9.7957735,5052,0,1,1
18094440,0.0012076776,0.004407905,9.895497e-05,5052,0,-0.29058486,0.26904768,-9.80123,5052,0,1,1
18099492,0.0017405541,0.00523714,-0.0007899819,5052,0,-0.30233043,0.2674658,-9.804737,5052,0,1,1
18104544,0.0016514043,0.005375593,0.00042707575,5052,0,-0.29761243,0.27778465,-9.795874,5052,0,1,1
18109596,0.0018050915,0.0052900524,0.00060025026,5052,0,-0.29491544,0.27310613,-9.800478,5052,0,1,1
18114648,0.0021076514,0.0058354144,0.0010292646,5052,0,-0.2884546,0.2692193,-9.800806,5052,0,1,1
18119700,0.001602646,0.005339976,0.00032210414,5052,0,-0.29439083,0.27244166,-9.796755,5052,0,1,1
18124752,0.0018089317,0.0054161195,0.00091309345,5052,0,-0.29342008,0.27659634,-9.798131,5052,0,1,1
18129804,0.0017602523,0.0061027086,0.00061097613,5052,0,-0.28928107,0.26756203,-9.81205,5052,0,1,1
18134856,0.0008684609,0.005416736,0.0008896726,5052,0,-0.2947873,0.28524098,-9.787605,5052,0,1,1
18139908,0.0016572322,0.005249781,0.0009020273,5052,0,-0.29152563,0.2783138,-9.785222,5052,0,1,1
18144960,0.0008910992,0.0047252644,0.00090218254,5052,0,-0.29393083,0.27996477,-9.800729,5052,0,1,1
18150012,0.00074577756,0.005868229,0.0015462943,5052,0,-0.30101585,0.27521196,-9.797613,5052,0,1,1
18155064,0.00088003883,0.0060408437,0.0011545729,5052,0,-0.28292602,0.2697129,-9.796616,5052,0,1,1
18160116,0.0008665142,0.005431508,0.0011381557,5052,0,-0.2886768,0.28139755,-9.792087,5052,0,1,1
18165167,0.00081567373,0.006216373,0.0010172758,5051,0,-0.27796513,0.26952785,-9.794648,5051,0,1,1
18170219,0.00085415493,0.0059033693,0.0004028663,5052,0,-0.29344952,0.27828118,-9.805407,5052,0,1,1
18175271,0.00091211725,0.005492476,0.0009862528,5052,0,-0.28813985,0.27752745,-9.806861,5052,0,1,1
18180323,0.0010472618,0.0058213854,0.0014126711,5052,0,-0.29418004,0.27433857,-9.799089,5052,0,1,1
18185375,0.00043709736,0.004878557,0.0010936958,5052,0,-0.27817908,0.2896263,-9.807338,5052,0,1,1
18190427,0.00087129907,0.005624361,0.0018669427,5052,0,-0.29095298,0.27640155,-9.792207,5052,0,1,1
18195479,0.0005600642,0.0050854287,0.0015455957,5052,0,-0.29568997,0.28455955,-9.7879925,5052,0,1,1
18200535,0.0010858494,0.0049280343,0.0017745643,5056,0,-0.2906643,0.28212455,-9.785764,5056,0,1,1
18205583,0.0007584028,0.0054546716,0.0015836407,5048,0,-0.29603115,0.2699764,-9.805971,5048,0,1,1
18210635,0.00016783667,0.005616114,0.0005961208,5052,0,-0.3008544,0.2779656,-9.794213,5052,0,1,1
18215687,0.000100892714,0.00605946,0.001383515,5052,0,-0.29735884,0.27069476,-9.782531,5052,0,1,1
18220739,0.00044347282,0.005166291,0.0010703735,5052,0,-0.2998496,0.27941296,-9.805007,5052,0,1,1
18225791,0.0007342541,0.005581446,0.0014214411,5052,0,-0.29883888,0.28241035,-9.793381,5052,0,1,1
18230843,0.0011102048,0.005785223,0.0013846079,5052,0,-0.29295576,0.27898192,-9.799323,5052,0,1,1
18235895,0.0006371693,0.0051845894,0.00097503763,5052,0,-0.28851625,0.28239965,-9.791202,5052,0,1,1
18240947,0.0010126649,0.0056445478,0.0012400646,5052,0,-0.29060945,0.28655416,-9.795925,5052,0,1,1
18245999,0.0006408989,0.0057759397,0.0007363924,5052,0,-0.29573745,0.28329775,-9.789423,5052,0,1,1
18251050,0.00063059625,0.0057354043,0.0009124373,5051,0,-0.29259917,0.284076,-9.794625,5051,0,1,1
18256102,0.0013609853,0.0062599657,0.001190843,5052,0,-0.29653126,0.287002,-9.790694,5052,0,1,1
18261154,0.0012202844,0.0058992286,0.0010579464,5052,0,-0.28837726,0.2861265,-9.792069,5052,0,1,1
18266207,0.0007406286,0.006253747,0.0019372059,5053,0,-0.30452228,0.28712764,-9.802779,5053,0,1,1
18271258,0.0006378974,0.006226024,0.0024575645,5051,0,-0.3062889,0.29506886,-9.793187,5051,0,1,1
18276310,0.0008046895,0.005692679,0.00030813817,5052,0,-0.29742357,0.29724962,-9.804871,5052,0,1,1
18281362,0.000507459,0.005725774,0.0011269316,5052,0,-0.29918948,0.294906,-9.797558,5052,0,1,1
18286414,0.0010135297,0.006146422,0.00036105502,5052,0,-0.30237177,0.30366087,-9.798352,5052,0,1,1
18291466,0.0005375525,0.0056653833,0.0013395507,5052,0,-0.2986576,0.28731295,-9.798118,5052,0,1,1
18296518,0.0014204911,0.0064158714,0.0010862548,5052,0,-0.3008291,0.28777698,-9.792154,5052,0,1,1
18301570,0.0011459821,0.005566853,0.001110462,5052,0,-0.30380863,0.28347424,-9.795936,5052,0,1,1
18306622,0.0016240178,0.006519514,0.0017235763,5052,0,-0.29694778,0.29154444,-9.79537,5052,0,1,1
18311674,0.0015973607,0.005412279,0.0011804849,5052,0,-0.3017663,0.28956038,-9.788041,5052,0,1,1
18316726,0.00047898956,0.00559907,0.0013157539,5052,0,-0.2957108,0.28692654,-9.78469,5052,0,1,1
18321778,0.0019255943,0.0073878504,0.0011230191,5052,0,-0.2985132,0.28895754,-9.791234,5052,0,1,1
18326829,0.0012777786,0.0063681183,0.0007790301,5051,0,-0.2974939,0.28957132,-9.788692,5051,0,1,1
18331881,0.0012890648,0.006155741,0.0009625085,5052,0,-0.30077899,0.28971967,-9.795383,5052,0,1,1
18336933,0.0014351927,0.006572434,0.000519977,5052,0,-0.29580337,0.28826207,-9.787478,5052,0,1,1
18341985,0.0015570158,0.0067637754,0.0012856133,5052,0,-0.2980726,0.2799859,-9.796785,5052,0,1,1
18347037,0.0013598698,0.006482221,0.0015745789,5052,0,-0.29764017,0.28669372,-9.805444,5052,0,1,1
18352089,0.0009473932,0.00633594,0.00080747396,5052,0,-0.2959448,0.28110966,-9.789248,5052,0,1,1
18357141,0.00087887334,0.0070292684,0.0013985684,5052,0,-0.2885815,0.2929789,-9.803828,5052,0,1,1
18362193,0.0011757043,0.0060677393,0.0010897835,5052,0,-0.289237,0.2956463,-9.793836,5052,0,1,1
18367245,0.0017374516,0.0063893544,0.0012634646,5052,0,-0.29138076,0.29264677,-9.800237,5052,0,1,1
18372297,0.002430213,0.0067356876,0.0011203131,5052,0,-0.29972425,0.29044434,-9.79236,5052,0,1,1
18377349,0.0022856789,0.0068788994,0.00013264737,5052,0,-0.2864015,0.2883291,-9.806663,5052,0,1,1
18382401,0.0022973064,0.006360833,0.0010795174,5052,0,-0.29685163,0.29148844,-9.797288,5052,0,1,1
18387453,0.002552227,0.0065229335,0.00095181563,5052,0,-0.2943062,0.29106688,-9.797175,5052,0,1,1
18392505,0.0024203141,0.0063074855,0.0011278744,5052,0,-0.29444703,0.28943416,-9.801333,5052,0,1,1
18397557,0.0022947735,0.00713156,0.0014837716,5052,0,-0.2934455,0.29759306,-9.790455,5052,0,1,1
18402609,0.0025072116,0.0065352875,0.000676901,5052,0,-0.30477652,0.29287457,-9.79432,5052,0,1,1
18407661,0.002566539,0.0071187983,0.00069313066,5052,0,-0.30401364,0.28365114,-9.790691,5052,0,1,1
18412712,0.0026884195,0.006743079,0.00084493874,5051,0,-0.30880675,0.28808224,-9.800823,5051,0,1,1
18417765,0.0023102642,0.006449798,0.00057204,5053,0,-0.3044916,0.28752217,-9.797955,5053,0,1,1
18422816,0.0028565864,0.006775385,0.0013198307,5051,0,-0.30958015,0.28821817,-9.80527,5051,0,1,1
18427869,0.0025941571,0.0069231438,0.000642695,5053,0,-0.2982742,0.27784234,-9.7889185,5053,0,1,1
18432920,0.0015460091,0.006283472,0.0017462638,5051,0,-0.30561242,0.2730386,-9.796518,5051,0,1,1
18437972,0.00271996,0.007666385,0.0016587263,5052,0,-0.30352175,0.27938744,-9.801821,5052,0,1,1
18443024,0.0025411884,0.0066551873,0.00086683396,5052,0,-0.29066545,0.28124133,-9.788295,5052,0,1,1
18448077,0.0029305578,0.007398499,0.0008352178,5053,0,-0.29921257,0.28169504,-9.796923,5053,0,1,1
18453128,0.003072414,0.0065263156,0.0007929034,5051,0,-0.30396706,0.29136536,-9.776727,5051,0,1,1
18458180,0.0025979434,0.007311473,0.0011484048,5052,0,-0.29607397,0.29371718,-9.799772,5052,0,1,1
18463232,0.0029105716,0.007437285,0.00090524636,5052,0,-0.2995944,0.29291794,-9.78666,5052,0,1,1
18468284,0.0033893613,0.006022436,0.00056207355,5052,0,-0.30101758,0.29848865,-9.795316,5052,0,1,1
18473336,0.0034481713,0.006577853,0.0009434514,5052,0,-0.30502138,0.3017124,-9.794762,5052,0,1,1
18478388,0.00391485,0.007192459,8.9025256e-05,5052,0,-0.30864382,0.3053009,-9.78265,5052,0,1,1
18483440,0.0026596421,0.006226276,0.00020483037,5052,0,-0.30249152,0.31136283,-9.805668,5052,0,1,1
18488492,0.0032998512,0.007252323,0.0012285915,5052,0,-0.3005512,0.28898677,-9.806174,5052,0,1,1
18493544,0.0032504033,0.007473595,0.00016461237,5052,0,-0.29828247,0.28771833,-9.804132,5052,0,1,1
18498595,0.00356947,0.006739633,0.0007882862,5051,0,-0.3074711,0.2855265,-9.796841,5051,0,1,1
18503647,0.004052229,0.0071673784,-4.8864298e-05,5052,0,-0.30511,0.27609062,-9.811737,5052,0,1,1
18508699,0.0032610076,0.0065738442,0.00041763045,5052,0,-0.3046793,0.27830932,-9.80347,5052,0,1,1
18513751,0.003506248,0.0074878554,0.0007222532,5052,0,-0.31319776,0.26535085,-9.800092,5052,0,1,1
18518803,0.003457815,0.006426976,0.00010112184,5052,0,-0.30227417,0.2736277,-9.797715,5052,0,1,1
18523855,0.0039037147,0.0060162917,0.0008096807,5052,0,-0.3085768,0.26703528,-9.804009,5052,0,1,1
18528907,0.0032125073,0.0070355823,0.0010118904,5052,0,-0.30554062,0.26682284,-9.80049,5052,0,1,1
18533959,0.003486285,0.0061916797,-0.00015741117,5052,0,-0.31398702,0.2795922,-9.791241,5052,0,1,1
18539011,0.003646342,0.007519198,0.00073774596,5052,0,-0.3123109,0.26820073,-9.793676,5052,0,1,1
18544063,0.0029916088,0.006237569,0.0003158901,5052,0,-0.30833507,0.26283762,-9.808698,5052,0,1,1
18549115,0.0024652749,0.0066550816,0.00044882108,5052,0,-0.29224452,0.27011138,-9.807212,5052,0,1,1
18554167,0.0022810218,0.0067795166,0.00043162287,5052,0,-0.29150632,0.25941747,-9.798277,5052,0,1,1
18559219,0.0027447208,0.006698059,-5.525141e-05,5052,0,-0.29837137,0.2771978,-9.801622,5052,0,1,1
18564271,0.0030613008,0.0061015147,0.0010405757,5052,0,-0.2937132,0.26051408,-9.797633,5052,0,1,1
18569323,0.0028211356,0.006772613,0.00067473773,5052,0,-0.30551702,0.26138425,-9.801004,5052,0,1,1
18574375,0.002331443,0.006433663,0.00072721206,5052,0,-0.2972412,0.2692305,-9.799744,5052,0,1,1
18579426,0.0029252,0.0072376947,0.00074663153,5051,0,-0.29459977,0.27334088,-9.796766,5051,0,1,1
18584478,0.0017548188,0.0061583514,0.00010063359,5052,0,-0.29544905,0.2715331,-9.792747,5052,0,1,1
18589530,0.0020919142,0.006706023,0.0015786993,5052,0,-0.29404983,0.27596045,-9.790919,5052,0,1,1
18594582,0.0017342487,0.0069428924,0.001138345,5052,0,-0.2889817,0.26430687,-9.802295,5052,0,1,1
18599634,0.001447083,0.00634531,0.0007423694,5052,0,-0.29956093,0.26810834,-9.793685,5052,0,1,1
18604686,0.0014527492,0.006480625,0.0014751287,5052,0,-0.28856412,0.25413945,-9.792661,5052,0,1,1
18609741,0.0017093305,0.006238275,0.0008135105,5055,0,-0.3016722,0.25727808,-9.797441,5055,0,1,1
18614790,0.0010608386,0.0069801393,0.00088689395,5049,0,-0.29434055,0.24581642,-9.792621,5049,0,1,1
18619842,0.0010801159,0.007449056,0.00096874003,5052,0,-0.29985297,0.25658712,-9.795532,5052,0,1,1
18624894,0.0010016214,0.0061802706,0.0010864098,5052,0,-0.30361483,0.2541277,-9.785022,5052,0,1,1
18629946,0.0007109291,0.0070826723,0.0014890273,5052,0,-0.2980786,0.25366178,-9.787522,5052,0,1,1
18634998,0.0005137078,0.006522437,0.00095768046,5052,0,-0.29811227,0.24857113,-9.797579,5052,0,1,1
18640050,-0.0003193729,0.006345642,0.0014062172,5052,0,-0.29927158,0.2527412,-9.7896185,5052,0,1,1
18645102,0.00087332213,0.006621614,0.0014214288,5052,0,-0.2980713,0.25302824,-9.799119,5052,0,1,1
18650154,-0.00083173614,0.006441947,0.0015241524,5052,0,-0.3002081,0.25546083,-9.792764,5052,0,1,1
18655205,-0.00022943418,0.0067167305,0.0018914223,5051,0,-0.30380967,0.2577894,-9.800877,5051,0,1,1
18660258,-3.25017e-05,0.006622761,0.0017049263,5053,0,-0.2929812,0.26424396,-9.8038025,5053,0,1,1
18665309,-4.9728424e-05,0.0059718923,0.0023375885,5051,0,-0.29464176,0.2744273,-9.807464,5051,0,1,1
18670361,0.00070366653,0.0066090943,0.0023219767,5052,0,-0.29800636,0.28716594,-9.8084545,5052,0,1,1
18675413,0.00037643657,0.006484009,0.00049393525,5052,0,-0.29983705,0.30163455,-9.803987,5052,0,1,1
18680465,0.00075833703,0.006369494,0.001551654,5052,0,-0.2991203,0.288663,-9.801679,5052,0,1,1
18685517,0.0005387569,0.0062744217,0.0018450198,5052,0,-0.29346937,0.28836322,-9.811901,5052,0,1,1
18690573,-6.11058e-05,0.0060597393,0.001934409,5056,0,-0.2914576,0.2932125,-9.801576,5056,0,1,1
18695621,0.0011436422,0.0077955397,0.0018701879,5048,0,-0.2933051,0.30250967,-9.796081,5048,0,1,1
18700673,-0.00032852188,0.006628102,0.0010681691,5052,0,-0.29401803,0.29904857,-9.793207,5052,0,1,1
18705725,-0.0003884791,0.006529954,0.0012037591,5052,0,-0.28737912,0.30010647,-9.78878,5052,0,1,1
18710777,-0.00035114004,0.006739071,0.0010570742,5052,0,-0.29999608,0.28527725,-9.78281,5052,0,1,1
18715829,1.31155275e-05,0.0063143363,0.001288309,5052,0,-0.28316718,0.2757524,-9.78944,5052,0,1,1
18720881,0.0006430385,0.0065914365,0.0018601563,5052,0,-0.2838822,0.28314665,-9.801366,5052,0,1,1
18725933,0.0003690732,0.006412513,0.0009117071,5052,0,-0.28492004,0.27680796,-9.7932625,5052,0,1,1
18730985,0.00064081344,0.0059702783,0.0014752585,5052,0,-0.29237112,0.28624544,-9.800458,5052,0,1,1
18736037,0.0010278542,0.0068178545,0.0009174317,5052,0,-0.27980697,0.27263266,-9.800972,5052,0,1,1
18741090,0.0005245687,0.005645756,0.00068968284,5053,0,-0.28344712,0.2783593,-9.787925,5053,0,1,1
18746140,0.0001566246,0.0062791053,0.0013110007,5050,0,-0.29223073,0.2910247,-9.791456,5050,0,1,1
18751192,0.0009319388,0.00634417,0.0013799998,5052,0,-0.28766724,0.27468726,-9.795181,5052,0,1,1
18756244,0.0002165993,0.0060220216,0.0013797696,5052,0,-0.28535348,0.28487673,-9.799311,5052,0,1,1
18761296,6.058615e-05,0.0069046835,0.0011532204,5052,0,-0.28065398,0.28397322,-9.804143,5052,0,1,1
18766348,0.0002846659,0.0062896023,0.0007514921,5052,0,-0.2711494,0.27479523,-9.793017,5052,0,1,1
18771400,-0.0004885797,0.006253461,0.0013933436,5052,0,-0.28599766,0.27475613,-9.795711,5052,0,1,1
18776452,3.963896e-06,0.006617107,0.0013570614,5052,0,-0.28474107,0.27508578,-9.795748,5052,0,1,1
18781504,-0.00018432853,0.006282685,0.0005355811,5052,0,-0.28692988,0.28240082,-9.808255,5052,0,1,1
18786556,-0.00019337812,0.006846931,0.0019499912,5052,0,-0.27476954,0.27753276,-9.788041,5052,0,1,1
18791608,-0.00080879894,0.006913438,0.00095083134,5052,0,-0.28662935,0.27650064,-9.791091,5052,0,1,1
18796660,-0.00051142497,0.0067191157,0.00082131376,5052,0,-0.2767462,0.27852482,-9.790578,5052,0,1,1
18801712,9.321962e-06,0.006262428,0.0011150335,5052,0,-0.28812924,0.28047928,-9.80112,5052,0,1,1
18806764,-0.0008378591,0.0057895263,0.00055072876,5052,0,-0.28419933,0.28077224,-9.790627,5052,0,1,1
18811816,-0.0007659578,0.0064837364,0.0011842583,5052,0,-0.29340333,0.2716167,-9.799207,5052,0,1,1
18816867,-0.0009553204,0.0069550653,0.0014263988,5051,0,-0.28960612,0.28088385,-9.801964,5051,0,1,1
18821920,-0.0005418324,0.006408766,0.0017973694,5053,0,-0.286762,0.2772342,-9.797034,5053,0,1,1
18826971,0.00027002962,0.0063939523,0.0018678881,5051,0,-0.28837085,0.27803123,-9.796431,5051,0,1,1
18832023,-0.00011355274,0.0056586917,0.001349093,5052,0,-0.28804055,0.27242357,-9.789021,5052,0,1,1
18837075,-0.00025896507,0.007052778,0.0013071776,5052,0,-0.28072864,0.27228165,-9.798033,5052,0,1,1
18842127,-0.00054078485,0.005932096,0.001482431,5052,0,-0.2906961,0.2816239,-9.798104,5052,0,1,1
18847179,-0.00044888287,0.006306992,0.0017102954,5052,0,-0.2835457,0.28089875,-9.79102,5052,0,1,1
18852231,-0.00078605925,0.0074935,0.0014463583,5052,0,-0.28613716,0.275024,-9.79732,5052,0,1,1
18857283,-0.000940675,0.0069674607,0.0007226928,5052,0,-0.2853808,0.28155053,-9.7991,5052,0,1,1
18862335,-0.00085786945,0.006611253,0.0015098702,5052,0,-0.28679594,0.28170782,-9.804659,5052,0,1,1
18867387,-0.00019723062,0.006377289,0.001451917,5052,0,-0.28214717,0.2930719,-9.798996,5052,0,1,1
18872439,-0.0009811295,0.005953628,0.001022633,5052,0,-0.2836728,0.2929645,-9.8013735,5052,0,1,1
18877491,-0.0005077619,0.006114423,0.0013911229,5052,0,-0.27917033,0.28948405,-9.7856865,5052,0,1,1
18882543,-0.0010808116,0.0058001103,0.0016533091,5052,0,-0.27508911,0.28087717,-9.78481,5052,0,1,1
18887595,-0.0011073836,0.006219128,0.0019308818,5052,0,-0.28492713,0.28572482,-9.791397,5052,0,1,1
18892647,6.936362e-05,0.006610261,0.0014610816,5052,0,-0.28847712,0.28265575,-9.790451,5052,0,1,1
18897699,-0.000495483,0.006445722,0.0013060346,5052,0,-0.28470755,0.29019633,-9.795454,5052,0,1,1
18902750,8.430288e-06,0.0067525413,0.0021322784,5051,0,-0.28304854,0.292213,-9.79442,5051,0,1,1
18907802,-0.0007608021,0.0067092013,0.0011973376,5052,0,-0.29110122,0.2987438,-9.811598,5052,0,1,1
18912855,-0.0004868233,0.0061559505,0.0013982618,5053,0,-0.29224655,0.28602704,-9.805014,5053,0,1,1
18917910,-0.00012454262,0.0059956308,0.001879209,5055,0,-0.2896115,0.3053349,-9.816774,5055,0,1,1
18922958,-0.00034879864,0.005618848,0.0014451857,5048,0,-0.29313257,0.30551648,-9.813754,5048,0,1,1
18928010,0.00052739884,0.0064434228,0.0018014937,5052,0,-0.29519802,0.3018002,-9.801557,5052,0,1,1
18933062,0.0010664264,0.0060119787,0.0017222812,5052,0,-0.29535204,0.32322356,-9.794024,5052,0,1,1
18938114,0.0008109815,0.0068713557,0.000956018,5052,0,-0.28409457,0.31318584,-9.804035,5052,0,1,1
18943166,0.0012671443,0.006084224,0.0018717556,5052,0,-0.28086844,0.3104001,-9.801899,5052,0,1,1
18948218,0.0009411909,0.0059931437,0.0005058261,5052,0,-0.28098917,0.30376703,-9.804629,5052,0,1,1
18953270,0.0016674553,0.0063414983,0.0011918505,5052,0,-0.29071394,0.2969879,-9.801994,5052,0,1,1
18958322,0.0017930294,0.0062266174,0.00043202384,5052,0,-0.27623928,0.30638665,-9.800481,5052,0,1,1
18963374,0.0017840182,0.0059065125,0.0013934682,5052,0,-0.2856058,0.30024496,-9.788169,5052,0,1,1
18968426,0.0019901276,0.0058544856,0.0012242745,5052,0,-0.28251213,0.29440492,-9.789719,5052,0,1,1
18973478,0.0017883424,0.005078862,0.0008640885,5052,0,-0.27745402,0.2974325,-9.801911,5052,0,1,1
18978530,0.0019676427,0.006250919,0.001224049,5052,0,-0.2857739,0.29396895,-9.792112,5052,0,1,1
18983581,0.002636972,0.006351308,0.0016174105,5051,0,-0.2746783,0.30078632,-9.795178,5051,0,1,1
18988633,0.0020258427,0.0060354914,0.0005274131,5052,0,-0.27377188,0.28503433,-9.789791,5052,0,1,1
18993685,0.0025876407,0.0066051697,0.0015300225,5052,0,-0.2782318,0.29139507,-9.809192,5052,0,1,1
18998737,0.0017368143,0.006165128,0.00066230656,5052,0,-0.27514124,0.2924542,-9.796342,5052,0,1,1
19003789,0.002389098,0.0068891263,0.0012984299,5052,0,-0.28500107,0.29870567,-9.792544,5052,0,1,1
19008841,0.0029862195,0.0068810764,0.00028399823,5052,0,-0.2794836,0.3012039,-9.7917,5052,0,1,1
19013893,0.0019868193,0.00573225,0.0014970145,5052,0,-0.27266714,0.29343084,-9.792312,5052,0,1,1
19018945,0.0022624983,0.0065956614,0.0013647694,5052,0,-0.2823931,0.2962916,-9.789777,5052,0,1,1
19023997,0.0021346842,0.006446983,0.0010605475,5052,0,-0.2855645,0.30078968,-9.796992,5052,0,1,1
19029049,0.0025716282,0.0065696784,0.0010398544,5052,0,-0.28745186,0.30324164,-9.784952,5052,0,1,1
19034101,0.0035320346,0.006631547,0.0015338862,5052,0,-0.29207587,0.29093194,-9.7861595,5052,0,1,1
19039153,0.002362337,0.006267068,0.0011536939,5052,0,-0.29033196,0.29231387,-9.783073,5052,0,1,1
19044205,0.0033872135,0.006946168,0.0014046177,5052,0,-0.29137933,0.29502454,-9.780619,5052,0,1,1
19049257,0.0030582782,0.0068192175,0.0008625486,5052,0,-0.29403025,0.29055783,-9.803954,5052,0,1,1
19054309,0.002695788,0.006112423,0.0011818499,5052,0,-0.28755355,0.2875369,-9.795675,5052,0,1,1
19059361,0.0035731324,0.0068050576,0.00033708313,5052,0,-0.29205644,0.2957285,-9.7967615,5052,0,1,1
19064412,0.0028831626,0.006396455,0.00023346161,5051,0,-0.2900289,0.2812976,-9.794947,5051,0,1,1
19069464,0.0031533744,0.0061420933,0.0011467708,5052,0,-0.2958698,0.27933282,-9.812391,5052,0,1,1
19074516,0.0029824823,0.0058748955,0.0014714809,5052,0,-0.28722617,0.27860448,-9.815324,5052,0,1,1
19079568,0.0030705372,0.005363936,0.0015896484,5052,0,-0.29124406,0.2816596,-9.808604,5052,0,1,1
19084620,0.0033615958,0.005979399,0.0019634035,5052,0,-0.2996342,0.28002378,-9.797216,5052,0,1,1
19089672,0.0032852513,0.0053082854,0.0015785355,5052,0,-0.29339772,0.29335243,-9.801187,5052,0,1,1
19094724,0.003097197,0.006392774,0.001997264,5052,0,-0.29075658,0.28484064,-9.800592,5052,0,1,1
19099776,0.003348016,0.006483987,0.0018750265,5052,0,-0.2932517,0.2820095,-9.806357,5052,0,1,1
19104828,0.003002191,0.005819125,0.0015168965,5052,0,-0.2914094,0.28154016,-9.800134,5052,0,1,1
19109880,0.003924169,0.0056582824,0.0013228328,5052,0,-0.2954431,0.27185377,-9.792262,5052,0,1,1
19114932,0.0031696402,0.0062756813,0.0010356873,5052,0,-0.29954338,0.2813403,-9.797162,5052,0,1,1
19119984,0.0030895923,0.006371064,0.001717124,5052,0,-0.2873728,0.27977893,-9.800453,5052,0,1,1
19125036,0.0026687384,0.0068827462,0.0014206546,5052,0,-0.29907262,0.27464983,-9.792916,5052,0,1,1
19130088,0.0023968956,0.0062477756,0.0012553718,5052,0,-0.30668998,0.28074574,-9.799031,5052,0,1,1
19135140,0.0026835902,0.0063193915,0.0022908913,5052,0,-0.30567992,0.28116617,-9.792334,5052,0,1,1
19140192,0.002902001,0.0054057036,0.0016316025,5052,0,-0.30136833,0.27776352,-9.794629,5052,0,1,1
19145243,0.0015700838,0.0055002696,0.0013315014,5051,0,-0.30099922,0.28573298,-9.803564,5051,0,1,1
19150295,0.0022106133,0.0064284336,0.0010726113,5052,0,-0.3113038,0.2844182,-9.801844,5052,0,1,1
19155347,0.0023461943,0.005320972,0.001059738,5052,0,-0.31557184,0.2977442,-9.810626,5052,0,1,1
19160399,0.002923098,0.0062714326,0.0005688573,5052,0,-0.3092179,0.28728205,-9.79284,5052,0,1,1
19165451,0.0026446506,0.006089344,0.0013578114,5052,0,-0.30167156,0.2947446,-9.790077,5052,0,1,1
19170504,0.0025335145,0.0059046005,0.00092199515,5053,0,-0.29308316,0.3019669,-9.797479,5053,0,1,1
19175555,0.0031794435,0.0057488573,0.0012960512,5051,0,-0.2965649,0.30487686,-9.791008,5051,0,1,1
19180607,0.0032271377,0.0046637286,-0.0001703592,5052,0,-0.29972455,0.2958941,-9.809448,5052,0,1,1
19185659,0.003012836,0.0060904645,0.0009593528,5052,0,-0.30413517,0.29703727,-9.785964,5052,0,1,1
19190711,0.0035113033,0.0054892004,0.0009984281,5052,0,-0.3068204,0.29470024,-9.792587,5052,0,1,1
19195763,0.0033197554,0.005304163,0.0007259954,5052,0,-0.3003857,0.303054,-9.787729,5052,0,1,1
19200815,0.0031876958,0.0060535483,0.0011614445,5052,0,-0.2910486,0.28752792,-9.795123,5052,0,1,1
19205867,0.002919254,0.005099236,0.00012012204,5052,0,-0.29495752,0.29035524,-9.794157,5052,0,1,1
19210921,0.003226846,0.006031224,0.0008807665,5054,0,-0.29463542,0.28306442,-9.789829,5054,0,1,1
19215971,0.004413592,0.005951825,0.00028839696,5050,0,-0.29605037,0.27807146,-9.800321,5050,0,1,1
19221023,0.003257946,0.004625949,0.00050740025,5052,0,-0.29872516,0.2799102,-9.806061,5052,0,1,1
19226074,0.003476298,0.0061427196,0.0005889306,5051,0,-0.2889978,0.27299717,-9.801212,5051,0,1,1
19231126,0.0029842765,0.004935891,0.00012560385,5052,0,-0.29561943,0.2690486,-9.794435,5052,0,1,1
19236178,0.002962935,0.0062037534,0.0011002232,5052,0,-0.29139632,0.25536063,-9.799069,5052,0,1,1
19241231,0.003162264,0.0063727596,0.001194036,5053,0,-0.2929283,0.26766226,-9.79219,5053,0,1,1
19246282,0.00241571,0.0057857907,0.0009587934,5051,0,-0.2933118,0.26142937,-9.808817,5051,0,1,1
19251334,0.002716891,0.005450022,0.0013406449,5052,0,-0.28979936,0.24898249,-9.800637,5052,0,1,1
19256386,0.002371632,0.005302248,0.0008933516,5052,0,-0.2833001,0.24573642,-9.788083,5052,0,1,1
19261438,0.002044812,0.0053697955,0.00094001775,5052,0,-0.29807934,0.25138515,-9.792499,5052,0,1,1
19266490,0.001786931,0.0050309184,0.00074915536,5052,0,-0.28752002,0.25793806,-9.802693,5052,0,1,1
19271542,0.00067353493,0.0050332933,0.0008170037,5052,0,-0.2885243,0.26429844,-9.796733,5052,0,1,1
19276594,0.0009200494,0.005645613,0.0017001417,5052,0,-0.29424077,0.2507963,-9.8015995,5052,0,1,1
19281646,0.00090157514,0.006609375,0.00043767047,5052,0,-0.29243836,0.2678434,-9.793755,5052,0,1,1
19286698,0.00061158807,0.005698525,0.000451369,5052,0,-0.29979986,0.27184922,-9.793647,5052,0,1,1
19291750,0.00028354468,0.0060140467,0.0014062924,5052,0,-0.3024222,0.2851923,-9.800023,5052,0,1,1
19296802,0.00016118812,0.005042549,0.0014789389,5052,0,-0.29801574,0.28148684,-9.797031,5052,0,1,1
19301854,0.00034231067,0.0060725305,0.0009701663,5052,0,-0.29495624,0.2940481,-9.796486,5052,0,1,1
19306905,0.0010151601,0.0059269113,0.0013757113,5051,0,-0.29745606,0.2920751,-9.805023,5051,0,1,1
19311959,0.00059865514,0.005123571,0.0012284132,5054,0,-0.2971528,0.30390546,-9.78533,5054,0,1,1
19317009,0.00034721036,0.006062351,0.0005610377,5050,0,-0.29867277,0.28990096,-9.791996,5050,0,1,1
19322061,0.0005253119,0.005408558,0.0008854111,5052,0,-0.30556783,0.29518905,-9.7880745,5052,0,1,1
19327113,0.00078528567,0.006257608,0.0012370156,5052,0,-0.2908907,0.29238737,-9.8042,5052,0,1,1
19332171,0.0019569942,0.005426041,0.0013584197,5058,0,-0.2845503,0.2934493,-9.7949505,5058,0,1,1
19337217,0.0011296237,0.005609571,0.00068937114,5046,0,-0.29460362,0.28804398,-9.787008,5046,0,1,1
19342269,0.00073716784,0.006427723,0.0013197334,5052,0,-0.29073027,0.28826186,-9.796012,5052,0,1,1
19347321,0.0010067291,0.0070348377,0.00089236913,5052,0,-0.28836823,0.29048732,-9.786454,5052,0,1,1
19352373,0.0007055756,0.0054035396,0.001120484,5052,0,-0.28118092,0.2692204,-9.795868,5052,0,1,1
19357425,0.00089651893,0.006222856,0.00141161,5052,0,-0.2876535,0.2746507,-9.796501,5052,0,1,1
19362477,0.0010485945,0.005430375,0.00077526114,5052,0,-0.29545334,0.27725628,-9.793095,5052,0,1,1
19367529,0.0005660223,0.005940862,0.0008776464,5052,0,-0.29531792,0.2745753,-9.804009,5052,0,1,1
19372581,0.001019526,0.005712704,0.0009171904,5052,0,-0.28768837,0.27229312,-9.796899,5052,0,1,1
19377633,0.001108605,0.005845084,0.0003045967,5052,0,-0.28808078,0.26996878,-9.809359,5052,0,1,1
19382684,0.00097268546,0.006475958,0.0010378584,5051,0,-0.29174855,0.27185434,-9.783896,5051,0,1,1
19387736,0.00024132781,0.006014525,0.0014268099,5052,0,-0.30287555,0.27925524,-9.802816,5052,0,1,1
19392788,0.00049439055,0.0064006234,0.0019618918,5052,0,-0.2966029,0.2689231,-9.794096,5052,0,1,1
19397840,0.0007602392,0.0059234826,0.0014354887,5052,0,-0.29430854,0.28056023,-9.80224,5052,0,1,1
19402892,0.000358678,0.0064296536,0.0006795285,5052,0,-0.29807708,0.28001323,-9.789989,5052,0,1,1
19407944,0.0005097771,0.006725687,0.0019940936,5052,0,-0.30232984,0.2928082,-9.797377,5052,0,1,1
19412996,0.00024516392,0.006053618,0.0018072472,5052,0,-0.30176622,0.28415564,-9.79047,5052,0,1,1
19418048,-5.726834e-05,0.005484961,0.0016601678,5052,0,-0.3010864,0.2902496,-9.803362,5052,0,1,1
19423100,0.0010159698,0.005948671,0.0013736557,5052,0,-0.30540982,0.29316783,-9.792273,5052,0,1,1
19428152,0.00094881107,0.0058556558,0.0006515596,5052,0,-0.3022263,0.28909746,-9.788942,5052,0,1,1
19433204,0.000545888,0.0063054417,0.0014082127,5052,0,-0.29965922,0.2912058,-9.784625,5052,0,1,1
19438256,-4.3684217e-05,0.006962274,0.0014778447,5052,0,-0.30229855,0.28335527,-9.787515,5052,0,1,1
19443308,-0.00043793916,0.0056026657,0.0011771818,5052,0,-0.30111068,0.28902176,-9.793146,5052,0,1,1
19448360,0.00027450413,0.006713342,0.0012804777,5052,0,-0.29265156,0.28531486,-9.786731,5052,0,1,1
19453412,0.0005199643,0.0065733525,0.0008568879,5052,0,-0.29839486,0.2856163,-9.798658,5052,0,1,1
19458464,0.00035974168,0.006638565,0.0010332456,5052,0,-0.2928263,0.29095927,-9.813151,5052,0,1,1
19463515,0.001133748,0.005899999,0.0009266358,5051,0,-0.29713398,0.2804415,-9.805618,5051,0,1,1
19468567,0.00022793036,0.005721205,0.0006688194,5052,0,-0.29055944,0.27653244,-9.80646,5052,0,1,1
19473619,0.00028173698,0.006430771,0.0015302689,5052,0,-0.29761747,0.2842404,-9.798722,5052,0,1,1
19478671,-6.598242e-05,0.00622454,0.00095037866,5052,0,-0.30062315,0.27914846,-9.790005,5052,0,1,1
19483723,0.00044735125,0.0063427547,0.0011826992,5052,0,-0.2954142,0.28662497,-9.7947855,5052,0,1,1
19488775,0.00041034957,0.0062440736,0.0015388272,5052,0,-0.29978022,0.2736454,-9.791882,5052,0,1,1
19493827,0.0002501349,0.0066016987,0.0013304482,5052,0,-0.29636616,0.27403778,-9.804068,5052,0,1,1
19498879,0.00022017676,0.006716908,0.00065404584,5052,0,-0.29241145,0.27804583,-9.798865,5052,0,1,1
19503931,0.00027788142,0.006025352,0.00019887404,5052,0,-0.30477396,0.286398,-9.803865,5052,0,1,1
19508983,0.00020753121,0.006631464,0.0007767928,5052,0,-0.29772466,0.28072417,-9.792827,5052,0,1,1
19514035,0.00026174192,0.0062466725,0.00091926043,5052,0,-0.28932908,0.2887016,-9.798895,5052,0,1,1
19519087,0.00022805197,0.006616381,0.0011594032,5052,0,-0.28944504,0.29711094,-9.793716,5052,0,1,1
19524139,0.00033620777,0.007348036,0.0015582773,5052,0,-0.30385736,0.2765307,-9.792586,5052,0,1,1
19529191,-3.8510796e-05,0.0071915165,0.0015601197,5052,0,-0.2909596,0.28373143,-9.790312,5052,0,1,1
19534243,-0.0004635392,0.0073894407,0.00044859282,5052,0,-0.29603532,0.28887624,-9.791745,5052,0,1,1
19539295,0.0008362708,0.006929997,0.001455643,5052,0,-0.29265323,0.27691936,-9.789303,5052,0,1,1
19544346,0.0004301055,0.006114757,0.0014054319,5051,0,-0.295772,0.27694035,-9.792169,5051,0,1,1
19549398,0.00038398878,0.006624792,0.0012501559,5052,0,-0.28895357,0.28069595,-9.804971,5052,0,1,1
19554450,0.00062458677,0.0059105814,0.0010354742,5052,0,-0.30117673,0.29068077,-9.788776,5052,0,1,1
19559502,0.0004321124,0.0064540342,0.00082337693,5052,0,-0.2967526,0.29159492,-9.796538,5052,0,1,1
19564554,0.00014767487,0.006638095,0.0009209047,5052,0,-0.29641095,0.2901963,-9.8004,5052,0,1,1
19569606,-1.6768548e-05,0.0058165877,0.00075350987,5052,0,-0.29494318,0.28536588,-9.792987,5052,0,1,1
19574658,-7.772663e-05,0.006617761,0.00094329903,5052,0,-0.30588177,0.2910889,-9.796586,5052,0,1,1
19579710,2.4548104e-05,0.006735436,0.00045604957,5052,0,-0.29597637,0.29813027,-9.7869425,5052,0,1,1
19584762,-0.0003044418,0.0071587134,0.0010622377,5052,0,-0.28497335,0.29188064,-9.797605,5052,0,1,1
19589814,-0.0011981843,0.0072556874,0.0009108457,5052,0,-0.28829557,0.2928429,-9.792729,5052,0,1,1
19594868,-0.00056667376,0.0060697156,0.00085374794,5054,0,-0.2930402,0.2871784,-9.794059,5054,0,1,1
19599918,-0.0006591435,0.007169511,0.00093605276,5050,0,-0.29067874,0.28015408,-9.789363,5050,0,1,1
19604970,-0.0007436945,0.006977343,0.00096281915,5052,0,-0.2898724,0.2741275,-9.804145,5052,0,1,1
19610022,-0.00046178832,0.0067233737,0.0008624242,5052,0,-0.2908726,0.2737756,-9.78079,5052,0,1,1
19615074,-0.00010930085,0.0071262172,0.0016272978,5052,0,-0.29962417,0.27096054,-9.789084,5052,0,1,1
19620126,-0.00052069745,0.006286518,0.0012194148,5052,0,-0.29188353,0.27146694,-9.792434,5052,0,1,1
19625178,-0.0006619761,0.006625975,0.0007682156,5052,0,-0.29050693,0.27876276,-9.802198,5052,0,1,1
19630229,-0.0010385048,0.007193609,0.0010850242,5051,0,-0.2961224,0.27045795,-9.801347,5051,0,1,1
19635282,-0.001094798,0.0063208323,0.0012628692,5053,0,-0.2967311,0.28893566,-9.806944,5053,0,1,1
19640334,-0.0011159397,0.0062600067,0.0008856523,5052,0,-0.29975787,0.28384006,-9.804869,5052,0,1,1
19645385,-0.0007659002,0.006236641,0.0005110188,5051,0,-0.29044715,0.28406146,-9.802226,5051,0,1,1
19650437,-0.0012280697,0.0070311055,0.00037586468,5052,0,-0.29822782,0.29092476,-9.809432,5052,0,1,1
19655489,-0.0014450398,0.007154238,0.0014243105,5052,0,-0.29644176,0.27403426,-9.800474,5052,0,1,1
19660544,-0.0018404302,0.0061102076,9.4011586e-05,5055,0,-0.28817907,0.274099,-9.807581,5055,0,1,1
19665593,-0.0015797338,0.007508571,0.0012191305,5049,0,-0.29675847,0.27475613,-9.792134,5049,0,1,1
19670645,-0.0011485297,0.0066001713,0.0012926249,5052,0,-0.28902543,0.26863143,-9.791231,5052,0,1,1
19675697,-0.0013397326,0.0066608475,0.001726643,5052,0,-0.28970647,0.27052364,-9.788195,5052,0,1,1
19680749,-0.0013155327,0.006620739,0.0011201304,5052,0,-0.2876109,0.27305913,-9.797906,5052,0,1,1
19685801,-0.0015537379,0.00610116,0.0011172185,5052,0,-0.29395035,0.2848119,-9.80232,5052,0,1,1
19690853,-0.0016549464,0.00712083,0.0011489451,5052,0,-0.30288073,0.27619663,-9.800806,5052,0,1,1
19695905,-0.0021028267,0.0065203044,0.0006857612,5052,0,-0.2965645,0.2865334,-9.803154,5052,0,1,1
19700957,-0.0027409862,0.006951461,0.0012742294,5052,0,-0.29793444,0.28240627,-9.805037,5052,0,1,1
19706008,-0.0021673026,0.007741322,0.0016750048,5051,0,-0.29845375,0.28058624,-9.798566,5051,0,1,1
19711061,-0.0029104226,0.0065739863,0.0007674489,5053,0,-0.29610252,0.29031044,-9.789865,5053,0,1,1
19716112,-0.0025445328,0.007247048,0.0016027649,5051,0,-0.29398432,0.29585892,-9.807543,5051,0,1,1
19721164,-0.002369486,0.006634257,0.001688844,5052,0,-0.29846716,0.2925523,-9.794794,5052,0,1,1
19726216,-0.0022270123,0.006306082,0.00074513856,5052,0,-0.29750484,0.29186264,-9.806611,5052,0,1,1
19731268,-0.0023126877,0.006977958,0.0017025393,5052,0,-0.29602638,0.29355136,-9.805642,5052,0,1,1
19736320,-0.0025441812,0.0071516684,0.0006864929,5052,0,-0.29251793,0.2990262,-9.795351,5052,0,1,1
19741372,-0.0022729756,0.0070333253,0.00012137468,5052,0,-0.29139733,0.3099322,-9.794274,5052,0,1,1
19746424,-0.0020962954,0.0074429014,0.0007427697,5052,0,-0.29917985,0.3110762,-9.789459,5052,0,1,1
19751476,-0.002303591,0.0065212855,0.0006799135,5052,0,-0.29163536,0.31668568,-9.786848,5052,0,1,1
19756528,-0.0016081969,0.0073005953,0.00068345765,5052,0,-0.28513366,0.30678347,-9.78384,5052,0,1,1
19761580,-0.001761145,0.006084825,0.000299085,5052,0,-0.28662825,0.31129336,-9.793442,5052,0,1,1
19766632,-0.0019349825,0.0071537755,0.0009321362,5052,0,-0.2919407,0.30848128,-9.802049,5052,0,1,1
19771684,-0.0016402273,0.006565257,0.0010590052,5052,0,-0.28972092,0.3103036,-9.796683,5052,0,1,1
19776736,-0.0016481247,0.0063312408,0.000822598,5052,0,-0.29107267,0.31098637,-9.794648,5052,0,1,1
19781788,-0.0012123063,0.0066781286,0.0009816127,5052,0,-0.28657132,0.29250556,-9.805865,5052,0,1,1
19786840,-0.0012257549,0.006674027,-0.00024929873,5052,0,-0.27770096,0.29922444,-9.783017,5052,0,1,1
19791891,-0.00079007103,0.0062894225,0.00030411323,5051,0,-0.28898272,0.29799902,-9.799933,5051,0,1,1
19796945,-0.0010414089,0.006403787,0.00113623,5054,0,-0.28981444,0.30041403,-9.799372,5054,0,1,1
19801995,-0.0016914661,0.0066356906,0.00027712993,5050,0,-0.28314906,0.30111814,-9.7952795,5050,0,1,1
19807047,-0.0002612583,0.0067722984,0.0013913725,5052,0,-0.287373,0.2919991,-9.79072,5052,0,1,1
19812099,-0.0007368372,0.006411932,0.00091111683,5052,0,-0.28812099,0.2962492,-9.790694,5052,0,1,1
19817151,-0.0009250686,0.006205845,0.00084065774,5052,0,-0.282383,0.2938825,-9.788952,5052,0,1,1
19822203,-0.001149655,0.007457825,0.0010653983,5052,0,-0.28658277,0.30031195,-9.797046,5052,0,1,1
19827255,0.00019341758,0.0066668224,0.0008568107,5052,0,-0.2879232,0.30429947,-9.798964,5052,0,1,1
19832307,-0.00020938496,0.0069527025,0.0009366684,5052,0,-0.29025188,0.29426196,-9.798486,5052,0,1,1
19837359,-0.00013137158,0.0061740605,0.0005080271,5052,0,-0.2975251,0.292092,-9.800949,5052,0,1,1
19842411,-0.00075759145,0.005904236,0.00037352828,5052,0,-0.28916398,0.29341793,-9.804952,5052,0,1,1
19847463,0.00030242995,0.006954051,0.00057059614,5052,0,-0.29519972,0.29872516,-9.813884,5052,0,1,1
19852515,-0.00036159166,0.00608815,0.0006126182,5052,0,-0.2949841,0.29553246,-9.789007,5052,0,1,1
19857567,-0.00014026354,0.006598474,0.0011402874,5052,0,-0.29301924,0.29290554,-9.799613,5052,0,1,1
19862619,-5.0241026e-05,0.0071365507,0.0014185344,5052,0,-0.28940594,0.29194945,-9.792971,5052,0,1,1
19867671,-0.0005736904,0.0058898814,0.0015154048,5052,0,-0.29657373,0.28622112,-9.79903,5052,0,1,1
19872722,0.0003080898,0.0064118556,0.000765019,5051,0,-0.28592047,0.28573838,-9.804019,5051,0,1,1
19877774,-0.00042963808,0.0063272617,0.0011748716,5052,0,-0.29162472,0.28099293,-9.803044,5052,0,1,1
19882826,-0.0003153761,0.006400297,0.00090969814,5052,0,-0.28419316,0.2969817,-9.802039,5052,0,1,1
19887878,0.00027672673,0.006555863,0.0011902197,5052,0,-0.28748345,0.30057806,-9.80703,5052,0,1,1
19892931,0.00017675258,0.006086981,0.00071679614,5053,0,-0.28780416,0.29840112,-9.799044,5053,0,1,1
19897982,0.00011083399,0.006233718,0.001514728,5051,0,-0.2851164,0.2884724,-9.79952,5051,0,1,1
19903035,-0.00021360024,0.005594293,0.0011997849,5053,0,-0.275648,0.29469126,-9.800902,5053,0,1,1
19908086,0.00044219536,0.005256919,0.0015067441,5051,0,-0.283779,0.29419875,-9.805123,5051,0,1,1
19913138,0.0004325458,0.00591359,0.0011977988,5052,0,-0.2770991,0.31130847,-9.787631,5052,0,1,1
19918190,0.0005306439,0.0050808177,0.00043813372,5052,0,-0.28546727,0.30487424,-9.784199,5052,0,1,1
19923242,0.00023981831,0.0061011785,0.0012359555,5052,0,-0.27829692,0.31354147,-9.785242,5052,0,1,1
19928294,0.00018286685,0.005602316,0.001142069,5052,0,-0.28108054,0.30725828,-9.802321,5052,0,1,1
19933346,-0.00019847388,0.0060526137,0.001350421,5052,0,-0.27326676,0.29890245,-9.802146,5052,0,1,1
19938398,0.00050436717,0.0064248918,0.0010110423,5052,0,-0.2815296,0.29950988,-9.797454,5052,0,1,1
19943450,0.0007007831,0.005248494,0.000797977,5052,0,-0.28386718,0.2890048,-9.802579,5052,0,1,1
19948501,0.0005973425,0.005876649,0.0017340687,5051,0,-0.28007403,0.2898391,-9.800726,5051,0,1,1
19953553,0.0005513405,0.0055813156,0.0012421168,5052,0,-0.288568,0.2938929,-9.814918,5052,0,1,1
19958605,0.00072183606,0.004997017,0.0018343903,5052,0,-0.2842162,0.2876526,-9.809065,5052,0,1,1
19963657,0.001090267,0.0060865935,0.0018632488,5052,0,-0.27170217,0.29562393,-9.806354,5052,0,1,1
19968709,0.0010894664,0.0055630044,0.0011877137,5052,0,-0.27290475,0.28571674,-9.81654,5052,0,1,1
