timestamp,timestamp_sample,output_tracking_error[0],output_tracking_error[1],output_tracking_error[2],control_mode_flags,filter_fault_flags,pos_horiz_accuracy,pos_vert_accuracy,mag_test_ratio,vel_test_ratio,pos_test_ratio,hgt_test_ratio,tas_test_ratio,hagl_test_ratio,beta_test_ratio,time_slip,accel_device_id,gyro_device_id,baro_device_id,mag_device_id,gps_check_fail_flags,innovation_check_flags,solution_status_flags,reset_count_vel_ne,reset_count_vel_d,reset_count_pos_ne,reset_count_pod_d,reset_count_quat,pre_flt_fail_innov_heading,pre_flt_fail_innov_vel_horiz,pre_flt_fail_innov_vel_vert,pre_flt_fail_innov_height,pre_flt_fail_mag_field_disturbed,health_flags,timeout_flags
16902417,16801773,6.077589e-05,0.001959691,0.0017345828,67240471,0,0.14783639,0.210727,0.003787532,0.0058775116,0.020506104,0.0046731215,0.0,0.0,0.0,0.004997,3932170,3932170,3997730,396809,0,0,895,2,1,2,0,3,0,0,0,0,0,0,0
16912551,16811767,6.0214854e-05,0.0019491346,0.002223819,67240471,0,0.1478371,0.21034636,0.003787532,0.0058775116,0.020506104,0.009057238,0.0,0.0,0.0,0.004997,3932170,3932170,3997730,396809,0,0,895,2,1,2,0,3,0,0,0,0,0,0,0
17102285,17001637,0.00018029903,0.0017805136,0.0017941566,67240471,0,0.14177507,0.20921776,0.0020466377,0.01644054,0.022944238,0.014102522,0.0,0.0,0.0,0.004997,3932170,3932170,3997730,396809,0,0,895,2,1,2,0,3,0,0,0,0,0,0,0
17302062,17201500,7.789857e-05,0.0019455984,0.0019322456,67240471,0,0.13901475,0.20774059,0.0031251968,0.011271632,0.026427481,0.00479304,0.0,0.0,0.0,0.004997,3932170,3932170,3997730,396809,0,0,895,2,1,2,0,3,0,0,0,0,0,0,0
17501928,17401364,0.00015069949,0.0016496357,0.0013016653,67240471,0,0.13394096,0.20629437,0.004899426,0.014083902,0.024466263,0.00020530912,0.0,0.0,0.0,0.004997,3932170,3932170,3997730,396809,0,0,895,2,1,2,0,3,0,0,0,0,0,0,0
17701849,17601227,0.00024618744,0.0021621773,0.0028538522,67240471,0,0.12938586,0.20487805,0.003666992,0.009042553,0.022793243,0.019174283,0.0,0.0,0.0,0.004997,3932170,3932170,3997730,396809,0,0,895,2,1,2,0,3,0,0,0,0,0,0,0
17901644,17801090,0.00023831637,0.0026325802,0.0020173953,67240471,0,0.12727994,0.20349059,0.0055755014,0.033576906,0.026378477,0.0046480168,0.0,0.0,0.0,0.004997,3932170,3932170,3997730,396809,0,0,895,2,1,2,0,3,0,0,0,0,0,0,0
18101517,18000954,0.00020671397,0.0029167815,0.0020951352,67240471,0,0.12335349,0.20213103,0.00010799027,0.009695994,0.029079823,0.00020347364,0.0,0.0,0.0,0.004997,3932170,3932170,3997730,396809,0,0,895,2,1,2,0,3,0,0,0,0,0,0,0
18301528,18200817,0.00017709825,0.0019505963,0.0011859969,67240471,0,0.12152613,0.20079842,0.0017801361,0.020007497,0.028292073,0.009696439,0.0,0.0,0.0,0.004997,3932170,3932170,3997730,396809,0,0,895,2,1,2,0,3,0,0,0,0,0,0,0
18501471,18400681,0.00018645184,0.00077000307,0.00039070545,67240471,0,0.118096106,0.19949192,0.0017573237,0.02569158,0.031077227,0.004930369,0.0,0.0,0.0,0.004997,3932170,3932170,3997730,396809,0,0,895,2,1,2,0,3,0,0,0,0,0,0,0
18701254,18600544,0.0001701964,0.0010283588,0.0013618616,67240471,0,0.11494172,0.19821063,0.0061004777,0.018086653,0.029430531,0.009684879,0.0,0.0,0.0,0.004997,3932170,3932170,3997730,396809,0,0,895,2,1,2,0,3,0,0,0,0,0,0,0
18901025,18800407,0.00021076201,0.0007722395,0.0012708768,67240471,0,0.113481015,0.19695953,0.0009739574,0.016876603,0.028670596,0.0044773426,0.0,0.0,0.0,0.004997,3932170,3932170,3997730,396809,0,0,895,2,1,2,0,3,0,0,0,0,0,0,0
19110836,19010264,0.00011187918,0.0011858146,0.0007633244,67240471,0,0.110676825,0.19572642,0.00183096,0.0048442287,0.031635027,0.009858403,0.0,0.0,0.0,0.004997,3932170,3932170,3997730,396809,0,0,895,2,1,2,0,3,0,0,0,0,0,0,0
19310998,19210127,9.689964e-05,0.0018336822,0.0006019779,67240471,0,0.10806675,0.19451502,0.0006581418,0.010942544,0.03017713,0.009840637,0.0,0.0,0.0,0.004997,3932170,3932170,3997730,396809,0,0,895,2,1,2,0,3,0,0,0,0,0,0,0
19510550,19409991,4.7273963e-05,0.0013323341,0.0020617738,67240471,0,0.10683279,0.19332598,0.0042981408,0.021435397,0.033891205,0.013733165,0.0,0.0,0.0,0.004997,3932170,3932170,3997730,396809,0,0,895,2,1,2,0,3,0,0,0,0,0,0,0
19710413,19609854,0.00018909125,0.0014374031,0.0010913553,67240471,0,0.104481,0.1921586,0.0031257838,0.0036841654,0.032413445,0.0053222915,0.0,0.0,0.0,0.004997,3932170,3932170,3997730,396809,0,0,895,2,1,2,0,3,0,0,0,0,0,0,0
19900340,19799724,0.00014059753,0.0007790072,0.000992763,67240471,0,0.10336277,0.19101147,0.008377456,0.01332348,0.0317205,0.019404631,0.0,0.0,0.0,0.004997,3932170,3932170,3997730,396809,0,0,895,2,1,2,0,3,0,0,0,0,0,0,0
20100430,19999587,0.0001985895,0.0005486859,0.0015001546,67240471,0,0.10122976,0.18988562,0.00031196664,0.012676135,0.03043543,0.014544261,0.0,0.0,0.0,0.004997,3932170,3932170,3997730,396809,0,0,895,2,1,2,0,3,0,0,0,0,0,0,0
20300199,20199451,0.00012365519,0.0016530756,0.0020491232,67240471,0,0.1002158,0.18877959,7.0576854e-05,0.01110796,0.029847067,0.01922388,0.0,0.0,0.0,0.004997,3932170,3932170,3997730,396809,0,0,895,2,1,2,0,3,0,0,0,0,0,0,0
20509865,20409307,0.00017773823,0.0008531415,0.0010998638,67240471,0,0.09827148,0.18769325,0.009323543,0.0035413872,0.032998305,0.0046821698,0.0,0.0,0.0,0.004997,3932170,3932170,3997730,396809,0,0,895,2,1,2,0,3,0,0,0,0,0,0,0
20709731,20609170,0.00013188728,0.0016772308,0.0009805344,67240471,0,0.09643473,0.18662503,0.0008180362,0.0074853017,0.031794533,0.014125864,0.0,0.0,0.0,0.004997,3932170,3932170,3997730,396809,0,0,895,2,1,2,0,3,0,0,0,0,0,0,0
20909661,20809034,0.0001313791,0.0014549299,0.00092294766,67240471,0,0.0955588,0.18557498,0.0034850985,0.0040203766,0.031201238,0.009496664,0.0,0.0,0.0,0.004997,3932170,3932170,3997730,396809,0,0,895,2,1,2,0,3,0,0,0,0,0,0,0
21109523,21008897,0.00011605349,0.00079906936,0.0009478858,67240471,0,0.093868844,0.18454255,0.005858192,0.014789235,0.0344159,0.014115752,0.0,0.0,0.0,0.004997,3932170,3932170,3997730,396809,0,0,895,2,1,2,0,3,0,0,0,0,0,0,0
21309692,21208760,0.00016382695,0.002039297,0.0012635607,67240471,0,0.09226612,0.18352728,0.0013316724,0.012234724,0.033182662,0.023875669,0.0,0.0,0.0,0.004997,3932170,3932170,3997730,396809,0,0,895,2,1,2,0,3,0,0,0,0,0,0,0
21509247,21408624,4.0613806e-05,0.00073394505,0.0012068428,67240471,0,0.09150012,0.18252869,0.0063130115,0.015040487,0.03700473,0.00012549602,0.0,0.0,0.0,0.004997,3932170,3932170,3997730,396809,0,0,895,2,1,2,0,3,0,0,0,0,0,0,0
21699336,21598494,0.00011457208,0.0016046938,0.0007156108,67240471,0,0.09001468,0.18179092,5.062055e-05,0.013368689,0.035806324,0.0047946973,0.0,0.0,0.0,0.004997,3932170,3932170,3997730,396809,0,0,895,2,1,2,0,3,0,0,0,0,0,0,0
21909046,21808350,0.00021770211,0.0018583755,0.0009808387,67240471,0,0.0893048,0.18082058,0.004365663,0.0064865733,0.035274368,0.0039023396,0.0,0.0,0.0,0.004997,3932170,3932170,3997730,396809,0,0,895,2,1,2,0,3,0,0,0,0,0,0,0
22108778,22008213,0.00025585963,0.0016935448,0.000618656,67240471,0,0.08792397,0.17986558,0.0043216897,0.008941117,0.03415139,0.0008802484,0.0,0.0,0.0,0.004997,3932170,3932170,3997730,396809,0,0,895,2,1,2,0,3,0,0,0,0,0,0,0
22308632,22208077,0.00010973655,0.00041108188,0.0012033216,67240471,0,0.08726289,0.17892565,0.0026041653,0.0047726915,0.03361156,0.00087557995,0.0,0.0,0.0,0.004997,3932170,3932170,3997730,396809,0,0,895,2,1,2,0,3,0,0,0,0,0,0,0
22508499,22407940,0.00012608957,0.0018683997,0.0012876231,67240471,0,0.085974514,0.17800039,0.0036963574,0.029753778,0.028213246,0.002195184,0.0,0.0,0.0,0.004997,3932170,3932170,3997730,396809,0,0,895,2,1,2,0,3,0,0,0,0,0,0,0
22708497,22607803,0.00012558763,0.0014524772,0.0010692674,67240471,0,0.084742166,0.17708942,0.0015360054,0.048522104,0.027519673,0.00055557926,0.0,0.0,0.0,0.004997,3932170,3932170,3997730,396809,0,0,895,2,1,2,0,3,0,0,0,0,0,0,0
22908277,22807670,6.6954424e-05,0.0015651037,0.0012435558,67240471,0,0.084151566,0.17619237,0.0056943307,0.008571066,0.027076283,0.0016951702,0.0,0.0,0.0,0.004997,3932170,3932170,3997730,396809,0,0,895,2,1,2,0,3,0,0,0,0,0,0,0
23108185,23007529,0.0001293564,0.0018516297,0.001220428,67240471,0,0.08299602,0.17530888,0.0014418991,0.037426617,0.026306894,0.0065527167,0.0,0.0,0.0,0.004997,3932170,3932170,3997730,396809,0,0,895,2,1,2,0,3,0,0,0,0,0,0,0
23308000,23207393,0.00022808182,0.00075785693,0.0019192694,67240471,0,0.082469545,0.17444511,0.008560595,0.0040199854,0.025936741,0.0022560386,0.0,0.0,0.0,0.004997,3932170,3932170,3997730,396809,0,0,895,2,1,2,0,3,0,0,0,0,0,0,0
23507898,23407256,0.000111371795,0.0015191985,0.0020078458,67240471,0,0.08137746,0.1735864,0.0005709008,0.0142156435,0.028157081,0.0067379354,0.0,0.0,0.0,0.004997,3932170,3932170,3997730,396809,0,0,895,2,1,2,0,3,0,0,0,0,0,0,0
23707675,23607119,9.402533e-05,0.0014037277,0.0019576775,67240471,0,0.08032819,0.17274038,0.0036711006,0.010854399,0.027461922,0.005270277,0.0,0.0,0.0,0.004997,3932170,3932170,3997730,396809,0,0,895,2,1,2,0,3,0,0,0,0,0,0,0
23907598,23806982,0.00019037795,0.002168658,0.0020683655,67240471,0,0.079822995,0.17190677,0.016104689,0.029380703,0.026985573,0.0034662052,0.0,0.0,0.0,0.004997,3932170,3932170,3997730,396809,0,0,895,2,1,2,0,3,0,0,0,0,0,0,0
24107399,24006846,8.862752e-05,0.00083857425,0.0021596567,67240471,0,0.078833394,0.17108527,0.003383377,0.008655953,0.029689105,0.0025366805,0.0,0.0,0.0,0.004997,3932170,3932170,3997730,396809,0,0,895,2,1,2,0,3,0,0,0,0,0,0,0
24307265,24206709,0.00017645692,0.0025183088,0.0021731642,67240471,0,0.0783571,0.17027555,0.0002940306,0.00998436,0.02931952,0.0089181075,0.0,0.0,0.0,0.004997,3932170,3932170,3997730,396809,0,0,895,2,1,2,0,3,0,0,0,0,0,0,0
24507346,24406572,0.00024319247,0.0034221737,0.0023692637,67240471,0,0.07742185,0.16947736,0.002865293,0.014456201,0.028668856,0.003998665,0.0,0.0,0.0,0.004997,3932170,3932170,3997730,396809,0,0,895,2,1,2,0,3,0,0,0,0,0,0,0
24707025,24606435,0.000102242164,0.0007157783,0.0015330627,67240471,0,0.07651996,0.16869043,0.014535378,0.012696965,0.02801365,0.0014750076,0.0,0.0,0.0,0.004997,3932170,3932170,3997730,396809,0,0,895,2,1,2,0,3,0,0,0,0,0,0,0
24906886,24806299,0.000160335,0.0020034844,0.0007577064,67240471,0,0.07608629,0.16791448,0.0001004582,0.011942044,0.03111169,0.00021087314,0.0,0.0,0.0,0.004997,3932170,3932170,3997730,396809,0,0,895,2,1,2,0,3,0,0,0,0,0,0,0
25106937,25006162,0.0002784328,0.0033402,0.0010260828,67240471,0,0.0752312,0.16714928,0.006593433,0.01243607,0.030459262,0.002140325,0.0,0.0,0.0,0.004997,3932170,3932170,3997730,396809,0,0,895,2,1,2,0,3,0,0,0,0,0,0,0
25306607,25206025,0.00042556378,0.0050700954,0.0021124014,67240471,0,0.0748203,0.16639456,0.0038685934,0.013264404,0.030260054,0.008075401,0.0,0.0,0.0,0.004997,3932170,3932170,3997730,396809,0,0,895,2,1,2,0,3,0,0,0,0,0,0,0
25506533,25405889,0.0011297364,0.01709995,0.0046976246,67240471,0,0.07400809,0.16565008,0.0016869091,0.021498553,0.029318806,0.0005919219,0.0,0.0,0.0,0.004997,3932170,3932170,3997730,396809,0,0,895,2,1,2,0,3,0,0,0,0,0,0,0
25706472,25605751,6.4543055e-05,0.005121559,0.0038588382,67240471,0,0.07322243,0.16491564,0.0025467677,0.03093164,0.028247682,0.0024296583,0.0,0.0,0.0,0.004997,3932170,3932170,3997730,396809,0,0,895,2,1,2,0,3,0,0,0,0,0,0,0
25906293,25805614,0.0016931599,0.024852829,0.0027673359,67240471,0,0.07284541,0.16419096,0.0025751996,0.028639274,0.028518416,0.0017006794,0.0,0.0,0.0,0.004997,3932170,3932170,3997730,396809,0,0,895,2,1,2,0,3,0,0,0,0,0,0,0
26106322,26005477,0.0004646082,0.015443433,0.005216577,67240471,0,0.07209706,0.16347586,0.0064505893,0.018751998,0.02732425,0.0046419925,0.0,0.0,0.0,0.004997,3932170,3932170,3997730,396809,0,0,895,2,1,2,0,3,0,0,0,0,0,0,0
26305979,26205341,0.0007815707,0.020952461,0.0063479757,67240471,0,0.0717383,0.16294642,0.00024200794,0.033479426,0.027655888,0.014535219,0.0,0.0,0.0,0.004997,3932170,3932170,3997730,396809,0,0,895,2,1,2,0,3,0,0,0,0,0,0,0
26505788,26405204,0.00013319006,0.007867856,0.0049829516,67240471,0,0.071024396,0.16224757,0.0015328814,0.010135411,0.027091088,0.014516411,0.0,0.0,0.0,0.004997,3932170,3932170,3997730,396809,0,0,895,2,1,2,0,3,0,0,0,0,0,0,0
26705801,26605067,0.001135297,0.016770912,0.0005569743,67240471,0,0.07033197,0.1615577,0.0018980065,0.005757321,0.030086493,4.5509816e-05,0.0,0.0,0.0,0.004997,3932170,3932170,3997730,396809,0,0,895,2,1,2,0,3,0,0,0,0,0,0,0
26905661,26804930,0.0007575153,0.015755612,0.0038108118,67240471,0,0.07000042,0.16087665,0.0032067879,0.013727246,0.029878298,1.3065138e-06,0.0,0.0,0.0,0.004997,3932170,3932170,3997730,396809,0,0,895,2,1,2,0,3,0,0,0,0,0,0,0
27105401,27004793,0.00040231753,0.0029992016,0.003320716,67240471,0,0.06933822,0.16020417,0.00023750406,0.01076301,0.029156236,5.9773534e-05,0.0,0.0,0.0,0.004997,3932170,3932170,3997730,396809,0,0,895,2,1,2,0,3,0,0,0,0,0,0,0
27305381,27204656,0.0006982927,0.01059583,0.0013653578,67240471,0,0.069021374,0.15954012,0.0041183187,0.01426281,0.032449316,0.009524217,0.0,0.0,0.0,0.004997,3932170,3932170,3997730,396809,0,0,895,2,1,2,0,3,0,0,0,0,0,0,0
27505158,27404520,0.00020975659,0.005156746,0.000592679,67240471,0,0.06842004,0.15889147,0.0060051326,0.01002625,0.03533598,0.009530069,0.0,0.0,0.0,0.004997,3932170,3932170,3997730,396809,0,0,895,2,1,2,0,3,0,0,0,0,0,0,0
27705142,27604383,5.553324e-05,0.001921402,0.00029548208,67240471,0,0.067796424,0.15824227,0.0008824257,0.016147774,0.03477994,4.7907156e-06,0.0,0.0,0.0,0.004997,3932170,3932170,3997730,396809,0,0,895,2,1,2,0,3,0,0,0,0,0,0,0
27904814,27804246,0.00015320444,0.0012615488,0.00091521913,67240471,0,0.06749599,0.15760113,0.0013059452,0.012381194,0.03791229,0.009469036,0.0,0.0,0.0,0.004997,3932170,3932170,3997730,396809,0,0,895,2,1,2,0,3,0,0,0,0,0,0,0
28104675,28004109,0.00029491034,0.0054688766,0.0027047151,67240471,0,0.06689875,0.1569679,0.0007664794,0.015154762,0.03719561,0.009501343,0.0,0.0,0.0,0.004997,3932170,3932170,3997730,396809,0,0,895,2,1,2,0,3,0,0,0,0,0,0,0
28304539,28203972,6.311629e-05,0.0022899455,0.0024453253,67240471,0,0.06661145,0.15634236,0.0039400794,0.00530407,0.03682217,0.004520913,0.0,0.0,0.0,0.004997,3932170,3932170,3997730,396809,0,0,895,2,1,2,0,3,0,0,0,0,0,0,0
28504499,28403835,0.00024247779,0.0030374734,0.0010721779,67240471,0,0.06603877,0.15572439,0.0013629477,0.016308691,0.039548963,0.0050254054,0.0,0.0,0.0,0.004997,3932170,3932170,3997730,396809,0,0,895,2,1,2,0,3,0,0,0,0,0,0,0
28704280,28603698,4.990127e-05,0.0018228946,0.0010580765,67240471,0,0.06548131,0.15511385,0.0015474528,0.006887026,0.038920496,0.014535832,0.0,0.0,0.0,0.004997,3932170,3932170,3997730,396809,0,0,895,2,1,2,0,3,0,0,0,0,0,0,0
28904113,28803562,0.00015658345,0.002501184,0.0017394077,67240471,0,0.06521416,0.15451057,0.00035823847,0.02524122,0.042114552,0.00017704717,0.0,0.0,0.0,0.004997,3932170,3932170,3997730,396809,0,0,895,2,1,2,0,3,0,0,0,0,0,0,0
29103976,29003425,0.00022654867,0.003009083,0.0018089442,67240471,0,0.06467867,0.15391442,0.0026894966,0.012386905,0.04146598,0.0001545091,0.0,0.0,0.0,0.004997,3932170,3932170,3997730,396809,0,0,895,2,1,2,0,3,0,0,0,0,0,0,0
29304277,29203288,5.9120124e-05,0.0012141999,0.0014934653,67240471,0,0.064422585,0.15332524,0.0031825302,0.005622506,0.04108337,0.004554296,0.0,0.0,0.0,0.004997,3932170,3932170,3997730,396809,0,0,895,2,1,2,0,3,0,0,0,0,0,0,0
29503829,29403151,0.00026802608,0.0036469987,0.00082683173,67240471,0,0.063907646,0.1527429,0.0089656515,0.03259871,0.04042512,0.0002153795,0.0,0.0,0.0,0.004997,3932170,3932170,3997730,396809,0,0,895,2,1,2,0,3,0,0,0,0,0,0,0
29703694,29603014,0.00017675878,0.0019101136,0.0006890617,67240471,0,0.06340552,0.15216726,0.00030724588,0.0040886537,0.03971937,0.0097175175,0.0,0.0,0.0,0.004997,3932170,3932170,3997730,396809,0,0,895,2,1,2,0,3,0,0,0,0,0,0,0
29903643,29802877,0.00017997142,0.0022070294,0.0009316867,67240471,0,0.06316625,0.15159819,0.003207553,0.008058139,0.04284248,0.019210644,0.0,0.0,0.0,0.004997,3932170,3932170,3997730,396809,0,0,895,2,1,2,0,3,0,0,0,0,0,0,0
30103563,30002740,0.00023776338,0.0029869636,0.0011778773,67240471,0,0.06268258,0.15103556,0.011395162,0.0137283625,0.041992284,0.00014297233,0.0,0.0,0.0,0.004997,3932170,3932170,3997730,396809,0,0,895,2,1,2,0,3,0,0,0,0,0,0,0
30303374,30202603,0.0001472265,0.003050608,0.0016822716,67240471,0,0.062452592,0.15047924,0.000951638,0.0151139805,0.03833066,0.009618413,0.0,0.0,0.0,0.004997,3932170,3932170,3997730,396809,0,0,895,2,1,2,0,3,0,0,0,0,0,0,0
30503222,30402467,0.00024130399,0.0038125135,0.001214089,67240471,0,0.061986152,0.14992915,0.005839592,0.006059638,0.03770117,0.0046691503,0.0,0.0,0.0,0.004997,3932170,3932170,3997730,396809,0,0,895,2,1,2,0,3,0,0,0,0,0,0,0
30703078,30602330,5.7121364e-05,0.000995393,0.00066448346,67240471,0,0.061530553,0.14938512,0.0006681137,0.0054085166,0.037277136,0.009540249,0.0,0.0,0.0,0.004997,3932170,3932170,3997730,396809,0,0,895,2,1,2,0,3,0,0,0,0,0,0,0
30903082,30802193,0.00020344803,0.002835354,0.0008471185,67240471,0,0.06131458,0.14898182,0.003800013,0.0068580494,0.037007105,0.0026074322,0.0,0.0,0.0,0.004997,3932170,3932170,3997730,396809,0,0,895,2,1,2,0,3,0,0,0,0,0,0,0
31102824,31002056,0.00021207114,0.003639915,0.0011089074,67240471,0,0.060874492,0.14844814,0.0011879964,0.009729637,0.03605873,0.008257158,0.0,0.0,0.0,0.004997,3932170,3932170,3997730,396809,0,0,895,2,1,2,0,3,0,0,0,0,0,0,0
31302603,31201919,0.00014260311,0.0028649142,0.001083498,67240471,0,0.06066623,0.1479202,0.007751378,0.011369444,0.035934314,0.0046254885,0.0,0.0,0.0,0.004997,3932170,3932170,3997730,396809,0,0,895,2,1,2,0,3,0,0,0,0,0,0,0
31502615,31401782,0.00017743991,0.0042249616,0.000934534,67240471,0,0.060240675,0.14739792,0.0011856512,0.005299308,0.03527568,0.0035297114,0.0,0.0,0.0,0.004997,3932170,3932170,3997730,396809,0,0,895,2,1,2,0,3,0,0,0,0,0,0,0
31702365,31601645,0.00017062025,0.0022052191,0.00089164893,67240471,0,0.059861537,0.14688893,0.0045479084,0.008217095,0.034753643,0.00082608,0.0,0.0,0.0,0.004997,3932170,3932170,3997730,396809,0,0,895,2,1,2,0,3,0,0,0,0,0,0,0
31902274,31801508,0.00012150635,0.00057284103,0.0009889695,67240471,0,0.059657477,0.14637606,0.009556977,0.011008201,0.034547497,0.0045890952,0.0,0.0,0.0,0.004997,3932170,3932170,3997730,396809,0,0,895,2,1,2,0,3,0,0,0,0,0,0,0
32102062,32001372,0.00013403647,0.0007637303,0.0005018996,67240471,0,0.059247233,0.14586869,0.0003724566,0.02202923,0.034132775,0.004140142,0.0,0.0,0.0,0.004997,3932170,3932170,3997730,396809,0,0,895,2,1,2,0,3,0,0,0,0,0,0,0
32301915,32201235,9.4088864e-05,0.0012131311,0.00090332323,67240471,0,0.059051063,0.14536673,0.0020162042,0.019725103,0.033903178,0.007411442,0.0,0.0,0.0,0.004997,3932170,3932170,3997730,396809,0,0,895,2,1,2,0,3,0,0,0,0,0,0,0
32502035,32401098,7.911387e-05,0.0010522859,0.00065266906,67240471,0,0.058654863,0.14487007,0.0057355836,0.01897531,0.03344118,0.0049189203,0.0,0.0,0.0,0.004997,3932170,3932170,3997730,396809,0,0,895,2,1,2,0,3,0,0,0,0,0,0,0
32701639,32600961,0.00015216396,0.0022780108,0.0011361601,67240471,0,0.05826729,0.14437863,0.0035911596,0.017203089,0.032781523,0.006059335,0.0,0.0,0.0,0.004997,3932170,3932170,3997730,396809,0,0,895,2,1,2,0,3,0,0,0,0,0,0,0
32901507,32800824,0.0001819522,0.0022086005,0.00095587585,67240471,0,0.058083184,0.14389232,0.0007866775,0.011031606,0.032646235,0.006749246,0.0,0.0,0.0,0.004997,3932170,3932170,3997730,396809,0,0,895,2,1,2,0,3,0,0,0,0,0,0,0
33111433,33010680,0.00014547228,0.0023420062,0.00081520184,67240471,0,0.05771221,0.1434118,0.005628908,0.0104952315,0.03222802,0.003383953,0.0,0.0,0.0,0.004997,3932170,3932170,3997730,396809,0,0,895,2,1,2,0,3,0,0,0,0,0,0,0
33311285,33210544,0.00017217381,0.0013538965,0.00050106604,67240471,0,0.057534315,0.14293535,0.0005242829,0.020287493,0.03207303,0.00416163,0.0,0.0,0.0,0.004997,3932170,3932170,3997730,396809,0,0,895,2,1,2,0,3,0,0,0,0,0,0,0
33511145,33410409,0.00023131406,0.0022856921,0.0013380486,67240471,0,0.057171088,0.14246374,0.011091821,0.01210644,0.03147698,0.00010835652,0.0,0.0,0.0,0.004997,3932170,3932170,3997730,396809,0,0,895,2,1,2,0,3,0,0,0,0,0,0,0
33700960,33600277,0.00028339415,0.0036105951,0.0012143608,67240471,0,0.05681312,0.14199644,0.0065338477,0.013243158,0.03109128,0.0062874346,0.0,0.0,0.0,0.004997,3932170,3932170,3997730,396809,0,0,895,2,1,2,0,3,0,0,0,0,0,0,0
33900824,33800140,0.00015169462,0.0014828669,0.00067304156,67240471,0,0.056646038,0.14153439,0.00077616,0.015258642,0.030638667,0.0021521254,0.0,0.0,0.0,0.004997,3932170,3932170,3997730,396809,0,0,895,2,1,2,0,3,0,0,0,0,0,0,0
34100690,34000003,0.000111345966,0.0017876732,0.0003040225,67240471,0,0.05630176,0.14107694,0.0036875065,0.014589558,0.033772744,0.0061479975,0.0,0.0,0.0,0.004997,3932170,3932170,3997730,396809,0,0,895,2,1,2,0,3,0,0,0,0,0,0,0
34300551,34199866,0.00015324434,0.0028865812,0.0007166819,67240471,0,0.0561404,0.14062399,0.007394648,0.015342347,0.03365577,0.006714,0.0,0.0,0.0,0.004997,3932170,3932170,3997730,396809,0,0,895,2,1,2,0,3,0,0,0,0,0,0,0
34510455,34409722,0.00015665065,0.003048441,0.0010232708,67240471,0,0.055807244,0.14017567,0.0025035904,0.0070470977,0.033076517,0.0005805667,0.0,0.0,0.0,0.004997,3932170,3932170,3997730,396809,0,0,895,2,1,2,0,3,0,0,0,0,0,0,0
34710288,34609585,0.00022302874,0.003225439,0.0004240136,67240471,0,0.055479463,0.13973148,0.0071293027,0.011791912,0.03273782,0.002840555,0.0,0.0,0.0,0.004997,3932170,3932170,3997730,396809,0,0,895,2,1,2,0,3,0,0,0,0,0,0,0
34910357,34809448,0.0004105411,0.0066503477,0.0009824242,67240471,0,0.05532652,0.13929157,0.0046866033,0.0110646915,0.03257036,0.0020739867,0.0,0.0,0.0,0.004997,3932170,3932170,3997730,396809,0,0,895,2,1,2,0,3,0,0,0,0,0,0,0
35109997,35009312,0.000598111,0.011690487,0.002507249,67240471,0,0.05500816,0.13885586,0.00033887132,0.024204541,0.02867715,0.00285485,0.0,0.0,0.0,0.004997,3932170,3932170,3997730,396809,0,0,895,2,1,2,0,3,0,0,0,0,0,0,0
35310101,35209175,0.0012037796,0.024571612,0.004855994,67240471,0,0.054860067,0.13842429,0.009238378,0.020312939,0.028480055,0.002104283,0.0,0.0,0.0,0.004997,3932170,3932170,3997730,396809,0,0,895,2,1,2,0,3,0,0,0,0,0,0,0
35499724,35399045,0.003464203,0.07210521,0.011780963,67240471,0,0.054550543,0.13810417,0.00085574994,0.023051385,0.024703287,0.004653464,0.0,0.0,0.0,0.004997,3932170,3932170,3997730,396809,0,0,895,2,1,2,0,3,0,0,0,0,0,0,0
35699702,35598908,0.0029950985,0.066803195,0.01711954,67240471,0,0.054246582,0.13767968,0.00065989024,0.084931076,0.014292484,0.009248164,0.0,0.0,0.0,0.004997,3932170,3932170,3997730,396809,0,0,895,2,1,2,0,3,0,0,0,0,0,0,0
35899527,35798771,0.0006931825,0.026112452,0.014329372,67240471,0,0.054147545,0.13726747,0.009894215,0.10373608,0.007258888,0.00027259547,0.0,0.0,0.0,0.004997,3932170,3932170,3997730,396809,0,0,895,2,1,2,0,3,0,0,0,0,0,0,0
36109458,36008627,0.0011320115,0.028105017,0.015040777,131607,0,0.053853024,0.13674647,0.015845567,0.13735162,0.023660203,0.004554974,0.0,0.0,0.0,0.004997,3932170,3932170,3997730,396809,0,0,895,2,1,2,0,3,0,0,0,0,0,0,0
36309277,36208491,0.0003844233,0.0031602175,0.0065306514,131607,0,0.054181427,0.1364229,0.013808729,0.13861275,0.030671058,0.002526242,0.0,0.0,0.0,0.004997,3932170,3932170,3997730,396809,0,0,895,2,1,2,0,3,0,0,0,0,0,0,0
36509117,36408353,0.0006481794,0.011145905,0.002980975,131607,0,0.05528844,0.13638313,0.012492908,0.16814393,0.049595926,0.028489634,0.0,0.0,0.0,0.004997,3932170,3932170,3997730,396809,0,0,895,2,1,2,0,3,0,0,0,0,0,0,0
36708935,36608217,0.001196511,0.020938091,0.01134249,131607,0,0.05783398,0.13653213,0.01607238,0.1812433,0.07588671,0.009357859,0.0,0.0,0.0,0.004997,3932170,3932170,3997730,396809,0,0,895,2,1,2,0,3,0,0,0,0,0,0,0
36909016,36808080,0.0011160582,0.021926193,0.014587442,131607,0,0.06257745,0.13711016,0.014857278,0.17639598,0.08476527,0.028677542,0.0,0.0,0.0,0.004997,3932170,3932170,3997730,396809,0,0,895,2,1,2,0,3,0,0,0,0,0,0,0
37108850,37007943,0.058926735,1.1784259,0.6591295,67240471,0,0.055873103,0.13543475,0.010644833,0.1801527,0.107031085,0.028646836,0.0,0.0,0.0,0.004997,3932170,3932170,3997730,396809,0,0,895,2,1,2,0,3,0,0,0,0,0,0,0
37308633,37208056,0.029114738,0.54484135,0.420435,131607,0,0.05582948,0.13504456,0.037864767,0.9741461,0.410169,0.0071106376,0.0,0.0,0.0,0.004997,3932170,3932170,3997730,396809,0,0,895,2,1,2,0,3,0,1,0,0,0,0,0
37508501,37407919,0.0028045303,0.1912259,0.21264692,131607,0,0.056001745,0.1347365,0.04085187,1.0642517,0.55808693,0.0033193768,0.0,0.0,0.0,0.004997,3932170,3932170,3997730,396809,0,1,1919,2,1,2,0,3,0,1,0,0,0,0,0
37708361,37607783,0.0021059804,0.01630638,0.056527898,131607,0,0.057109408,0.13461767,0.057811126,1.0977656,0.7087181,0.023322478,0.0,0.0,0.0,0.004997,3932170,3932170,3997730,396809,0,1,1919,2,1,2,0,3,0,1,0,0,0,0,0
37908250,37807645,0.0006177985,0.059379354,0.030667754,131607,0,0.059961982,0.13481793,0.043311145,1.1670982,0.79455715,0.024321698,0.0,0.0,0.0,0.004997,3932170,3932170,3997730,396809,0,1,1919,2,1,2,0,3,0,1,0,0,0,0,0
38108148,38007508,0.00070664176,0.097324416,0.09354115,131607,0,0.06470304,0.13546921,0.046503257,1.2286325,0.96006685,0.015918927,0.0,0.0,0.0,0.004997,3932170,3932170,3997730,396809,0,1,1919,2,1,2,0,3,0,1,0,0,0,0,0
38307953,38207372,0.00064018345,0.1001356,0.09566751,131607,0,0.07249821,0.13673967,0.048177853,1.2532431,1.0453895,0.012422526,0.0,0.0,0.0,0.004997,3932170,3932170,3997730,396809,0,3,1919,2,1,2,0,3,0,1,0,0,0,0,0
38507786,38407235,0.0007367629,0.09688131,0.09316363,131607,0,0.083081536,0.13870656,0.046394963,1.3236251,1.2422525,0.032891814,0.0,0.0,0.0,0.004997,3932170,3932170,3997730,396809,0,3,1919,2,1,2,0,3,0,1,0,0,0,0,0
38707708,38607098,0.0007565172,0.09163818,0.08812608,131607,0,0.09646024,0.14146215,0.0457885,1.413953,1.4466206,0.029278293,0.0,0.0,0.0,0.004997,3932170,3932170,3997730,396809,0,3,1919,2,1,2,0,3,0,1,0,0,0,0,0
38907525,38806961,0.00079130166,0.08510145,0.08097968,131607,0,0.11248999,0.14525713,0.046244666,1.4102321,1.5548913,0.025794037,0.0,0.0,0.0,0.004997,3932170,3932170,3997730,396809,0,3,1919,2,1,2,0,3,0,1,0,0,0,0,0
39107383,39006824,0.0008599803,0.07904732,0.07413128,537002519,0,0.13107403,0.14973807,0.04296616,1.4753752,1.7697299,0.036787517,0.0,0.0,0.0,0.004997,3932170,3932170,3997730,396809,0,3,1919,2,1,2,0,3,0,1,0,0,0,0,0
39307326,39206687,0.00097065815,0.07363218,0.06853477,537002519,0,0.15208071,0.15494134,0.038949106,1.5773237,1.995436,0.047751103,0.0,0.0,0.0,0.004997,3932170,3932170,3997730,396809,0,3,1919,2,1,2,0,3,0,1,0,0,0,0,0
39507183,39406550,0.00094145327,0.06743846,0.062356062,537002519,0,0.17531757,0.1614408,0.036410704,1.6275237,2.1122522,0.08650771,0.0,0.0,0.0,0.004997,3932170,3932170,3997730,396809,0,3,1919,2,1,2,0,3,0,1,0,0,0,0,0
39707039,39606414,0.001080435,0.06314838,0.058096718,537002519,0,0.2007796,0.16792226,0.041418314,1.6778849,2.3348935,0.020497281,0.0,0.0,0.0,0.004997,3932170,3932170,3997730,396809,0,3,1919,2,1,2,0,3,0,1,0,0,0,0,0
39906896,39806277,0.0008791706,0.057318088,0.052276693,537002519,0,0.22851254,0.17587502,0.035310272,1.6945392,2.4544418,0.05935377,0.0,0.0,0.0,0.004997,3932170,3932170,3997730,396809,0,3,1919,2,1,2,0,3,0,1,0,0,0,0,0
40106768,40006141,0.0010664699,0.05441741,0.05238758,537002519,0,0.2583417,0.18309969,0.04139385,1.749094,2.6827118,0.08786497,0.0,0.0,0.0,0.004997,3932170,3932170,3997730,396809,0,3,1919,2,1,2,0,3,0,1,0,0,0,0,0
40306761,40206003,0.0013121681,0.05251642,0.05506374,537002519,0,0.29030472,0.19035932,0.034702003,1.8193902,2.9113746,0.058890212,0.0,0.0,0.0,0.004997,3932170,3932170,3997730,396809,0,3,1919,2,1,2,0,3,0,1,0,0,0,0,0
40506483,40405866,0.000850346,0.045570247,0.044604566,537002519,0,0.32453126,0.19943437,0.033139866,1.8816124,3.0142767,0.05939289,0.0,0.0,0.0,0.004997,3932170,3932170,3997730,396809,0,3,1919,2,1,2,0,3,0,1,0,0,0,0,0
40706355,40605729,0.0011597361,0.04480827,0.051213603,537002519,0,0.3607684,0.20666239,0.024812631,1.9298108,3.2274306,0.07739997,0.0,0.0,0.0,0.004997,3932170,3932170,3997730,396809,0,3,1919,2,1,2,0,3,0,1,0,0,0,0,0
40906160,40805592,0.00079606305,0.0377615,0.03608826,537002519,0,0.39924327,0.21645357,0.033822604,1.9148897,3.3338704,0.07108404,0.0,0.0,0.0,0.004997,3932170,3932170,3997730,396809,0,3,1919,2,1,2,0,3,0,1,0,0,0,0,0
41106041,41005456,0.0008256638,0.035434414,0.036634248,537002519,0,0.44006035,0.22333698,0.034041665,2.0255897,3.5246966,0.05055095,0.0,0.0,0.0,0.004997,3932170,3932170,3997730,396809,0,3,1919,2,1,2,0,3,0,1,0,0,0,0,0
41305975,41205319,0.00064240646,0.030683104,0.027843224,537002519,0,0.48289824,0.23269475,0.02523915,2.0410643,3.6098096,0.054227076,0.0,0.0,0.0,0.004997,3932170,3932170,3997730,396809,0,3,1919,2,1,2,0,3,0,1,0,0,0,0,0
41505739,41405182,0.0007560668,0.02835281,0.028187681,537002519,0,0.5279498,0.23895618,0.032778706,2.1032877,3.7766113,0.067019224,0.0,0.0,0.0,0.004997,3932170,3932170,3997730,396809,0,3,1919,2,1,2,0,3,0,1,0,0,0,0,0
41705618,41605045,0.00073829736,0.026852675,0.030296734,537002519,0,0.5754708,0.24481867,0.033953853,2.1238487,3.923373,0.0561503,0.0,0.0,0.0,0.004997,3932170,3932170,3997730,396809,0,3,1919,2,1,2,0,3,0,1,0,0,0,0,0
41905494,41804910,0.00063574,0.02318801,0.022061717,537002519,0,0.6251287,0.25354886,0.031350743,2.1190107,3.9972105,0.058430597,0.0,0.0,0.0,0.004997,3932170,3932170,3997730,396809,0,3,1919,2,1,2,0,3,0,1,0,0,0,0,0
42105378,42004772,0.0005670184,0.020403393,0.013399673,537002519,0,0.6770493,0.2586583,0.037931975,2.1808445,4.0889325,0.048277684,0.0,0.0,0.0,0.004997,3932170,3932170,3997730,396809,0,3,1919,2,1,2,0,3,0,1,0,0,0,0,0
42305198,42204635,0.00054868654,0.018572483,0.010654412,537002519,0,0.73153436,0.2668356,0.042372175,2.1593862,4.1423163,0.052161414,0.0,0.0,0.0,0.004997,3932170,3932170,3997730,396809,0,3,1919,2,1,2,0,3,0,1,0,0,0,0,0
42505055,42404498,0.00072957575,0.017448386,0.010036025,537002519,0,0.7881938,0.27120587,0.05440571,2.1432607,4.217427,0.049983647,0.0,0.0,0.0,0.004997,3932170,3932170,3997730,396809,0,3,1919,2,1,2,0,3,0,1,0,0,0,0,0
42704927,42604362,0.00077189656,0.019288374,0.023482475,537002519,0,0.8471821,0.2752546,0.053364333,2.2593744,4.2802634,0.04058923,0.0,0.0,0.0,0.004997,3932170,3932170,3997730,396809,0,3,1919,2,1,2,0,3,0,1,0,0,0,0,0
42904847,42804224,0.00059773796,0.014113205,0.008038066,537002519,0,0.9087092,0.28240126,0.05329645,2.24815,4.314943,0.04596246,0.0,0.0,0.0,0.004997,3932170,3932170,3997730,396809,0,3,1919,2,1,2,0,3,0,1,0,0,0,0,0
43104690,43004087,0.0006862939,0.0148681495,0.015579947,537002519,0,20.096434,0.28577027,0.050597914,2.3306432,4.3540893,0.042048115,0.0,0.0,0.0,0.004997,3932170,3932170,3997730,396809,0,3,1919,2,1,2,0,3,0,1,0,0,0,0,0
43304539,43203951,0.0009142669,0.012741449,0.012108317,537002519,0,20.71499,0.29229698,0.061383877,2.3286693,4.361248,0.04501854,0.0,0.0,0.0,0.004997,3932170,3932170,3997730,396809,0,3,1919,2,1,2,0,3,0,1,0,0,0,0,0
43504373,43403814,0.068459064,2.4452434,6.812698,67240471,0,0.3548904,0.19593368,0.003132187,4.8938026,9.68512,0.012364503,0.0,0.0,0.0,0.004997,3932170,3932170,3997730,396809,0,3,1919,2,1,2,0,3,0,1,0,0,0,0,0
43704237,43603677,0.037188902,0.7658206,3.3871937,67240471,0,0.331211,0.19424577,0.052488677,4.7913566,10.673419,0.020300563,0.0,0.0,0.0,0.004997,3932170,3932170,3997730,396809,0,3,1919,2,1,2,0,3,0,1,0,0,0,0,0
43904168,43803540,0.023710653,0.15936309,1.5506048,67240471,0,0.31880772,0.19251849,0.052307,4.9394035,11.013195,0.032137506,0.0,0.0,0.0,0.004997,3932170,3932170,3997730,396809,0,3,1919,2,1,2,0,3,0,1,0,0,0,0,0
44103956,44003403,0.016958173,0.43501726,0.45232555,67240471,0,0.3117579,0.19100513,0.05370283,4.6576257,11.997827,0.02872757,0.0,0.0,0.0,0.004997,3932170,3932170,3997730,396809,0,3,1919,2,1,2,0,3,0,1,0,0,0,0,0
44303824,44203267,0.016174542,0.543111,0.16031194,67240471,0,0.30609003,0.18954809,0.06298665,4.7782793,12.331242,0.04096936,0.0,0.0,0.0,0.004997,3932170,3932170,3997730,396809,0,3,1919,2,1,2,0,3,0,1,0,0,0,0,0
44503728,44403130,0.016537085,0.561053,0.43667123,67240471,0,0.30175948,0.18815556,0.080726966,4.7085667,13.114308,0.044101827,0.0,0.0,0.0,0.004997,3932170,3932170,3997730,396809,0,3,1919,2,1,2,0,3,0,1,0,0,0,0,0
44703611,44602993,0.011400871,0.49190444,0.62923276,67240471,0,0.2993461,0.18690428,0.078204535,4.592946,13.935364,0.052627567,0.0,0.0,0.0,0.004997,3932170,3932170,3997730,396809,0,3,1919,2,1,2,0,3,0,1,0,0,0,0,0
44903472,44802856,0.008900418,0.4204305,0.70450395,67240471,0,0.2974867,0.18571955,0.082957216,4.6025925,14.255369,0.052979846,0.0,0.0,0.0,0.004997,3932170,3932170,3997730,396809,0,3,1919,2,1,2,0,3,0,1,0,0,0,0,0
45103342,45002719,0.010593695,0.38501874,0.6847081,67240471,0,0.29562327,0.1845331,0.092366196,4.6233873,14.947957,0.049905863,0.0,0.0,0.0,0.004997,3932170,3932170,3997730,396809,0,3,1919,2,1,2,0,3,0,1,0,0,0,0,0
45303420,45202583,0.010627501,0.35361668,0.65422755,67240471,0,0.29415947,0.1833875,0.10445199,4.5382137,15.316393,0.056477755,0.0,0.0,0.0,0.004997,3932170,3932170,3997730,396809,0,3,1919,2,1,2,0,3,0,1,0,0,0,0,0
45503012,45402446,0.0031364255,0.18806514,0.71257144,67240471,0,0.29389888,0.18259771,0.09945893,4.5146527,15.996889,0.037436515,0.0,0.0,0.0,0.004997,3932170,3932170,3997730,396809,0,3,1919,2,1,2,0,3,0,1,0,0,0,0,0
45702889,45602309,0.002707366,0.14191423,0.6695474,67240471,0,0.29300684,0.18154864,0.0976376,4.4657545,16.65604,0.06132806,0.0,0.0,0.0,0.004997,3932170,3932170,3997730,396809,0,3,1919,2,1,2,0,3,0,1,0,0,0,0,0
45902803,45802172,0.001800069,0.10313259,0.621663,67240471,0,0.29232758,0.18053336,0.10408758,4.4930654,16.984236,0.0658436,0.0,0.0,0.0,0.004997,3932170,3932170,3997730,396809,0,3,1919,2,1,2,0,3,0,1,0,0,0,0,0
46102652,46002035,0.0041636946,0.10769929,0.56770164,67240471,0,0.29167536,0.17953746,0.122763366,4.4538445,17.625975,0.060644686,0.0,0.0,0.0,0.004997,3932170,3932170,3997730,396809,0,3,1919,2,1,2,0,3,0,1,0,0,0,0,0
46302459,46201899,0.005497501,0.122123025,0.52006316,67240471,0,0.29102007,0.1785683,0.13286142,4.4928217,17.952076,0.0412549,0.0,0.0,0.0,0.004997,3932170,3932170,3997730,396809,0,3,1919,2,1,2,0,3,0,1,0,0,0,0,0
46502422,46401762,0.00394475,0.11126464,0.4777311,67240471,0,0.29052192,0.17761958,0.14446887,4.4637475,18.586319,0.06954822,0.0,0.0,0.0,0.004997,3932170,3932170,3997730,396809,0,3,1919,2,1,2,0,3,0,1,0,0,0,0,0
46702191,46601625,0.004124941,0.1048848,0.43727484,67240471,0,0.29011816,0.1766892,0.16005398,4.522817,19.224548,0.07370089,0.0,0.0,0.0,0.004997,3932170,3932170,3997730,396809,0,3,1919,2,1,2,0,3,0,1,0,0,0,0,0
46902066,46801488,0.0039054588,0.09181759,0.39960217,67240471,0,0.28973898,0.1757783,0.16777311,4.513042,19.545792,0.054037966,0.0,0.0,0.0,0.004997,3932170,3932170,3997730,396809,0,3,1919,2,1,2,0,3,0,1,0,0,0,0,0
47111903,47011345,0.0024758151,0.0579586,0.36312866,67240471,0,0.28943053,0.17488307,0.17280258,4.4822636,20.181437,0.06781015,0.0,0.0,0.0,0.004997,3932170,3932170,3997730,396809,0,3,1919,2,1,2,0,3,0,1,0,0,0,0,0
47301845,47201215,0.0028290104,0.04079926,0.3305868,67240471,0,0.2891963,0.17400314,0.16921146,4.5242887,20.497528,0.057496734,0.0,0.0,0.0,0.004997,3932170,3932170,3997730,396809,0,3,1919,2,1,2,0,3,0,1,0,0,0,0,0
47501635,47401078,0.0024024232,0.024795868,0.30176622,67240471,0,0.2889588,0.1731416,0.17686418,4.466813,21.131441,0.07601907,0.0,0.0,0.0,0.004997,3932170,3932170,3997730,396809,0,3,1919,2,1,2,0,3,0,1,0,0,0,0,0
47701680,47600941,0.0019210031,0.030812506,0.277633,67240471,0,0.2887643,0.1722979,0.17629169,4.5256104,21.765072,0.07040883,0.0,0.0,0.0,0.004997,3932170,3932170,3997730,396809,0,3,1919,2,1,2,0,3,0,1,0,0,0,0,0
47901464,47800805,0.001883943,0.045550704,0.25246063,67240471,0,0.28862712,0.1714668,0.17354465,4.538768,22.083542,0.0600506,0.0,0.0,0.0,0.004997,3932170,3932170,3997730,396809,0,3,1919,2,1,2,0,3,0,1,0,0,0,0,0
48101229,48000670,0.0018398685,0.039806772,0.22305803,67240471,0,0.28842992,0.1706456,0.17322634,4.5528355,22.721483,0.073730305,0.0,0.0,0.0,0.004997,3932170,3932170,3997730,396809,0,3,1919,2,1,2,0,3,0,1,0,0,0,0,0
48301171,48200531,0.0015868959,0.031076,0.20105495,67240471,0,0.28825873,0.16983563,0.18376008,4.585036,23.040525,0.08250027,0.0,0.0,0.0,0.004997,3932170,3932170,3997730,396809,0,3,1919,2,1,2,0,3,0,1,0,0,0,0,0
48510973,48410388,0.001259247,0.039929237,0.18332107,67240471,0,0.28812543,0.16903535,0.18439353,4.575454,23.679193,0.07222593,0.0,0.0,0.0,0.004997,3932170,3932170,3997730,396809,0,3,1919,2,1,2,0,3,0,1,0,0,0,0,0
48710835,48610251,0.004081937,0.08580247,0.16725622,67240471,0,0.28789246,0.16824642,0.15512225,4.6183047,24.319647,0.05745249,0.0,0.0,0.0,0.004997,3932170,3932170,3997730,396809,0,3,1919,2,1,2,0,3,0,1,0,0,0,0,0
48910710,48810114,0.0074209664,0.14059594,0.14805803,67240471,0,0.2875795,0.16746855,0.13841954,4.616695,24.64642,0.08583482,0.0,0.0,0.0,0.004997,3932170,3932170,3997730,396809,0,3,1919,2,1,2,0,3,0,1,0,0,0,0,0
49100580,48999984,0.006348785,0.14049771,0.12867637,67240471,0,0.2874059,0.16670275,0.14320111,4.6469502,25.294641,0.06150609,0.0,0.0,0.0,0.004997,3932170,3932170,3997730,396809,0,3,1919,2,1,2,0,3,0,1,0,0,0,0,0
49300611,49199847,0.005542111,0.13227853,0.112482175,67240471,0,0.28719068,0.1659478,0.13171495,4.6756897,25.621637,0.084876165,0.0,0.0,0.0,0.004997,3932170,3932170,3997730,396809,0,3,1919,2,1,2,0,3,0,1,0,0,0,0,0
49500670,49399711,0.0074366173,0.15684114,0.09990842,67240471,0,0.28687945,0.16520052,0.11663146,4.663102,26.277124,0.07925465,0.0,0.0,0.0,0.004997,3932170,3932170,3997730,396809,0,3,1919,2,1,2,0,3,0,1,0,0,0,0,0
49700320,49599574,0.0028983704,0.071265444,0.100083195,67240471,0,0.2867771,0.16446118,0.1041539,4.653293,26.931324,0.09323045,0.0,0.0,0.0,0.004997,3932170,3932170,3997730,396809,0,3,1919,2,1,2,0,3,0,1,0,0,0,0,0
49910074,49809430,0.0016745944,0.051608536,0.10060361,67240471,0,0.2865831,0.16373295,0.111024246,4.6215596,27.255865,0.06876085,0.0,0.0,0.0,0.004997,3932170,3932170,3997730,396809,0,3,1919,2,1,2,0,3,0,1,0,0,0,0,0
50109950,50009294,0.0011961743,0.0293256,0.09798654,67240471,0,0.2864496,0.16301835,0.11277222,4.6118436,27.899832,0.08246906,0.0,0.0,0.0,0.004997,3932170,3932170,3997730,396809,0,3,1919,2,1,2,0,3,0,1,0,0,0,0,0
50309806,50209157,0.0018775134,0.030117372,0.09192226,67240471,0,0.28633028,0.16231404,0.096564874,4.594241,28.223766,0.07700871,0.0,0.0,0.0,0.004997,3932170,3932170,3997730,396809,0,3,1919,2,1,2,0,3,0,1,0,0,0,0,0
50509699,50409020,0.0013378394,0.018473117,0.0855001,67240471,0,0.2862096,0.16162115,0.10190504,4.608434,28.867205,0.10488579,0.0,0.0,0.0,0.004997,3932170,3932170,3997730,396809,0,3,1919,2,1,2,0,3,0,1,0,0,0,0,0
50709593,50608884,0.00092650997,0.017093912,0.080553345,67240471,0,0.28608668,0.16093048,0.10811687,4.5884547,29.510866,0.08488981,0.0,0.0,0.0,0.004997,3932170,3932170,3997730,396809,0,3,1919,2,1,2,0,3,0,1,0,0,0,0,0
50909417,50808747,0.001864013,0.045995895,0.0835201,67240471,0,0.28597614,0.16024962,0.103684835,4.579094,29.835524,0.09369371,0.0,0.0,0.0,0.004997,3932170,3932170,3997730,396809,0,3,1919,2,1,2,0,3,0,1,0,0,0,0,0
51099230,50998617,0.0016942868,0.056689966,0.08364822,67240471,0,0.28586018,0.15974613,0.10578363,4.5463705,30.474838,0.094662905,0.0,0.0,0.0,0.004997,3932170,3932170,3997730,396809,0,3,1919,2,1,2,0,3,0,1,0,0,0,0,0
51309060,51208473,0.0026337039,0.07569923,0.0808377,67240471,0,0.28571698,0.15908623,0.10846632,4.5754385,30.790268,0.08103821,0.0,0.0,0.0,0.004997,3932170,3932170,3997730,396809,0,3,1919,2,1,2,0,3,0,1,0,0,0,0,0
51508939,51408337,0.002017921,0.06848842,0.074347205,67240471,0,0.28563693,0.1584353,0.11586639,4.5751333,31.428516,0.08234795,0.0,0.0,0.0,0.004997,3932170,3932170,3997730,396809,0,3,1919,2,1,2,0,3,0,1,0,0,0,0,0
51708757,51608200,0.0022276915,0.0668081,0.06658084,67240471,0,0.28552452,0.15779206,0.1126862,4.5827127,32.07109,0.090625085,0.0,0.0,0.0,0.004997,3932170,3932170,3997730,396809,0,3,1919,2,1,2,0,3,0,1,0,0,0,0,0
51908622,51808064,0.0009826566,0.03298457,0.054197952,131607,0,0.28547016,0.15718666,0.10752256,4.555181,32.393745,0.09466704,0.0,0.0,0.0,0.004997,3932170,3932170,3997730,396809,0,3,1919,2,1,2,0,3,0,1,0,0,0,0,0
52108672,52007927,0.00075736915,0.017368287,0.38481182,131607,0,0.30902666,0.1573587,0.09295549,4.541622,33.032227,0.09278334,0.0,0.0,0.0,0.004997,3932170,3932170,3997730,396809,0,3,1919,3,2,3,0,3,0,1,0,0,0,0,0
52308576,52207790,0.0007454474,0.014103436,0.3456271,131607,0,0.29094276,0.1679133,0.09877657,0.011787292,0.012910086,0.09479963,0.0,0.0,0.0,0.004997,3932170,3932170,3997730,396809,0,0,895,3,2,3,0,3,0,1,0,0,0,0,0
52508439,52407654,0.0008510108,0.019306762,0.12978926,131607,0,0.2573162,0.17834212,0.09154542,0.04456651,0.0102168275,0.09220049,0.0,0.0,0.0,0.004997,3932170,3932170,3997730,396809,0,0,895,3,2,3,0,3,0,1,0,0,0,0,0
52708289,52607517,0.0005869041,0.04206813,0.022275884,131607,0,0.23453479,0.18818282,0.08679377,0.08937118,0.035687305,0.08610085,0.0,0.0,0.0,0.004997,3932170,3932170,3997730,396809,0,0,895,3,2,3,0,3,0,1,0,0,0,0,0
52908276,52807380,0.0006454381,0.032037143,0.022087129,131607,0,0.23179902,0.20196345,0.085406825,0.063179106,0.0074154707,0.087911375,0.0,0.0,0.0,0.004997,3932170,3932170,3997730,396809,0,0,895,3,2,3,0,3,0,1,0,0,0,0,0
53108031,53007243,0.00069126586,0.04144777,0.045892153,131607,0,0.2170819,0.21033388,0.082161576,0.11339344,0.011084385,0.083676144,0.0,0.0,0.0,0.004997,3932170,3932170,3997730,396809,0,0,895,3,2,3,0,3,0,1,0,0,0,0,0
53307917,53207107,0.0008069489,0.02615371,0.04209605,131607,0,0.21742202,0.22298068,0.08992746,0.09362701,0.02102324,0.081734024,0.0,0.0,0.0,0.004997,3932170,3932170,3997730,396809,0,0,895,3,2,3,0,3,0,1,0,0,0,0,0
53507710,53406970,0.00057220744,0.031863708,0.05140556,131607,0,0.20682172,0.22997534,0.091175705,0.14318725,0.025608297,0.07702917,0.0,0.0,0.0,0.004997,3932170,3932170,3997730,396809,0,0,895,3,2,3,0,3,0,1,0,0,0,0,0
53707627,53606834,0.0007156779,0.03579181,0.056080468,131607,0,0.19820368,0.23654813,0.08793517,0.13259313,0.02120172,0.082288966,0.0,0.0,0.0,0.004997,3932170,3932170,3997730,396809,0,0,895,3,2,3,0,3,0,1,0,0,0,0,0
53907527,53806697,0.000862368,0.024119755,0.046710245,131607,0,0.2006056,0.24712168,0.09705313,0.16406064,0.031607974,0.07371301,0.0,0.0,0.0,0.004997,3932170,3932170,3997730,396809,0,0,895,3,2,3,0,3,0,1,0,0,0,0,0
54107397,54006560,0.0008058378,0.029697793,0.055007398,131607,0,0.19365194,0.2526177,0.098691575,0.15418631,0.0389036,0.07191478,0.0,0.0,0.0,0.004997,3932170,3932170,3997730,396809,0,0,895,3,2,3,0,3,0,1,0,0,0,0,0
54307205,54206424,0.00089241547,0.016406067,0.041847732,131607,0,0.19682525,0.26202792,0.09671421,0.13891457,0.05012252,0.06801463,0.0,0.0,0.0,0.004997,3932170,3932170,3997730,396809,0,0,895,3,2,3,0,3,0,1,0,0,0,0,0
54507102,54406287,0.0010843687,0.022450432,0.048297513,131607,0,0.19096024,0.26661158,0.10463751,0.1562178,0.05521321,0.06519115,0.0,0.0,0.0,0.004997,3932170,3932170,3997730,396809,0,0,895,3,2,3,0,3,0,1,0,0,0,0,0
54706970,54606150,0.001099002,0.028581778,0.055416077,131607,0,0.18578841,0.2709136,0.10342264,0.15434626,0.057258073,0.0639393,0.0,0.0,0.0,0.004997,3932170,3932170,3997730,396809,0,0,895,3,2,3,0,3,0,1,0,0,0,0,0
54906851,54806014,0.0011848584,0.015154001,0.035278972,131607,0,0.18971723,0.27872473,0.1023264,0.16109169,0.05270348,0.07044696,0.0,0.0,0.0,0.004997,3932170,3932170,3997730,396809,0,0,895,3,2,3,0,3,0,1,0,0,0,0,0
55106880,55005877,0.22281949,7.4328055,7.2666874,67240471,0,0.15099823,0.18678397,0.09329862,0.15443555,0.056980908,0.0652324,0.0,0.0,0.0,0.004997,3932170,3932170,3997730,396809,0,0,895,3,2,3,0,3,0,1,0,0,0,0,0
55306548,55205740,0.11254175,3.3766167,3.989621,67240471,0,0.15076743,0.18560535,0.08895588,4.41444,2.6806452,0.059407473,0.0,0.0,0.0,0.004997,3932170,3932170,3997730,396809,0,3,1919,3,2,3,0,3,0,1,0,0,0,0,0
55506346,55405604,0.037229586,0.9990145,1.9393907,67240471,0,0.14985402,0.18411337,0.10619749,4.4393125,3.418476,0.07297333,0.0,0.0,0.0,0.004997,3932170,3932170,3997730,396809,0,3,1919,3,2,3,0,3,0,1,0,0,0,0,0
55706331,55605467,0.021200066,0.11070915,0.59800154,131607,0,0.14919887,0.18247996,0.12843946,4.5215244,4.139878,0.05175629,0.0,0.0,0.0,0.004997,3932170,3932170,3997730,396809,0,3,1919,3,2,3,0,3,0,1,0,0,0,0,0
55906150,55805330,0.0033673611,0.38775012,0.21068148,131607,0,0.14882344,0.18120591,0.124142826,4.6345396,4.4781475,0.06548021,0.0,0.0,0.0,0.004997,3932170,3932170,3997730,396809,0,3,1919,3,2,3,0,3,0,1,0,0,0,0,0
56105931,56005194,0.0017757673,0.48560953,0.5908836,131607,0,0.14842118,0.17981867,0.12050579,4.834143,5.1760535,0.06508925,0.0,0.0,0.0,0.004997,3932170,3932170,3997730,396809,0,3,1919,3,2,3,0,3,0,1,0,0,0,0,0
56305812,56205061,0.0010326912,0.5100201,0.74640685,131607,0,0.14827996,0.17841007,0.113961615,5.0207367,5.5407705,0.046124656,0.0,0.0,0.0,0.004997,3932170,3932170,3997730,396809,0,3,1919,3,2,3,0,3,0,1,0,0,0,0,0
56505605,56404921,0.00081662135,0.49863276,0.7851148,131607,0,0.14875475,0.17708294,0.10646532,5.23883,6.3004007,0.0419928,0.0,0.0,0.0,0.004997,3932170,3932170,3997730,396809,0,3,1919,3,2,3,0,3,0,1,0,0,0,0,0
56705477,56604784,0.00097565196,0.47159114,0.7657135,537002519,0,0.1502767,0.17593984,0.10924158,5.456226,7.091189,0.057356443,0.0,0.0,0.0,0.004997,3932170,3932170,3997730,396809,0,3,1919,3,2,3,0,3,0,1,0,0,0,0,0
56905394,56804647,0.08961647,1.6152472,1.2521596,67240471,0,0.14872971,0.17491342,0.051261995,4.270055,7.2349563,0.07594442,0.0,0.0,0.0,0.004997,3932170,3932170,3997730,396809,0,3,1919,3,2,3,0,3,0,1,0,0,0,0,0
57105204,57004511,0.014015179,0.9706052,1.0253085,67240471,0,0.14857288,0.17378607,0.016785985,4.2815585,7.8853707,0.03884504,0.0,0.0,0.0,0.004997,3932170,3932170,3997730,396809,0,3,1919,3,2,3,0,3,0,1,0,0,0,0,0
57305088,57204374,0.0043367217,0.59692574,0.78642505,67240471,0,0.14843398,0.17271227,0.009567392,4.2363887,8.209923,0.034101248,0.0,0.0,0.0,0.004997,3932170,3932170,3997730,396809,0,3,1919,3,2,3,0,3,0,1,0,0,0,0,0
57505032,57404238,0.0062543275,0.40439403,0.6005344,67240471,0,0.1483185,0.17168872,0.0013546009,4.2232695,8.846955,0.043536212,0.0,0.0,0.0,0.004997,3932170,3932170,3997730,396809,0,3,1919,3,2,3,0,3,0,1,0,0,0,0,0
57704792,57604101,0.0064900466,0.29931778,0.4683705,67240471,0,0.14821991,0.17071082,0.0006934687,4.2179694,9.477271,0.047905426,0.0,0.0,0.0,0.004997,3932170,3932170,3997730,396809,0,3,1919,3,2,3,0,3,0,1,0,0,0,0,0
57904739,57803965,0.007055734,0.2241968,0.37671632,67240471,0,0.14813319,0.16978106,0.014478939,4.2566333,9.78559,0.033196803,0.0,0.0,0.0,0.004997,3932170,3932170,3997730,396809,0,3,1919,3,2,3,0,3,0,1,0,0,0,0,0
58104566,58003828,0.0031682649,0.1647218,0.30998746,67240471,0,0.14805506,0.16889796,0.006594263,4.2155423,10.412621,0.009199475,0.0,0.0,0.0,0.004997,3932170,3932170,3997730,396809,0,3,1919,3,2,3,0,3,0,1,0,0,0,0,0
58304433,58203691,0.010622377,0.17776026,0.2593286,67240471,0,0.14799353,0.16802554,0.007873891,4.217555,10.723421,0.032502502,0.0,0.0,0.0,0.004997,3932170,3932170,3997730,396809,0,3,1919,3,2,3,0,3,0,1,0,0,0,0,0
58504251,58403555,0.010388105,0.18039386,0.22725119,67240471,0,0.14794484,0.16717665,0.0157939,4.2283483,11.347011,0.04637721,0.0,0.0,0.0,0.004997,3932170,3932170,3997730,396809,0,3,1919,3,2,3,0,3,0,1,0,0,0,0,0
58703980,58603418,0.008660001,0.17267479,0.20294492,67240471,0,0.14790536,0.16635314,0.03427393,4.1993937,11.964855,0.04133017,0.0,0.0,0.0,0.004997,3932170,3932170,3997730,396809,0,3,1919,3,2,3,0,3,0,1,0,0,0,0,0
58903890,58803282,0.009164304,0.17062804,0.18169446,67240471,0,0.14787446,0.16555075,0.03837205,4.2134414,12.275336,0.012242251,0.0,0.0,0.0,0.004997,3932170,3932170,3997730,396809,0,3,1919,3,2,3,0,3,0,1,0,0,0,0,0
59103800,59003145,0.00963035,0.1757698,0.16359322,67240471,0,0.14785077,0.16476184,0.056606036,4.245244,12.896307,0.01685272,0.0,0.0,0.0,0.004997,3932170,3932170,3997730,396809,0,3,1919,3,2,3,0,3,0,1,0,0,0,0,0
59303627,59203008,0.010058417,0.18548606,0.14898656,67240471,0,0.14783314,0.16398633,0.07515059,4.196649,13.206376,0.026182218,0.0,0.0,0.0,0.004997,3932170,3932170,3997730,396809,0,3,1919,3,2,3,0,3,0,1,0,0,0,0,0
59503496,59402872,0.014166289,0.21120253,0.1359945,67240471,0,0.1478171,0.16323687,0.07478066,4.1899996,13.82636,0.031053988,0.0,0.0,0.0,0.004997,3932170,3932170,3997730,396809,0,3,1919,3,2,3,0,3,0,1,0,0,0,0,0
59703372,59602735,0.011998245,0.2030063,0.12375884,67240471,0,0.14780684,0.16249688,0.095437385,4.1945434,14.445437,0.026063194,0.0,0.0,0.0,0.004997,3932170,3932170,3997730,396809,0,3,1919,3,2,3,0,3,0,1,0,0,0,0,0
59903504,59802599,0.0063995025,0.15434754,0.111823775,67240471,0,0.14779966,0.16177258,0.10424079,4.2243943,14.754634,0.044932324,0.0,0.0,0.0,0.004997,3932170,3932170,3997730,396809,0,3,1919,3,2,3,0,3,0,1,0,0,0,0,0
60103073,60002462,0.0011787068,0.0659495,0.09538333,67240471,0,0.14779547,0.1612414,0.10804258,4.2152805,15.373723,0.036892287,0.0,0.0,0.0,0.004997,3932170,3932170,3997730,396809,0,3,1919,3,2,3,0,3,0,1,0,0,0,0,0
60302894,60202326,0.0024769986,0.061750464,0.080965504,67240471,0,0.14779098,0.16054484,0.1122314,4.193532,15.682701,0.03174483,0.0,0.0,0.0,0.004997,3932170,3932170,3997730,396809,0,3,1919,3,2,3,0,3,0,1,0,0,0,0,0
60502750,60402190,0.0011904009,0.046275757,0.06522417,67240471,0,0.14778852,0.15986006,0.11344417,4.2422504,16.305494,0.040788054,0.0,0.0,0.0,0.004997,3932170,3932170,3997730,396809,0,3,1919,3,2,3,0,3,0,1,0,0,0,0,0
60702707,60602053,0.0026883637,0.031898584,0.048360866,67240471,0,0.1477876,0.15918519,0.107599854,4.2294316,16.928753,0.026490916,0.0,0.0,0.0,0.004997,3932170,3932170,3997730,396809,0,3,1919,3,2,3,0,3,0,1,0,0,0,0,0
60902520,60801916,0.0033151656,0.04989654,0.037705984,67240471,0,0.14778693,0.15852077,0.09871888,4.227856,17.237978,0.03269771,0.0,0.0,0.0,0.004997,3932170,3932170,3997730,396809,0,3,1919,3,2,3,0,3,0,1,0,0,0,0,0
61102366,61001780,0.0036129875,0.06553014,0.03349765,67240471,0,0.14778815,0.15786399,0.084349625,4.234067,17.861149,0.03577114,0.0,0.0,0.0,0.004997,3932170,3932170,3997730,396809,0,3,1919,3,2,3,0,3,0,1,0,0,0,0,0
61302236,61201643,0.006662352,0.09358688,0.039528113,67240471,0,0.14778922,0.15721531,0.07291628,4.193683,18.174873,0.034999363,0.0,0.0,0.0,0.004997,3932170,3932170,3997730,396809,0,3,1919,3,2,3,0,3,0,1,0,0,0,0,0
61502092,61401507,0.0063606333,0.10486126,0.04551375,67240471,0,0.14779127,0.15657489,0.051822387,4.1955943,18.79397,0.026471013,0.0,0.0,0.0,0.004997,3932170,3932170,3997730,396809,0,3,1919,3,2,3,0,3,0,1,0,0,0,0,0
61701948,61601370,0.00520024,0.0959539,0.046850678,67240471,0,0.14779423,0.15594186,0.052054513,4.152637,19.408949,0.029666511,0.0,0.0,0.0,0.004997,3932170,3932170,3997730,396809,0,3,1919,3,2,3,0,3,0,1,0,0,0,0,0
61901814,61801234,0.004549527,0.0820587,0.044285826,67240471,0,0.14779802,0.1553182,0.049026422,4.1017113,19.713917,0.025557464,0.0,0.0,0.0,0.004997,3932170,3932170,3997730,396809,0,3,1919,3,2,3,0,3,0,1,0,0,0,0,0
62101677,62001097,0.0004126673,0.02895319,0.03086425,131607,0,0.14786384,0.1547117,0.0472634,4.0934467,20.317392,0.03734804,0.0,0.0,0.0,0.004997,3932170,3932170,3997730,396809,0,3,1919,3,2,3,0,3,0,1,0,0,0,0,0
62301645,62200961,0.00042610854,0.029102556,0.019540416,131607,0,0.14816304,0.15419191,0.053936385,4.0968175,20.619804,0.03253816,0.0,0.0,0.0,0.004997,3932170,3932170,3997730,396809,0,3,1919,3,2,3,0,3,0,1,0,0,0,0,0
62511521,62410817,0.0005437046,0.03696709,0.01720073,131607,0,0.14896332,0.15386696,0.056158703,4.0751777,21.226294,0.033191953,0.0,0.0,0.0,0.004997,3932170,3932170,3997730,396809,0,3,1919,3,2,3,0,3,0,1,0,0,0,0,0
62711268,62610681,0.0004626915,0.03923826,0.01897896,131607,0,0.15045814,0.15380979,0.06791725,4.0744176,21.819992,0.03402835,0.0,0.0,0.0,0.004997,3932170,3932170,3997730,396809,0,3,1919,3,2,3,0,3,0,1,0,0,0,0,0
62901134,62800551,0.0005519138,0.038694862,0.01993523,537002519,0,0.15281408,0.15408005,0.06791758,4.067455,22.116617,0.030220699,0.0,0.0,0.0,0.004997,3932170,3932170,3997730,396809,0,3,1919,3,2,3,0,3,0,1,0,0,0,0,0
63101000,63000415,0.012896499,0.31567612,0.19899467,67240471,0,0.14937308,0.1524098,0.06554077,4.0244503,22.687557,0.028016482,0.0,0.0,0.0,0.004997,3932170,3932170,3997730,396809,0,3,1919,3,2,3,0,3,0,1,0,0,0,0,0
63301055,63200278,0.009347585,0.22487459,0.1344427,67240471,0,0.1493745,0.15183617,0.0780312,4.094929,23.044424,0.034538854,0.0,0.0,0.0,0.004997,3932170,3932170,3997730,396809,0,3,1919,3,2,3,0,3,0,1,0,0,0,0,0
63500729,63400142,0.0013565896,0.10430129,0.084776476,67240471,0,0.14938073,0.15126894,0.088697515,4.1093707,23.648508,0.025615059,0.0,0.0,0.0,0.004997,3932170,3932170,3997730,396809,0,3,1919,3,2,3,0,3,0,1,0,0,0,0,0
63700592,63600005,0.0016956424,0.07937708,0.05415367,67240471,0,0.1493819,0.15070698,0.09761164,4.129337,24.256853,0.031112561,0.0,0.0,0.0,0.004997,3932170,3932170,3997730,396809,0,3,1919,3,2,3,0,3,0,1,0,0,0,0,0
63900587,63799869,0.002182958,0.06769141,0.03529359,67240471,0,0.14938419,0.15015106,0.10135734,4.1433873,24.561731,0.028494708,0.0,0.0,0.0,0.004997,3932170,3932170,3997730,396809,0,3,1919,3,2,3,0,3,0,1,0,0,0,0,0
64100451,63999732,0.0018196831,0.050903775,0.021784388,67240471,0,0.14938703,0.14960223,0.09976556,4.166465,25.166233,0.021229098,0.0,0.0,0.0,0.004997,3932170,3932170,3997730,396809,0,3,1919,3,2,3,0,3,0,1,0,0,0,0,0
64310291,64209589,0.0011126732,0.026273824,0.010411015,67240471,0,0.14939284,0.14905955,0.097966775,4.183989,25.775627,0.026588056,0.0,0.0,0.0,0.004997,3932170,3932170,3997730,396809,0,3,1919,3,2,3,0,3,0,1,0,0,0,0,0
64510011,64409452,0.0007660314,0.016607976,0.012379196,67240471,0,0.14939632,0.14852329,0.08751976,4.1827483,26.084484,0.023268512,0.0,0.0,0.0,0.004997,3932170,3932170,3997730,396809,0,3,1919,3,2,3,0,3,0,1,0,0,0,0,0
64710003,64609316,0.00074975693,0.021907136,0.01829575,67240471,0,0.14940068,0.1479922,0.0878688,4.16355,26.693708,0.017628068,0.0,0.0,0.0,0.004997,3932170,3932170,3997730,396809,0,3,1919,3,2,3,0,3,0,1,0,0,0,0,0
64899742,64799186,0.0015762612,0.04541072,0.027890733,67240471,0,0.1494037,0.14759752,0.087095596,4.1383395,26.99822,0.022267489,0.0,0.0,0.0,0.004997,3932170,3932170,3997730,396809,0,3,1919,3,2,3,0,3,0,1,0,0,0,0,0
65099675,64999050,0.002287115,0.06558379,0.03685342,67240471,0,0.14940777,0.14707641,0.08684587,4.1352973,27.6033,0.007831407,0.0,0.0,0.0,0.004997,3932170,3932170,3997730,396809,0,3,1919,3,2,3,0,3,0,1,0,0,0,0,0
65309612,65208907,0.0016972849,0.061982322,0.039863143,67240471,0,0.14941315,0.14643286,0.078368284,4.0887847,28.208382,0.026888471,0.0,0.0,0.0,0.004997,3932170,3932170,3997730,396809,0,3,1919,3,2,3,0,3,0,1,0,0,0,0,0
65509500,65408770,0.0015417823,0.055480048,0.038226612,67240471,0,0.14941765,0.14592463,0.09121256,4.1032696,28.508507,0.027499435,0.0,0.0,0.0,0.004997,3932170,3932170,3997730,396809,0,3,1919,3,2,3,0,3,0,1,0,0,0,0,0
65709262,65608634,0.0019163551,0.056506157,0.035893675,67240471,0,0.14942256,0.14554764,0.06781429,4.05417,29.104816,0.026657676,0.0,0.0,0.0,0.004997,3932170,3932170,3997730,396809,0,3,1919,3,2,3,0,3,0,1,0,0,0,0,0
65909058,65808498,0.0011189604,0.04247991,0.030369477,67240471,0,0.14942752,0.14504908,0.07659799,4.051294,29.405025,0.01696572,0.0,0.0,0.0,0.004997,3932170,3932170,3997730,396809,0,3,1919,3,2,3,0,3,0,1,0,0,0,0,0
66108971,66008361,0.001365146,0.04010616,0.025301883,67240471,0,0.14943253,0.14455584,0.08111019,4.0261154,29.996956,0.026285557,0.0,0.0,0.0,0.004997,3932170,3932170,3997730,396809,0,3,1919,3,2,3,0,3,0,1,0,0,0,0,0
66308926,66208225,0.0013105288,0.035448607,0.018225119,67240471,0,0.14943817,0.1440677,0.08531598,4.041279,30.588726,0.011826321,0.0,0.0,0.0,0.004997,3932170,3932170,3997730,396809,0,3,1919,3,2,3,0,3,0,1,0,0,0,0,0
66508647,66408088,0.0029493656,0.04729888,0.0084684985,67240471,0,0.14944308,0.1435851,0.092945084,3.9973667,30.88759,0.0022643493,0.0,0.0,0.0,0.004997,3932170,3932170,3997730,396809,0,3,1919,3,2,3,0,3,0,1,0,0,0,0,0
66708507,66607952,0.005491263,0.09595087,0.014830438,67240471,0,0.14944786,0.14310642,0.094807975,4.0710874,31.484974,0.011718424,0.0,0.0,0.0,0.004997,3932170,3932170,3997730,396809,0,3,1919,3,2,3,0,3,0,1,0,0,0,0,0
66908433,66807815,0.006625467,0.13136551,0.02893636,67240471,0,0.1494523,0.14263333,0.09198419,4.029812,31.783445,0.021223461,0.0,0.0,0.0,0.004997,3932170,3932170,3997730,396809,0,3,1919,3,2,3,0,3,0,1,0,0,0,0,0
67108258,67007679,0.0063240174,0.13837138,0.03757328,67240471,0,0.14945686,0.14216521,0.10245137,4.07542,32.38729,0.016242316,0.0,0.0,0.0,0.004997,3932170,3932170,3997730,396809,0,3,1919,3,2,3,0,3,0,1,0,0,0,0,0
67308189,67207543,0.0048927125,0.117143184,0.03796177,67240471,0,0.14946218,0.14170107,0.09893201,4.152552,32.693336,0.011406721,0.0,0.0,0.0,0.004997,3932170,3932170,3997730,396809,0,3,1919,3,2,3,0,3,0,1,0,0,0,0,0
67508011,67407406,0.0031701308,0.08125254,0.030605797,67240471,0,0.14946781,0.14124233,0.108253986,4.139096,33.306335,0.016167128,0.0,0.0,0.0,0.004997,3932170,3932170,3997730,396809,0,3,1919,3,2,3,0,3,0,1,0,0,0,0,0
67707998,67607270,0.0017768313,0.040730964,0.017702475,67240471,0,0.14947326,0.14078802,0.10322835,4.1823096,33.919487,0.007874567,0.0,0.0,0.0,0.004997,3932170,3932170,3997730,396809,0,3,1919,3,2,3,0,3,0,1,0,0,0,0,0
67907700,67807133,0.0008335365,0.017906187,0.005702018,67240471,0,0.14949454,0.14034581,0.09192941,4.1788898,34.22911,0.02556547,0.0,0.0,0.0,0.004997,3932170,3932170,3997730,396809,0,3,1919,3,2,3,0,3,0,1,0,0,0,0,0
68107552,68006997,0.00069704576,0.02687167,0.009789469,67240471,0,0.14949758,0.1398986,0.095170446,4.197666,34.85116,0.0062867156,0.0,0.0,0.0,0.004997,3932170,3932170,3997730,396809,0,3,1919,3,2,3,0,3,0,1,0,0,0,0,0
68307431,68206861,0.00080366567,0.028502256,0.014349249,67240471,0,0.14950097,0.13945569,0.093817934,4.2223835,35.160397,0.015864054,0.0,0.0,0.0,0.004997,3932170,3932170,3997730,396809,0,3,1919,3,2,3,0,3,0,1,0,0,0,0,0
68507291,68406724,0.0010256432,0.042160552,0.020793634,67240471,0,0.14950359,0.1390174,0.0855444,4.252177,35.782368,0.0014411445,0.0,0.0,0.0,0.004997,3932170,3932170,3997730,396809,0,3,1919,3,2,3,0,3,0,1,0,0,0,0,0
68707302,68606588,0.0013720144,0.05411621,0.026880657,67240471,0,0.14950784,0.13858227,0.07666251,4.227053,36.40911,0.010898103,0.0,0.0,0.0,0.004997,3932170,3932170,3997730,396809,0,3,1919,3,2,3,0,3,0,1,0,0,0,0,0
68907064,68806452,0.0027230098,0.078387044,0.036103144,67240471,0,0.14951059,0.13815239,0.07742672,4.2454157,36.722286,0.020363865,0.0,0.0,0.0,0.004997,3932170,3932170,3997730,396809,0,3,1919,3,2,3,0,3,0,1,0,0,0,0,0
69106921,69006315,0.003014513,0.087427855,0.33840197,67240471,0,0.41208184,0.1385356,0.07127678,4.19696,37.344524,0.020349469,0.0,0.0,0.0,0.004997,3932170,3932170,3997730,396809,0,3,1919,4,3,4,0,3,0,1,0,0,0,0,0
69306982,69206179,0.00059758074,4.2596397,0.8129931,67240471,0,0.35568607,0.13730566,0.07778088,0.0074016163,0.011889239,0.024967795,0.0,0.0,0.0,0.004997,3932170,3932170,3997730,396809,0,0,895,4,3,4,0,3,0,1,0,0,0,0,0
69506855,69406042,0.0007027346,1.6217786,0.4780024,131607,0,0.28987125,0.13693227,0.08341215,4.1990848,0.69380075,0.015440853,0.0,0.0,0.0,0.004997,3932170,3932170,3997730,396809,0,1,1919,4,3,4,0,3,0,1,0,0,0,0,0
69706712,69605910,0.00082933414,0.38272598,0.16487071,131607,0,0.26838017,0.13669363,0.08546988,4.1860104,1.055473,0.008593946,0.0,0.0,0.0,0.004997,3932170,3932170,3997730,396809,0,3,1919,4,3,4,0,3,0,1,0,0,0,0,0
69906577,69805770,0.00059295155,0.18186784,0.07090895,131607,0,0.2688315,0.13669081,0.08596958,4.191785,1.3502687,0.034509633,0.0,0.0,0.0,0.004997,3932170,3932170,3997730,396809,0,3,1919,4,3,4,0,3,0,1,0,0,0,0,0
70106378,70005633,0.00073173887,0.42320713,0.048335806,131607,0,0.26971573,0.1371299,0.093150705,4.151723,1.9477167,0.009937632,0.0,0.0,0.0,0.004997,3932170,3932170,3997730,396809,0,3,1919,4,3,4,0,3,0,1,0,0,0,0,0
70306499,70205497,0.00081767887,0.5111301,0.13046391,131607,0,0.27121744,0.13792343,0.09071885,4.172082,2.240678,0.012299635,0.0,0.0,0.0,0.004997,3932170,3932170,3997730,396809,0,3,1919,4,3,4,0,3,0,1,0,0,0,0,0
70506341,70405361,0.0006202378,0.52735823,0.17228827,131607,0,0.2735521,0.13924661,0.09007174,4.129438,2.8270462,0.011782493,0.0,0.0,0.0,0.004997,3932170,3932170,3997730,396809,0,3,1919,4,3,4,0,3,0,1,0,0,0,0,0
70705910,70605224,0.015610404,0.52620786,0.27277273,67240471,0,0.269492,0.13578473,0.087772176,4.101349,3.4128711,0.008613159,0.0,0.0,0.0,0.004997,3932170,3932170,3997730,396809,0,3,1919,4,3,4,0,3,0,1,0,0,0,0,0
70905947,70805088,0.009656136,0.4778574,0.20320024,67240471,0,0.26949424,0.13538149,0.104799375,4.36371,3.805092,0.0027947337,0.0,0.0,0.0,0.004997,3932170,3932170,3997730,396809,0,3,1919,4,3,4,0,3,0,1,0,0,0,0,0
71105645,71004952,0.0010664706,0.4368955,0.16533342,67240471,0,0.26949823,0.1349883,0.109683745,4.4050064,4.4235606,0.005565859,0.0,0.0,0.0,0.004997,3932170,3932170,3997730,396809,0,3,1919,4,3,4,0,3,0,1,0,0,0,0,0
