timestamp,timestamp_sample,gyro_device_id,gyro_bias[0],gyro_bias[1],gyro_bias[2],gyro_bias_limit,gyro_bias_variance[0],gyro_bias_variance[1],gyro_bias_variance[2],accel_device_id,accel_bias[0],accel_bias[1],accel_bias[2],accel_bias_limit,accel_bias_variance[0],accel_bias_variance[1],accel_bias_variance[2],mag_device_id,mag_bias[0],mag_bias[1],mag_bias[2],mag_bias_limit,mag_bias_variance[0],mag_bias_variance[1],mag_bias_variance[2],gyro_bias_valid,gyro_bias_stable,accel_bias_valid,accel_bias_stable,mag_bias_valid,mag_bias_stable
16882795,16780936,2490402,0.0016040754,0.006193442,0.0005229047,0.34906584,3.6666657e-07,3.680884e-07,3.5272238e-05,2490402,-0.0074432287,0.00095299416,0.0013861471,0.4,0.012635613,0.012634329,0.00048977975,458770,0.0,0.0,0.0,0.5,0.0025000002,0.0025000002,0.0025000002,1,0,1,0,1,0
17892853,17791324,2490402,0.0016135611,0.0062141633,0.00053740933,0.34906584,3.3137962e-07,3.3233448e-07,2.8217159e-05,2490402,-0.0072083296,0.0008844487,0.0011676433,0.4,0.012631169,0.012629845,0.0004897807,458770,0.0,0.0,0.0,0.5,0.0025000002,0.0025000002,0.0025000002,1,0,1,0,1,0
18903266,18801712,2490402,0.0016130144,0.0062226984,0.00054819835,0.34906584,3.041678e-07,3.0485901e-07,2.295442e-05,2490402,-0.0071181953,0.0009006721,0.001293584,0.4,0.012627719,0.012626359,0.00048978144,458770,0.0,0.0,0.0,0.5,0.0025000002,0.0025000002,0.0025000002,1,0,1,0,1,0
19913651,19812099,2490402,0.0016182319,0.0062271347,0.00057313987,0.34906584,2.8274013e-07,2.8328645e-07,1.89166e-05,2490402,-0.007060555,0.00086409366,0.0015278427,0.4,0.012624976,0.012623582,0.0004897828,458770,0.0,0.0,0.0,0.5,0.0025000002,0.0025000002,0.0025000002,1,0,1,0,1,0
20924015,20822486,2490402,0.0016275113,0.00624337,0.0005707343,0.34906584,2.656996e-07,2.6606577e-07,1.5786143e-05,2490402,-0.006891165,0.0008060607,0.0014215121,0.4,0.012622544,0.012621159,0.00048978324,458770,0.0,0.0,0.0,0.5,0.0025000002,0.0025000002,0.0025000002,1,0,1,0,1,0
21934559,21832874,2490402,0.0016318805,0.0062510925,0.0005784622,0.34906584,2.519399e-07,2.5221465e-07,1.3475841e-05,2490402,-0.0068130232,0.00077892526,0.0014692183,0.4,0.012620586,0.012619225,0.00048977224,458770,0.0,0.0,0.0,0.5,0.0025000002,0.0025000002,0.0025000002,1,0,1,0,1,0
22944770,22843261,2490402,0.0016324169,0.0062555475,0.0006007112,0.34906584,2.4049442e-07,2.4070937e-07,1.1458579e-05,2490402,-0.0067724762,0.00078501896,0.0012902451,0.4,0.012618964,0.012617603,0.0004897731,458770,0.0,0.0,0.0,0.5,0.0025000002,0.0025000002,0.0025000002,1,0,1,0,1,0
23955237,23853647,2490402,0.0016215234,0.006270833,0.00013289825,0.34906584,2.3100871e-07,2.3122318e-07,9.824812e-06,2490402,-0.0067448127,0.0007593173,0.0015709415,0.4,0.012617783,0.012616434,0.0004897748,458770,0.0,0.0,0.0,0.5,0.0025000002,0.0025000002,0.0025000002,1,0,1,0,1,0
24369560,24267906,2490402,0.0016132707,0.006262169,-0.00016893493,0.34906584,2.2433743e-07,2.2465214e-07,9.3182825e-06,2490402,-0.0068497485,0.0005404104,0.0005060232,0.4,0.012615944,0.012614592,0.00048977253,458770,0.0,0.0,0.0,0.5,0.0025000002,0.0025000002,0.0025000002,1,0,1,0,1,0
25379883,25278293,2490402,0.0015895672,0.006218255,-0.0007431365,0.34906584,2.1693815e-07,2.174926e-07,8.072516e-06,2490402,-0.0076311813,-0.000534811,0.0015169368,0.4,0.0126092,0.012608845,0.0004897723,458770,0.0,0.0,0.0,0.5,0.0025000002,0.0025000002,0.0025000002,1,0,1,0,1,0
25581990,25480370,2490402,0.0016017342,0.00618949,-0.0008174955,0.34906584,2.1552367e-07,2.1626195e-07,7.83551e-06,2490402,-0.007554716,-0.0013196315,0.0007883354,0.4,0.012606903,0.012606892,0.00048977253,458770,0.0,0.0,0.0,0.5,0.0025000002,0.0025000002,0.0025000002,1,0,1,0,1,0
25784071,25682447,2490402,0.0015928568,0.0062773707,-0.0008078318,0.34906584,2.1470848e-07,2.1495754e-07,7.5912876e-06,2490402,-0.007118061,0.0007639261,0.0004229547,0.4,0.012600362,0.01260506,0.00048977294,458770,0.0,0.0,0.0,0.5,0.0025000002,0.0025000002,0.0025000002,1,0,1,0,1,0
25986474,25884525,2490402,0.0015966567,0.0063344906,-0.0008222454,0.34906584,2.137794e-07,2.1379167e-07,7.369232e-06,2490402,-0.006549931,0.0019466628,0.0016692707,0.4,0.012595868,0.012603446,0.0004897723,458770,0.0,0.0,0.0,0.5,0.0025000002,0.0025000002,0.0025000002,1,0,1,0,1,0
26188417,26086602,2490402,0.0016021308,0.0063854307,-0.0008446808,0.34906584,2.1290506e-07,2.1272768e-07,7.2262683e-06,2490402,-0.0059852405,0.0029415074,0.0027368856,0.4,0.012591912,0.012601931,0.0004897726,458770,0.0,0.0,0.0,0.5,0.0025000002,0.0025000002,0.0025000002,1,0,1,0,1,0
26592375,26490757,2490402,0.0015927177,0.0063361814,-0.0008919115,0.34906584,2.1036537e-07,2.1044328e-07,6.820529e-06,2490402,-0.006554179,0.0021130631,0.0016766671,0.4,0.012586295,0.012599085,0.0004897723,458770,0.0,0.0,0.0,0.5,0.0025000002,0.0025000002,0.0025000002,1,0,1,0,1,0
27602742,27501143,2490402,0.0015996315,0.006359589,-0.00094363524,0.34906584,2.0556946e-07,2.0560553e-07,6.0068132e-06,2490402,-0.00624997,0.0024075196,0.0019958413,0.4,0.012579471,0.012593937,0.0004897728,458770,0.0,0.0,0.0,0.5,0.0025000002,0.0025000002,0.0025000002,1,0,1,0,1,0
28613137,28511530,2490402,0.0015968229,0.00635648,-0.0009818713,0.34906584,2.013938e-07,2.0144925e-07,5.325667e-06,2490402,-0.0063045523,0.0023605523,0.0022064545,0.4,0.012575963,0.012590795,0.0004897723,458770,0.0,0.0,0.0,0.5,0.0025000002,0.0025000002,0.0025000002,1,0,1,0,1,0
29623833,29521916,2490402,0.0015974896,0.006362682,-0.0010074354,0.34906584,1.9786893e-07,1.9789775e-07,4.748004e-06,2490402,-0.0062469468,0.002408429,0.002419657,0.4,0.012574035,0.012588857,0.00048977253,458770,0.0,0.0,0.0,0.5,0.0025000002,0.0025000002,0.0025000002,1,0,1,0,1,0
30633909,30532303,2490402,0.001587388,0.006374109,-0.0010061366,0.34906584,1.9486717e-07,1.948111e-07,4.253738e-06,2490402,-0.006256601,0.0025456992,0.0024912616,0.4,0.012572521,0.012587371,0.00048977224,458770,0.0,0.0,0.0,0.5,0.0025000002,0.0025000002,0.0025000002,1,0,1,0,1,0
31644415,31542689,2490402,0.0016081003,0.0063720113,-0.0010032764,0.34906584,1.9226843e-07,1.922744e-07,3.85563e-06,2490402,-0.006115967,0.0024124403,0.0023500214,0.4,0.012571364,0.012585714,0.00048977253,458770,0.0,0.0,0.0,0.5,0.0025000002,0.0025000002,0.0025000002,1,0,1,0,1,0
32654679,32553075,2490402,0.0016044357,0.00637398,-0.0009814658,0.34906584,1.9001843e-07,1.8999141e-07,3.4819677e-06,2490402,-0.0061373594,0.0024458603,0.0023174956,0.4,0.012570656,0.0125843,0.0004897728,458770,0.0,0.0,0.0,0.5,0.0025000002,0.0025000002,0.0025000002,1,0,1,0,1,0
33665191,33563461,2490402,0.0016033064,0.006377661,-0.000955142,0.34906584,1.8806713e-07,1.8803007e-07,3.1577206e-06,2490402,-0.0061315843,0.0025096645,0.0024107597,0.4,0.012570059,0.012582679,0.00048977317,458770,0.0,0.0,0.0,0.5,0.0025000002,0.0025000002,0.0025000002,1,0,1,0,1,0
34675493,34573848,2490402,0.0015978677,0.006388408,-0.0009866586,0.34906584,1.8639811e-07,1.8634202e-07,2.893279e-06,2490402,-0.0061142603,0.0025444038,0.0021522979,0.4,0.012569615,0.012581725,0.0004897724,458770,0.0,0.0,0.0,0.5,0.0025000002,0.0025000002,0.0025000002,1,0,1,0,1,0
35281708,35180080,2490402,0.0015901627,0.0062865526,-0.0012549647,0.34906584,1.8525552e-07,1.8545947e-07,2.7430074e-06,2490402,-0.0066862046,0.0014747321,0.0024787728,0.4,0.012565609,0.0125804525,0.00048977224,458770,0.0,0.0,0.0,0.5,0.0025000002,0.0025000002,0.0025000002,1,0,1,0,1,0
35483754,35382157,2490402,0.001595954,0.0061246967,-0.0013418985,0.34906584,1.8463663e-07,1.851839e-07,2.6729888e-06,2490402,-0.0073822564,-0.0015934836,0.002918982,0.4,0.012544902,0.012579639,0.0004897724,458770,0.0,0.0,0.0,0.5,0.0025000002,0.0025000002,0.0025000002,1,0,1,0,1,0
35686040,35584234,2490402,0.0015844519,0.006028581,-0.001483141,0.34906584,1.8420509e-07,1.8488078e-07,2.6179537e-06,2490402,-0.007854997,-0.00452662,0.0005548586,0.4,0.012533143,0.012577239,0.0004897727,458770,0.0,0.0,0.0,0.5,0.0025000002,0.0025000002,0.0025000002,1,0,1,0,1,0
35887919,35786311,2490402,0.0015988415,0.005895687,-0.0015969867,0.34906584,1.8377322e-07,1.8467588e-07,2.5764368e-06,2490402,-0.00753415,-0.0103914,-0.0010611215,0.4,0.01251233,0.012572526,0.00048977305,458770,0.0,0.0,0.0,0.5,0.0025000002,0.0025000002,0.0025000002,1,0,1,0,1,0
36554847,36453166,2490402,0.0015608788,0.005950245,-0.0025455374,0.34906584,1.9020617e-07,1.9108295e-07,2.4334547e-06,2490402,-0.008152131,-0.009208527,-0.00095200224,0.4,0.012507498,0.012571321,0.00048977305,458770,0.0,0.0,0.0,0.5,0.0025000002,0.0025000002,0.0025000002,1,0,1,0,1,0
36686232,36584517,2490402,0.0015425372,0.005969496,-0.002840806,0.34906584,1.9135182e-07,1.922465e-07,2.3990317e-06,2490402,-0.009200986,-0.008551467,-0.0007733518,0.4,0.012503352,0.012570314,0.00048977224,458770,0.0,0.0,0.0,0.5,0.0025000002,0.0025000002,0.0025000002,1,0,1,0,1,0
36807656,36705763,2490402,0.0015201629,0.005992246,-0.003170874,0.34906584,1.9233362e-07,1.9325851e-07,2.3626633e-06,2490402,-0.010136044,-0.007626428,-0.0007818539,0.4,0.012497194,0.012568836,0.00048977253,458770,0.0,0.0,0.0,0.5,0.0025000002,0.0025000002,0.0025000002,1,0,1,0,1,0
36939455,36837113,2490402,0.0014927549,0.006018212,-0.0035353596,0.34906584,1.9333653e-07,1.9430475e-07,2.3235416e-06,2490402,-0.011849887,-0.0064430134,-0.000613451,0.4,0.012487979,0.012566659,0.0004897727,458770,0.0,0.0,0.0,0.5,0.0025000002,0.0025000002,0.0025000002,1,0,1,0,1,0
37060031,36958360,2490402,0.0014626152,0.0060437988,-0.0038138344,0.34906584,1.941606e-07,1.9519462e-07,2.2948648e-06,2490402,-0.014208175,-0.004939635,-0.00041484382,0.4,0.0124752475,0.0125635555,0.00048977224,458770,0.0,0.0,0.0,0.5,0.0025000002,0.0025000002,0.0025000002,1,0,1,0,1,0
37110497,37008879,2490402,0.0020316972,0.0034879132,-0.0017239588,0.34906584,1.8412031e-07,1.8398876e-07,1.8613588e-06,2490402,0.021421198,-0.24955685,-0.0068472438,0.4,0.01144426,0.012428652,0.0004897726,458770,0.0,0.0,0.0,0.5,0.0025000002,0.0025000002,0.0025000002,1,0,1,0,1,0
37221619,37120021,2490402,0.0020376614,0.0034992304,-0.0019233284,0.34906584,1.852245e-07,1.8509344e-07,1.8478956e-06,2490402,0.022813672,-0.24941276,-0.006843722,0.4,0.011443583,0.012428652,0.00048977736,458770,0.0,0.0,0.0,0.5,0.0025000002,0.0025000002,0.0025000002,1,0,1,0,1,0
37373255,37271579,2490402,0.0020450486,0.003505772,-0.0021246898,0.34906584,1.8673798e-07,1.8660772e-07,1.834938e-06,2490402,0.024476826,-0.24956718,-0.006876077,0.4,0.011442482,0.012428619,0.0004897783,458770,0.0,0.0,0.0,0.5,0.0025000002,0.0025000002,0.0025000002,1,0,1,0,1,0
37443915,37342306,2490402,0.0020485371,0.0035094395,-0.0022223368,0.34906584,1.8744369e-07,1.8731376e-07,1.8284298e-06,2490402,0.025488677,-0.24970943,-0.0069341967,0.4,0.011441151,0.012428512,0.00048977375,458770,0.0,0.0,0.0,0.5,0.0025000002,0.0025000002,0.0025000002,1,0,1,0,1,0
37555058,37453449,2490402,0.0020515022,0.0035143672,-0.002320583,0.34906584,1.8855732e-07,1.8842759e-07,1.822344e-06,2490402,0.026486458,-0.24981007,-0.0069811842,0.4,0.0114386305,0.012428298,0.0004897724,458770,0.0,0.0,0.0,0.5,0.0025000002,0.0025000002,0.0025000002,1,0,1,0,1,0
37666176,37564591,2490402,0.0020585554,0.0035213435,-0.002524447,0.34906584,1.896633e-07,1.8953392e-07,1.8091118e-06,2490402,0.027824683,-0.24976918,-0.006956695,0.4,0.011438032,0.012428319,0.0004897822,458770,0.0,0.0,0.0,0.5,0.0025000002,0.0025000002,0.0025000002,1,0,1,0,1,0
37736871,37635318,2490402,0.0020604471,0.0035287703,-0.0026264244,0.34906584,1.9036817e-07,1.9023861e-07,1.8026676e-06,2490402,0.029089995,-0.2496533,-0.007084365,0.4,0.011434083,0.012427945,0.00048977596,458770,0.0,0.0,0.0,0.5,0.0025000002,0.0025000002,0.0025000002,1,0,1,0,1,0
37807744,37706045,2490402,0.002060959,0.003539272,-0.0027318704,0.34906584,1.9107178e-07,1.9094136e-07,1.7962132e-06,2490402,0.03073151,-0.2492877,-0.0073234844,0.4,0.011428397,0.012427526,0.00048977305,458770,0.0,0.0,0.0,0.5,0.0025000002,0.0025000002,0.0025000002,1,0,1,0,1,0
37928949,37827292,2490402,0.0020595898,0.0035541656,-0.0028450843,0.34906584,1.9228305e-07,1.9215068e-07,1.7902138e-06,2490402,0.032256655,-0.24869063,-0.0075355396,0.4,0.011420446,0.0124269,0.0004897723,458770,0.0,0.0,0.0,0.5,0.0025000002,0.0025000002,0.0025000002,1,0,1,0,1,0
38019790,37918227,2490402,0.0020664085,0.003561024,-0.003045133,0.34906584,1.9318534e-07,1.9305277e-07,1.7769619e-06,2490402,0.033553086,-0.24865669,-0.00751026,0.4,0.011419846,0.012426905,0.00048977806,458770,0.0,0.0,0.0,0.5,0.0025000002,0.0025000002,0.0025000002,1,0,1,0,1,0
38060232,37958642,2490402,0.002066151,0.0035613454,-0.0030452495,0.34906584,1.9359334e-07,1.934605e-07,1.777372e-06,2490402,0.034645874,-0.24832848,-0.007837192,0.4,0.011410314,0.012426061,0.0004897727,458770,0.0,0.0,0.0,0.5,0.0025000002,0.0025000002,0.0025000002,1,0,1,0,1,0
38171362,38069785,2490402,0.002072894,0.0035681925,-0.0032446156,0.34906584,1.9469995e-07,1.9456664e-07,1.7643781e-06,2490402,0.03596172,-0.248288,-0.007823833,0.4,0.011409676,0.012426052,0.0004897762,458770,0.0,0.0,0.0,0.5,0.0025000002,0.0025000002,0.0025000002,1,0,1,0,1,0
38181493,38079888,2490402,0.0020726325,0.0035685292,-0.00324472,0.34906584,1.9480163e-07,1.9466788e-07,1.7644832e-06,2490402,0.03705351,-0.24796149,-0.008141848,0.4,0.011397095,0.012424948,0.00048977305,458770,0.0,0.0,0.0,0.5,0.0025000002,0.0025000002,0.0025000002,1,0,1,0,1,0
38323043,38221342,2490402,0.0020789958,0.0035757483,-0.0034431918,0.34906584,1.9621412e-07,1.9607901e-07,1.7518647e-06,2490402,0.03961363,-0.24754868,-0.008494081,0.4,0.011380754,0.01242359,0.00048977317,458770,0.0,0.0,0.0,0.5,0.0025000002,0.0025000002,0.0025000002,1,0,1,0,1,0
38434079,38332485,2490402,0.002081992,0.003579553,-0.0035420288,0.34906584,1.9732794e-07,1.9719143e-07,1.7459864e-06,2490402,0.04151734,-0.24715856,-0.008851089,0.4,0.011361181,0.012421953,0.0004897726,458770,0.0,0.0,0.0,0.5,0.0025000002,0.0025000002,0.0025000002,1,0,1,0,1,0
38535176,38433524,2490402,0.002088468,0.0035862862,-0.0037373148,0.34906584,1.9833324e-07,1.9819569e-07,1.7330677e-06,2490402,0.042851556,-0.24708879,-0.008856647,0.4,0.011360377,0.012421932,0.0004897723,458770,0.0,0.0,0.0,0.5,0.0025000002,0.0025000002,0.0025000002,1,0,1,0,1,0
38555346,38453731,2490402,0.0020879426,0.0035870168,-0.0037374632,0.34906584,1.9853638e-07,1.983976e-07,1.7332744e-06,2490402,0.044997312,-0.24645393,-0.0094676055,0.4,0.01133811,0.0124200005,0.00048977305,458770,0.0,0.0,0.0,0.5,0.0025000002,0.0025000002,0.0025000002,1,0,1,0,1,0
38686851,38585082,2490402,0.0020906925,0.0035909063,-0.003833654,0.34906584,1.9985399e-07,1.9971311e-07,1.7276402e-06,2490402,0.047335852,-0.24591048,-0.009958903,0.4,0.011311954,0.012417672,0.00048977224,458770,0.0,0.0,0.0,0.5,0.0025000002,0.0025000002,0.0025000002,1,0,1,0,1,0
38777858,38676016,2490402,0.0020969152,0.0035974404,-0.004023166,0.34906584,2.0075801e-07,2.0061574e-07,1.7146866e-06,2490402,0.048584722,-0.24584974,-0.009951818,0.4,0.011311205,0.012417676,0.0004897764,458770,0.0,0.0,0.0,0.5,0.0025000002,0.0025000002,0.0025000002,1,0,1,0,1,0
38807978,38706328,2490402,0.0020962006,0.0035984793,-0.0040233186,0.34906584,2.0106232e-07,2.0091804e-07,1.7149912e-06,2490402,0.051483683,-0.2449972,-0.010778784,0.4,0.011281731,0.012415121,0.0004897724,458770,0.0,0.0,0.0,0.5,0.0025000002,0.0025000002,0.0025000002,1,0,1,0,1,0
38918962,38817471,2490402,0.0021021725,0.0036048428,-0.0042071682,0.34906584,2.0217044e-07,2.0202455e-07,1.7023225e-06,2490402,0.052772865,-0.2449055,-0.010797894,0.4,0.011280595,0.01241507,0.0004897748,458770,0.0,0.0,0.0,0.5,0.0025000002,0.0025000002,0.0025000002,1,0,1,0,1,0
38939174,38837678,2490402,0.0021014607,0.003605909,-0.0042073033,0.34906584,2.0237286e-07,2.0222448e-07,1.7025288e-06,2490402,0.055666894,-0.24405113,-0.011627538,0.4,0.01124762,0.012412215,0.0004897728,458770,0.0,0.0,0.0,0.5,0.0025000002,0.0025000002,0.0025000002,1,0,1,0,1,0
39060460,38958925,2490402,0.0021068377,0.0036128422,-0.004387961,0.34906584,2.0358117e-07,2.0342785e-07,1.6900373e-06,2490402,0.05871994,-0.24342121,-0.012158234,0.4,0.011210505,0.012409135,0.00048977224,458770,0.0,0.0,0.0,0.5,0.0025000002,0.0025000002,0.0025000002,1,0,1,0,1,0
39181659,39080171,2490402,0.0021089122,0.003617125,-0.004476944,0.34906584,2.0479688e-07,2.0463908e-07,1.6844334e-06,2490402,0.06247754,-0.24243106,-0.013075529,0.4,0.0111709535,0.012405713,0.0004897724,458770,0.0,0.0,0.0,0.5,0.0025000002,0.0025000002,0.0025000002,1,0,1,0,1,0
39282705,39181210,2490402,0.0021144499,0.0036232315,-0.004651997,0.34906584,2.0580367e-07,2.0564369e-07,1.6718494e-06,2490402,0.06382048,-0.24227087,-0.013132035,0.4,0.01116929,0.012405611,0.00048977573,458770,0.0,0.0,0.0,0.5,0.0025000002,0.0025000002,0.0025000002,1,0,1,0,1,0
39313109,39211523,2490402,0.002113744,0.0036244022,-0.0046521034,0.34906584,2.0610716e-07,2.0594312e-07,1.6721509e-06,2490402,0.06683522,-0.2414052,-0.014028558,0.4,0.0111288605,0.012402264,0.0004897708,458770,0.0,0.0,0.0,0.5,0.0025000002,0.0025000002,0.0025000002,1,0,1,0,1,0
39393811,39292352,2490402,0.002116404,0.0036275554,-0.004738982,0.34906584,2.0691765e-07,2.0675242e-07,1.6662084e-06,2490402,0.06783698,-0.24122791,-0.014159487,0.4,0.011127193,0.012402186,0.0004897726,458770,0.0,0.0,0.0,0.5,0.0025000002,0.0025000002,0.0025000002,1,0,1,0,1,0
39434302,39332768,2490402,0.0021183563,0.0036317653,-0.004824473,0.34906584,2.0731666e-07,2.0714607e-07,1.6598711e-06,2490402,0.07155084,-0.24023834,-0.015107432,0.4,0.011085663,0.012398471,0.00048977224,458770,0.0,0.0,0.0,0.5,0.0025000002,0.0025000002,0.0025000002,1,0,1,0,1,0
39504970,39403495,2490402,0.0021208911,0.0036348517,-0.004908613,0.34906584,2.0802442e-07,2.0785252e-07,1.653854e-06,2490402,0.07261585,-0.24004295,-0.015263944,0.4,0.011083763,0.012398329,0.000489773,458770,0.0,0.0,0.0,0.5,0.0025000002,0.0025000002,0.0025000002,1,0,1,0,1,0
39565573,39464120,2490402,0.002120142,0.0036361043,-0.004908665,0.34906584,2.0863362e-07,2.084569e-07,1.6544602e-06,2490402,0.07573264,-0.23910235,-0.016208064,0.4,0.011039239,0.012394236,0.0004897704,458770,0.0,0.0,0.0,0.5,0.0025000002,0.0025000002,0.0025000002,1,0,1,0,1,0
39656576,39555053,2490402,0.0021253014,0.0036418836,-0.00507382,0.34906584,2.0953973e-07,2.0936028e-07,1.641978e-06,2490402,0.07696222,-0.23897767,-0.01625406,0.4,0.011036783,0.012394107,0.00048977294,458770,0.0,0.0,0.0,0.5,0.0025000002,0.0025000002,0.0025000002,1,0,1,0,1,0
39687185,39585364,2490402,0.0021245016,0.0036432962,-0.005073872,0.34906584,2.0984376e-07,2.0965922e-07,1.6422857e-06,2490402,0.080372155,-0.23794188,-0.017312203,0.4,0.010993028,0.012390083,0.0004897726,458770,0.0,0.0,0.0,0.5,0.0025000002,0.0025000002,0.0025000002,1,0,1,0,1,0
39797989,39696507,2490402,0.0021269096,0.0036463467,-0.0051556025,0.34906584,2.1095981e-07,2.1077372e-07,1.6367326e-06,2490402,0.0815262,-0.23771791,-0.017502004,0.4,0.010989322,0.0123897735,0.0004897723,458770,0.0,0.0,0.0,0.5,0.0025000002,0.0025000002,0.0025000002,1,0,1,0,1,0
39808320,39706610,2490402,0.002128617,0.003650621,-0.005236326,0.34906584,2.1105326e-07,2.1086007e-07,1.6301757e-06,2490402,0.08550583,-0.2366245,-0.01858109,0.4,0.010943959,0.012385582,0.00048977317,458770,0.0,0.0,0.0,0.5,0.0025000002,0.0025000002,0.0025000002,1,0,1,0,1,0
39899245,39797545,2490402,0.0021309534,0.0036535843,-0.005315914,0.34906584,2.119653e-07,2.117705e-07,1.6244627e-06,2490402,0.08659457,-0.23641586,-0.018756263,0.4,0.010941112,0.012385346,0.0004897728,458770,0.0,0.0,0.0,0.5,0.0025000002,0.0025000002,0.0025000002,1,0,1,0,1,0
39929342,39827857,2490402,0.002130032,0.0036553468,-0.005315929,0.34906584,2.1226899e-07,2.1206775e-07,1.6247677e-06,2490402,0.09062498,-0.23520027,-0.020026488,0.4,0.010895005,0.012381147,0.0004897724,458770,0.0,0.0,0.0,0.5,0.0025000002,0.0025000002,0.0025000002,1,0,1,0,1,0
40010173,39908688,2490402,0.0021347916,0.0036609075,-0.0054725404,0.34906584,2.1307277e-07,2.1286831e-07,1.61239e-06,2490402,0.09198155,-0.23502074,-0.02013261,0.4,0.010891733,0.012380897,0.00048977305,458770,0.0,0.0,0.0,0.5,0.0025000002,0.0025000002,0.0025000002,1,0,1,0,1,0
40060670,39959207,2490402,0.0021340477,0.0036623676,-0.0054725506,0.34906584,2.1358103e-07,2.1336957e-07,1.6129018e-06,2490402,0.095309295,-0.23401545,-0.021200256,0.4,0.010844207,0.012376566,0.0004897727,458770,0.0,0.0,0.0,0.5,0.0025000002,0.0025000002,0.0025000002,1,0,1,0,1,0
40101128,39999623,2490402,0.002136311,0.0036652456,-0.0055501633,0.34906584,2.1398282e-07,2.1376967e-07,1.6067452e-06,2490402,0.096317165,-0.23382199,-0.02135638,0.4,0.010842417,0.012376418,0.00048977224,458770,0.0,0.0,0.0,0.5,0.0025000002,0.0025000002,0.0025000002,1,0,1,0,1,0
40181926,40080453,2490402,0.0021378002,0.0036696605,-0.00562671,0.34906584,2.1479146e-07,2.1456927e-07,1.6010238e-06,2490402,0.10071542,-0.23259565,-0.022634184,0.4,0.010794946,0.012372092,0.00048977305,458770,0.0,0.0,0.0,0.5,0.0025000002,0.0025000002,0.0025000002,1,0,1,0,1,0
40252657,40151180,2490402,0.0021399604,0.0036725535,-0.00570281,0.34906584,2.1549982e-07,2.1527568e-07,1.5952116e-06,2490402,0.101879545,-0.23235029,-0.02284257,0.4,0.010791332,0.012371795,0.00048977317,458770,0.0,0.0,0.0,0.5,0.0025000002,0.0025000002,0.0025000002,1,0,1,0,1,0
40313488,40211804,2490402,0.0021414598,0.0036768494,-0.0057783374,0.34906584,2.161038e-07,2.1587022e-07,1.5893172e-06,2490402,0.106043614,-0.23118037,-0.024072407,0.4,0.01074442,0.012367402,0.0004897723,458770,0.0,0.0,0.0,0.5,0.0025000002,0.0025000002,0.0025000002,1,0,1,0,1,0
40434514,40333053,2490402,0.002143047,0.0036808993,-0.005852805,0.34906584,2.1731964e-07,2.1707585e-07,1.5840519e-06,2490402,0.10970715,-0.23017699,-0.025152165,0.4,0.010696276,0.012362999,0.0004897696,458770,0.0,0.0,0.0,0.5,0.0025000002,0.0025000002,0.0025000002,1,0,1,0,1,0
40505234,40403777,2490402,0.0021450764,0.0036837687,-0.0059261746,0.34906584,2.1802943e-07,2.177835e-07,1.578317e-06,2490402,0.110988416,-0.22989126,-0.025405321,0.4,0.010692194,0.012362724,0.0004897726,458770,0.0,0.0,0.0,0.5,0.0025000002,0.0025000002,0.0025000002,1,0,1,0,1,0
40555835,40454296,2490402,0.0021464375,0.0036881757,-0.0059984108,0.34906584,2.1853239e-07,2.1827653e-07,1.5723923e-06,2490402,0.11545534,-0.22860983,-0.026815513,0.4,0.01064793,0.012358506,0.00048977305,458770,0.0,0.0,0.0,0.5,0.0025000002,0.0025000002,0.0025000002,1,0,1,0,1,0
40656793,40555335,2490402,0.0021484294,0.0036910034,-0.0060709743,0.34906584,2.1954696e-07,2.1928884e-07,1.5669974e-06,2490402,0.116707265,-0.22833224,-0.027063705,0.4,0.010643424,0.012358111,0.00048977253,458770,0.0,0.0,0.0,0.5,0.0025000002,0.0025000002,0.0025000002,1,0,1,0,1,0
40687103,40585647,2490402,0.0021499814,0.0036950302,-0.006142127,0.34906584,2.1984592e-07,2.1957707e-07,1.5609031e-06,2490402,0.120263934,-0.22736108,-0.028187146,0.4,0.010601667,0.012354375,0.00048977224,458770,0.0,0.0,0.0,0.5,0.0025000002,0.0025000002,0.0025000002,1,0,1,0,1,0
40737680,40636166,2490402,0.0021519493,0.0036976826,-0.0062123714,0.34906584,2.203506e-07,2.2007964e-07,1.5550376e-06,2490402,0.12123756,-0.22716154,-0.028353808,0.4,0.010599317,0.012354188,0.000489775,458770,0.0,0.0,0.0,0.5,0.0025000002,0.0025000002,0.0025000002,1,0,1,0,1,0
40808486,40706893,2490402,0.0021535335,0.0037015036,-0.0062828828,0.34906584,2.2105822e-07,2.2077535e-07,1.549399e-06,2490402,0.12445685,-0.2263042,-0.029346997,0.4,0.010553989,0.012350334,0.00048977253,458770,0.0,0.0,0.0,0.5,0.0025000002,0.0025000002,0.0025000002,1,0,1,0,1,0
40909395,40807932,2490402,0.0021553698,0.0037043137,-0.0063527785,0.34906584,2.2207317e-07,2.2178779e-07,1.5440887e-06,2490402,0.12585877,-0.22596526,-0.029651731,0.4,0.010549062,0.012349908,0.00048977224,458770,0.0,0.0,0.0,0.5,0.0025000002,0.0025000002,0.0025000002,1,0,1,0,1,0
40929607,40828140,2490402,0.0021549177,0.0037057411,-0.006352717,0.34906584,2.222762e-07,2.2198104e-07,1.5442924e-06,2490402,0.12857786,-0.22517231,-0.030666886,0.4,0.010509673,0.0123465555,0.00048977206,458770,0.0,0.0,0.0,0.5,0.0025000002,0.0025000002,0.0025000002,1,0,1,0,1,0
41010446,40908970,2490402,0.0021568271,0.0037083903,-0.0064222794,0.34906584,2.2308761e-07,2.2278985e-07,1.538805e-06,2490402,0.12958026,-0.22494851,-0.030846866,0.4,0.010504693,0.012346151,0.00048977294,458770,0.0,0.0,0.0,0.5,0.0025000002,0.0025000002,0.0025000002,1,0,1,0,1,0
41061125,40959490,2490402,0.0021583987,0.0037122155,-0.0064915237,0.34906584,2.2359141e-07,2.2328176e-07,1.5330297e-06,2490402,0.13276973,-0.22408505,-0.03189515,0.4,0.010465198,0.0123427985,0.0004897723,458770,0.0,0.0,0.0,0.5,0.0025000002,0.0025000002,0.0025000002,1,0,1,0,1,0
41161990,41060528,2490402,0.002160185,0.0037149491,-0.006559873,0.34906584,2.2460694e-07,2.2429457e-07,1.5277833e-06,2490402,0.13407448,-0.22376461,-0.032176685,0.4,0.010459951,0.0123423645,0.0004897729,458770,0.0,0.0,0.0,0.5,0.0025000002,0.0025000002,0.0025000002,1,0,1,0,1,0
41182206,41080736,2490402,0.0021616248,0.0037181354,-0.0066188695,0.34906584,2.2480506e-07,2.2448108e-07,1.52174e-06,2490402,0.1365218,-0.22313163,-0.033020828,0.4,0.010425295,0.012339604,0.00048977253,458770,0.0,0.0,0.0,0.5,0.0025000002,0.0025000002,0.0025000002,1,0,1,0,1,0
41263039,41161567,2490402,0.0021631,0.0037203692,-0.006675088,0.34906584,2.256162e-07,2.2528945e-07,1.5163245e-06,2490402,0.13754743,-0.22288965,-0.033238694,0.4,0.01042,0.0123391505,0.0004897724,458770,0.0,0.0,0.0,0.5,0.0025000002,0.0025000002,0.0025000002,1,0,1,0,1,0
41313595,41212086,2490402,0.0021628211,0.003721499,-0.0066750515,0.34906584,2.2612622e-07,2.2579e-07,1.5168358e-06,2490402,0.13968453,-0.22228238,-0.03411053,0.4,0.010385291,0.012336375,0.0004897727,458770,0.0,0.0,0.0,0.5,0.0025000002,0.0025000002,0.0025000002,1,0,1,0,1,0
41394429,41292917,2490402,0.002166022,0.0037256654,-0.006789131,0.34906584,2.2693231e-07,2.2659131e-07,1.5052563e-06,2490402,0.14082274,-0.22208522,-0.03425215,0.4,0.010382308,0.012336147,0.00048977527,458770,0.0,0.0,0.0,0.5,0.0025000002,0.0025000002,0.0025000002,1,0,1,0,1,0
41434826,41333333,2490402,0.002165753,0.0037267306,-0.0067890882,0.34906584,2.2734e-07,2.269898e-07,1.5056631e-06,2490402,0.14287019,-0.22149989,-0.035094284,0.4,0.010349869,0.012333536,0.00048977224,458770,0.0,0.0,0.0,0.5,0.0025000002,0.0025000002,0.0025000002,1,0,1,0,1,0
41515968,41414164,2490402,0.0021671136,0.0037290181,-0.006843458,0.34906584,2.2815122e-07,2.2779815e-07,1.5003153e-06,2490402,0.14415202,-0.22119029,-0.035402354,0.4,0.010344377,0.012333066,0.0004897722,458770,0.0,0.0,0.0,0.5,0.0025000002,0.0025000002,0.0025000002,1,0,1,0,1,0
41556111,41454579,2490402,0.002168375,0.0037319276,-0.0068931216,0.34906584,2.2855437e-07,2.2819025e-07,1.4945833e-06,2490402,0.14649127,-0.22060657,-0.036332536,0.4,0.01031659,0.012330966,0.00048977253,458770,0.0,0.0,0.0,0.5,0.0025000002,0.0025000002,0.0025000002,1,0,1,0,1,0
41616697,41515203,2490402,0.002169516,0.003733794,-0.00693822,0.34906584,2.291612e-07,2.2879415e-07,1.4890749e-06,2490402,0.14747359,-0.22037795,-0.036562957,0.4,0.010311103,0.012330481,0.0004897718,458770,0.0,0.0,0.0,0.5,0.0025000002,0.0025000002,0.0025000002,1,0,1,0,1,0
41687414,41585929,2490402,0.0021703052,0.003736058,-0.0069727413,0.34906584,2.29871e-07,2.2949277e-07,1.4836968e-06,2490402,0.14961179,-0.21982135,-0.03741525,0.4,0.010282891,0.012328329,0.0004897729,458770,0.0,0.0,0.0,0.5,0.0025000002,0.0025000002,0.0025000002,1,0,1,0,1,0
41768213,41666760,2490402,0.0021707318,0.003737219,-0.0069948365,0.34906584,2.3068242e-07,2.3030113e-07,1.4784403e-06,2490402,0.15068947,-0.21953045,-0.03772578,0.4,0.010277297,0.012327852,0.0004897727,458770,0.0,0.0,0.0,0.5,0.0025000002,0.0025000002,0.0025000002,1,0,1,0,1,0
41808636,41707176,2490402,0.0021706691,0.0037379058,-0.006994799,0.34906584,2.3109047e-07,2.3070122e-07,1.4788471e-06,2490402,0.15185095,-0.21920946,-0.03830907,0.4,0.010254456,0.0123261,0.00048977224,458770,0.0,0.0,0.0,0.5,0.0025000002,0.0025000002,0.0025000002,1,0,1,0,1,0
41869260,41767800,2490402,0.0021709506,0.0037389365,-0.0070124506,0.34906584,2.316975e-07,2.3130515e-07,1.4734077e-06,2490402,0.1529683,-0.21889912,-0.038642284,0.4,0.010248899,0.012325609,0.0004897714,458770,0.0,0.0,0.0,0.5,0.0025000002,0.0025000002,0.0025000002,1,0,1,0,1,0
41970373,41868837,2490402,0.0021714955,0.0037403975,-0.0070384536,0.34906584,2.3270934e-07,2.3230466e-07,1.4624034e-06,2490402,0.15430282,-0.2185373,-0.03910491,0.4,0.010223667,0.012323653,0.00048977305,458770,0.0,0.0,0.0,0.5,0.0025000002,0.0025000002,0.0025000002,1,0,1,0,1,0
42071333,41969876,2490402,0.0021718664,0.003741522,-0.0070589627,0.34906584,2.3372513e-07,2.3331214e-07,1.4574425e-06,2490402,0.15539637,-0.21823174,-0.039439064,0.4,0.010202039,0.012321845,0.0004897726,458770,0.0,0.0,0.0,0.5,0.0025000002,0.0025000002,0.0025000002,1,0,1,0,1,0
42172398,42070915,2490402,0.0021724424,0.003742866,-0.0070867087,0.34906584,2.3474115e-07,2.3432483e-07,1.4525058e-06,2490402,0.15645958,-0.21793808,-0.039743572,0.4,0.010196409,0.012321362,0.0004897724,458770,0.0,0.0,0.0,0.5,0.0025000002,0.0025000002,0.0025000002,1,0,1,0,1,0
42222901,42121434,2490402,0.002173358,0.00374461,-0.0071220878,0.34906584,2.3524723e-07,2.3482379e-07,1.4470761e-06,2490402,0.15768492,-0.21760038,-0.040292457,0.4,0.010180023,0.012320005,0.0004897728,458770,0.0,0.0,0.0,0.5,0.0025000002,0.0025000002,0.0025000002,1,0,1,0,1,0
42374456,42272992,2490402,0.0021748273,0.0037472467,-0.0071884003,0.34906584,2.3676965e-07,2.3633645e-07,1.4367968e-06,2490402,0.15895364,-0.21723588,-0.040448915,0.4,0.010160251,0.012318271,0.0004897726,458770,0.0,0.0,0.0,0.5,0.0025000002,0.0025000002,0.0025000002,1,0,1,0,1,0
42526004,42424550,2490402,0.0021744624,0.0037476763,-0.0071834363,0.34906584,2.3829267e-07,2.3785076e-07,1.4265921e-06,2490402,0.16035296,-0.21682596,-0.041000035,0.4,0.010143178,0.0123167215,0.00048977253,458770,0.0,0.0,0.0,0.5,0.0025000002,0.0025000002,0.0025000002,1,0,1,0,1,0
42829121,42727666,2490402,0.0021708314,0.0037440218,-0.007058438,0.34906584,2.413374e-07,2.408828e-07,1.4063772e-06,2490402,0.16131407,-0.21665403,-0.041320223,0.4,0.010115718,0.0123140095,0.00048977253,458770,0.0,0.0,0.0,0.5,0.0025000002,0.0025000002,0.0025000002,1,0,1,0,1,0
43081757,42980263,2490402,0.0021681702,0.0037423247,-0.0069779963,0.34906584,2.438745e-07,2.434087e-07,1.3916484e-06,2490402,0.16236037,-0.21644937,-0.041270822,0.4,0.010101729,0.012312591,0.00048977224,458770,0.0,0.0,0.0,0.5,0.0025000002,0.0025000002,0.0025000002,1,0,1,0,1,0
43283793,43182340,2490402,0.0021667457,0.0037412818,-0.0069305897,0.34906584,2.4590318e-07,2.4542365e-07,1.3765924e-06,2490402,0.16342136,-0.21618347,-0.0417044,0.4,0.010092234,0.012311648,0.0004897724,458770,0.0,0.0,0.0,0.5,0.0025000002,0.0025000002,0.0025000002,1,0,1,0,1,0
43415203,43313690,2490402,0.0013931841,0.00077623344,-0.0075156973,0.34906584,1.9264718e-07,1.9200587e-07,1.3595876e-06,2490402,0.11301625,-0.4329831,-0.13745257,0.4,0.009793406,0.011929551,0.0004897726,458770,0.0,0.0,0.0,0.5,0.0025000002,0.0025000002,0.0025000002,1,0,1,0,1,0
43425217,43323794,2490402,0.001393184,0.0007762334,-0.0075156963,0.34906584,1.9274923e-07,1.9210792e-07,1.3596893e-06,2490402,0.11301624,-0.4,-0.13745256,0.4,0.009793405,0.011929549,0.0004897734,458770,0.0,0.0,0.0,0.5,0.0025000002,0.0025000002,0.0025000002,1,0,1,0,1,0
43546461,43445040,2490402,0.0013873026,0.00077168155,-0.007388359,0.34906584,1.9394349e-07,1.9331864e-07,1.3498089e-06,2490402,0.112001345,-0.39968914,-0.13750596,0.4,0.009785575,0.011929231,0.0004897738,458770,0.0,0.0,0.0,0.5,0.0025000002,0.0025000002,0.0025000002,1,0,1,0,1,0
43617442,43515768,2490402,0.0012643511,0.0018576359,-0.005002072,0.34906584,1.8959099e-07,1.9124818e-07,1.1615153e-06,2490402,0.09440004,-0.3387832,-0.09804752,0.4,0.009527997,0.011844924,0.0004897722,458770,0.0,0.0,0.0,0.5,0.0025000002,0.0025000002,0.0025000002,1,0,1,0,1,0
43819314,43717845,2490402,0.0013972349,0.002953828,-0.0044549145,0.34906584,1.8811902e-07,1.9022404e-07,1.083192e-06,2490402,0.05039452,-0.34537706,-0.07555366,0.4,0.009339935,0.011806084,0.0004897723,458770,0.0,0.0,0.0,0.5,0.0025000002,0.0025000002,0.0025000002,1,0,1,0,1,0
44021391,43919922,2490402,0.0015743552,0.0038221646,-0.0039455052,0.34906584,1.8732901e-07,1.8940543e-07,1.0424636e-06,2490402,0.02404479,-0.36502796,-0.057823177,0.4,0.009215843,0.011784445,0.0004897726,458770,0.0,0.0,0.0,0.5,0.0025000002,0.0025000002,0.0025000002,1,0,1,0,1,0
44223454,44121999,2490402,0.001652031,0.004623031,-0.003579807,0.34906584,1.868063e-07,1.884827e-07,1.014552e-06,2490402,0.017249161,-0.39631125,-0.050630216,0.4,0.009109714,0.011777476,0.00048977294,458770,0.0,0.0,0.0,0.5,0.0025000002,0.0025000002,0.0025000002,1,0,1,0,1,0
44425519,44324077,2490402,0.0017164323,0.0053605763,-0.0032755667,0.34906584,1.8646105e-07,1.875906e-07,9.940444e-07,2490402,0.018342515,-0.42828527,-0.05278883,0.4,0.009011871,0.01176646,0.0004897723,458770,0.0,0.0,0.0,0.5,0.0025000002,0.0025000002,0.0025000002,1,0,1,0,1,0
44435588,44334181,2490402,0.0017164244,0.0053605824,-0.0032755656,0.34906584,1.8656311e-07,1.8769266e-07,9.941463e-07,2490402,0.018353166,-0.40000135,-0.052782677,0.4,0.009011869,0.011766458,0.000489773,458770,0.0,0.0,0.0,0.5,0.0025000002,0.0025000002,0.0025000002,1,0,1,0,1,0
44627589,44526154,2490402,0.0017306368,0.0059246747,-0.0030945567,0.34906584,1.8616785e-07,1.868792e-07,9.859925e-07,2490402,0.015593811,-0.4277961,-0.0466467,0.4,0.0089437375,0.011759239,0.00048977253,458770,0.0,0.0,0.0,0.5,0.0025000002,0.0025000002,0.0025000002,1,0,1,0,1,0
44637662,44536258,2490402,0.001730128,0.005925151,-0.0031018401,0.34906584,1.8626031e-07,1.869728e-07,9.841237e-07,2490402,0.015644388,-0.40006202,-0.04665071,0.4,0.008943642,0.011759094,0.0004897727,458770,0.0,0.0,0.0,0.5,0.0025000002,0.0025000002,0.0025000002,1,0,1,0,1,0
44799328,44697920,2490402,0.0017299672,0.005926077,-0.0031154945,0.34906584,1.8787097e-07,1.885892e-07,9.817942e-07,2490402,0.014632328,-0.4000556,-0.04672022,0.4,0.008936542,0.011758481,0.0004897723,458770,0.0,0.0,0.0,0.5,0.0025000002,0.0025000002,0.0025000002,1,0,1,0,1,0
44829731,44728231,2490402,0.0017579953,0.0063114814,-0.0029519566,0.34906584,1.8578118e-07,1.8637421e-07,9.805485e-07,2490402,0.01130174,-0.42001426,-0.03318868,0.4,0.008900356,0.011748591,0.00048977294,458770,0.0,0.0,0.0,0.5,0.0025000002,0.0025000002,0.0025000002,1,0,1,0,1,0
44839698,44738335,2490402,0.001757995,0.00631148,-0.002951956,0.34906584,1.8588321e-07,1.8647624e-07,9.806504e-07,2490402,0.011301738,-0.39999992,-0.03318867,0.4,0.008900354,0.011748589,0.0004897737,458770,0.0,0.0,0.0,0.5,0.0025000002,0.0025000002,0.0025000002,1,0,1,0,1,0
45031759,44930309,2490402,0.0017221487,0.006738277,-0.002863473,0.34906584,1.8546396e-07,1.8572521e-07,9.746439e-07,2490402,0.016343502,-0.4178429,-0.033346176,0.4,0.008853355,0.011740078,0.0004897724,458770,0.0,0.0,0.0,0.5,0.0025000002,0.0025000002,0.0025000002,1,0,1,0,1,0
45041768,44940413,2490402,0.0017221486,0.0067382767,-0.0028634728,0.34906584,1.8556601e-07,1.8582728e-07,9.747457e-07,2490402,0.0163435,-0.39999995,-0.033346172,0.4,0.0088533545,0.011740076,0.0004897732,458770,0.0,0.0,0.0,0.5,0.0025000002,0.0025000002,0.0025000002,1,0,1,0,1,0
45203552,45102074,2490402,0.0017219072,0.0067392373,-0.002876259,0.34906584,1.8717239e-07,1.8744274e-07,9.724231e-07,2490402,0.01530349,-0.40006703,-0.03334137,0.4,0.008846719,0.011739456,0.00048977317,458770,0.0,0.0,0.0,0.5,0.0025000002,0.0025000002,0.0025000002,1,0,1,0,1,0
45233849,45132386,2490402,0.0017039737,0.007181685,-0.0027530508,0.34906584,1.8532779e-07,1.8521948e-07,9.679604e-07,2490402,0.019591901,-0.41547975,-0.03247353,0.4,0.008797501,0.011734091,0.0004897726,458770,0.0,0.0,0.0,0.5,0.0025000002,0.0025000002,0.0025000002,1,0,1,0,1,0
45243871,45142490,2490402,0.0017039736,0.0071816845,-0.0027530505,0.34906584,1.8542984e-07,1.8532154e-07,9.680623e-07,2490402,0.0195919,-0.4,-0.03247353,0.4,0.0087975,0.011734089,0.0004897734,458770,0.0,0.0,0.0,0.5,0.0025000002,0.0025000002,0.0025000002,1,0,1,0,1,0
45405550,45304152,2490402,0.0017020924,0.007184039,-0.002786368,0.34906584,1.870328e-07,1.8693623e-07,9.657477e-07,2490402,0.018477255,-0.4000764,-0.032541305,0.4,0.008791129,0.011733429,0.0004897724,458770,0.0,0.0,0.0,0.5,0.0025000002,0.0025000002,0.0025000002,1,0,1,0,1,0
45436004,45334467,2490402,0.0016405041,0.007514496,-0.0027596327,0.34906584,1.8510116e-07,1.8478651e-07,9.635581e-07,2490402,0.022525681,-0.40968874,-0.025986569,0.4,0.008760406,0.011730091,0.00048976915,458770,0.0,0.0,0.0,0.5,0.0025000002,0.0025000002,0.0025000002,1,0,1,0,1,0
45445939,45344568,2490402,0.0016405089,0.0075145178,-0.0027596408,0.34906584,1.852043e-07,1.8488966e-07,9.636658e-07,2490402,0.022525748,-0.40000117,-0.025986645,0.4,0.008760457,0.01173016,0.0004897729,458770,0.0,0.0,0.0,0.5,0.0025000002,0.0025000002,0.0025000002,1,0,1,0,1,0
45637973,45536541,2490402,0.0015240054,0.0076733003,-0.0028626735,0.34906584,1.8463072e-07,1.8438395e-07,9.610636e-07,2490402,0.025461137,-0.40153515,-0.015572103,0.4,0.008745798,0.011722925,0.00048977224,458770,0.0,0.0,0.0,0.5,0.0025000002,0.0025000002,0.0025000002,1,0,1,0,1,0
45648052,45546645,2490402,0.0015233686,0.007673808,-0.0028702023,0.34906584,1.8471856e-07,1.8447695e-07,9.591752e-07,2490402,0.025516273,-0.40007392,-0.0155771915,0.4,0.008745691,0.011722733,0.0004897722,458770,0.0,0.0,0.0,0.5,0.0025000002,0.0025000002,0.0025000002,1,0,1,0,1,0
45759187,45657787,2490402,0.0015237879,0.0076740673,-0.0028734433,0.34906584,1.8582561e-07,1.8559098e-07,9.583031e-07,2490402,0.024474034,-0.40008458,-0.015621984,0.4,0.008741236,0.011722335,0.0004897726,458770,0.0,0.0,0.0,0.5,0.0025000002,0.0025000002,0.0025000002,1,0,1,0,1,0
45840264,45738618,2490402,0.0015907813,0.007885376,-0.0027244622,0.34906584,1.8432198e-07,1.8427684e-07,9.559104e-07,2490402,0.025657106,-0.40119642,-0.014072632,0.4,0.00872485,0.011718624,0.00048977253,458770,0.0,0.0,0.0,0.5,0.0025000002,0.0025000002,0.0025000002,1,0,1,0,1,0
45850115,45748722,2490402,0.001590781,0.007885375,-0.0027244617,0.34906584,1.8442401e-07,1.8437888e-07,9.560123e-07,2490402,0.025657102,-0.39999995,-0.01407263,0.4,0.008724849,0.011718623,0.00048977335,458770,0.0,0.0,0.0,0.5,0.0025000002,0.0025000002,0.0025000002,1,0,1,0,1,0
46011764,45910384,2490402,0.0015884549,0.007888185,-0.0027631978,0.34906584,1.8601193e-07,1.8598277e-07,9.5163574e-07,2490402,0.024477208,-0.40007797,-0.014119327,0.4,0.008718897,0.011717764,0.0004897732,458770,0.0,0.0,0.0,0.5,0.0025000002,0.0025000002,0.0025000002,1,0,1,0,1,0
46042168,45940695,2490402,0.0018470206,0.008073529,-0.0024251828,0.34906584,1.8398963e-07,1.8448384e-07,9.4547784e-07,2490402,0.023093486,-0.40367118,-0.016360223,0.4,0.008705407,0.011688792,0.00048977294,458770,0.0,0.0,0.0,0.5,0.0025000002,0.0025000002,0.0025000002,1,0,1,0,1,0
46052174,45950799,2490402,0.0018470202,0.008073527,-0.0024251821,0.34906584,1.8409166e-07,1.8458587e-07,9.4557964e-07,2490402,0.02309348,-0.39999992,-0.01636022,0.4,0.0087054055,0.01168879,0.0004897737,458770,0.0,0.0,0.0,0.5,0.0025000002,0.0025000002,0.0025000002,1,0,1,0,1,0
46244213,46142773,2490402,0.0020466556,0.008227709,-0.0022357125,0.34906584,1.8362796e-07,1.8462848e-07,9.3764186e-07,2490402,0.021040285,-0.4028359,-0.020677477,0.4,0.008691045,0.011668922,0.0004897723,458770,0.0,0.0,0.0,0.5,0.0025000002,0.0025000002,0.0025000002,1,0,1,0,1,0
46254244,46152877,2490402,0.0020466554,0.008227708,-0.0022357123,0.34906584,1.8373002e-07,1.8473052e-07,9.377438e-07,2490402,0.021040283,-0.39999998,-0.020677475,0.4,0.0086910445,0.011668921,0.0004897731,458770,0.0,0.0,0.0,0.5,0.0025000002,0.0025000002,0.0025000002,1,0,1,0,1,0
46415931,46314538,2490402,0.0020456382,0.00822952,-0.0022565534,0.34906584,1.8533358e-07,1.8633781e-07,9.354598e-07,2490402,0.020037346,-0.40007308,-0.020705491,0.4,0.008685479,0.011668288,0.0004897774,458770,0.0,0.0,0.0,0.5,0.0025000002,0.0025000002,0.0025000002,1,0,1,0,1,0
46446289,46344850,2490402,0.002208767,0.008387866,-0.0020827581,0.34906584,1.8335835e-07,1.8474641e-07,9.313495e-07,2490402,0.018285742,-0.40251213,-0.02029573,0.4,0.008676735,0.011658141,0.00048977253,458770,0.0,0.0,0.0,0.5,0.0025000002,0.0025000002,0.0025000002,1,0,1,0,1,0
46456307,46354954,2490402,0.0022087665,0.008387865,-0.002082758,0.34906584,1.834604e-07,1.8484846e-07,9.314514e-07,2490402,0.01828574,-0.39999995,-0.020295726,0.4,0.008676734,0.01165814,0.00048977335,458770,0.0,0.0,0.0,0.5,0.0025000002,0.0025000002,0.0025000002,1,0,1,0,1,0
46618068,46516616,2490402,0.0022064454,0.0083912695,-0.0021208958,0.34906584,1.8506393e-07,1.864528e-07,9.291706e-07,2490402,0.017175611,-0.400083,-0.020336868,0.4,0.0086712735,0.011657483,0.0004897744,458770,0.0,0.0,0.0,0.5,0.0025000002,0.0025000002,0.0025000002,1,0,1,0,1,0
46648414,46546927,2490402,0.0023946827,0.008540204,-0.0019463283,0.34906584,1.8308687e-07,1.849052e-07,9.2466075e-07,2490402,0.013695451,-0.40401646,-0.01982123,0.4,0.00866307,0.011643061,0.0004897728,458770,0.0,0.0,0.0,0.5,0.0025000002,0.0025000002,0.0025000002,1,0,1,0,1,0
46658390,46557031,2490402,0.0023946825,0.008540203,-0.001946328,0.34906584,1.8318889e-07,1.8500722e-07,9.247625e-07,2490402,0.01369545,-0.39999995,-0.019821228,0.4,0.008663067,0.011643058,0.0004897736,458770,0.0,0.0,0.0,0.5,0.0025000002,0.0025000002,0.0025000002,1,0,1,0,1,0
46820099,46718693,2490402,0.0023919262,0.008544286,-0.0019899348,0.34906584,1.847929e-07,1.866087e-07,9.224937e-07,2490402,0.012595386,-0.40008682,-0.01982899,0.4,0.008657726,0.011642402,0.00048977253,458770,0.0,0.0,0.0,0.5,0.0025000002,0.0025000002,0.0025000002,1,1,1,0,1,0
46850497,46749005,2490402,0.0025119863,0.008664269,-0.0018731029,0.34906584,1.8277174e-07,1.849161e-07,9.2156563e-07,2490402,0.009838584,-0.4043425,-0.020409692,0.4,0.008652074,0.01163534,0.00048977224,458770,0.0,0.0,0.0,0.5,0.0025000002,0.0025000002,0.0025000002,1,1,1,0,1,0
46860517,46759109,2490402,0.0025108503,0.008665545,-0.0018868241,0.34906584,1.8286043e-07,1.8500128e-07,9.1971776e-07,2490402,0.009945782,-0.4001341,-0.02042009,0.4,0.008651954,0.0116351545,0.0004897722,458770,0.0,0.0,0.0,0.5,0.0025000002,0.0025000002,0.0025000002,1,1,1,0,1,0
47022295,46920770,2490402,0.002509743,0.008667774,-0.0019095406,0.34906584,1.8446559e-07,1.8660124e-07,9.1743675e-07,2490402,0.008867819,-0.40008765,-0.020440437,0.4,0.008646746,0.011634524,0.0004897781,458770,0.0,0.0,0.0,0.5,0.0025000002,0.0025000002,0.0025000002,1,1,1,0,1,0
47052586,46951082,2490402,0.0025575827,0.008808093,-0.0018636386,0.34906584,1.8250118e-07,1.8474697e-07,9.1752986e-07,2490402,0.00800632,-0.4058485,-0.019532796,0.4,0.00863922,0.011630474,0.00048977253,458770,0.0,0.0,0.0,0.5,0.0025000002,0.0025000002,0.0025000002,1,1,1,0,1,0
47062657,46961186,2490402,0.0025575813,0.008808092,-0.0018636385,0.34906584,1.8260324e-07,1.8484903e-07,9.176318e-07,2490402,0.008007662,-0.4000012,-0.019529564,0.4,0.008639219,0.011630473,0.0004897732,458770,0.0,0.0,0.0,0.5,0.0025000002,0.0025000002,0.0025000002,1,1,1,0,1,0
47254622,47153163,2490402,0.0025730524,0.008935588,-0.0019045188,0.34906584,1.8219608e-07,1.8450145e-07,9.135271e-07,2490402,0.0070791207,-0.4059659,-0.018714065,0.4,0.008626818,0.011624228,0.000489769,458770,0.0,0.0,0.0,0.5,0.0025000002,0.0025000002,0.0025000002,1,1,1,0,1,0
47264637,47163263,2490402,0.0025730624,0.008935623,-0.0019045261,0.34906584,1.8229957e-07,1.8460497e-07,9.1363626e-07,2490402,0.007079148,-0.40000156,-0.018714136,0.4,0.008626886,0.0116243195,0.00048977375,458770,0.0,0.0,0.0,0.5,0.0025000002,0.0025000002,0.0025000002,1,1,1,0,1,0
47456772,47355237,2490402,0.0025884903,0.009012852,-0.0019818847,0.34906584,1.8178082e-07,1.8424095e-07,9.0907344e-07,2490402,0.0061308993,-0.40408283,-0.020457271,0.4,0.008615922,0.011615948,0.0004897723,458770,0.0,0.0,0.0,0.5,0.0025000002,0.0025000002,0.0025000002,1,1,1,0,1,0
47466713,47365341,2490402,0.00258849,0.009012851,-0.0019818847,0.34906584,1.8188288e-07,1.84343e-07,9.0917536e-07,2490402,0.006130899,-0.39999998,-0.02045727,0.4,0.008615921,0.011615947,0.00048977317,458770,0.0,0.0,0.0,0.5,0.0025000002,0.0025000002,0.0025000002,1,1,1,0,1,0
47658781,47557314,2490402,0.0026363407,0.008985298,-0.002018476,0.34906584,1.811748e-07,1.8402835e-07,9.046718e-07,2490402,0.00261287,-0.3979205,-0.02416329,0.4,0.008602496,0.011603883,0.0004897726,458770,0.0,0.0,0.0,0.5,0.0025000002,0.0025000002,0.0025000002,1,1,1,0,1,0
47779942,47678560,2490402,0.0026335858,0.008989744,-0.0020645014,0.34906584,1.823774e-07,1.8521821e-07,9.019303e-07,2490402,0.0018048469,-0.3986559,-0.02420419,0.4,0.0085988585,0.011603301,0.00048977946,458770,0.0,0.0,0.0,0.5,0.0025000002,0.0025000002,0.0025000002,1,1,1,0,1,0
47860858,47759392,2490402,0.002653467,0.008961135,-0.002070874,0.34906584,1.8065457e-07,1.8375852e-07,8.9885214e-07,2490402,0.00013028587,-0.39709258,-0.02317122,0.4,0.008589287,0.011591576,0.00048977206,458770,0.0,0.0,0.0,0.5,0.0025000002,0.0025000002,0.0025000002,1,1,1,0,1,0
47982023,47880638,2490402,0.0026512637,0.008965068,-0.002111522,0.34906584,1.8185972e-07,1.8494838e-07,8.9610853e-07,2490402,-0.0007163053,-0.3977721,-0.023205675,0.4,0.008585732,0.011590991,0.0004897753,458770,0.0,0.0,0.0,0.5,0.0025000002,0.0025000002,0.0025000002,1,1,1,0,1,0
48063182,47961469,2490402,0.002575196,0.008964922,-0.0021854124,0.34906584,1.8023256e-07,1.8327442e-07,8.93403e-07,2490402,0.0032066957,-0.39789832,-0.019373588,0.4,0.008575945,0.011574965,0.0004897723,458770,0.0,0.0,0.0,0.5,0.0025000002,0.0025000002,0.0025000002,1,1,1,0,1,0
48184228,48082715,2490402,0.0025719595,0.00897034,-0.0022432408,0.34906584,1.8143982e-07,1.8446623e-07,8.9066356e-07,2490402,0.002531685,-0.39875886,-0.019374901,0.4,0.00857248,0.011574397,0.0004897728,458770,0.0,0.0,0.0,0.5,0.0025000002,0.0025000002,0.0025000002,1,1,1,0,1,0
48265024,48163546,2490402,0.0025883429,0.008992953,-0.0022629332,0.34906584,1.7986436e-07,1.8300646e-07,8.889193e-07,2490402,0.0013852874,-0.40081567,-0.019423379,0.4,0.008562377,0.01155871,0.0004897727,458770,0.0,0.0,0.0,0.5,0.0025000002,0.0025000002,0.0025000002,1,1,1,0,1,0
48345732,48244377,2490402,0.0025869082,0.008995733,-0.0022923937,0.34906584,1.8067253e-07,1.838063e-07,8.877459e-07,2490402,0.0007498925,-0.39999995,-0.01944909,0.4,0.008560131,0.01155838,0.0004897746,458770,0.0,0.0,0.0,0.5,0.0025000002,0.0025000002,0.0025000002,1,1,1,0,1,0
48467071,48365623,2490402,0.0025609059,0.008971504,-0.002338405,0.34906584,1.794617e-07,1.82664e-07,8.8574393e-07,2490402,0.0015927764,-0.39815024,-0.016726986,0.4,0.0085475175,0.011540746,0.00048977294,458770,0.0,0.0,0.0,0.5,0.0025000002,0.0025000002,0.0025000002,1,1,1,0,1,0
48588297,48486870,2490402,0.0025573696,0.008977797,-0.0024068723,0.34906584,1.806718e-07,1.8385605e-07,8.82992e-07,2490402,0.00092912896,-0.39910686,-0.016762206,0.4,0.008544192,0.011540135,0.00048977486,458770,0.0,0.0,0.0,0.5,0.0025000002,0.0025000002,0.0025000002,1,1,1,0,1,0
48669141,48567701,2490402,0.0024302232,0.0088479575,-0.0025130997,0.34906584,1.7895111e-07,1.8207493e-07,8.7694997e-07,2490402,0.00813478,-0.388462,-0.009312004,0.4,0.008527852,0.011514577,0.0004897724,458770,0.0,0.0,0.0,0.5,0.0025000002,0.0025000002,0.0025000002,1,1,1,0,1,0
48790419,48688948,2490402,0.0024272872,0.00885367,-0.0025777877,0.34906584,1.8016434e-07,1.8327007e-07,8.742581e-07,2490402,0.007472638,-0.38936144,-0.009369664,0.4,0.00852462,0.011513993,0.0004897797,458770,0.0,0.0,0.0,0.5,0.0025000002,0.0025000002,0.0025000002,1,1,1,0,1,0
48871274,48769778,2490402,0.0022341374,0.0086517455,-0.0026992997,0.34906584,1.7841082e-07,1.8133822e-07,8.648854e-07,2490402,0.017278867,-0.37053943,-0.0029994205,0.4,0.008504519,0.011480738,0.0004897728,458770,0.0,0.0,0.0,0.5,0.0025000002,0.0025000002,0.0025000002,1,1,1,0,1,0
48992466,48891025,2490402,0.002232742,0.008655342,-0.0027423156,0.34906584,1.7962725e-07,1.8253766e-07,8.6230403e-07,2490402,0.016289676,-0.37124535,-0.003034302,0.4,0.00850138,0.011480201,0.00048977573,458770,0.0,0.0,0.0,0.5,0.0025000002,0.0025000002,0.0025000002,1,1,1,0,1,0
49073379,48971856,2490402,0.0020929046,0.008516824,-0.0028211414,0.34906584,1.7800394e-07,1.8077577e-07,8.5732296e-07,2490402,0.022796212,-0.35797843,-0.0012871438,0.4,0.00848868,0.01145707,0.00048977224,458770,0.0,0.0,0.0,0.5,0.0025000002,0.0025000002,0.0025000002,1,1,1,0,1,0
49194596,49093102,2490402,0.0020917417,0.008520071,-0.0028620327,0.34906584,1.7922258e-07,1.8197822e-07,8.5478507e-07,2490402,0.021911116,-0.358611,-0.0012880255,0.4,0.008485638,0.011456581,0.00048977253,458770,0.0,0.0,0.0,0.5,0.0025000002,0.0025000002,0.0025000002,1,1,1,0,1,0
49275534,49173933,2490402,0.0019408037,0.008427936,-0.0029183088,0.34906584,1.7768775e-07,1.8023627e-07,8.511469e-07,2490402,0.028507516,-0.34908056,-0.0020310539,0.4,0.008476293,0.011434586,0.0004897724,458770,0.0,0.0,0.0,0.5,0.0025000002,0.0025000002,0.0025000002,1,1,1,0,1,0
49396624,49295179,2490402,0.0019411005,0.008428401,-0.002923465,0.34906584,1.7891006e-07,1.8145143e-07,8.505046e-07,2490402,0.02738762,-0.34939763,-0.002043359,0.4,0.008473356,0.0114342775,0.00048978056,458770,0.0,0.0,0.0,0.5,0.0025000002,0.0025000002,0.0025000002,1,1,1,0,1,0
49477559,49376010,2490402,0.0016592449,0.008406301,-0.002977007,0.34906584,1.7746223e-07,1.7950858e-07,8.4425204e-07,2490402,0.039256465,-0.34208295,-0.00521178,0.4,0.008465717,0.011388035,0.0004897728,458770,0.0,0.0,0.0,0.5,0.0025000002,0.0025000002,0.0025000002,1,1,1,0,1,0
49598697,49497257,2490402,0.0016597032,0.008406398,-0.0029772238,0.34906584,1.7868233e-07,1.807175e-07,8.418049e-07,2490402,0.03808133,-0.34234694,-0.0051981844,0.4,0.008462798,0.01138759,0.00048977294,458770,0.0,0.0,0.0,0.5,0.0025000002,0.0025000002,0.0025000002,1,1,1,0,1,0
49679650,49578088,2490402,0.0014561011,0.0084704785,-0.0029940398,0.34906584,1.773679e-07,1.7904827e-07,8.38526e-07,2490402,0.046299245,-0.34310496,-0.0056272345,0.4,0.008452998,0.011364203,0.00048977224,458770,0.0,0.0,0.0,0.5,0.0025000002,0.0025000002,0.0025000002,1,1,1,0,1,0
49800780,49699334,2490402,0.0014552373,0.008472935,-0.0030328652,0.34906584,1.7858814e-07,1.8025999e-07,8.3609956e-07,2490402,0.045200083,-0.343719,-0.0056613125,0.4,0.008450159,0.0113638155,0.0004897823,458770,0.0,0.0,0.0,0.5,0.0025000002,0.0025000002,0.0025000002,1,1,1,0,1,0
49881693,49780165,2490402,0.0013587656,0.0085136015,-0.0030529443,0.34906584,1.7726009e-07,1.7879987e-07,8.348412e-07,2490402,0.047767688,-0.3441837,-0.008294285,0.4,0.008442991,0.011355725,0.0004897727,458770,0.0,0.0,0.0,0.5,0.0025000002,0.0025000002,0.0025000002,1,1,1,0,1,0
50002857,49901411,2490402,0.0013579624,0.008515738,-0.0030878177,0.34906584,1.784803e-07,1.8001244e-07,8.3240184e-07,2490402,0.046784554,-0.34472215,-0.0083075175,0.4,0.00844021,0.011355353,0.0004897802,458770,0.0,0.0,0.0,0.5,0.0025000002,0.0025000002,0.0025000002,1,1,1,0,1,0
50083739,49982242,2490402,0.001212436,0.008515182,-0.0031167301,0.34906584,1.771512e-07,1.7853097e-07,8.3059774e-07,2490402,0.0489669,-0.343117,-0.009695634,0.4,0.008437302,0.011345531,0.00048977294,458770,0.0,0.0,0.0,0.5,0.0025000002,0.0025000002,0.0025000002,1,1,1,0,1,0
50204974,50103489,2490402,0.0012121235,0.00851644,-0.003137966,0.34906584,1.783713e-07,1.7974457e-07,8.281544e-07,2490402,0.04790631,-0.34353378,-0.009680321,0.4,0.008434558,0.011345147,0.00048977387,458770,0.0,0.0,0.0,0.5,0.0025000002,0.0025000002,0.0025000002,1,1,1,0,1,0
50286014,50184320,2490402,0.0010770774,0.008528756,-0.0031625202,0.34906584,1.7708277e-07,1.7832777e-07,8.265722e-07,2490402,0.048537366,-0.34246024,-0.010352552,0.4,0.008432238,0.0113376705,0.0004897723,458770,0.0,0.0,0.0,0.5,0.0025000002,0.0025000002,0.0025000002,1,1,1,0,1,0
50407035,50305566,2490402,0.0010770537,0.008529589,-0.0031763648,0.34906584,1.7830553e-07,1.7954792e-07,8.2596273e-07,2490402,0.047398716,-0.34285027,-0.010354359,0.4,0.008429582,0.011337433,0.00048978237,458770,0.0,0.0,0.0,0.5,0.0025000002,0.0025000002,0.0025000002,1,1,1,0,1,0
50487927,50386397,2490402,0.0010646693,0.008552598,-0.0031690588,0.34906584,1.7702382e-07,1.7830168e-07,8.229733e-07,2490402,0.04659263,-0.34255636,-0.013740706,0.4,0.008426664,0.011336019,0.0004897728,458770,0.0,0.0,0.0,0.5,0.0025000002,0.0025000002,0.0025000002,1,1,1,0,1,0
50609135,50507645,2490402,0.0010653264,0.008552438,-0.0031640474,0.34906584,1.7824587e-07,1.7952098e-07,8.2235135e-07,2490402,0.04528327,-0.34283605,-0.013733076,0.4,0.00842402,0.011335739,0.0004897769,458770,0.0,0.0,0.0,0.5,0.0025000002,0.0025000002,0.0025000002,1,1,1,0,1,0
50689978,50588475,2490402,0.0011124138,0.008672529,-0.0031210503,0.34906584,1.7707471e-07,1.783793e-07,8.1967926e-07,2490402,0.045000985,-0.3409203,-0.016734647,0.4,0.008413329,0.011331388,0.00048977224,458770,0.0,0.0,0.0,0.5,0.0025000002,0.0025000002,0.0025000002,1,1,1,0,1,0
50811220,50709721,2490402,0.0011130054,0.008672403,-0.0031165523,0.34906584,1.7829461e-07,1.7959316e-07,8.172225e-07,2490402,0.04384302,-0.34117767,-0.016677704,0.4,0.0084107425,0.011331049,0.00048977253,458770,0.0,0.0,0.0,0.5,0.0025000002,0.0025000002,0.0025000002,1,1,1,0,1,0
50892055,50790552,2490402,0.0011748006,0.008772319,-0.0030811627,0.34906584,1.7716437e-07,1.7853966e-07,8.147912e-07,2490402,0.044939943,-0.33926338,-0.010915279,0.4,0.008400932,0.011325786,0.00048977253,458770,0.0,0.0,0.0,0.5,0.0025000002,0.0025000002,0.0025000002,1,1,1,0,1,0
51013247,50911798,2490402,0.0011747765,0.008773148,-0.0030935223,0.34906584,1.7838381e-07,1.7975259e-07,8.1233856e-07,2490402,0.043804955,-0.33964923,-0.010906868,0.4,0.008398403,0.011325444,0.0004897816,458770,0.0,0.0,0.0,0.5,0.0025000002,0.0025000002,0.0025000002,1,1,1,0,1,0
51094224,50992629,2490402,0.00131865,0.008847035,-0.0030795394,0.34906584,1.7724811e-07,1.7884399e-07,8.0851356e-07,2490402,0.047012564,-0.33870432,0.0010661427,0.4,0.008388109,0.01130558,0.0004897729,458770,0.0,0.0,0.0,0.5,0.0025000002,0.0025000002,0.0025000002,1,1,1,0,1,0
51215377,51113876,2490402,0.0013176801,0.008849348,-0.003115221,0.34906584,1.78467e-07,1.8005466e-07,8.060853e-07,2490402,0.046004042,-0.3392636,0.0010728505,0.4,0.008385613,0.011305212,0.0004897746,458770,0.0,0.0,0.0,0.5,0.0025000002,0.0025000002,0.0025000002,1,1,1,0,1,0
51296347,51194707,2490402,0.0014466927,0.008846642,-0.003111783,0.34906584,1.7718831e-07,1.790521e-07,8.031384e-07,2490402,0.047202833,-0.3404049,0.0033984624,0.4,0.0083836615,0.01129246,0.0004897723,458770,0.0,0.0,0.0,0.5,0.0025000002,0.0025000002,0.0025000002,1,1,1,0,1,0
51417403,51315953,2490402,0.0014467821,0.008847315,-0.0031205295,0.34906584,1.7841043e-07,1.8026928e-07,8.0254443e-07,2490402,0.046143357,-0.34073988,0.0033987318,0.4,0.008381235,0.0112922285,0.00048978283,458770,0.0,0.0,0.0,0.5,0.0025000002,0.0025000002,0.0025000002,1,1,1,0,1,0
51498342,51396784,2490402,0.0015399411,0.008859538,-0.0031134277,0.34906584,1.7713936e-07,1.7919082e-07,8.005572e-07,2490402,0.04643554,-0.34150332,0.0045514423,0.4,0.008378838,0.011283374,0.0004897726,458770,0.0,0.0,0.0,0.5,0.0025000002,0.0025000002,0.0025000002,1,1,1,0,1,0
51619489,51518031,2490402,0.0015399347,0.008860395,-0.0031246203,0.34906584,1.7835875e-07,1.803985e-07,7.9814646e-07,2490402,0.045399692,-0.34185466,0.0045562168,0.4,0.008376424,0.011283022,0.000489779,458770,0.0,0.0,0.0,0.5,0.0025000002,0.0025000002,0.0025000002,1,1,1,0,1,0
51700383,51598862,2490402,0.0017064379,0.008879239,-0.0031145352,0.34906584,1.7707713e-07,1.7941788e-07,7.946443e-07,2490402,0.043813396,-0.3430865,0.0065147365,0.4,0.008373396,0.011258958,0.0004897722,458770,0.0,0.0,0.0,0.5,0.0025000002,0.0025000002,0.0025000002,1,1,1,0,1,0
51821572,51720108,2490402,0.0017062103,0.008880612,-0.0031319512,0.34906584,1.7829689e-07,1.8062363e-07,7.922557e-07,2490402,0.042776786,-0.34349677,0.0065184226,0.4,0.008371031,0.011258616,0.00048977346,458770,0.0,0.0,0.0,0.5,0.0025000002,0.0025000002,0.0025000002,1,1,1,0,1,0
51973141,51871670,2490402,0.0017060137,0.008881971,-0.0031495101,0.34906584,1.7982147e-07,1.8213413e-07,7.9015535e-07,2490402,0.041630566,-0.34394425,0.0065408624,0.4,0.00836863,0.011258166,0.00048977206,458770,0.0,0.0,0.0,0.5,0.0025000002,0.0025000002,0.0025000002,1,1,1,0,1,0
52124606,52023224,2490402,0.0017058008,0.008883319,-0.0031665396,0.34906584,1.8134719e-07,1.8364554e-07,7.8806164e-07,2490402,0.0404612,-0.34437016,0.006541059,0.4,0.008366387,0.0112579195,0.0004897777,458770,0.0,0.0,0.0,0.5,0.0025000002,0.0025000002,0.0025000002,1,1,1,0,1,0
52276172,52174782,2490402,0.0017057293,0.008884572,-0.0031799572,0.34906584,1.8286835e-07,1.8515158e-07,7.85949e-07,2490402,0.039370522,-0.3447499,0.0065553896,0.4,0.008364105,0.011257552,0.00048978056,458770,0.0,0.0,0.0,0.5,0.0025000002,0.0025000002,0.0025000002,1,1,1,0,1,0
52427746,52326340,2490402,0.001705341,0.0088857105,-0.003190078,0.34906584,1.843834e-07,1.8665001e-07,7.8381356e-07,2490402,0.038195778,-0.34512964,0.006561259,0.4,0.008361844,0.01125713,0.00048978237,458770,0.0,0.0,0.0,0.5,0.0025000002,0.0025000002,0.0025000002,1,1,1,0,1,0
52579296,52477899,2490402,0.0017039079,0.008887322,-0.0032058142,0.34906584,1.8586087e-07,1.880995e-07,7.815172e-07,2490402,0.037105158,-0.34563348,0.0064744353,0.4,0.008359534,0.011256141,0.00048977387,458770,0.0,0.0,0.0,0.5,0.0025000002,0.0025000002,0.0025000002,1,1,1,0,1,0
52781392,52679976,2490402,0.0017005822,0.0088886805,-0.0032307543,0.34906584,1.8784745e-07,1.9005165e-07,7.779057e-07,2490402,0.03590538,-0.3460856,0.006489427,0.4,0.008356581,0.011255106,0.0004897789,458770,0.0,0.0,0.0,0.5,0.0025000002,0.0025000002,0.0025000002,1,1,1,0,1,0
52983440,52882053,2490402,0.0016943483,0.008889951,-0.0032576008,0.34906584,1.8973638e-07,1.9187931e-07,7.739517e-07,2490402,0.034734372,-0.34652272,0.006506322,0.4,0.008353564,0.01125288,0.00048977666,458770,0.0,0.0,0.0,0.5,0.0025000002,0.0025000002,0.0025000002,1,1,1,0,1,0
53185705,53084131,2490402,0.0016838613,0.008889663,-0.0032597727,0.34906584,1.915192e-07,1.9358136e-07,7.69809e-07,2490402,0.033748362,-0.34690928,0.0063448283,0.4,0.008350566,0.0112501,0.0004897722,458770,0.0,0.0,0.0,0.5,0.0025000002,0.0025000002,0.0025000002,1,1,1,0,1,0
53388112,53286208,2490402,0.0016790814,0.0088879345,-0.0032567761,0.34906584,1.9337422e-07,1.9538425e-07,7.677794e-07,2490402,0.03265722,-0.3471545,0.006277957,0.4,0.008347817,0.011248453,0.00048977765,458770,0.0,0.0,0.0,0.5,0.0025000002,0.0025000002,0.0025000002,1,1,1,0,1,0
53640389,53538805,2490402,0.0016603338,0.008883697,-0.0032581994,0.34906584,1.9544183e-07,1.9734647e-07,7.6231447e-07,2490402,0.031647827,-0.3474101,0.0060960795,0.4,0.008344401,0.011245786,0.0004897777,458770,0.0,0.0,0.0,0.5,0.0025000002,0.0025000002,0.0025000002,1,1,1,0,1,0
53842438,53740882,2490402,0.0016386817,0.008876021,-0.003256589,0.34906584,1.9680351e-07,1.9860904e-07,7.600761e-07,2490402,0.03062174,-0.34773976,0.0058232127,0.4,0.008341787,0.011243754,0.00048977486,458770,0.0,0.0,0.0,0.5,0.0025000002,0.0025000002,0.0025000002,1,1,1,0,1,0
54044342,53942960,2490402,0.0016263358,0.008870375,-0.0032596805,0.34906584,1.9841673e-07,2.0016441e-07,7.5641464e-07,2490402,0.029528862,-0.3480078,0.0057943603,0.4,0.00833936,0.011242786,0.00048977876,458770,0.0,0.0,0.0,0.5,0.0025000002,0.0025000002,0.0025000002,1,1,1,0,1,0
54195930,54094518,2490402,0.0016008525,0.008857485,-0.0032572676,0.34906584,1.989104e-07,2.0057391e-07,7.539482e-07,2490402,0.028594676,-0.34838334,0.0055242907,0.4,0.008337369,0.011241571,0.0004897723,458770,0.0,0.0,0.0,0.5,0.0025000002,0.0025000002,0.0025000002,1,1,1,0,1,0
54347544,54246076,2490402,0.001585138,0.0088479845,-0.0032603233,0.34906584,1.9980543e-07,2.0142373e-07,7.499072e-07,2490402,0.027692866,-0.34879494,0.0053003277,0.4,0.008335501,0.011240823,0.0004897734,458770,0.0,0.0,0.0,0.5,0.0025000002,0.0025000002,0.0025000002,1,1,1,0,1,0
54549535,54448153,2490402,0.0015705973,0.0088381665,-0.0032594046,0.34906584,2.0116161e-07,2.0274379e-07,7.4821247e-07,2490402,0.026758445,-0.3492264,0.005103562,0.4,0.008333147,0.01124008,0.0004897774,458770,0.0,0.0,0.0,0.5,0.0025000002,0.0025000002,0.0025000002,1,1,1,0,1,0
54681037,54579504,2490402,0.0015429707,0.008812908,-0.0032580073,0.34906584,2.0088652e-07,2.0242827e-07,7.4578514e-07,2490402,0.025716547,-0.35011756,0.0045475503,0.4,0.008331096,0.01123852,0.00048977224,458770,0.0,0.0,0.0,0.5,0.0025000002,0.0025000002,0.0025000002,1,1,1,0,1,0
54812401,54710854,2490402,0.0015257228,0.008796463,-0.0032588812,0.34906584,2.012922e-07,2.0282403e-07,7.4344075e-07,2490402,0.024511067,-0.35085613,0.004080787,0.4,0.008328929,0.011237365,0.00048977253,458770,0.0,0.0,0.0,0.5,0.0025000002,0.0025000002,0.0025000002,1,1,1,0,1,0
