timestamp,timestamp_sample,q[0],q[1],q[2],q[3],delta_q_reset[0],delta_q_reset[1],delta_q_reset[2],delta_q_reset[3],quat_reset_counter
17351940,17351398,0.24862915,0.013759489,-0.01550523,0.96837693,0.9999985,-6.808682e-10,-2.6560338e-09,-0.0017741382,3
17851623,17851056,0.24858013,0.0137337735,-0.015457044,0.9683907,0.9999985,-6.808682e-10,-2.6560338e-09,-0.0017741382,3
18351281,18350715,0.24839814,0.013738203,-0.015459304,0.96843725,0.9999985,-6.808682e-10,-2.6560338e-09,-0.0017741382,3
18850944,18850373,0.2481259,0.0137117095,-0.01550487,0.9685067,0.9999985,-6.808682e-10,-2.6560338e-09,-0.0017741382,3
19350634,19350034,0.24789526,0.013684807,-0.015465955,0.9685668,0.9999985,-6.808682e-10,-2.6560338e-09,-0.0017741382,3
19850277,19849690,0.24778612,0.013515274,-0.015949532,0.96858925,0.9999985,-6.808682e-10,-2.6560338e-09,-0.0017741382,3
20349892,20349348,0.24757415,0.01355766,-0.01596455,0.9686426,0.9999985,-6.808682e-10,-2.6560338e-09,-0.0017741382,3
20854413,20854005,0.24742232,0.013561258,-0.016002232,0.9686807,0.9999985,-6.808682e-10,-2.6560338e-09,-0.0017741382,3
21354069,21353661,0.24734974,0.013671942,-0.015582086,0.96870446,0.9999985,-6.808682e-10,-2.6560338e-09,-0.0017741382,3
21848853,21848324,0.24747035,0.013613681,-0.01561369,0.96867406,0.9999985,-6.808682e-10,-2.6560338e-09,-0.0017741382,3
22348539,22347981,0.24722147,0.01370956,-0.015779536,0.96873355,0.9999985,-6.808682e-10,-2.6560338e-09,-0.0017741382,3
22853048,22852635,0.24720491,0.01370358,-0.01563374,0.9687403,0.9999985,-6.808682e-10,-2.6560338e-09,-0.0017741382,3
23352706,23352294,0.24716489,0.013789511,-0.015529459,0.96875083,0.9999985,-6.808682e-10,-2.6560338e-09,-0.0017741382,3
23852360,23851952,0.24709976,0.013679078,-0.015622682,0.9687676,0.9999985,-6.808682e-10,-2.6560338e-09,-0.0017741382,3
24352017,24351610,0.24708076,0.013980965,-0.015709398,0.9687667,0.9999985,-6.808682e-10,-2.6560338e-09,-0.0017741382,3
24851686,24851268,0.24682528,0.013971803,-0.01584411,0.96882975,0.9999985,-6.808682e-10,-2.6560338e-09,-0.0017741382,3
25351337,25350926,0.24653375,0.013869552,-0.015849,0.9689054,0.9999985,-6.808682e-10,-2.6560338e-09,-0.0017741382,3
25851019,25850588,0.2460101,0.014512293,-0.016641151,0.9690157,0.9999985,-6.808682e-10,-2.6560338e-09,-0.0017741382,3
26350653,26350242,0.24621536,0.014297165,-0.016497575,0.96896935,0.9999985,-6.808682e-10,-2.6560338e-09,-0.0017741382,3
26850318,26849899,0.24598768,0.0145228235,-0.016831482,0.969018,0.9999985,-6.808682e-10,-2.6560338e-09,-0.0017741382,3
27349996,27349557,0.24606784,0.014526748,-0.016544383,0.9690026,0.9999985,-6.808682e-10,-2.6560338e-09,-0.0017741382,3
27854732,27854212,0.24616538,0.014662931,-0.01616893,0.9689821,0.9999985,-6.808682e-10,-2.6560338e-09,-0.0017741382,3
28354382,28353870,0.24624622,0.014620823,-0.016008534,0.9689648,0.9999985,-6.808682e-10,-2.6560338e-09,-0.0017741382,3
28849061,28848531,0.24640606,0.014719114,-0.015803838,0.968926,0.9999985,-6.808682e-10,-2.6560338e-09,-0.0017741382,3
29348727,29348189,0.24651587,0.014835633,-0.015420691,0.96890247,0.9999985,-6.808682e-10,-2.6560338e-09,-0.0017741382,3
29848382,29847846,0.24661408,0.014923161,-0.015251752,0.9688788,0.9999985,-6.808682e-10,-2.6560338e-09,-0.0017741382,3
30353300,30352501,0.2464589,0.014809529,-0.01572569,0.96891254,0.9999985,-6.808682e-10,-2.6560338e-09,-0.0017741382,3
30852797,30852159,0.24645197,0.014728704,-0.015755951,0.96891505,0.9999985,-6.808682e-10,-2.6560338e-09,-0.0017741382,3
31352457,31351816,0.24626596,0.014547738,-0.016350107,0.96895516,0.9999985,-6.808682e-10,-2.6560338e-09,-0.0017741382,3
31852163,31851474,0.24627404,0.014473823,-0.016512766,0.9689515,0.9999985,-6.808682e-10,-2.6560338e-09,-0.0017741382,3
32351826,32351132,0.24621879,0.014454245,-0.017320687,0.96895176,0.9999985,-6.808682e-10,-2.6560338e-09,-0.0017741382,3
32851536,32850790,0.24638651,0.0141483,-0.017958473,0.96890205,0.9999985,-6.808682e-10,-2.6560338e-09,-0.0017741382,3
33351093,33350448,0.24670395,0.014171988,-0.017607873,0.96882725,0.9999985,-6.808682e-10,-2.6560338e-09,-0.0017741382,3
33850760,33850107,0.24698547,0.014262292,-0.016806643,0.9687684,0.9999985,-6.808682e-10,-2.6560338e-09,-0.0017741382,3
34350405,34349763,0.24698557,0.014525149,-0.015834184,0.96878093,0.9999985,-6.808682e-10,-2.6560338e-09,-0.0017741382,3
34850093,34849422,0.24668257,0.014951234,-0.015488271,0.9688573,0.9999985,-6.808682e-10,-2.6560338e-09,-0.0017741382,3
35354690,35354075,0.24546753,0.014422917,-0.015212269,0.9691782,0.9999985,-6.808682e-10,-2.6560338e-09,-0.0017741382,3
35849381,35848737,0.24134815,0.011924982,-0.016827928,0.9702195,0.9999985,-6.808682e-10,-2.6560338e-09,-0.0017741382,3
36349117,36348395,0.23664577,0.010030573,-0.019239292,0.9713537,0.9999985,-6.808682e-10,-2.6560338e-09,-0.0017741382,3
36848716,36848052,0.23498225,0.010529124,-0.021885173,0.9716962,0.9999985,-6.808682e-10,-2.6560338e-09,-0.0017741382,3
37353367,37352957,0.2504246,-0.012488888,-0.026332688,0.9676974,0.9999985,-6.808682e-10,-2.6560338e-09,-0.0017741382,3
37853021,37852615,0.24816163,-0.012209179,-0.0253648,0.9683096,0.9999985,-6.808682e-10,-2.6560338e-09,-0.0017741382,3
38352714,38352272,0.24705303,-0.011891607,-0.02478944,0.96861184,0.9999985,-6.808682e-10,-2.6560338e-09,-0.0017741382,3
38852338,38851930,0.24612819,-0.01321259,-0.02557946,0.9688096,0.9999985,-6.808682e-10,-2.6560338e-09,-0.0017741382,3
39351994,39351588,0.24577662,-0.013926635,-0.025989817,0.9688779,0.9999985,-6.808682e-10,-2.6560338e-09,-0.0017741382,3
39851655,39851246,0.2448714,-0.013410284,-0.028122136,0.96905494,0.9999985,-6.808682e-10,-2.6560338e-09,-0.0017741382,3
40351321,40350904,0.24534768,-0.013536862,-0.027226357,0.96895826,0.9999985,-6.808682e-10,-2.6560338e-09,-0.0017741382,3
40850974,40850563,0.24731068,-0.015092223,-0.027237697,0.96843576,0.9999985,-6.808682e-10,-2.6560338e-09,-0.0017741382,3
41350633,41350220,0.2473358,-0.011555966,-0.025032233,0.96853745,0.9999985,-6.808682e-10,-2.6560338e-09,-0.0017741382,3
41850289,41849878,0.24700095,-0.012717196,-0.022787148,0.9686639,0.9999985,-6.808682e-10,-2.6560338e-09,-0.0017741382,3
42355052,42354533,0.2471993,-0.025720324,-0.017967047,0.9684566,0.9999985,-6.808682e-10,-2.6560338e-09,-0.0017741382,3
42849627,42849194,0.24634123,-0.029686041,-0.015825037,0.96859914,0.9999985,-6.808682e-10,-2.6560338e-09,-0.0017741382,3
43349329,43348851,0.24442764,-0.027537009,-0.013981667,0.9691757,0.9999985,-6.808682e-10,-2.6560338e-09,-0.0017741382,3
43848919,43848509,0.25601077,-0.044384778,0.005264476,0.96564007,0.9999985,-6.808682e-10,-2.6560338e-09,-0.0017741382,3
44353699,44353164,0.2501024,-0.02662591,-0.0024273747,0.9678502,0.9999985,-6.808682e-10,-2.6560338e-09,-0.0017741382,3
44853420,44852822,0.24915732,-0.012649908,-0.005524472,0.9683647,0.9999985,-6.808682e-10,-2.6560338e-09,-0.0017741382,3
45353021,45352480,0.2457884,-0.0025792473,-0.0060787243,0.9693011,0.9999985,-6.808682e-10,-2.6560338e-09,-0.0017741382,3
45852655,45852138,0.24048084,0.0040575354,-0.00058692595,0.9706453,0.9999985,-6.808682e-10,-2.6560338e-09,-0.0017741382,3
46352395,46351796,0.24374805,0.006326711,-0.003192812,0.9698127,0.9999985,-6.808682e-10,-2.6560338e-09,-0.0017741382,3
46851970,46851455,0.25068042,0.0073832795,-0.008794413,0.9680018,0.9999985,-6.808682e-10,-2.6560338e-09,-0.0017741382,3
47351626,47351112,0.25508165,0.008217457,-0.013177077,0.96679485,0.9999985,-6.808682e-10,-2.6560338e-09,-0.0017741382,3
47851294,47850771,0.2606398,0.008415096,-0.017376103,0.9652431,0.9999985,-6.808682e-10,-2.6560338e-09,-0.0017741382,3
48350947,48350429,0.2656364,0.009462889,-0.020988852,0.9637984,0.9999985,-6.808682e-10,-2.6560338e-09,-0.0017741382,3
48850645,48850087,0.26888537,0.012108036,-0.024133656,0.96279365,0.9999985,-6.808682e-10,-2.6560338e-09,-0.0017741382,3
49355178,49354742,0.26793915,0.010805317,-0.022020241,0.96312356,0.9999985,-6.808682e-10,-2.6560338e-09,-0.0017741382,3
49849952,49849403,0.26373675,0.012743463,-0.017596599,0.96435004,0.9999985,-6.808682e-10,-2.6560338e-09,-0.0017741382,3
50349596,50349061,0.25847355,0.013730878,-0.014249768,0.9658156,0.9999985,-6.808682e-10,-2.6560338e-09,-0.0017741382,3
50849263,50848720,0.25491646,0.01579645,-0.0129359085,0.9667476,0.9999985,-6.808682e-10,-2.6560338e-09,-0.0017741382,3
51348927,51348378,0.25682458,0.01730149,-0.017034195,0.966153,0.9999985,-6.808682e-10,-2.6560338e-09,-0.0017741382,3
51853439,51853033,0.2647199,0.015248896,-0.02378405,0.9639114,0.9999985,-6.808682e-10,-2.6560338e-09,-0.0017741382,3
52353225,52352691,0.2700337,0.014204706,-0.031224396,0.9622397,0.9999985,-6.808682e-10,-2.6560338e-09,-0.0017741382,3
52852892,52852349,0.26492065,0.01483113,-0.031651553,0.9636366,0.9999985,-6.808682e-10,-2.6560338e-09,-0.0017741382,3
53347759,53347011,0.25464693,0.015737874,-0.027695239,0.9665094,0.9999985,-6.808682e-10,-2.6560338e-09,-0.0017741382,3
53852246,53851666,0.24460253,0.017158493,-0.023285469,0.96919197,0.9999985,-6.808682e-10,-2.6560338e-09,-0.0017741382,3
54351865,54351324,0.23820607,0.019100092,-0.020908661,0.9708017,0.9999985,-6.808682e-10,-2.6560338e-09,-0.0017741382,3
54851517,54850983,0.23613663,0.020905674,-0.019640421,0.9712964,0.9999985,-6.808682e-10,-2.6560338e-09,-0.0017741382,3
55351183,55350641,0.23806775,-0.08690698,-0.022812326,0.9670836,0.9999985,-6.808682e-10,-2.6560338e-09,-0.0017741382,3
55850842,55850300,0.2650991,-0.061834022,-0.028883232,0.9618029,0.9999985,-6.808682e-10,-2.6560338e-09,-0.0017741382,3
56350517,56349958,0.27004373,-0.066070825,-0.03267744,0.9600225,0.9999985,-6.808682e-10,-2.6560338e-09,-0.0017741382,3
56850096,56849617,0.25762582,-0.04292426,-0.037321337,0.96456915,0.9999985,-6.808682e-10,-2.6560338e-09,-0.0017741382,3
57349754,57349277,0.23012601,-0.008872664,-0.034462947,0.9725099,0.9999985,-6.808682e-10,-2.6560338e-09,-0.0017741382,3
57849420,57848934,0.22104521,-0.0023586913,-0.026036823,0.9749132,0.9999985,-6.808682e-10,-2.6560338e-09,-0.0017741382,3
58349074,58348592,0.21677007,0.001206217,-0.01881983,0.97604054,0.9999985,-6.808682e-10,-2.6560338e-09,-0.0017741382,3
58853897,58853248,0.22213045,0.005321503,-0.015012906,0.9748869,0.9999985,-6.808682e-10,-2.6560338e-09,-0.0017741382,3
59353450,59352906,0.23184311,0.010969526,-0.013784906,0.97259367,0.9999985,-6.808682e-10,-2.6560338e-09,-0.0017741382,3
59853113,59852565,0.24759845,0.013786713,-0.020336745,0.9685512,0.9999985,-6.808682e-10,-2.6560338e-09,-0.0017741382,3
60347636,60347227,0.25984526,0.014579668,-0.028421076,0.9651219,0.9999985,-6.808682e-10,-2.6560338e-09,-0.0017741382,3
60852397,60851882,0.26617774,0.015007664,-0.031589158,0.9632894,0.9999985,-6.808682e-10,-2.6560338e-09,-0.0017741382,3
61352082,61351541,0.26305798,0.01839391,-0.028859304,0.9641729,0.9999985,-6.808682e-10,-2.6560338e-09,-0.0017741382,3
61851739,61851199,0.25246933,0.022907617,-0.020597333,0.9671144,0.9999985,-6.808682e-10,-2.6560338e-09,-0.0017741382,3
62351375,62350858,0.24296781,0.025495514,-0.0123208165,0.96962106,0.9999985,-6.808682e-10,-2.6560338e-09,-0.0017741382,3
62851034,62850519,0.23788252,0.02699517,-0.009648133,0.9708708,0.9999985,-6.808682e-10,-2.6560338e-09,-0.0017741382,3
63350721,63350176,0.2401517,0.02891106,-0.014495557,0.97019655,0.9999985,-6.808682e-10,-2.6560338e-09,-0.0017741382,3
63850403,63849835,0.24459559,0.028223027,-0.019489588,0.9690184,0.9999985,-6.808682e-10,-2.6560338e-09,-0.0017741382,3
64350200,64349493,0.24997817,0.02770047,-0.023853,0.96756124,0.9999985,-6.808682e-10,-2.6560338e-09,-0.0017741382,3
64849670,64849152,0.25254202,0.028218085,-0.026095113,0.9668224,0.9999985,-6.808682e-10,-2.6560338e-09,-0.0017741382,3
65349331,65348811,0.25117186,0.030726554,-0.023516718,0.96716887,0.9999985,-6.808682e-10,-2.6560338e-09,-0.0017741382,3
65853873,65853467,0.24630903,0.032989256,-0.01982185,0.96842694,0.9999985,-6.808682e-10,-2.6560338e-09,-0.0017741382,3
66353535,66353126,0.24035117,0.034216978,-0.014323039,0.96997696,0.9999985,-6.808682e-10,-2.6560338e-09,-0.0017741382,3
66853205,66852785,0.23781754,0.032274254,-0.015305862,0.9706529,0.9999985,-6.808682e-10,-2.6560338e-09,-0.0017741382,3
67347960,67347447,0.24000444,0.029855726,-0.022427797,0.97005343,0.9999985,-6.808682e-10,-2.6560338e-09,-0.0017741382,3
67852512,67852103,0.24305186,0.028954696,-0.026674079,0.9692141,0.9999985,-6.808682e-10,-2.6560338e-09,-0.0017741382,3
68352175,68351762,0.24603046,0.02878399,-0.028993499,0.9684007,0.9999985,-6.808682e-10,-2.6560338e-09,-0.0017741382,3
68851834,68851421,0.24555674,0.029941345,-0.027586823,0.96852696,0.9999985,-6.808682e-10,-2.6560338e-09,-0.0017741382,3
69351644,69351080,0.23922312,0.031319533,-0.023032825,0.97018605,0.9999985,-6.808682e-10,-2.6560338e-09,-0.0017741382,3
69851281,69850739,0.2303185,0.03360797,-0.016581979,0.9723934,0.9999985,-6.808682e-10,-2.6560338e-09,-0.0017741382,3
70350890,70350398,0.22759351,0.03414332,-0.015469614,0.9730345,0.9999985,-6.808682e-10,-2.6560338e-09,-0.0017741382,3
70850539,70850057,0.22977318,0.031519752,-0.021799505,0.9724894,0.9999985,-6.808682e-10,-2.6560338e-09,-0.0017741382,3
71350211,71349717,0.23366702,0.029085422,-0.028867917,0.9714528,0.9999985,-6.808682e-10,-2.6560338e-09,-0.0017741382,3
71849911,71849376,0.23729816,0.028706476,-0.029404553,0.97056735,0.9999985,-6.808682e-10,-2.6560338e-09,-0.0017741382,3
72349516,72349035,0.23827791,0.028922299,-0.028168047,0.9703575,0.9999985,-6.808682e-10,-2.6560338e-09,-0.0017741382,3
72854282,72853691,0.23691761,0.029169103,-0.026410358,0.97073257,0.9999985,-6.808682e-10,-2.6560338e-09,-0.0017741382,3
73353933,73353350,0.23466527,0.028881842,-0.025843147,0.97130334,0.9999985,-6.808682e-10,-2.6560338e-09,-0.0017741382,3
73853628,73853010,0.23289837,0.029482,-0.024337875,0.97174937,0.9999985,-6.808682e-10,-2.6560338e-09,-0.0017741382,3
74348156,74347672,0.23184387,0.02934518,-0.025861869,0.9719663,0.9999985,-6.808682e-10,-2.6560338e-09,-0.0017741382,3
74852960,74852328,0.22815111,0.0295106,-0.024554754,0.97286856,0.9999985,-6.808682e-10,-2.6560338e-09,-0.0017741382,3
75352594,75351988,0.22118,0.03021297,-0.017127367,0.9746145,0.9999985,-6.808682e-10,-2.6560338e-09,-0.0017741382,3
75852233,75851647,0.21605237,0.03218448,-0.016395906,0.97571343,0.9999985,-6.808682e-10,-2.6560338e-09,-0.0017741382,3
76351915,76351307,0.21520005,0.033027112,-0.020591103,0.97579414,0.9999985,-6.808682e-10,-2.6560338e-09,-0.0017741382,3
76851631,76850966,0.21689813,0.033897337,-0.02518366,0.97528046,0.9999985,-6.808682e-10,-2.6560338e-09,-0.0017741382,3
77351330,77350626,0.21971244,0.03407644,-0.026655205,0.9746049,0.9999985,-6.808682e-10,-2.6560338e-09,-0.0017741382,3
77850927,77850285,0.221315,0.03462698,-0.028001113,0.97418517,0.9999985,-6.808682e-10,-2.6560338e-09,-0.0017741382,3
78350567,78349945,0.22128221,0.035066642,-0.027600508,0.9741883,0.9999985,-6.808682e-10,-2.6560338e-09,-0.0017741382,3
78850245,78849605,0.22008635,0.035845313,-0.026916446,0.9744499,0.9999985,-6.808682e-10,-2.6560338e-09,-0.0017741382,3
79349846,79349265,0.21892527,0.031286497,-0.024598055,0.97492975,0.9999985,-6.808682e-10,-2.6560338e-09,-0.0017741382,3
79849553,79848924,0.21900788,0.027080564,-0.02490282,0.9750293,0.9999985,-6.808682e-10,-2.6560338e-09,-0.0017741382,3
80354062,80353581,0.22163261,0.024687765,-0.02718372,0.97443867,0.9999985,-6.808682e-10,-2.6560338e-09,-0.0017741382,3
80853723,80853240,0.22606935,0.024342535,-0.030394549,0.9733326,0.9999985,-6.808682e-10,-2.6560338e-09,-0.0017741382,3
81348491,81347903,0.22969486,0.025039943,-0.030940332,0.9724485,0.9999985,-6.808682e-10,-2.6560338e-09,-0.0017741382,3
81848145,81847563,0.2289273,0.027774986,-0.027276052,0.9726649,0.9999985,-6.808682e-10,-2.6560338e-09,-0.0017741382,3
82352704,82352219,0.22435479,0.025649497,-0.018159386,0.97400075,0.9999985,-6.808682e-10,-2.6560338e-09,-0.0017741382,3
82852361,82851879,0.22136633,0.023912199,-0.015363382,0.9747765,0.9999985,-6.808682e-10,-2.6560338e-09,-0.0017741382,3
83352028,83351539,0.22299795,0.021326616,-0.020885678,0.97436184,0.9999985,-6.808682e-10,-2.6560338e-09,-0.0017741382,3
83851625,83851199,0.22748016,0.021568423,-0.024433425,0.9732372,0.9999985,-6.808682e-10,-2.6560338e-09,-0.0017741382,3
84351271,84350859,0.23037888,0.0211624,-0.026127245,0.97252,0.9999985,-6.808682e-10,-2.6560338e-09,-0.0017741382,3
84850994,84850519,0.23020032,0.02522235,-0.023482846,0.9725329,0.9999985,-6.808682e-10,-2.6560338e-09,-0.0017741382,3
85350595,85350178,0.22758454,0.029869527,-0.021822456,0.9730555,0.9999985,-6.808682e-10,-2.6560338e-09,-0.0017741382,3
85850248,85849838,0.22500332,0.030918332,-0.019184737,0.9736784,0.9999985,-6.808682e-10,-2.6560338e-09,-0.0017741382,3
86349908,86349498,0.2233906,0.02935264,-0.020559408,0.97407,0.9999985,-6.808682e-10,-2.6560338e-09,-0.0017741382,3
86849570,86849159,0.22219653,0.028479539,-0.021051811,0.97435856,0.9999985,-6.808682e-10,-2.6560338e-09,-0.0017741382,3
87354358,87353815,0.21978423,0.030248163,-0.019829785,0.97487783,0.9999985,-6.808682e-10,-2.6560338e-09,-0.0017741382,3
87854065,87853475,0.21599674,0.032202676,-0.017212974,0.9757111,0.9999985,-6.808682e-10,-2.6560338e-09,-0.0017741382,3
88348570,88348139,0.21307041,0.033607766,-0.016816813,0.9763139,0.9999985,-6.808682e-10,-2.6560338e-09,-0.0017741382,3
88848208,88847799,0.21274854,0.035009626,-0.018986074,0.97629505,0.9999985,-6.808682e-10,-2.6560338e-09,-0.0017741382,3
89352993,89352456,0.21321762,0.035202917,-0.021780342,0.97612745,0.9999985,-6.808682e-10,-2.6560338e-09,-0.0017741382,3
89852649,89852116,0.21512985,0.03332444,-0.01985691,0.97581476,0.9999985,-6.808682e-10,-2.6560338e-09,-0.0017741382,3
90352289,90351776,0.2187555,0.029834297,-0.024082443,0.9750262,0.9999985,-6.808682e-10,-2.6560338e-09,-0.0017741382,3
90851953,90851436,0.2218843,0.028691076,-0.026700197,0.97428507,0.9999985,-6.808682e-10,-2.6560338e-09,-0.0017741382,3
91351611,91351097,0.22223742,0.028328784,-0.026516644,0.97422016,0.9999985,-6.808682e-10,-2.6560338e-09,-0.0017741382,3
91851323,91850757,0.2198838,0.029200481,-0.022970222,0.97481835,0.9999985,-6.808682e-10,-2.6560338e-09,-0.0017741382,3
92350930,92350417,0.21703614,0.029597767,-0.02128431,0.97548264,0.9999985,-6.808682e-10,-2.6560338e-09,-0.0017741382,3
92850621,92850078,0.21366769,0.033870377,-0.022332888,0.97606367,0.9999985,-6.808682e-10,-2.6560338e-09,-0.0017741382,3
93350291,93349738,0.209706,0.03519791,-0.02154477,0.97689325,0.9999985,-6.808682e-10,-2.6560338e-09,-0.0017741382,3
93849915,93849398,0.2063825,0.03320634,-0.02000132,0.9777033,0.9999985,-6.808682e-10,-2.6560338e-09,-0.0017741382,3
94354465,94354056,0.20531917,0.03292874,-0.022135776,0.9778905,0.9999985,-6.808682e-10,-2.6560338e-09,-0.0017741382,3
94854144,94853716,0.20894986,0.033094283,-0.025059087,0.977045,0.9999985,-6.808682e-10,-2.6560338e-09,-0.0017741382,3
95348966,95348380,0.21523312,0.03372733,-0.03159098,0.9754687,0.9999985,-6.808682e-10,-2.6560338e-09,-0.0017741382,3
95848552,95848040,0.22075093,0.033949703,-0.03773718,0.9740085,0.9999985,-6.808682e-10,-2.6560338e-09,-0.0017741382,3
96353105,96352698,0.22301073,0.03372207,-0.03756841,0.973508,0.9999985,-6.808682e-10,-2.6560338e-09,-0.0017741382,3
96852767,96852358,0.22101223,0.035940725,-0.031350374,0.9741042,0.9999985,-6.808682e-10,-2.6560338e-09,-0.0017741382,3
97352430,97352019,0.21502683,0.03561731,-0.024060162,0.9756619,0.9999985,-6.808682e-10,-2.6560338e-09,-0.0017741382,3
97852093,97851679,0.20950611,0.035595287,-0.020083936,0.97695285,0.9999985,-6.808682e-10,-2.6560338e-09,-0.0017741382,3
98351749,98351340,0.20833424,0.03505429,-0.018954286,0.97724557,0.9999985,-6.808682e-10,-2.6560338e-09,-0.0017741382,3
98851409,98851001,0.212738,0.033078432,-0.026655393,0.9761853,0.9999985,-6.808682e-10,-2.6560338e-09,-0.0017741382,3
99351072,99350661,0.21740298,0.03300114,-0.03246011,0.97498375,0.9999985,-6.808682e-10,-2.6560338e-09,-0.0017741382,3
99850735,99850322,0.21645308,0.035632312,-0.02795663,0.97524196,0.9999985,-6.808682e-10,-2.6560338e-09,-0.0017741382,3
100350391,100349983,0.21172972,0.036943685,-0.021762472,0.97638726,0.9999985,-6.808682e-10,-2.6560338e-09,-0.0017741382,3
100850053,100849644,0.20796436,0.037716616,-0.018599581,0.977232,0.9999985,-6.808682e-10,-2.6560338e-09,-0.0017741382,3
101354837,101354301,0.20730868,0.03806277,-0.020144345,0.9773273,0.9999985,-6.808682e-10,-2.6560338e-09,-0.0017741382,3
101854482,101853962,0.20947297,0.037081197,-0.024392571,0.9768066,0.9999985,-6.808682e-10,-2.6560338e-09,-0.0017741382,3
102349035,102348626,0.2125208,0.035866145,-0.02764029,0.9761068,0.9999985,-6.808682e-10,-2.6560338e-09,-0.0017741382,3
102848760,102848287,0.2146189,0.036862504,-0.027894605,0.97560334,0.9999985,-6.808682e-10,-2.6560338e-09,-0.0017741382,3
103348376,103347949,0.21449624,0.037726954,-0.02456595,0.9756868,0.9999985,-6.808682e-10,-2.6560338e-09,-0.0017741382,3
103853189,103852606,0.21269897,0.03771151,-0.024313727,0.976087,0.9999985,-6.808682e-10,-2.6560338e-09,-0.0017741382,3
104352784,104352267,0.2098679,0.037917458,-0.0197863,0.9767938,0.9999985,-6.808682e-10,-2.6560338e-09,-0.0017741382,3
104852444,104851928,0.20547609,0.03745621,-0.01924066,0.97775584,0.9999985,-6.808682e-10,-2.6560338e-09,-0.0017741382,3
105352108,105351589,0.20283845,0.03607625,-0.016461939,0.97840905,0.9999985,-6.808682e-10,-2.6560338e-09,-0.0017741382,3
105851785,105851250,0.20256047,0.034347698,-0.018464688,0.97849303,0.9999985,-6.808682e-10,-2.6560338e-09,-0.0017741382,3
106351446,106350912,0.20382999,0.03391745,-0.019416714,0.97822595,0.9999985,-6.808682e-10,-2.6560338e-09,-0.0017741382,3
106851094,106850573,0.20593837,0.03525987,-0.021450942,0.9776942,0.9999985,-6.808682e-10,-2.6560338e-09,-0.0017741382,3
107350756,107350233,0.20636092,0.036779914,-0.023371838,0.9775051,0.9999985,-6.808682e-10,-2.6560338e-09,-0.0017741382,3
107850440,107849894,0.20430176,0.039285142,-0.020975845,0.9778945,0.9999985,-6.808682e-10,-2.6560338e-09,-0.0017741382,3
108350203,108349556,0.20004156,0.041858606,-0.01919673,0.9787047,0.9999985,-6.808682e-10,-2.6560338e-09,-0.0017741382,3
108854622,108854214,0.1968441,0.04245972,-0.015326919,0.9793951,0.9999985,-6.808682e-10,-2.6560338e-09,-0.0017741382,3
109349396,109348878,0.19848984,0.040033948,-0.019523595,0.97909033,0.9999985,-6.808682e-10,-2.6560338e-09,-0.0017741382,3
109849059,109848539,0.20479609,0.03579509,-0.027632166,0.9777596,0.9999985,-6.808682e-10,-2.6560338e-09,-0.0017741382,3
110348713,110348201,0.21135718,0.034470044,-0.032254104,0.9762683,0.9999985,-6.808682e-10,-2.6560338e-09,-0.0017741382,3
110853268,110852859,0.21432187,0.03525421,-0.030763166,0.97564185,0.9999985,-6.808682e-10,-2.6560338e-09,-0.0017741382,3
111352932,111352520,0.21303411,0.03644488,-0.026969632,0.97599226,0.9999985,-6.808682e-10,-2.6560338e-09,-0.0017741382,3
111852592,111852181,0.20999,0.038033083,-0.023428941,0.9766826,0.9999985,-6.808682e-10,-2.6560338e-09,-0.0017741382,3
112352251,112351843,0.20644443,0.038475405,-0.02259662,0.9774405,0.9999985,-6.808682e-10,-2.6560338e-09,-0.0017741382,3
112851914,112851504,0.20316489,0.03885164,-0.02097705,0.9781485,0.9999985,-6.808682e-10,-2.6560338e-09,-0.0017741382,3
113351636,113351166,0.20218465,0.03904641,-0.020799575,0.9783477,0.9999985,-6.808682e-10,-2.6560338e-09,-0.0017741382,3
113851285,113850827,0.20301437,0.037790038,-0.024006568,0.9781518,0.9999985,-6.808682e-10,-2.6560338e-09,-0.0017741382,3
114350904,114350489,0.20250462,0.03733603,-0.022979686,0.9782995,0.9999985,-6.808682e-10,-2.6560338e-09,-0.0017741382,3
114850563,114850150,0.1995116,0.037130695,-0.021844484,0.9789481,0.9999985,-6.808682e-10,-2.6560338e-09,-0.0017741382,3
115350222,115349812,0.1953349,0.037129983,-0.018775301,0.97985363,0.9999985,-6.808682e-10,-2.6560338e-09,-0.0017741382,3
115855038,115854470,0.19243233,0.037744988,-0.018521631,0.9804092,0.9999985,-6.808682e-10,-2.6560338e-09,-0.0017741382,3
116349542,116349135,0.19583099,0.0378429,-0.021068033,0.9796808,0.9999985,-6.808682e-10,-2.6560338e-09,-0.0017741382,3
116849207,116848797,0.20304249,0.03585696,-0.028951254,0.97808486,0.9999985,-6.808682e-10,-2.6560338e-09,-0.0017741382,3
117348867,117348458,0.20810792,0.03618753,-0.031393684,0.9769319,0.9999985,-6.808682e-10,-2.6560338e-09,-0.0017741382,3
117853762,117853117,0.20732234,0.038621325,-0.028174672,0.97710395,0.9999985,-6.808682e-10,-2.6560338e-09,-0.0017741382,3
118353326,118352779,0.20343287,0.0408721,-0.02264116,0.97797346,0.9999985,-6.808682e-10,-2.6560338e-09,-0.0017741382,3
118852952,118852440,0.19906886,0.040423676,-0.021290397,0.9789199,0.9999985,-6.808682e-10,-2.6560338e-09,-0.0017741382,3
119352615,119352102,0.19496368,0.034999825,-0.019204412,0.9799977,0.9999985,-6.808682e-10,-2.6560338e-09,-0.0017741382,3
119852283,119851764,0.19250542,0.036193296,-0.018049983,0.98046213,0.9999985,-6.808682e-10,-2.6560338e-09,-0.0017741382,3
120351938,120351426,0.19325987,0.033506565,-0.018122485,0.98040783,0.9999985,-6.808682e-10,-2.6560338e-09,-0.0017741382,3
120851603,120851088,0.19799393,0.036418483,-0.022154368,0.9792759,0.9999985,-6.808682e-10,-2.6560338e-09,-0.0017741382,3
121351362,121350749,0.20496757,0.03716614,-0.028168658,0.97765714,0.9999985,-6.808682e-10,-2.6560338e-09,-0.0017741382,3
121851129,121850412,0.2103184,0.033758316,-0.030856576,0.97656256,0.9999985,-6.808682e-10,-2.6560338e-09,-0.0017741382,3
122350626,122350073,0.21030106,0.029107688,-0.025870945,0.9768608,0.9999985,-6.808682e-10,-2.6560338e-09,-0.0017741382,3
122855143,122854732,0.2056666,0.03245664,-0.021660767,0.97784394,0.9999985,-6.808682e-10,-2.6560338e-09,-0.0017741382,3
123349964,123349397,0.20087034,0.03459914,-0.018875053,0.97882473,0.9999985,-6.808682e-10,-2.6560338e-09,-0.0017741382,3
123849606,123849059,0.19916366,0.032564744,-0.018465282,0.97925097,0.9999985,-6.808682e-10,-2.6560338e-09,-0.0017741382,3
124349238,124348721,0.19924212,0.03137774,-0.0178609,0.979285,0.9999985,-6.808682e-10,-2.6560338e-09,-0.0017741382,3
124848897,124848383,0.20094278,0.031534348,-0.020209799,0.9788867,0.9999985,-6.808682e-10,-2.6560338e-09,-0.0017741382,3
125353447,125353042,0.2036014,0.02564614,-0.020477695,0.97850364,0.9999985,-6.808682e-10,-2.6560338e-09,-0.0017741382,3
125853116,125852705,0.20606835,0.021978823,-0.021728165,0.9780494,0.9999985,-6.808682e-10,-2.6560338e-09,-0.0017741382,3
126352809,126352366,0.20521869,0.025918746,-0.024030484,0.9780777,0.9999985,-6.808682e-10,-2.6560338e-09,-0.0017741382,3
126847602,126847033,0.20170091,0.02817962,-0.023002237,0.97877145,0.9999985,-6.808682e-10,-2.6560338e-09,-0.0017741382,3
127352262,127351691,0.19690461,0.034120668,-0.022301236,0.9795749,0.9999985,-6.808682e-10,-2.6560338e-09,-0.0017741382,3
127851918,127851353,0.19301528,0.043378804,-0.022050373,0.9799884,0.9999985,-6.808682e-10,-2.6560338e-09,-0.0017741382,3
128351569,128351016,0.19148225,0.044884577,-0.019900715,0.9802673,0.9999985,-6.808682e-10,-2.6560338e-09,-0.0017741382,3
128851244,128850678,0.19215818,0.04362815,-0.01728145,0.9802414,0.9999985,-6.808682e-10,-2.6560338e-09,-0.0017741382,3
129350901,129350340,0.19528478,0.04241723,-0.017878719,0.9796658,0.9999985,-6.808682e-10,-2.6560338e-09,-0.0017741382,3
129850563,129850002,0.1995599,0.041261505,-0.020405145,0.97880393,0.9999985,-6.808682e-10,-2.6560338e-09,-0.0017741382,3
130350222,130349665,0.20203492,0.03922898,-0.023162816,0.9783182,0.9999985,-6.808682e-10,-2.6560338e-09,-0.0017741382,3
130849869,130849327,0.2021436,0.03914062,-0.02436953,0.97827,0.9999985,-6.808682e-10,-2.6560338e-09,-0.0017741382,3
131349541,131348990,0.20186146,0.0374319,-0.024860915,0.9783828,0.9999985,-6.808682e-10,-2.6560338e-09,-0.0017741382,3
131849224,131848652,0.20221964,0.036189254,-0.025255581,0.97834545,0.9999985,-6.808682e-10,-2.6560338e-09,-0.0017741382,3
132354054,132353311,0.20304383,0.034940016,-0.02529114,0.9782192,0.9999985,-6.808682e-10,-2.6560338e-09,-0.0017741382,3
132853703,132852974,0.20374437,0.0336206,-0.025646525,0.9781105,0.9999985,-6.808682e-10,-2.6560338e-09,-0.0017741382,3
133353334,133352636,0.20491856,0.032994602,-0.025116485,0.9779003,0.9999985,-6.808682e-10,-2.6560338e-09,-0.0017741382,3
133847860,133847302,0.20543228,0.033357758,-0.026477572,0.9777443,0.9999985,-6.808682e-10,-2.6560338e-09,-0.0017741382,3
134352776,134351962,0.20522347,0.03206288,-0.026593149,0.97782826,0.9999985,-6.808682e-10,-2.6560338e-09,-0.0017741382,3
134852378,134851624,0.20377553,0.032254964,-0.027364854,0.97810346,0.9999985,-6.808682e-10,-2.6560338e-09,-0.0017741382,3
135351980,135351287,0.20134188,0.03086693,-0.026866274,0.9786659,0.9999985,-6.808682e-10,-2.6560338e-09,-0.0017741382,3
135851645,135850949,0.1975401,0.031360313,-0.026576458,0.97943264,0.9999985,-6.808682e-10,-2.6560338e-09,-0.0017741382,3
136351317,136350612,0.193468,0.031197472,-0.025128687,0.9802885,0.9999985,-6.808682e-10,-2.6560338e-09,-0.0017741382,3
136851110,136850275,0.18926726,0.030495228,-0.023919918,0.9811604,0.9999985,-6.808682e-10,-2.6560338e-09,-0.0017741382,3
137350662,137349938,0.18463224,0.033550303,-0.023991968,0.9819418,0.9999985,-6.808682e-10,-2.6560338e-09,-0.0017741382,3
137850313,137849600,0.17896067,0.031402916,-0.023108184,0.9830834,0.9999985,-6.808682e-10,-2.6560338e-09,-0.0017741382,3
138349988,138349263,0.17302708,0.03296204,-0.022041298,0.9841186,0.9999985,-6.808682e-10,-2.6560338e-09,-0.0017741382,3
138849626,138848928,0.17010002,0.032789778,-0.016899083,0.9847362,0.9999985,-6.808682e-10,-2.6560338e-09,-0.0017741382,3
139354228,139353585,0.17073163,0.03220343,-0.017470798,0.98463625,0.9999985,-6.808682e-10,-2.6560338e-09,-0.0017741382,3
139853811,139853248,0.17399096,0.032146476,-0.01693544,0.9840767,0.9999985,-6.808682e-10,-2.6560338e-09,-0.0017741382,3
140353479,140352911,0.17893535,0.031533964,-0.016752051,0.9832127,0.9999985,-6.808682e-10,-2.6560338e-09,-0.0017741382,3
140848300,140847578,0.1853559,0.031772785,-0.018089728,0.9819911,0.9999985,-6.808682e-10,-2.6560338e-09,-0.0017741382,3
141352829,141352237,0.19422361,0.031524263,-0.01923414,0.980262,0.9999985,-6.808682e-10,-2.6560338e-09,-0.0017741382,3
141852452,141851900,0.20257944,0.032524507,-0.022037942,0.9784774,0.9999985,-6.808682e-10,-2.6560338e-09,-0.0017741382,3
142352234,142351563,0.2062804,0.03186764,-0.022862053,0.9777066,0.9999985,-6.808682e-10,-2.6560338e-09,-0.0017741382,3
142851794,142851226,0.20807664,0.030857611,-0.022785403,0.9773602,0.9999985,-6.808682e-10,-2.6560338e-09,-0.0017741382,3
143351427,143350889,0.20921922,0.031169152,-0.023476325,0.9770899,0.9999985,-6.808682e-10,-2.6560338e-09,-0.0017741382,3
143851134,143850552,0.21139562,0.030208614,-0.025006477,0.9766136,0.9999985,-6.808682e-10,-2.6560338e-09,-0.0017741382,3
144350767,144350217,0.21111143,0.03009035,-0.026045116,0.97665155,0.9999985,-6.808682e-10,-2.6560338e-09,-0.0017741382,3
144850432,144849879,0.20934153,0.02929656,-0.026188225,0.9770528,0.9999985,-6.808682e-10,-2.6560338e-09,-0.0017741382,3
145350090,145349542,0.20652285,0.03016124,-0.027212298,0.9775982,0.9999985,-6.808682e-10,-2.6560338e-09,-0.0017741382,3
145849746,145849205,0.20523258,0.029489538,-0.02463002,0.97795874,0.9999985,-6.808682e-10,-2.6560338e-09,-0.0017741382,3
146349433,146348868,0.20428748,0.029704928,-0.025100011,0.9781382,0.9999985,-6.808682e-10,-2.6560338e-09,-0.0017741382,3
146854269,146853528,0.20484245,0.030216048,-0.021090876,0.97810113,0.9999985,-6.808682e-10,-2.6560338e-09,-0.0017741382,3
147353966,147353191,0.20459105,0.030753411,-0.023771694,0.97807556,0.9999985,-6.808682e-10,-2.6560338e-09,-0.0017741382,3
147848400,147847858,0.20603658,0.029822916,-0.022918886,0.97782123,0.9999985,-6.808682e-10,-2.6560338e-09,-0.0017741382,3
148348070,148347521,0.20662202,0.03131077,-0.024646185,0.9776091,0.9999985,-6.808682e-10,-2.6560338e-09,-0.0017741382,3
148852877,148852181,0.20815042,0.029822184,-0.02517393,0.977318,0.9999985,-6.808682e-10,-2.6560338e-09,-0.0017741382,3
149352536,149351845,0.21165597,0.02994981,-0.024978561,0.9765659,0.9999985,-6.808682e-10,-2.6560338e-09,-0.0017741382,3
149852286,149851508,0.21529691,0.030038059,-0.026009995,0.97574,0.9999985,-6.808682e-10,-2.6560338e-09,-0.0017741382,3
150351866,150351172,0.2191931,0.029423786,-0.02464603,0.97492635,0.9999985,-6.808682e-10,-2.6560338e-09,-0.0017741382,3
150851590,150850835,0.22194506,0.029508991,-0.025355792,0.9742827,0.9999985,-6.808682e-10,-2.6560338e-09,-0.0017741382,3
151351229,151350499,0.22454259,0.029320652,-0.025780298,0.97368187,0.9999985,-6.808682e-10,-2.6560338e-09,-0.0017741382,3
151850891,151850162,0.22574422,0.029117318,-0.025502536,0.9734174,0.9999985,-6.808682e-10,-2.6560338e-09,-0.0017741382,3
152350562,152349826,0.22617121,0.029439067,-0.026901837,0.97327095,0.9999985,-6.808682e-10,-2.6560338e-09,-0.0017741382,3
152850197,152849489,0.22595109,0.028548568,-0.027328247,0.97333676,0.9999985,-6.808682e-10,-2.6560338e-09,-0.0017741382,3
153350073,153349153,0.22379328,0.028260041,-0.028278394,0.97381634,0.9999985,-6.808682e-10,-2.6560338e-09,-0.0017741382,3
153854351,153853813,0.21827732,0.028789565,-0.02954521,0.9750145,0.9999985,-6.808682e-10,-2.6560338e-09,-0.0017741382,3
154354020,154353477,0.21388465,0.028578648,-0.027242066,0.97606075,0.9999985,-6.808682e-10,-2.6560338e-09,-0.0017741382,3
154848872,154848144,0.21055348,0.029475672,-0.022804508,0.9768718,0.9999985,-6.808682e-10,-2.6560338e-09,-0.0017741382,3
155348538,155347807,0.20624459,0.02851188,-0.026919844,0.9777145,0.9999985,-6.808682e-10,-2.6560338e-09,-0.0017741382,3
155853009,155852468,0.20333213,0.021782467,-0.023504505,0.97858536,0.9999985,-6.808682e-10,-2.6560338e-09,-0.0017741382,3
156352701,156352132,0.2012321,0.024701577,-0.021968417,0.97898567,0.9999985,-6.808682e-10,-2.6560338e-09,-0.0017741382,3
156852367,156851796,0.19847277,0.028003504,-0.02281908,0.9794405,0.9999985,-6.808682e-10,-2.6560338e-09,-0.0017741382,3
157352019,157351459,0.19864655,0.031984866,-0.018768609,0.9793694,0.9999985,-6.808682e-10,-2.6560338e-09,-0.0017741382,3
157851659,157851123,0.198351,0.03477032,-0.017679667,0.97935456,0.9999985,-6.808682e-10,-2.6560338e-09,-0.0017741382,3
158351321,158350787,0.19820687,0.036249578,-0.016914872,0.9793437,0.9999985,-6.808682e-10,-2.6560338e-09,-0.0017741382,3
158850987,158850451,0.1989974,0.037269007,-0.016137531,0.97915816,0.9999985,-6.808682e-10,-2.6560338e-09,-0.0017741382,3
159350662,159350115,0.19940914,0.038172953,-0.014736181,0.97906166,0.9999985,-6.808682e-10,-2.6560338e-09,-0.0017741382,3
159850321,159849778,0.19945805,0.037272695,-0.015845563,0.97906905,0.9999985,-6.808682e-10,-2.6560338e-09,-0.0017741382,3
160350009,160349442,0.19994645,0.036275517,-0.013232104,0.97904575,0.9999985,-6.808682e-10,-2.6560338e-09,-0.0017741382,3
160854858,160854103,0.1998289,0.03537496,-0.012080821,0.9791176,0.9999985,-6.808682e-10,-2.6560338e-09,-0.0017741382,3
161349312,161348770,0.19968219,0.034728147,-0.012108838,0.97917026,0.9999985,-6.808682e-10,-2.6560338e-09,-0.0017741382,3
161848977,161848434,0.19965035,0.034267228,-0.011644617,0.97919863,0.9999985,-6.808682e-10,-2.6560338e-09,-0.0017741382,3
162348638,162348098,0.19953515,0.03379579,-0.011624854,0.97923875,0.9999985,-6.808682e-10,-2.6560338e-09,-0.0017741382,3
162853553,162852759,0.19929594,0.033859886,-0.010979944,0.9792927,0.9999985,-6.808682e-10,-2.6560338e-09,-0.0017741382,3
163353126,163352423,0.19927157,0.033593092,-0.010317555,0.9793141,0.9999985,-6.808682e-10,-2.6560338e-09,-0.0017741382,3
163852920,163852087,0.19927137,0.03327972,-0.011796969,0.97930807,0.9999985,-6.808682e-10,-2.6560338e-09,-0.0017741382,3
164352446,164351751,0.19925268,0.03296078,-0.012139545,0.9793185,0.9999985,-6.808682e-10,-2.6560338e-09,-0.0017741382,3
164852115,164851416,0.19978255,0.032924525,-0.0099990815,0.97923595,0.9999985,-6.808682e-10,-2.6560338e-09,-0.0017741382,3
165351853,165351080,0.19956292,0.033038028,-0.009750127,0.9792794,0.9999985,-6.808682e-10,-2.6560338e-09,-0.0017741382,3
165851434,165850744,0.19955583,0.03287291,-0.010757185,0.9792758,0.9999985,-6.808682e-10,-2.6560338e-09,-0.0017741382,3
166351214,166350409,0.19959198,0.032895587,-0.010774356,0.9792675,0.9999985,-6.808682e-10,-2.6560338e-09,-0.0017741382,3
166850855,166850073,0.20006213,0.032471757,-0.0104644885,0.9791891,0.9999985,-6.808682e-10,-2.6560338e-09,-0.0017741382,3
167350464,167349737,0.20017414,0.032270566,-0.008156885,0.97919476,0.9999985,-6.808682e-10,-2.6560338e-09,-0.0017741382,3
167850123,167849401,0.20057678,0.032379564,-0.0060678874,0.979124,0.9999985,-6.808682e-10,-2.6560338e-09,-0.0017741382,3
168354623,168354062,0.20056178,0.03233868,-0.0035394293,0.9791408,0.9999985,-6.808682e-10,-2.6560338e-09,-0.0017741382,3
168849599,168848731,0.20055085,0.033029705,-0.0037931271,0.979119,0.9999985,-6.808682e-10,-2.6560338e-09,-0.0017741382,3
169349115,169348394,0.20067708,0.032967903,-0.003282846,0.9790971,0.9999985,-6.808682e-10,-2.6560338e-09,-0.0017741382,3
169848778,169848059,0.20030531,0.033464942,-0.005254829,0.97914773,0.9999985,-6.808682e-10,-2.6560338e-09,-0.0017741382,3
170353274,170352720,0.20020583,0.033331722,-0.004790112,0.97917503,0.9999985,-6.808682e-10,-2.6560338e-09,-0.0017741382,3
170852926,170852385,0.20006238,0.03353679,-0.003591059,0.9792025,0.9999985,-6.808682e-10,-2.6560338e-09,-0.0017741382,3
171352588,171352049,0.20008756,0.032906614,-0.0036959497,0.9792183,0.9999985,-6.808682e-10,-2.6560338e-09,-0.0017741382,3
171852253,171851714,0.20011401,0.03281994,-0.0033572733,0.97921705,0.9999985,-6.808682e-10,-2.6560338e-09,-0.0017741382,3
172351913,172351378,0.19973357,0.032693982,-0.0055303313,0.9792891,0.9999985,-6.808682e-10,-2.6560338e-09,-0.0017741382,3
172851577,172851046,0.19952127,0.032890152,-0.005613549,0.9793253,0.9999985,-6.808682e-10,-2.6560338e-09,-0.0017741382,3
173351258,173350708,0.19962876,0.032929942,-0.005002741,0.9793053,0.9999985,-6.808682e-10,-2.6560338e-09,-0.0017741382,3
173851109,173850372,0.19963282,0.032858342,-0.0044956813,0.9793094,0.9999985,-6.808682e-10,-2.6560338e-09,-0.0017741382,3
174350580,174350037,0.19984458,0.03279708,-0.0029865615,0.9792741,0.9999985,-6.808682e-10,-2.6560338e-09,-0.0017741382,3
174850270,174849702,0.19977793,0.03281567,-0.0036935187,0.97928464,0.9999985,-6.808682e-10,-2.6560338e-09,-0.0017741382,3
175355048,175354363,0.19969776,0.032963324,-0.0048432495,0.979291,0.9999985,-6.808682e-10,-2.6560338e-09,-0.0017741382,3
175849651,175849032,0.20009115,0.03298889,-0.0042515886,0.9792126,0.9999985,-6.808682e-10,-2.6560338e-09,-0.0017741382,3
176349240,176348696,0.20019904,0.033075817,-0.0031388463,0.97919184,0.9999985,-6.808682e-10,-2.6560338e-09,-0.0017741382,3
176848901,176848361,0.20035729,0.032912817,-0.0031155506,0.97916496,0.9999985,-6.808682e-10,-2.6560338e-09,-0.0017741382,3
177353791,177353022,0.20032859,0.033081785,-0.0033057083,0.9791646,0.9999985,-6.808682e-10,-2.6560338e-09,-0.0017741382,3
177853444,177852687,0.2003822,0.03298258,-0.0040297685,0.9791542,0.9999985,-6.808682e-10,-2.6560338e-09,-0.0017741382,3
178353081,178352352,0.20028275,0.03297283,-0.0045239027,0.9791727,0.9999985,-6.808682e-10,-2.6560338e-09,-0.0017741382,3
178852713,178852017,0.20020948,0.032876037,-0.004916273,0.9791891,0.9999985,-6.808682e-10,-2.6560338e-09,-0.0017741382,3
179352384,179351682,0.20013294,0.03292618,-0.0044385544,0.9792053,0.9999985,-6.808682e-10,-2.6560338e-09,-0.0017741382,3
179852059,179851347,0.20001858,0.03311206,-0.0033573578,0.9792267,0.9999985,-6.808682e-10,-2.6560338e-09,-0.0017741382,3
180351735,180351012,0.19998886,0.03334089,-0.0016079482,0.97922945,0.9999985,-6.808682e-10,-2.6560338e-09,-0.0017741382,3
180851599,180850677,0.19983405,0.033384424,-0.0012045547,0.97926015,0.9999985,-6.808682e-10,-2.6560338e-09,-0.0017741382,3
181351117,181350342,0.19960555,0.03338284,-0.002930073,0.9793031,0.9999985,-6.808682e-10,-2.6560338e-09,-0.0017741382,3
181850736,181850007,0.19951633,0.033404075,-0.0030740057,0.9793202,0.9999985,-6.808682e-10,-2.6560338e-09,-0.0017741382,3
182355215,182354668,0.19955434,0.033403922,-0.0030134858,0.9793126,0.9999985,-6.808682e-10,-2.6560338e-09,-0.0017741382,3
182850062,182849337,0.19943592,0.03344237,-0.0026557648,0.9793365,0.9999985,-6.808682e-10,-2.6560338e-09,-0.0017741382,3
183349743,183349002,0.19921862,0.033601563,-0.0026683132,0.97937524,0.9999985,-6.808682e-10,-2.6560338e-09,-0.0017741382,3
183849468,183848667,0.1992383,0.033606574,-0.0018015037,0.979373,0.9999985,-6.808682e-10,-2.6560338e-09,-0.0017741382,3
184353914,184353329,0.19928741,0.03369159,-0.0006538949,0.9793616,0.9999985,-6.808682e-10,-2.6560338e-09,-0.0017741382,3
184853534,184852994,0.19946103,0.033632737,-0.0014302942,0.97932744,0.9999985,-6.808682e-10,-2.6560338e-09,-0.0017741382,3
185353225,185352660,0.19916327,0.03389971,-0.0029787868,0.9793753,0.9999985,-6.808682e-10,-2.6560338e-09,-0.0017741382,3
185852869,185852325,0.19910997,0.0338651,-0.0029417637,0.9793875,0.9999985,-6.808682e-10,-2.6560338e-09,-0.0017741382,3
186347799,186346994,0.19892076,0.033937834,-0.002399748,0.9794249,0.9999985,-6.808682e-10,-2.6560338e-09,-0.0017741382,3
186852214,186851656,0.19869184,0.03391976,-0.0027547649,0.9794711,0.9999985,-6.808682e-10,-2.6560338e-09,-0.0017741382,3
187351863,187351321,0.19850478,0.033945337,-0.002401753,0.97950894,0.9999985,-6.808682e-10,-2.6560338e-09,-0.0017741382,3
187851529,187850987,0.1983551,0.03386838,-0.0026511126,0.97954136,0.9999985,-6.808682e-10,-2.6560338e-09,-0.0017741382,3
188351193,188350652,0.19821593,0.033933103,-0.0024651436,0.97956777,0.9999985,-6.808682e-10,-2.6560338e-09,-0.0017741382,3
188850901,188850317,0.19818956,0.033886492,-0.002684692,0.97957414,0.9999985,-6.808682e-10,-2.6560338e-09,-0.0017741382,3
189350528,189349983,0.19818498,0.033953935,-0.0023347542,0.9795736,0.9999985,-6.808682e-10,-2.6560338e-09,-0.0017741382,3
189850210,189849648,0.19810915,0.033940736,-0.0021681355,0.97958976,0.9999985,-6.808682e-10,-2.6560338e-09,-0.0017741382,3
190349868,190349314,0.19815683,0.03407753,-0.001846779,0.97957605,0.9999985,-6.808682e-10,-2.6560338e-09,-0.0017741382,3
