timestamp,voltage_v,voltage_filtered_v,current_a,current_filtered_a,current_average_a,discharged_mah,remaining,scale,time_remaining_s,temperature,voltage_cell_v[0],voltage_cell_v[1],voltage_cell_v[2],voltage_cell_v[3],voltage_cell_v[4],voltage_cell_v[5],voltage_cell_v[6],voltage_cell_v[7],voltage_cell_v[8],voltage_cell_v[9],voltage_cell_v[10],voltage_cell_v[11],voltage_cell_v[12],voltage_cell_v[13],max_cell_voltage_delta,custom_faults,average_power,available_energy,full_charge_capacity_wh,remaining_capacity_wh,design_capacity,nominal_voltage,capacity,cycle_count,average_time_to_empty,serial_number,manufacture_date,state_of_health,max_error,interface_error,faults,average_time_to_full,over_discharge_count,connected,cell_count,source,priority,id,is_powering_off,is_required,warning,mode
16808664,50.25,50.25,0.11590576,0.11590576,0.11590576,0.33977327,0.97999996,0.0,nan,23.350006,50.25,0.0,0.0,0.0,0.0,0.0,0.0,0.0,0.0,0.0,0.0,0.0,0.0,0.0,0.0,0,0.0,0.0,0.0,0.0,0.0,0.0,0,0,0,0,0,0,0,0,0,0,0,1,1,1,0,125,0,0,0,0
17008081,50.25,50.25,0.11584473,0.11584473,0.11584473,0.34411457,0.97999996,0.0,nan,23.350006,50.25,0.0,0.0,0.0,0.0,0.0,0.0,0.0,0.0,0.0,0.0,0.0,0.0,0.0,0.0,0,0.0,0.0,0.0,0.0,0.0,0.0,0,0,0,0,0,0,0,0,0,0,0,1,1,1,0,125,0,0,0,0
17208497,50.25,50.25,0.11578369,0.11578369,0.11578369,0.34851345,0.97999996,0.0,nan,23.350006,50.25,0.0,0.0,0.0,0.0,0.0,0.0,0.0,0.0,0.0,0.0,0.0,0.0,0.0,0.0,0,0.0,0.0,0.0,0.0,0.0,0.0,0,0,0,0,0,0,0,0,0,0,0,1,1,1,0,125,0,0,0,0
17406887,50.25,50.25,0.11590576,0.11590576,0.11590576,0.3528611,0.97999996,0.0,nan,23.350006,50.25,0.0,0.0,0.0,0.0,0.0,0.0,0.0,0.0,0.0,0.0,0.0,0.0,0.0,0.0,0,0.0,0.0,0.0,0.0,0.0,0.0,0,0,0,0,0,0,0,0,0,0,0,1,1,1,0,125,0,0,0,0
17607370,50.25,50.25,0.1159668,0.1159668,0.1159668,0.35726827,0.97999996,0.0,nan,23.350006,50.25,0.0,0.0,0.0,0.0,0.0,0.0,0.0,0.0,0.0,0.0,0.0,0.0,0.0,0.0,0,0.0,0.0,0.0,0.0,0.0,0.0,0,0,0,0,0,0,0,0,0,0,0,1,1,1,0,125,0,0,0,0
17805701,50.25,50.25,0.1159668,0.1159668,0.1159668,0.3616117,0.97999996,0.0,nan,23.350006,50.25,0.0,0.0,0.0,0.0,0.0,0.0,0.0,0.0,0.0,0.0,0.0,0.0,0.0,0.0,0,0.0,0.0,0.0,0.0,0.0,0.0,0,0,0,0,0,0,0,0,0,0,0,1,1,1,0,125,0,0,0,0
18005109,50.25,50.25,0.1159668,0.1159668,0.1159668,0.36596888,0.97999996,0.0,nan,23.350006,50.25,0.0,0.0,0.0,0.0,0.0,0.0,0.0,0.0,0.0,0.0,0.0,0.0,0.0,0.0,0,0.0,0.0,0.0,0.0,0.0,0.0,0,0,0,0,0,0,0,0,0,0,0,1,1,1,0,125,0,0,0,0
18205258,50.25,50.25,0.1159668,0.1159668,0.1159668,0.37036338,0.97999996,0.0,nan,23.350006,50.25,0.0,0.0,0.0,0.0,0.0,0.0,0.0,0.0,0.0,0.0,0.0,0.0,0.0,0.0,0,0.0,0.0,0.0,0.0,0.0,0.0,0,0,0,0,0,0,0,0,0,0,0,1,1,1,0,125,0,0,0,0
18403929,50.25,50.25,0.1159668,0.1159668,0.1159668,0.37472576,0.97999996,0.0,nan,23.350006,50.25,0.0,0.0,0.0,0.0,0.0,0.0,0.0,0.0,0.0,0.0,0.0,0.0,0.0,0.0,0,0.0,0.0,0.0,0.0,0.0,0.0,0,0,0,0,0,0,0,0,0,0,0,1,1,1,0,125,0,0,0,0
18603324,50.25,50.25,0.1159668,0.1159668,0.1159668,0.37907973,0.97999996,0.0,nan,23.350006,50.25,0.0,0.0,0.0,0.0,0.0,0.0,0.0,0.0,0.0,0.0,0.0,0.0,0.0,0.0,0,0.0,0.0,0.0,0.0,0.0,0.0,0,0,0,0,0,0,0,0,0,0,0,1,1,1,0,125,0,0,0,0
18802850,50.25,50.25,0.11590576,0.11590576,0.11590576,0.38346037,0.97999996,0.0,nan,23.350006,50.25,0.0,0.0,0.0,0.0,0.0,0.0,0.0,0.0,0.0,0.0,0.0,0.0,0.0,0.0,0,0.0,0.0,0.0,0.0,0.0,0.0,0,0,0,0,0,0,0,0,0,0,0,1,1,1,0,125,0,0,0,0
19002142,50.25,50.25,0.11602783,0.11602783,0.11602783,0.38783613,0.97999996,0.0,nan,23.600006,50.25,0.0,0.0,0.0,0.0,0.0,0.0,0.0,0.0,0.0,0.0,0.0,0.0,0.0,0.0,0,0.0,0.0,0.0,0.0,0.0,0.0,0,0,0,0,0,0,0,0,0,0,0,1,1,1,0,125,0,0,0,0
19202272,50.25,50.25,0.11602783,0.11602783,0.11602783,0.39225072,0.97999996,0.0,nan,23.600006,50.25,0.0,0.0,0.0,0.0,0.0,0.0,0.0,0.0,0.0,0.0,0.0,0.0,0.0,0.0,0,0.0,0.0,0.0,0.0,0.0,0.0,0,0,0,0,0,0,0,0,0,0,0,1,1,1,0,125,0,0,0,0
19401106,50.25,50.25,0.1159668,0.1159668,0.1159668,0.39663523,0.97999996,0.0,nan,23.600006,50.25,0.0,0.0,0.0,0.0,0.0,0.0,0.0,0.0,0.0,0.0,0.0,0.0,0.0,0.0,0,0.0,0.0,0.0,0.0,0.0,0.0,0,0,0,0,0,0,0,0,0,0,0,1,1,1,0,125,0,0,0,0
19601057,50.25,50.25,0.11578369,0.11578369,0.11578369,0.40104732,0.97999996,0.0,nan,23.600006,50.25,0.0,0.0,0.0,0.0,0.0,0.0,0.0,0.0,0.0,0.0,0.0,0.0,0.0,0.0,0,0.0,0.0,0.0,0.0,0.0,0.0,0,0,0,0,0,0,0,0,0,0,0,1,1,1,0,125,0,0,0,0
19799931,50.25,50.25,0.11584473,0.11584473,0.11584473,0.40542105,0.97999996,0.0,nan,23.600006,50.25,0.0,0.0,0.0,0.0,0.0,0.0,0.0,0.0,0.0,0.0,0.0,0.0,0.0,0.0,0,0.0,0.0,0.0,0.0,0.0,0.0,0,0,0,0,0,0,0,0,0,0,0,1,1,1,0,125,0,0,0,0
20000355,50.25,50.25,0.1161499,0.1161499,0.1161499,0.4098319,0.97999996,0.0,nan,23.600006,50.25,0.0,0.0,0.0,0.0,0.0,0.0,0.0,0.0,0.0,0.0,0.0,0.0,0.0,0.0,0,0.0,0.0,0.0,0.0,0.0,0.0,0,0,0,0,0,0,0,0,0,0,0,1,1,1,0,125,0,0,0,0
20199305,50.25,50.25,0.11627197,0.11627197,0.11627197,0.41421723,0.97999996,0.0,nan,23.600006,50.25,0.0,0.0,0.0,0.0,0.0,0.0,0.0,0.0,0.0,0.0,0.0,0.0,0.0,0.0,0,0.0,0.0,0.0,0.0,0.0,0.0,0,0,0,0,0,0,0,0,0,0,0,1,1,1,0,125,0,0,0,0
20597401,50.25,50.25,0.11627197,0.11627197,0.11627197,0.42281002,0.97999996,0.0,nan,23.600006,50.25,0.0,0.0,0.0,0.0,0.0,0.0,0.0,0.0,0.0,0.0,0.0,0.0,0.0,0.0,0,0.0,0.0,0.0,0.0,0.0,0.0,0,0,0,0,0,0,0,0,0,0,0,1,1,1,0,125,0,0,0,0
20796809,50.25,50.25,0.11645508,0.11645508,0.11645508,0.42718983,0.97999996,0.0,nan,23.600006,50.25,0.0,0.0,0.0,0.0,0.0,0.0,0.0,0.0,0.0,0.0,0.0,0.0,0.0,0.0,0,0.0,0.0,0.0,0.0,0.0,0.0,0,0,0,0,0,0,0,0,0,0,0,1,1,1,0,125,0,0,0,0
20996209,50.25,50.25,0.11633301,0.11633301,0.11633301,0.43158668,0.97999996,0.0,nan,23.600006,50.25,0.0,0.0,0.0,0.0,0.0,0.0,0.0,0.0,0.0,0.0,0.0,0.0,0.0,0.0,0,0.0,0.0,0.0,0.0,0.0,0.0,0,0,0,0,0,0,0,0,0,0,0,1,1,1,0,125,0,0,0,0
21196356,50.25,50.25,0.11627197,0.11627197,0.11627197,0.4360112,0.97999996,0.0,nan,23.600006,50.25,0.0,0.0,0.0,0.0,0.0,0.0,0.0,0.0,0.0,0.0,0.0,0.0,0.0,0.0,0,0.0,0.0,0.0,0.0,0.0,0.0,0,0,0,0,0,0,0,0,0,0,0,1,1,1,0,125,0,0,0,0
21396017,50.25,50.25,0.11627197,0.11627197,0.11627197,0.44043303,0.97999996,0.0,nan,23.600006,50.25,0.0,0.0,0.0,0.0,0.0,0.0,0.0,0.0,0.0,0.0,0.0,0.0,0.0,0.0,0,0.0,0.0,0.0,0.0,0.0,0.0,0,0,0,0,0,0,0,0,0,0,0,1,1,1,0,125,0,0,0,0
21594434,50.25,50.25,0.11602783,0.11602783,0.11602783,0.44479257,0.97999996,0.0,nan,23.600006,50.25,0.0,0.0,0.0,0.0,0.0,0.0,0.0,0.0,0.0,0.0,0.0,0.0,0.0,0.0,0,0.0,0.0,0.0,0.0,0.0,0.0,0,0,0,0,0,0,0,0,0,0,0,1,1,1,0,125,0,0,0,0
21793836,50.25,50.25,0.11584473,0.11584473,0.11584473,0.44918874,0.97999996,0.0,nan,23.600006,50.25,0.0,0.0,0.0,0.0,0.0,0.0,0.0,0.0,0.0,0.0,0.0,0.0,0.0,0.0,0,0.0,0.0,0.0,0.0,0.0,0.0,0,0,0,0,0,0,0,0,0,0,0,1,1,1,0,125,0,0,0,0
21993270,50.25,50.25,0.1159668,0.1159668,0.1159668,0.45357624,0.97999996,0.0,nan,23.600006,50.25,0.0,0.0,0.0,0.0,0.0,0.0,0.0,0.0,0.0,0.0,0.0,0.0,0.0,0.0,0,0.0,0.0,0.0,0.0,0.0,0.0,0,0,0,0,0,0,0,0,0,0,0,1,1,1,0,125,0,0,0,0
22193375,50.25,50.25,0.11602783,0.11602783,0.11602783,0.45798817,0.97999996,0.0,nan,23.600006,50.25,0.0,0.0,0.0,0.0,0.0,0.0,0.0,0.0,0.0,0.0,0.0,0.0,0.0,0.0,0,0.0,0.0,0.0,0.0,0.0,0.0,0,0,0,0,0,0,0,0,0,0,0,1,1,1,0,125,0,0,0,0
22392063,50.25,50.25,0.1159668,0.1159668,0.1159668,0.46236008,0.97999996,0.0,nan,23.600006,50.25,0.0,0.0,0.0,0.0,0.0,0.0,0.0,0.0,0.0,0.0,0.0,0.0,0.0,0.0,0,0.0,0.0,0.0,0.0,0.0,0.0,0,0,0,0,0,0,0,0,0,0,0,1,1,1,0,125,0,0,0,0
22591467,50.25,50.25,0.11608887,0.11608887,0.11608887,0.4667201,0.97999996,0.0,nan,23.600006,50.25,0.0,0.0,0.0,0.0,0.0,0.0,0.0,0.0,0.0,0.0,0.0,0.0,0.0,0.0,0,0.0,0.0,0.0,0.0,0.0,0.0,0,0,0,0,0,0,0,0,0,0,0,1,1,1,0,125,0,0,0,0
22791867,50.25,50.25,0.11602783,0.11602783,0.11602783,0.47114044,0.97999996,0.0,nan,23.600006,50.25,0.0,0.0,0.0,0.0,0.0,0.0,0.0,0.0,0.0,0.0,0.0,0.0,0.0,0.0,0,0.0,0.0,0.0,0.0,0.0,0.0,0,0,0,0,0,0,0,0,0,0,0,1,1,1,0,125,0,0,0,0
22990278,50.25,50.25,0.1159668,0.1159668,0.1159668,0.47550264,0.97999996,0.0,nan,23.600006,50.25,0.0,0.0,0.0,0.0,0.0,0.0,0.0,0.0,0.0,0.0,0.0,0.0,0.0,0.0,0,0.0,0.0,0.0,0.0,0.0,0.0,0,0,0,0,0,0,0,0,0,0,0,1,1,1,0,125,0,0,0,0
23190415,50.25,50.25,0.11590576,0.11590576,0.11590576,0.47992298,0.97999996,0.0,nan,23.600006,50.25,0.0,0.0,0.0,0.0,0.0,0.0,0.0,0.0,0.0,0.0,0.0,0.0,0.0,0.0,0,0.0,0.0,0.0,0.0,0.0,0.0,0,0,0,0,0,0,0,0,0,0,0,1,1,1,0,125,0,0,0,0
23389100,50.25,50.25,0.1161499,0.1161499,0.1161499,0.48428687,0.97999996,0.0,nan,23.600006,50.25,0.0,0.0,0.0,0.0,0.0,0.0,0.0,0.0,0.0,0.0,0.0,0.0,0.0,0.0,0,0.0,0.0,0.0,0.0,0.0,0.0,0,0,0,0,0,0,0,0,0,0,0,1,1,1,0,125,0,0,0,0
23588504,50.0625,50.0625,11.6796875,11.6796875,11.6796875,0.5342427,0.95,0.0,nan,23.600006,50.0625,0.0,0.0,0.0,0.0,0.0,0.0,0.0,0.0,0.0,0.0,0.0,0.0,0.0,0.0,0,0.0,0.0,0.0,0.0,0.0,0.0,0,0,0,0,0,0,0,0,0,0,0,1,1,1,0,125,0,0,0,0
23788902,50.125,50.125,7.5820312,7.5820312,7.5820312,0.57233423,0.96,0.0,nan,23.600006,50.125,0.0,0.0,0.0,0.0,0.0,0.0,0.0,0.0,0.0,0.0,0.0,0.0,0.0,0.0,0,0.0,0.0,0.0,0.0,0.0,0.0,0,0,0,0,0,0,0,0,0,0,0,1,1,1,0,125,0,0,0,0
23988311,50.125,50.125,6.8203125,6.8203125,6.8203125,0.6070193,0.96,0.0,nan,23.600006,50.125,0.0,0.0,0.0,0.0,0.0,0.0,0.0,0.0,0.0,0.0,0.0,0.0,0.0,0.0,0,0.0,0.0,0.0,0.0,0.0,0.0,0,0,0,0,0,0,0,0,0,0,0,1,1,1,0,125,0,0,0,0
24188146,50.15625,50.15625,5.7304688,5.7304688,5.7304688,0.6376809,0.96,0.0,nan,23.600006,50.15625,0.0,0.0,0.0,0.0,0.0,0.0,0.0,0.0,0.0,0.0,0.0,0.0,0.0,0.0,0,0.0,0.0,0.0,0.0,0.0,0.0,0,0,0,0,0,0,0,0,0,0,0,1,1,1,0,125,0,0,0,0
24386128,50.21875,50.21875,1.6660156,1.6660156,1.6660156,0.647922,0.96999997,0.0,nan,23.600006,50.21875,0.0,0.0,0.0,0.0,0.0,0.0,0.0,0.0,0.0,0.0,0.0,0.0,0.0,0.0,0,0.0,0.0,0.0,0.0,0.0,0.0,0,0,0,0,0,0,0,0,0,0,0,1,1,1,0,125,0,0,0,0
24585540,50.125,50.125,7.5429688,7.5429688,7.5429688,0.6824837,0.96,0.0,nan,23.600006,50.125,0.0,0.0,0.0,0.0,0.0,0.0,0.0,0.0,0.0,0.0,0.0,0.0,0.0,0.0,0,0.0,0.0,0.0,0.0,0.0,0.0,0,0,0,0,0,0,0,0,0,0,0,1,1,1,0,125,0,0,0,0
24784946,50.09375,50.09375,7.734375,7.734375,7.734375,0.72002256,0.96,0.0,nan,23.600006,50.09375,0.0,0.0,0.0,0.0,0.0,0.0,0.0,0.0,0.0,0.0,0.0,0.0,0.0,0.0,0,0.0,0.0,0.0,0.0,0.0,0.0,0,0,0,0,0,0,0,0,0,0,0,1,1,1,0,125,0,0,0,0
24984345,50.125,50.125,6.2773438,6.2773438,6.2773438,0.74959093,0.96,0.0,nan,23.600006,50.125,0.0,0.0,0.0,0.0,0.0,0.0,0.0,0.0,0.0,0.0,0.0,0.0,0.0,0.0,0,0.0,0.0,0.0,0.0,0.0,0.0,0,0,0,0,0,0,0,0,0,0,0,1,1,1,0,125,0,0,0,0
25184483,50.15625,50.15625,4.734375,4.734375,4.734375,0.7751734,0.96999997,0.0,nan,23.600006,50.15625,0.0,0.0,0.0,0.0,0.0,0.0,0.0,0.0,0.0,0.0,0.0,0.0,0.0,0.0,0,0.0,0.0,0.0,0.0,0.0,0.0,0,0,0,0,0,0,0,0,0,0,0,1,1,1,0,125,0,0,0,0
25383159,50.15625,50.15625,4.3203125,4.3203125,4.3203125,0.7959387,0.96999997,0.0,nan,23.600006,50.15625,0.0,0.0,0.0,0.0,0.0,0.0,0.0,0.0,0.0,0.0,0.0,0.0,0.0,0.0,0,0.0,0.0,0.0,0.0,0.0,0.0,0,0,0,0,0,0,0,0,0,0,0,1,1,1,0,125,0,0,0,0
25582570,50.1875,50.1875,2.8085938,2.8085938,2.8085938,0.81075454,0.96999997,0.0,nan,23.600006,50.1875,0.0,0.0,0.0,0.0,0.0,0.0,0.0,0.0,0.0,0.0,0.0,0.0,0.0,0.0,0,0.0,0.0,0.0,0.0,0.0,0.0,0,0,0,0,0,0,0,0,0,0,0,1,1,1,0,125,0,0,0,0
25781980,50.1875,50.1875,3.1699219,3.1699219,3.1699219,0.82878107,0.96999997,0.0,nan,23.600006,50.1875,0.0,0.0,0.0,0.0,0.0,0.0,0.0,0.0,0.0,0.0,0.0,0.0,0.0,0.0,0,0.0,0.0,0.0,0.0,0.0,0.0,0,0,0,0,0,0,0,0,0,0,0,1,1,1,0,125,0,0,0,0
25981576,50.1875,50.1875,3.4199219,3.4199219,3.4199219,0.84703314,0.96999997,0.0,nan,23.600006,50.1875,0.0,0.0,0.0,0.0,0.0,0.0,0.0,0.0,0.0,0.0,0.0,0.0,0.0,0.0,0,0.0,0.0,0.0,0.0,0.0,0.0,0,0,0,0,0,0,0,0,0,0,0,1,1,1,0,125,0,0,0,0
26181659,50.1875,50.1875,3.4785156,3.4785156,3.4785156,0.86744,0.96999997,0.0,nan,23.600006,50.1875,0.0,0.0,0.0,0.0,0.0,0.0,0.0,0.0,0.0,0.0,0.0,0.0,0.0,0.0,0,0.0,0.0,0.0,0.0,0.0,0.0,0,0,0,0,0,0,0,0,0,0,0,1,1,1,0,125,0,0,0,0
26380764,50.1875,50.1875,2.9804688,2.9804688,2.9804688,0.8844594,0.96999997,0.0,nan,23.600006,50.1875,0.0,0.0,0.0,0.0,0.0,0.0,0.0,0.0,0.0,0.0,0.0,0.0,0.0,0.0,0,0.0,0.0,0.0,0.0,0.0,0.0,0,0,0,0,0,0,0,0,0,0,0,1,1,1,0,125,0,0,0,0
26581037,50.1875,50.1875,3.0390625,3.0390625,3.0390625,0.90261173,0.96999997,0.0,nan,23.600006,50.1875,0.0,0.0,0.0,0.0,0.0,0.0,0.0,0.0,0.0,0.0,0.0,0.0,0.0,0.0,0,0.0,0.0,0.0,0.0,0.0,0.0,0,0,0,0,0,0,0,0,0,0,0,1,1,1,0,125,0,0,0,0
26779142,50.1875,50.1875,3.0058594,3.0058594,3.0058594,0.92033136,0.96999997,0.0,nan,23.600006,50.1875,0.0,0.0,0.0,0.0,0.0,0.0,0.0,0.0,0.0,0.0,0.0,0.0,0.0,0.0,0,0.0,0.0,0.0,0.0,0.0,0.0,0,0,0,0,0,0,0,0,0,0,0,1,1,1,0,125,0,0,0,0
26978421,50.1875,50.1875,3.1191406,3.1191406,3.1191406,0.93770736,0.96999997,0.0,nan,23.600006,50.1875,0.0,0.0,0.0,0.0,0.0,0.0,0.0,0.0,0.0,0.0,0.0,0.0,0.0,0.0,0,0.0,0.0,0.0,0.0,0.0,0.0,0,0,0,0,0,0,0,0,0,0,0,1,1,1,0,125,0,0,0,0
27178804,50.1875,50.1875,3.21875,3.21875,3.21875,0.95734555,0.96999997,0.0,nan,23.600006,50.1875,0.0,0.0,0.0,0.0,0.0,0.0,0.0,0.0,0.0,0.0,0.0,0.0,0.0,0.0,0,0.0,0.0,0.0,0.0,0.0,0.0,0,0,0,0,0,0,0,0,0,0,0,1,1,1,0,125,0,0,0,0
27377234,50.1875,50.1875,3.2128906,3.2128906,3.2128906,0.9758229,0.96999997,0.0,nan,23.600006,50.1875,0.0,0.0,0.0,0.0,0.0,0.0,0.0,0.0,0.0,0.0,0.0,0.0,0.0,0.0,0,0.0,0.0,0.0,0.0,0.0,0.0,0,0,0,0,0,0,0,0,0,0,0,1,1,1,0,125,0,0,0,0
27577636,50.1875,50.1875,3.2324219,3.2324219,3.2324219,0.9948733,0.96999997,0.0,nan,23.600006,50.1875,0.0,0.0,0.0,0.0,0.0,0.0,0.0,0.0,0.0,0.0,0.0,0.0,0.0,0.0,0,0.0,0.0,0.0,0.0,0.0,0.0,0,0,0,0,0,0,0,0,0,0,0,1,1,1,0,125,0,0,0,0
27776050,50.1875,50.1875,3.1816406,3.1816406,3.1816406,1.0136201,0.96999997,0.0,nan,23.600006,50.1875,0.0,0.0,0.0,0.0,0.0,0.0,0.0,0.0,0.0,0.0,0.0,0.0,0.0,0.0,0,0.0,0.0,0.0,0.0,0.0,0.0,0,0,0,0,0,0,0,0,0,0,0,1,1,1,0,125,0,0,0,0
27975457,50.1875,50.1875,3.2753906,3.2753906,3.2753906,1.03296,0.96999997,0.0,nan,23.600006,50.1875,0.0,0.0,0.0,0.0,0.0,0.0,0.0,0.0,0.0,0.0,0.0,0.0,0.0,0.0,0,0.0,0.0,0.0,0.0,0.0,0.0,0,0,0,0,0,0,0,0,0,0,0,1,1,1,0,125,0,0,0,0
28175601,50.1875,50.1875,3.2714844,3.2714844,3.2714844,1.0529709,0.96999997,0.0,nan,23.600006,50.1875,0.0,0.0,0.0,0.0,0.0,0.0,0.0,0.0,0.0,0.0,0.0,0.0,0.0,0.0,0,0.0,0.0,0.0,0.0,0.0,0.0,0,0,0,0,0,0,0,0,0,0,0,1,1,1,0,125,0,0,0,0
28374650,50.1875,50.1875,3.1738281,3.1738281,3.1738281,1.071603,0.96999997,0.0,nan,23.600006,50.1875,0.0,0.0,0.0,0.0,0.0,0.0,0.0,0.0,0.0,0.0,0.0,0.0,0.0,0.0,0,0.0,0.0,0.0,0.0,0.0,0.0,0,0,0,0,0,0,0,0,0,0,0,1,1,1,0,125,0,0,0,0
28574673,50.1875,50.1875,3.15625,3.15625,3.15625,1.0906377,0.96999997,0.0,nan,23.600006,50.1875,0.0,0.0,0.0,0.0,0.0,0.0,0.0,0.0,0.0,0.0,0.0,0.0,0.0,0.0,0,0.0,0.0,0.0,0.0,0.0,0.0,0,0,0,0,0,0,0,0,0,0,0,1,1,1,0,125,0,0,0,0
28773088,50.1875,50.1875,3.1914062,3.1914062,3.1914062,1.1082331,0.96999997,0.0,nan,23.600006,50.1875,0.0,0.0,0.0,0.0,0.0,0.0,0.0,0.0,0.0,0.0,0.0,0.0,0.0,0.0,0,0.0,0.0,0.0,0.0,0.0,0.0,0,0,0,0,0,0,0,0,0,0,0,1,1,1,0,125,0,0,0,0
28972489,50.1875,50.1875,3.21875,3.21875,3.21875,1.1276654,0.96999997,0.0,nan,23.600006,50.1875,0.0,0.0,0.0,0.0,0.0,0.0,0.0,0.0,0.0,0.0,0.0,0.0,0.0,0.0,0,0.0,0.0,0.0,0.0,0.0,0.0,0,0,0,0,0,0,0,0,0,0,0,1,1,1,0,125,0,0,0,0
29172611,50.1875,50.1875,3.2324219,3.2324219,3.2324219,1.1478372,0.96999997,0.0,nan,23.600006,50.1875,0.0,0.0,0.0,0.0,0.0,0.0,0.0,0.0,0.0,0.0,0.0,0.0,0.0,0.0,0,0.0,0.0,0.0,0.0,0.0,0.0,0,0,0,0,0,0,0,0,0,0,0,1,1,1,0,125,0,0,0,0
29371309,50.1875,50.1875,3.3183594,3.3183594,3.3183594,1.1676347,0.96999997,0.0,nan,23.600006,50.1875,0.0,0.0,0.0,0.0,0.0,0.0,0.0,0.0,0.0,0.0,0.0,0.0,0.0,0.0,0,0.0,0.0,0.0,0.0,0.0,0.0,0,0,0,0,0,0,0,0,0,0,0,1,1,1,0,125,0,0,0,0
29571699,50.1875,50.1875,3.2714844,3.2714844,3.2714844,1.1864871,0.96999997,0.0,nan,23.600006,50.1875,0.0,0.0,0.0,0.0,0.0,0.0,0.0,0.0,0.0,0.0,0.0,0.0,0.0,0.0,0,0.0,0.0,0.0,0.0,0.0,0.0,0,0,0,0,0,0,0,0,0,0,0,1,1,1,0,125,0,0,0,0
29770122,50.1875,50.1875,3.2265625,3.2265625,3.2265625,1.2046142,0.96999997,0.0,nan,23.600006,50.1875,0.0,0.0,0.0,0.0,0.0,0.0,0.0,0.0,0.0,0.0,0.0,0.0,0.0,0.0,0,0.0,0.0,0.0,0.0,0.0,0.0,0,0,0,0,0,0,0,0,0,0,0,1,1,1,0,125,0,0,0,0
29970644,50.1875,50.1875,3.2382812,3.2382812,3.2382812,1.2254268,0.96999997,0.0,nan,23.600006,50.1875,0.0,0.0,0.0,0.0,0.0,0.0,0.0,0.0,0.0,0.0,0.0,0.0,0.0,0.0,0,0.0,0.0,0.0,0.0,0.0,0.0,0,0,0,0,0,0,0,0,0,0,0,1,1,1,0,125,0,0,0,0
30169646,50.1875,50.1875,3.2949219,3.2949219,3.2949219,1.2454146,0.96999997,0.0,nan,23.600006,50.1875,0.0,0.0,0.0,0.0,0.0,0.0,0.0,0.0,0.0,0.0,0.0,0.0,0.0,0.0,0,0.0,0.0,0.0,0.0,0.0,0.0,0,0,0,0,0,0,0,0,0,0,0,1,1,1,0,125,0,0,0,0
30368388,50.1875,50.1875,3.2929688,3.2929688,3.2929688,1.2657464,0.96999997,0.0,nan,23.600006,50.1875,0.0,0.0,0.0,0.0,0.0,0.0,0.0,0.0,0.0,0.0,0.0,0.0,0.0,0.0,0,0.0,0.0,0.0,0.0,0.0,0.0,0,0,0,0,0,0,0,0,0,0,0,1,1,1,0,125,0,0,0,0
30567739,50.1875,50.1875,3.21875,3.21875,3.21875,1.2850513,0.96999997,0.0,nan,23.600006,50.1875,0.0,0.0,0.0,0.0,0.0,0.0,0.0,0.0,0.0,0.0,0.0,0.0,0.0,0.0,0,0.0,0.0,0.0,0.0,0.0,0.0,0,0,0,0,0,0,0,0,0,0,0,1,1,1,0,125,0,0,0,0
30768149,50.1875,50.1875,3.2539062,3.2539062,3.2539062,1.3062185,0.96999997,0.0,nan,23.600006,50.1875,0.0,0.0,0.0,0.0,0.0,0.0,0.0,0.0,0.0,0.0,0.0,0.0,0.0,0.0,0,0.0,0.0,0.0,0.0,0.0,0.0,0,0,0,0,0,0,0,0,0,0,0,1,1,1,0,125,0,0,0,0
30967699,50.1875,50.1875,3.2675781,3.2675781,3.2675781,1.3276451,0.96999997,0.0,nan,23.600006,50.1875,0.0,0.0,0.0,0.0,0.0,0.0,0.0,0.0,0.0,0.0,0.0,0.0,0.0,0.0,0,0.0,0.0,0.0,0.0,0.0,0.0,0,0,0,0,0,0,0,0,0,0,0,1,1,1,0,125,0,0,0,0
31167232,50.1875,50.1875,3.2148438,3.2148438,3.2148438,1.3489654,0.96999997,0.0,nan,23.600006,50.1875,0.0,0.0,0.0,0.0,0.0,0.0,0.0,0.0,0.0,0.0,0.0,0.0,0.0,0.0,0,0.0,0.0,0.0,0.0,0.0,0.0,0,0,0,0,0,0,0,0,0,0,0,1,1,1,0,125,0,0,0,0
31365366,50.1875,50.1875,3.2675781,3.2675781,3.2675781,1.3686047,0.96999997,0.0,nan,23.600006,50.1875,0.0,0.0,0.0,0.0,0.0,0.0,0.0,0.0,0.0,0.0,0.0,0.0,0.0,0.0,0,0.0,0.0,0.0,0.0,0.0,0.0,0,0,0,0,0,0,0,0,0,0,0,1,1,1,0,125,0,0,0,0
31566116,50.1875,50.1875,3.2363281,3.2363281,3.2363281,1.3893702,0.96999997,0.0,nan,23.600006,50.1875,0.0,0.0,0.0,0.0,0.0,0.0,0.0,0.0,0.0,0.0,0.0,0.0,0.0,0.0,0,0.0,0.0,0.0,0.0,0.0,0.0,0,0,0,0,0,0,0,0,0,0,0,1,1,1,0,125,0,0,0,0
31765814,50.1875,50.1875,3.2070312,3.2070312,3.2070312,1.4104882,0.96999997,0.0,nan,23.600006,50.1875,0.0,0.0,0.0,0.0,0.0,0.0,0.0,0.0,0.0,0.0,0.0,0.0,0.0,0.0,0,0.0,0.0,0.0,0.0,0.0,0.0,0,0,0,0,0,0,0,0,0,0,0,1,1,1,0,125,0,0,0,0
31963587,50.1875,50.1875,3.1367188,3.1367188,3.1367188,1.4305471,0.96999997,0.0,nan,23.600006,50.1875,0.0,0.0,0.0,0.0,0.0,0.0,0.0,0.0,0.0,0.0,0.0,0.0,0.0,0.0,0,0.0,0.0,0.0,0.0,0.0,0.0,0,0,0,0,0,0,0,0,0,0,0,1,1,1,0,125,0,0,0,0
32163718,50.1875,50.1875,3.2753906,3.2753906,3.2753906,1.4520189,0.96999997,0.0,nan,23.600006,50.1875,0.0,0.0,0.0,0.0,0.0,0.0,0.0,0.0,0.0,0.0,0.0,0.0,0.0,0.0,0,0.0,0.0,0.0,0.0,0.0,0.0,0,0,0,0,0,0,0,0,0,0,0,1,1,1,0,125,0,0,0,0
32363404,50.1875,50.1875,3.1796875,3.1796875,3.1796875,1.4733529,0.96999997,0.0,nan,23.600006,50.1875,0.0,0.0,0.0,0.0,0.0,0.0,0.0,0.0,0.0,0.0,0.0,0.0,0.0,0.0,0,0.0,0.0,0.0,0.0,0.0,0.0,0,0,0,0,0,0,0,0,0,0,0,1,1,1,0,125,0,0,0,0
32562164,50.1875,50.1875,3.1738281,3.1738281,3.1738281,1.4933474,0.96999997,0.0,nan,23.600006,50.1875,0.0,0.0,0.0,0.0,0.0,0.0,0.0,0.0,0.0,0.0,0.0,0.0,0.0,0.0,0,0.0,0.0,0.0,0.0,0.0,0.0,0,0,0,0,0,0,0,0,0,0,0,1,1,1,0,125,0,0,0,0
32761227,50.1875,50.1875,3.2324219,3.2324219,3.2324219,1.5133643,0.96999997,0.0,nan,23.600006,50.1875,0.0,0.0,0.0,0.0,0.0,0.0,0.0,0.0,0.0,0.0,0.0,0.0,0.0,0.0,0,0.0,0.0,0.0,0.0,0.0,0.0,0,0,0,0,0,0,0,0,0,0,0,1,1,1,0,125,0,0,0,0
32960665,50.1875,50.1875,3.2324219,3.2324219,3.2324219,1.5343066,0.96999997,0.0,nan,23.600006,50.1875,0.0,0.0,0.0,0.0,0.0,0.0,0.0,0.0,0.0,0.0,0.0,0.0,0.0,0.0,0,0.0,0.0,0.0,0.0,0.0,0.0,0,0,0,0,0,0,0,0,0,0,0,1,1,1,0,125,0,0,0,0
33161751,50.1875,50.1875,3.1933594,3.1933594,3.1933594,1.5566381,0.96999997,0.0,nan,23.600006,50.1875,0.0,0.0,0.0,0.0,0.0,0.0,0.0,0.0,0.0,0.0,0.0,0.0,0.0,0.0,0,0.0,0.0,0.0,0.0,0.0,0.0,0,0,0,0,0,0,0,0,0,0,0,1,1,1,0,125,0,0,0,0
33359442,50.1875,50.1875,3.1875,3.1875,3.1875,1.5775043,0.96999997,0.0,nan,23.600006,50.1875,0.0,0.0,0.0,0.0,0.0,0.0,0.0,0.0,0.0,0.0,0.0,0.0,0.0,0.0,0,0.0,0.0,0.0,0.0,0.0,0.0,0,0,0,0,0,0,0,0,0,0,0,1,1,1,0,125,0,0,0,0
33559840,50.1875,50.1875,3.1953125,3.1953125,3.1953125,1.5985827,0.96999997,0.0,nan,23.600006,50.1875,0.0,0.0,0.0,0.0,0.0,0.0,0.0,0.0,0.0,0.0,0.0,0.0,0.0,0.0,0,0.0,0.0,0.0,0.0,0.0,0.0,0,0,0,0,0,0,0,0,0,0,0,1,1,1,0,125,0,0,0,0
33759353,50.1875,50.1875,3.2011719,3.2011719,3.2011719,1.6206124,0.96999997,0.0,nan,23.600006,50.1875,0.0,0.0,0.0,0.0,0.0,0.0,0.0,0.0,0.0,0.0,0.0,0.0,0.0,0.0,0,0.0,0.0,0.0,0.0,0.0,0.0,0,0,0,0,0,0,0,0,0,0,0,1,1,1,0,125,0,0,0,0
33958364,50.1875,50.1875,3.2480469,3.2480469,3.2480469,1.642393,0.96999997,0.0,nan,23.600006,50.1875,0.0,0.0,0.0,0.0,0.0,0.0,0.0,0.0,0.0,0.0,0.0,0.0,0.0,0.0,0,0.0,0.0,0.0,0.0,0.0,0.0,0,0,0,0,0,0,0,0,0,0,0,1,1,1,0,125,0,0,0,0
34157792,50.1875,50.1875,3.2363281,3.2363281,3.2363281,1.6644993,0.96999997,0.0,nan,23.600006,50.1875,0.0,0.0,0.0,0.0,0.0,0.0,0.0,0.0,0.0,0.0,0.0,0.0,0.0,0.0,0,0.0,0.0,0.0,0.0,0.0,0.0,0,0,0,0,0,0,0,0,0,0,0,1,1,1,0,125,0,0,0,0
34356479,50.1875,50.1875,3.203125,3.203125,3.203125,1.6851637,0.96999997,0.0,nan,23.600006,50.1875,0.0,0.0,0.0,0.0,0.0,0.0,0.0,0.0,0.0,0.0,0.0,0.0,0.0,0.0,0,0.0,0.0,0.0,0.0,0.0,0.0,0,0,0,0,0,0,0,0,0,0,0,1,1,1,0,125,0,0,0,0
34556872,50.0625,50.0625,10.4609375,10.4609375,10.4609375,1.7473005,0.95,0.0,nan,23.600006,50.0625,0.0,0.0,0.0,0.0,0.0,0.0,0.0,0.0,0.0,0.0,0.0,0.0,0.0,0.0,0,0.0,0.0,0.0,0.0,0.0,0.0,0,0,0,0,0,0,0,0,0,0,0,1,1,1,0,125,0,0,0,0
34755304,50.03125,50.03125,11.9765625,11.9765625,11.9765625,1.8139865,0.95,0.0,nan,23.600006,50.03125,0.0,0.0,0.0,0.0,0.0,0.0,0.0,0.0,0.0,0.0,0.0,0.0,0.0,0.0,0,0.0,0.0,0.0,0.0,0.0,0.0,0,0,0,0,0,0,0,0,0,0,0,1,1,1,0,125,0,0,0,0
34954698,50.0,50.0,12.25,12.25,12.25,1.8855734,0.95,0.0,nan,23.600006,50.0,0.0,0.0,0.0,0.0,0.0,0.0,0.0,0.0,0.0,0.0,0.0,0.0,0.0,0.0,0,0.0,0.0,0.0,0.0,0.0,0.0,0,0,0,0,0,0,0,0,0,0,0,1,1,1,0,125,0,0,0,0
35155277,50.0,50.0,13.203125,13.203125,13.203125,1.9670349,0.95,0.0,nan,23.600006,50.0,0.0,0.0,0.0,0.0,0.0,0.0,0.0,0.0,0.0,0.0,0.0,0.0,0.0,0.0,0,0.0,0.0,0.0,0.0,0.0,0.0,0,0,0,0,0,0,0,0,0,0,0,1,1,1,0,125,0,0,0,0
35353511,50.03125,50.03125,11.21875,11.21875,11.21875,2.0310915,0.95,0.0,nan,23.600006,50.03125,0.0,0.0,0.0,0.0,0.0,0.0,0.0,0.0,0.0,0.0,0.0,0.0,0.0,0.0,0,0.0,0.0,0.0,0.0,0.0,0.0,0,0,0,0,0,0,0,0,0,0,0,1,1,1,0,125,0,0,0,0
35553040,49.875,49.875,19.453125,19.453125,19.453125,2.1409903,0.93,0.0,nan,23.600006,49.875,0.0,0.0,0.0,0.0,0.0,0.0,0.0,0.0,0.0,0.0,0.0,0.0,0.0,0.0,0,0.0,0.0,0.0,0.0,0.0,0.0,0,0,0,0,0,0,0,0,0,0,0,1,1,1,0,125,0,0,0,0
35752324,49.875,49.875,18.703125,18.703125,18.703125,2.2452137,0.93,0.0,nan,23.600006,49.875,0.0,0.0,0.0,0.0,0.0,0.0,0.0,0.0,0.0,0.0,0.0,0.0,0.0,0.0,0,0.0,0.0,0.0,0.0,0.0,0.0,0,0,0,0,0,0,0,0,0,0,0,1,1,1,0,125,0,0,0,0
35951728,49.6875,49.6875,29.84375,29.84375,29.84375,2.417927,0.90999997,0.0,nan,23.600006,49.6875,0.0,0.0,0.0,0.0,0.0,0.0,0.0,0.0,0.0,0.0,0.0,0.0,0.0,0.0,0,0.0,0.0,0.0,0.0,0.0,0.0,0,0,0,0,0,0,0,0,0,0,0,1,1,1,0,125,0,0,0,0
36151863,49.15625,49.15625,60.09375,60.09375,60.09375,2.7447438,0.84999996,0.0,nan,23.600006,49.15625,0.0,0.0,0.0,0.0,0.0,0.0,0.0,0.0,0.0,0.0,0.0,0.0,0.0,0.0,0,0.0,0.0,0.0,0.0,0.0,0.0,0,0,0,0,0,0,0,0,0,0,0,1,1,1,0,125,0,0,0,0
36350680,49.125,49.125,60.46875,60.46875,60.46875,3.082759,0.84,0.0,nan,23.600006,49.125,0.0,0.0,0.0,0.0,0.0,0.0,0.0,0.0,0.0,0.0,0.0,0.0,0.0,0.0,0,0.0,0.0,0.0,0.0,0.0,0.0,0,0,0,0,0,0,0,0,0,0,0,1,1,1,0,125,0,0,0,0
36549954,49.125,49.125,61.25,61.25,61.25,3.4255824,0.84,0.0,nan,23.600006,49.125,0.0,0.0,0.0,0.0,0.0,0.0,0.0,0.0,0.0,0.0,0.0,0.0,0.0,0.0,0,0.0,0.0,0.0,0.0,0.0,0.0,0,0,0,0,0,0,0,0,0,0,0,1,1,1,0,125,0,0,0,0
36749362,48.8125,48.8125,77.75,77.75,77.75,3.8634105,0.81,0.0,nan,23.600006,48.8125,0.0,0.0,0.0,0.0,0.0,0.0,0.0,0.0,0.0,0.0,0.0,0.0,0.0,0.0,0,0.0,0.0,0.0,0.0,0.0,0.0,0,0,0,0,0,0,0,0,0,0,0,1,1,1,0,125,0,0,0,0
36949307,48.78125,48.78125,77.5,77.5,77.5,4.327176,0.79999995,0.0,nan,23.600006,48.78125,0.0,0.0,0.0,0.0,0.0,0.0,0.0,0.0,0.0,0.0,0.0,0.0,0.0,0.0,0,0.0,0.0,0.0,0.0,0.0,0.0,0,0,0,0,0,0,0,0,0,0,0,1,1,1,0,125,0,0,0,0
37148933,48.4375,48.4375,98.3125,98.3125,98.3125,4.899248,0.76,0.0,nan,23.600006,48.4375,0.0,0.0,0.0,0.0,0.0,0.0,0.0,0.0,0.0,0.0,0.0,0.0,0.0,0.0,0,0.0,0.0,0.0,0.0,0.0,0.0,0,0,0,0,0,0,0,0,0,0,0,1,1,1,0,125,0,0,0,0
37347762,48.3125,48.3125,104.25,104.25,104.25,5.514515,0.75,0.0,nan,23.600006,48.3125,0.0,0.0,0.0,0.0,0.0,0.0,0.0,0.0,0.0,0.0,0.0,0.0,0.0,0.0,0,0.0,0.0,0.0,0.0,0.0,0.0,0,0,0,0,0,0,0,0,0,0,0,1,1,1,0,125,0,0,0,0
37546980,48.25,48.25,106.9375,106.9375,106.9375,6.122444,0.74,0.0,nan,23.600006,48.25,0.0,0.0,0.0,0.0,0.0,0.0,0.0,0.0,0.0,0.0,0.0,0.0,0.0,0.0,0,0.0,0.0,0.0,0.0,0.0,0.0,0,0,0,0,0,0,0,0,0,0,0,1,1,1,0,125,0,0,0,0
37746386,48.15625,48.15625,111.1875,111.1875,111.1875,6.748566,0.72999996,0.0,nan,23.600006,48.15625,0.0,0.0,0.0,0.0,0.0,0.0,0.0,0.0,0.0,0.0,0.0,0.0,0.0,0.0,0,0.0,0.0,0.0,0.0,0.0,0.0,0,0,0,0,0,0,0,0,0,0,0,1,1,1,0,125,0,0,0,0
37945804,48.03125,48.03125,116.3125,116.3125,116.3125,7.4127197,0.71,0.0,nan,23.600006,48.03125,0.0,0.0,0.0,0.0,0.0,0.0,0.0,0.0,0.0,0.0,0.0,0.0,0.0,0.0,0,0.0,0.0,0.0,0.0,0.0,0.0,0,0,0,0,0,0,0,0,0,0,0,1,1,1,0,125,0,0,0,0
38145992,47.90625,47.90625,121.625,121.625,121.625,8.136142,0.7,0.0,nan,23.600006,47.90625,0.0,0.0,0.0,0.0,0.0,0.0,0.0,0.0,0.0,0.0,0.0,0.0,0.0,0.0,0,0.0,0.0,0.0,0.0,0.0,0.0,0,0,0,0,0,0,0,0,0,0,0,1,1,1,0,125,0,0,0,0
38344609,47.84375,47.84375,124.4375,124.4375,124.4375,8.876987,0.69,0.0,nan,23.600006,47.84375,0.0,0.0,0.0,0.0,0.0,0.0,0.0,0.0,0.0,0.0,0.0,0.0,0.0,0.0,0,0.0,0.0,0.0,0.0,0.0,0.0,0,0,0,0,0,0,0,0,0,0,0,1,1,1,0,125,0,0,0,0
38545451,47.84375,47.84375,122.625,122.625,122.625,9.63702,0.69,0.0,nan,23.850006,47.84375,0.0,0.0,0.0,0.0,0.0,0.0,0.0,0.0,0.0,0.0,0.0,0.0,0.0,0.0,0,0.0,0.0,0.0,0.0,0.0,0.0,0,0,0,0,0,0,0,0,0,0,0,1,1,1,0,125,0,0,0,0
38743432,47.84375,47.84375,121.8125,121.8125,121.8125,10.337357,0.69,0.0,nan,23.850006,47.84375,0.0,0.0,0.0,0.0,0.0,0.0,0.0,0.0,0.0,0.0,0.0,0.0,0.0,0.0,0,0.0,0.0,0.0,0.0,0.0,0.0,0,0,0,0,0,0,0,0,0,0,0,1,1,1,0,125,0,0,0,0
38942832,47.84375,47.84375,121.625,121.625,121.625,11.063415,0.69,0.0,nan,23.850006,47.84375,0.0,0.0,0.0,0.0,0.0,0.0,0.0,0.0,0.0,0.0,0.0,0.0,0.0,0.0,0,0.0,0.0,0.0,0.0,0.0,0.0,0,0,0,0,0,0,0,0,0,0,0,1,1,1,0,125,0,0,0,0
39143961,47.8125,47.8125,121.1875,121.1875,121.1875,11.823508,0.69,0.0,nan,23.850006,47.8125,0.0,0.0,0.0,0.0,0.0,0.0,0.0,0.0,0.0,0.0,0.0,0.0,0.0,0.0,0,0.0,0.0,0.0,0.0,0.0,0.0,0,0,0,0,0,0,0,0,0,0,0,1,1,1,0,125,0,0,0,0
39341663,47.8125,47.8125,121.0625,121.0625,121.0625,12.528265,0.69,0.0,nan,24.100006,47.8125,0.0,0.0,0.0,0.0,0.0,0.0,0.0,0.0,0.0,0.0,0.0,0.0,0.0,0.0,0,0.0,0.0,0.0,0.0,0.0,0.0,0,0,0,0,0,0,0,0,0,0,0,1,1,1,0,125,0,0,0,0
39541062,47.8125,47.8125,120.625,120.625,120.625,13.234005,0.69,0.0,nan,24.100006,47.8125,0.0,0.0,0.0,0.0,0.0,0.0,0.0,0.0,0.0,0.0,0.0,0.0,0.0,0.0,0,0.0,0.0,0.0,0.0,0.0,0.0,0,0,0,0,0,0,0,0,0,0,0,1,1,1,0,125,0,0,0,0
39740460,47.78125,47.78125,120.4375,120.4375,120.4375,13.973948,0.68,0.0,nan,24.100006,47.78125,0.0,0.0,0.0,0.0,0.0,0.0,0.0,0.0,0.0,0.0,0.0,0.0,0.0,0.0,0,0.0,0.0,0.0,0.0,0.0,0.0,0,0,0,0,0,0,0,0,0,0,0,1,1,1,0,125,0,0,0,0
39940889,47.78125,47.78125,120.25,120.25,120.25,14.748641,0.68,0.0,nan,24.350006,47.78125,0.0,0.0,0.0,0.0,0.0,0.0,0.0,0.0,0.0,0.0,0.0,0.0,0.0,0.0,0,0.0,0.0,0.0,0.0,0.0,0.0,0,0,0,0,0,0,0,0,0,0,0,1,1,1,0,125,0,0,0,0
40140002,47.75,47.75,119.8125,119.8125,119.8125,15.512584,0.68,0.0,nan,24.350006,47.75,0.0,0.0,0.0,0.0,0.0,0.0,0.0,0.0,0.0,0.0,0.0,0.0,0.0,0.0,0,0.0,0.0,0.0,0.0,0.0,0.0,0,0,0,0,0,0,0,0,0,0,0,1,1,1,0,125,0,0,0,0
40338880,47.75,47.75,119.375,119.375,119.375,16.254293,0.68,0.0,nan,24.350006,47.75,0.0,0.0,0.0,0.0,0.0,0.0,0.0,0.0,0.0,0.0,0.0,0.0,0.0,0.0,0,0.0,0.0,0.0,0.0,0.0,0.0,0,0,0,0,0,0,0,0,0,0,0,1,1,1,0,125,0,0,0,0
40538164,47.75,47.75,119.25,119.25,119.25,16.972353,0.68,0.0,nan,24.600006,47.75,0.0,0.0,0.0,0.0,0.0,0.0,0.0,0.0,0.0,0.0,0.0,0.0,0.0,0.0,0,0.0,0.0,0.0,0.0,0.0,0.0,0,0,0,0,0,0,0,0,0,0,0,1,1,1,0,125,0,0,0,0
40737961,47.75,47.75,118.9375,118.9375,118.9375,17.730549,0.68,0.0,nan,24.600006,47.75,0.0,0.0,0.0,0.0,0.0,0.0,0.0,0.0,0.0,0.0,0.0,0.0,0.0,0.0,0,0.0,0.0,0.0,0.0,0.0,0.0,0,0,0,0,0,0,0,0,0,0,0,1,1,1,0,125,0,0,0,0
40936905,47.71875,47.71875,118.375,118.375,118.375,18.470495,0.68,0.0,nan,24.850006,47.71875,0.0,0.0,0.0,0.0,0.0,0.0,0.0,0.0,0.0,0.0,0.0,0.0,0.0,0.0,0,0.0,0.0,0.0,0.0,0.0,0.0,0,0,0,0,0,0,0,0,0,0,0,1,1,1,0,125,0,0,0,0
41137039,48.25,48.25,87.5625,87.5625,87.5625,19.021965,0.74,0.0,nan,24.850006,48.25,0.0,0.0,0.0,0.0,0.0,0.0,0.0,0.0,0.0,0.0,0.0,0.0,0.0,0.0,0,0.0,0.0,0.0,0.0,0.0,0.0,0,0,0,0,0,0,0,0,0,0,0,1,1,1,0,125,0,0,0,0
41335941,48.25,48.25,87.625,87.625,87.625,19.583326,0.74,0.0,nan,25.100006,48.25,0.0,0.0,0.0,0.0,0.0,0.0,0.0,0.0,0.0,0.0,0.0,0.0,0.0,0.0,0,0.0,0.0,0.0,0.0,0.0,0.0,0,0,0,0,0,0,0,0,0,0,0,1,1,1,0,125,0,0,0,0
41535156,48.5625,48.5625,69.3125,69.3125,69.3125,20.00768,0.77,0.0,nan,25.100006,48.5625,0.0,0.0,0.0,0.0,0.0,0.0,0.0,0.0,0.0,0.0,0.0,0.0,0.0,0.0,0,0.0,0.0,0.0,0.0,0.0,0.0,0,0,0,0,0,0,0,0,0,0,0,1,1,1,0,125,0,0,0,0
41735714,49.09375,49.09375,37.53125,37.53125,37.53125,20.251514,0.84,0.0,nan,25.350006,49.09375,0.0,0.0,0.0,0.0,0.0,0.0,0.0,0.0,0.0,0.0,0.0,0.0,0.0,0.0,0,0.0,0.0,0.0,0.0,0.0,0.0,0,0,0,0,0,0,0,0,0,0,0,1,1,1,0,125,0,0,0,0
41933954,49.0625,49.0625,40.4375,40.4375,40.4375,20.498207,0.84,0.0,nan,25.600006,49.0625,0.0,0.0,0.0,0.0,0.0,0.0,0.0,0.0,0.0,0.0,0.0,0.0,0.0,0.0,0,0.0,0.0,0.0,0.0,0.0,0.0,0,0,0,0,0,0,0,0,0,0,0,1,1,1,0,125,0,0,0,0
42134113,48.78125,48.78125,55.84375,55.84375,55.84375,20.870844,0.79999995,0.0,nan,25.600006,48.78125,0.0,0.0,0.0,0.0,0.0,0.0,0.0,0.0,0.0,0.0,0.0,0.0,0.0,0.0,0,0.0,0.0,0.0,0.0,0.0,0.0,0,0,0,0,0,0,0,0,0,0,0,1,1,1,0,125,0,0,0,0
42332773,49.25,49.25,29.578125,29.578125,29.578125,21.064543,0.85999995,0.0,nan,25.850006,49.25,0.0,0.0,0.0,0.0,0.0,0.0,0.0,0.0,0.0,0.0,0.0,0.0,0.0,0.0,0,0.0,0.0,0.0,0.0,0.0,0.0,0,0,0,0,0,0,0,0,0,0,0,1,1,1,0,125,0,0,0,0
42532182,49.53125,49.53125,14.265625,14.265625,14.265625,21.15743,0.89,0.0,nan,25.850006,49.53125,0.0,0.0,0.0,0.0,0.0,0.0,0.0,0.0,0.0,0.0,0.0,0.0,0.0,0.0,0,0.0,0.0,0.0,0.0,0.0,0.0,0,0,0,0,0,0,0,0,0,0,0,1,1,1,0,125,0,0,0,0
42731593,49.5625,49.5625,12.6875,12.6875,12.6875,21.24051,0.9,0.0,nan,26.100006,49.5625,0.0,0.0,0.0,0.0,0.0,0.0,0.0,0.0,0.0,0.0,0.0,0.0,0.0,0.0,0,0.0,0.0,0.0,0.0,0.0,0.0,0,0,0,0,0,0,0,0,0,0,0,1,1,1,0,125,0,0,0,0
42931002,49.625,49.625,8.8515625,8.8515625,8.8515625,21.299332,0.9,0.0,nan,26.100006,49.625,0.0,0.0,0.0,0.0,0.0,0.0,0.0,0.0,0.0,0.0,0.0,0.0,0.0,0.0,0,0.0,0.0,0.0,0.0,0.0,0.0,0,0,0,0,0,0,0,0,0,0,0,1,1,1,0,125,0,0,0,0
43131138,49.375,49.375,23.640625,23.640625,23.640625,21.461535,0.87,0.0,nan,26.350006,49.375,0.0,0.0,0.0,0.0,0.0,0.0,0.0,0.0,0.0,0.0,0.0,0.0,0.0,0.0,0,0.0,0.0,0.0,0.0,0.0,0.0,0,0,0,0,0,0,0,0,0,0,0,1,1,1,0,125,0,0,0,0
43331103,49.59375,49.59375,11.4140625,11.4140625,11.4140625,21.54152,0.9,0.0,nan,26.350006,49.59375,0.0,0.0,0.0,0.0,0.0,0.0,0.0,0.0,0.0,0.0,0.0,0.0,0.0,0.0,0,0.0,0.0,0.0,0.0,0.0,0.0,0,0,0,0,0,0,0,0,0,0,0,1,1,1,0,125,0,0,0,0
43529234,49.65625,49.65625,8.8671875,8.8671875,8.8671875,21.600723,0.90999997,0.0,nan,26.350006,49.65625,0.0,0.0,0.0,0.0,0.0,0.0,0.0,0.0,0.0,0.0,0.0,0.0,0.0,0.0,0,0.0,0.0,0.0,0.0,0.0,0.0,0,0,0,0,0,0,0,0,0,0,0,1,1,1,0,125,0,0,0,0
43728663,49.59375,49.59375,11.9921875,11.9921875,11.9921875,21.683409,0.9,0.0,nan,26.600006,49.59375,0.0,0.0,0.0,0.0,0.0,0.0,0.0,0.0,0.0,0.0,0.0,0.0,0.0,0.0,0,0.0,0.0,0.0,0.0,0.0,0.0,0,0,0,0,0,0,0,0,0,0,0,1,1,1,0,125,0,0,0,0
43929131,49.53125,49.53125,17.59375,17.59375,17.59375,21.80382,0.89,0.0,nan,26.600006,49.53125,0.0,0.0,0.0,0.0,0.0,0.0,0.0,0.0,0.0,0.0,0.0,0.0,0.0,0.0,0,0.0,0.0,0.0,0.0,0.0,0.0,0,0,0,0,0,0,0,0,0,0,0,1,1,1,0,125,0,0,0,0
44128188,49.53125,49.53125,16.734375,16.734375,16.734375,21.917274,0.89,0.0,nan,26.600006,49.53125,0.0,0.0,0.0,0.0,0.0,0.0,0.0,0.0,0.0,0.0,0.0,0.0,0.0,0.0,0,0.0,0.0,0.0,0.0,0.0,0.0,0,0,0,0,0,0,0,0,0,0,0,1,1,1,0,125,0,0,0,0
44326869,49.53125,49.53125,16.765625,16.765625,16.765625,22.032713,0.89,0.0,nan,26.850006,49.53125,0.0,0.0,0.0,0.0,0.0,0.0,0.0,0.0,0.0,0.0,0.0,0.0,0.0,0.0,0,0.0,0.0,0.0,0.0,0.0,0.0,0,0,0,0,0,0,0,0,0,0,0,1,1,1,0,125,0,0,0,0
44526297,49.5625,49.5625,16.390625,16.390625,16.390625,22.142822,0.89,0.0,nan,26.850006,49.5625,0.0,0.0,0.0,0.0,0.0,0.0,0.0,0.0,0.0,0.0,0.0,0.0,0.0,0.0,0,0.0,0.0,0.0,0.0,0.0,0.0,0,0,0,0,0,0,0,0,0,0,0,1,1,1,0,125,0,0,0,0
44725719,49.53125,49.53125,17.484375,17.484375,17.484375,22.264093,0.89,0.0,nan,26.850006,49.53125,0.0,0.0,0.0,0.0,0.0,0.0,0.0,0.0,0.0,0.0,0.0,0.0,0.0,0.0,0,0.0,0.0,0.0,0.0,0.0,0.0,0,0,0,0,0,0,0,0,0,0,0,1,1,1,0,125,0,0,0,0
44925198,49.625,49.625,12.859375,12.859375,12.859375,22.354816,0.9,0.0,nan,26.850006,49.625,0.0,0.0,0.0,0.0,0.0,0.0,0.0,0.0,0.0,0.0,0.0,0.0,0.0,0.0,0,0.0,0.0,0.0,0.0,0.0,0.0,0,0,0,0,0,0,0,0,0,0,0,1,1,1,0,125,0,0,0,0
45125549,49.59375,49.59375,14.8515625,14.8515625,14.8515625,22.459145,0.9,0.0,nan,26.850006,49.59375,0.0,0.0,0.0,0.0,0.0,0.0,0.0,0.0,0.0,0.0,0.0,0.0,0.0,0.0,0,0.0,0.0,0.0,0.0,0.0,0.0,0,0,0,0,0,0,0,0,0,0,0,1,1,1,0,125,0,0,0,0
45323944,49.46875,49.46875,22.84375,22.84375,22.84375,22.617167,0.88,0.0,nan,26.850006,49.46875,0.0,0.0,0.0,0.0,0.0,0.0,0.0,0.0,0.0,0.0,0.0,0.0,0.0,0.0,0,0.0,0.0,0.0,0.0,0.0,0.0,0,0,0,0,0,0,0,0,0,0,0,1,1,1,0,125,0,0,0,0
45524610,49.5625,49.5625,16.671875,16.671875,16.671875,22.737064,0.9,0.0,nan,26.850006,49.5625,0.0,0.0,0.0,0.0,0.0,0.0,0.0,0.0,0.0,0.0,0.0,0.0,0.0,0.0,0,0.0,0.0,0.0,0.0,0.0,0.0,0,0,0,0,0,0,0,0,0,0,0,1,1,1,0,125,0,0,0,0
45723302,49.625,49.625,13.265625,13.265625,13.265625,22.83348,0.9,0.0,nan,26.850006,49.625,0.0,0.0,0.0,0.0,0.0,0.0,0.0,0.0,0.0,0.0,0.0,0.0,0.0,0.0,0,0.0,0.0,0.0,0.0,0.0,0.0,0,0,0,0,0,0,0,0,0,0,0,1,1,1,0,125,0,0,0,0
45922184,49.5625,49.5625,17.3125,17.3125,17.3125,22.952171,0.9,0.0,nan,26.850006,49.5625,0.0,0.0,0.0,0.0,0.0,0.0,0.0,0.0,0.0,0.0,0.0,0.0,0.0,0.0,0,0.0,0.0,0.0,0.0,0.0,0.0,0,0,0,0,0,0,0,0,0,0,0,1,1,1,0,125,0,0,0,0
46122618,49.65625,49.65625,11.296875,11.296875,11.296875,23.03682,0.90999997,0.0,nan,26.850006,49.65625,0.0,0.0,0.0,0.0,0.0,0.0,0.0,0.0,0.0,0.0,0.0,0.0,0.0,0.0,0,0.0,0.0,0.0,0.0,0.0,0.0,0,0,0,0,0,0,0,0,0,0,0,1,1,1,0,125,0,0,0,0
46321046,49.625,49.625,13.8359375,13.8359375,13.8359375,23.136211,0.9,0.0,nan,26.850006,49.625,0.0,0.0,0.0,0.0,0.0,0.0,0.0,0.0,0.0,0.0,0.0,0.0,0.0,0.0,0,0.0,0.0,0.0,0.0,0.0,0.0,0,0,0,0,0,0,0,0,0,0,0,1,1,1,0,125,0,0,0,0
46520418,49.53125,49.53125,19.640625,19.640625,19.640625,23.27095,0.89,0.0,nan,26.850006,49.53125,0.0,0.0,0.0,0.0,0.0,0.0,0.0,0.0,0.0,0.0,0.0,0.0,0.0,0.0,0,0.0,0.0,0.0,0.0,0.0,0.0,0,0,0,0,0,0,0,0,0,0,0,1,1,1,0,125,0,0,0,0
46719826,49.5625,49.5625,18.09375,18.09375,18.09375,23.400713,0.89,0.0,nan,26.850006,49.5625,0.0,0.0,0.0,0.0,0.0,0.0,0.0,0.0,0.0,0.0,0.0,0.0,0.0,0.0,0,0.0,0.0,0.0,0.0,0.0,0.0,0,0,0,0,0,0,0,0,0,0,0,1,1,1,0,125,0,0,0,0
46919248,49.6875,49.6875,10.1875,10.1875,10.1875,23.473402,0.90999997,0.0,nan,26.850006,49.6875,0.0,0.0,0.0,0.0,0.0,0.0,0.0,0.0,0.0,0.0,0.0,0.0,0.0,0.0,0,0.0,0.0,0.0,0.0,0.0,0.0,0,0,0,0,0,0,0,0,0,0,0,1,1,1,0,125,0,0,0,0
47119374,49.53125,49.53125,19.453125,19.453125,19.453125,23.616755,0.89,0.0,nan,26.850006,49.53125,0.0,0.0,0.0,0.0,0.0,0.0,0.0,0.0,0.0,0.0,0.0,0.0,0.0,0.0,0,0.0,0.0,0.0,0.0,0.0,0.0,0,0,0,0,0,0,0,0,0,0,0,1,1,1,0,125,0,0,0,0
47318063,49.1875,49.1875,40.03125,40.03125,40.03125,23.898819,0.84999996,0.0,nan,26.850006,49.1875,0.0,0.0,0.0,0.0,0.0,0.0,0.0,0.0,0.0,0.0,0.0,0.0,0.0,0.0,0,0.0,0.0,0.0,0.0,0.0,0.0,0,0,0,0,0,0,0,0,0,0,0,1,1,1,0,125,0,0,0,0
47517856,49.09375,49.09375,45.59375,45.59375,45.59375,24.218996,0.84,0.0,nan,26.850006,49.09375,0.0,0.0,0.0,0.0,0.0,0.0,0.0,0.0,0.0,0.0,0.0,0.0,0.0,0.0,0,0.0,0.0,0.0,0.0,0.0,0.0,0,0,0,0,0,0,0,0,0,0,0,1,1,1,0,125,0,0,0,0
47716894,49.59375,49.59375,16.765625,16.765625,16.765625,24.340118,0.9,0.0,nan,26.850006,49.59375,0.0,0.0,0.0,0.0,0.0,0.0,0.0,0.0,0.0,0.0,0.0,0.0,0.0,0.0,0,0.0,0.0,0.0,0.0,0.0,0.0,0,0,0,0,0,0,0,0,0,0,0,1,1,1,0,125,0,0,0,0
47916300,49.5,49.5,22.03125,22.03125,22.03125,24.50062,0.89,0.0,nan,26.850006,49.5,0.0,0.0,0.0,0.0,0.0,0.0,0.0,0.0,0.0,0.0,0.0,0.0,0.0,0.0,0,0.0,0.0,0.0,0.0,0.0,0.0,0,0,0,0,0,0,0,0,0,0,0,1,1,1,0,125,0,0,0,0
48116858,49.3125,49.3125,32.03125,32.03125,32.03125,24.731762,0.87,0.0,nan,26.850006,49.3125,0.0,0.0,0.0,0.0,0.0,0.0,0.0,0.0,0.0,0.0,0.0,0.0,0.0,0.0,0,0.0,0.0,0.0,0.0,0.0,0.0,0,0,0,0,0,0,0,0,0,0,0,1,1,1,0,125,0,0,0,0
48315142,49.25,49.25,36.125,36.125,36.125,24.99409,0.85999995,0.0,nan,26.850006,49.25,0.0,0.0,0.0,0.0,0.0,0.0,0.0,0.0,0.0,0.0,0.0,0.0,0.0,0.0,0,0.0,0.0,0.0,0.0,0.0,0.0,0,0,0,0,0,0,0,0,0,0,0,1,1,1,0,125,0,0,0,0
48514539,49.15625,49.15625,41.59375,41.59375,41.59375,25.285236,0.84999996,0.0,nan,26.850006,49.15625,0.0,0.0,0.0,0.0,0.0,0.0,0.0,0.0,0.0,0.0,0.0,0.0,0.0,0.0,0,0.0,0.0,0.0,0.0,0.0,0.0,0,0,0,0,0,0,0,0,0,0,0,1,1,1,0,125,0,0,0,0
48713954,49.375,49.375,28.96875,28.96875,28.96875,25.498121,0.87,0.0,nan,26.850006,49.375,0.0,0.0,0.0,0.0,0.0,0.0,0.0,0.0,0.0,0.0,0.0,0.0,0.0,0.0,0,0.0,0.0,0.0,0.0,0.0,0.0,0,0,0,0,0,0,0,0,0,0,0,1,1,1,0,125,0,0,0,0
48913388,49.4375,49.4375,24.8125,24.8125,24.8125,25.676155,0.88,0.0,nan,26.850006,49.4375,0.0,0.0,0.0,0.0,0.0,0.0,0.0,0.0,0.0,0.0,0.0,0.0,0.0,0.0,0,0.0,0.0,0.0,0.0,0.0,0.0,0,0,0,0,0,0,0,0,0,0,0,1,1,1,0,125,0,0,0,0
49113987,49.4375,49.4375,25.390625,25.390625,25.390625,25.87309,0.88,0.0,nan,26.850006,49.4375,0.0,0.0,0.0,0.0,0.0,0.0,0.0,0.0,0.0,0.0,0.0,0.0,0.0,0.0,0,0.0,0.0,0.0,0.0,0.0,0.0,0,0,0,0,0,0,0,0,0,0,0,1,1,1,0,125,0,0,0,0
49312189,49.78125,49.78125,5.3515625,5.3515625,5.3515625,25.915827,0.91999996,0.0,nan,26.850006,49.78125,0.0,0.0,0.0,0.0,0.0,0.0,0.0,0.0,0.0,0.0,0.0,0.0,0.0,0.0,0,0.0,0.0,0.0,0.0,0.0,0.0,0,0,0,0,0,0,0,0,0,0,0,1,1,1,0,125,0,0,0,0
49512808,49.71875,49.71875,8.5625,8.5625,8.5625,25.983383,0.90999997,0.0,nan,26.850006,49.71875,0.0,0.0,0.0,0.0,0.0,0.0,0.0,0.0,0.0,0.0,0.0,0.0,0.0,0.0,0,0.0,0.0,0.0,0.0,0.0,0.0,0,0,0,0,0,0,0,0,0,0,0,1,1,1,0,125,0,0,0,0
49711121,49.375,49.375,29.421875,29.421875,29.421875,26.203564,0.87,0.0,nan,26.850006,49.375,0.0,0.0,0.0,0.0,0.0,0.0,0.0,0.0,0.0,0.0,0.0,0.0,0.0,0.0,0,0.0,0.0,0.0,0.0,0.0,0.0,0,0,0,0,0,0,0,0,0,0,0,1,1,1,0,125,0,0,0,0
49911415,49.46875,49.46875,24.0,24.0,24.0,26.388638,0.88,0.0,nan,26.850006,49.46875,0.0,0.0,0.0,0.0,0.0,0.0,0.0,0.0,0.0,0.0,0.0,0.0,0.0,0.0,0,0.0,0.0,0.0,0.0,0.0,0.0,0,0,0,0,0,0,0,0,0,0,0,1,1,1,0,125,0,0,0,0
50110687,49.5625,49.5625,18.4375,18.4375,18.4375,26.533035,0.9,0.0,nan,26.850006,49.5625,0.0,0.0,0.0,0.0,0.0,0.0,0.0,0.0,0.0,0.0,0.0,0.0,0.0,0.0,0,0.0,0.0,0.0,0.0,0.0,0.0,0,0,0,0,0,0,0,0,0,0,0,1,1,1,0,125,0,0,0,0
50309258,49.71875,49.71875,9.0859375,9.0859375,9.0859375,26.60416,0.90999997,0.0,nan,26.850006,49.71875,0.0,0.0,0.0,0.0,0.0,0.0,0.0,0.0,0.0,0.0,0.0,0.0,0.0,0.0,0,0.0,0.0,0.0,0.0,0.0,0.0,0,0,0,0,0,0,0,0,0,0,0,1,1,1,0,125,0,0,0,0
50508647,49.78125,49.78125,5.921875,5.921875,5.921875,26.650347,0.91999996,0.0,nan,26.850006,49.78125,0.0,0.0,0.0,0.0,0.0,0.0,0.0,0.0,0.0,0.0,0.0,0.0,0.0,0.0,0,0.0,0.0,0.0,0.0,0.0,0.0,0,0,0,0,0,0,0,0,0,0,0,1,1,1,0,125,0,0,0,0
50709055,49.78125,49.78125,6.9960938,6.9960938,6.9960938,26.708168,0.91999996,0.0,nan,26.850006,49.78125,0.0,0.0,0.0,0.0,0.0,0.0,0.0,0.0,0.0,0.0,0.0,0.0,0.0,0.0,0,0.0,0.0,0.0,0.0,0.0,0.0,0,0,0,0,0,0,0,0,0,0,0,1,1,1,0,125,0,0,0,0
50907470,49.5,49.5,22.3125,22.3125,22.3125,26.878956,0.89,0.0,nan,26.850006,49.5,0.0,0.0,0.0,0.0,0.0,0.0,0.0,0.0,0.0,0.0,0.0,0.0,0.0,0.0,0,0.0,0.0,0.0,0.0,0.0,0.0,0,0,0,0,0,0,0,0,0,0,0,1,1,1,0,125,0,0,0,0
51107608,49.40625,49.40625,27.734375,27.734375,27.734375,27.090124,0.88,0.0,nan,26.850006,49.40625,0.0,0.0,0.0,0.0,0.0,0.0,0.0,0.0,0.0,0.0,0.0,0.0,0.0,0.0,0,0.0,0.0,0.0,0.0,0.0,0.0,0,0,0,0,0,0,0,0,0,0,0,1,1,1,0,125,0,0,0,0
51306586,49.65625,49.65625,13.5546875,13.5546875,13.5546875,27.195988,0.90999997,0.0,nan,26.850006,49.65625,0.0,0.0,0.0,0.0,0.0,0.0,0.0,0.0,0.0,0.0,0.0,0.0,0.0,0.0,0,0.0,0.0,0.0,0.0,0.0,0.0,0,0,0,0,0,0,0,0,0,0,0,1,1,1,0,125,0,0,0,0
51506698,49.6875,49.6875,11.90625,11.90625,11.90625,27.28993,0.90999997,0.0,nan,26.600006,49.6875,0.0,0.0,0.0,0.0,0.0,0.0,0.0,0.0,0.0,0.0,0.0,0.0,0.0,0.0,0,0.0,0.0,0.0,0.0,0.0,0.0,0,0,0,0,0,0,0,0,0,0,0,1,1,1,0,125,0,0,0,0
51705334,49.59375,49.59375,17.125,17.125,17.125,27.424627,0.9,0.0,nan,26.600006,49.59375,0.0,0.0,0.0,0.0,0.0,0.0,0.0,0.0,0.0,0.0,0.0,0.0,0.0,0.0,0,0.0,0.0,0.0,0.0,0.0,0.0,0,0,0,0,0,0,0,0,0,0,0,1,1,1,0,125,0,0,0,0
52104673,49.65625,49.65625,14.8984375,14.8984375,14.8984375,27.549189,0.90999997,0.0,nan,26.600006,49.65625,0.0,0.0,0.0,0.0,0.0,0.0,0.0,0.0,0.0,0.0,0.0,0.0,0.0,0.0,0,0.0,0.0,0.0,0.0,0.0,0.0,0,0,0,0,0,0,0,0,0,0,0,1,1,1,0,125,0,0,0,0
52303351,49.6875,49.6875,13.453125,13.453125,13.453125,27.65552,0.90999997,0.0,nan,26.600006,49.6875,0.0,0.0,0.0,0.0,0.0,0.0,0.0,0.0,0.0,0.0,0.0,0.0,0.0,0.0,0,0.0,0.0,0.0,0.0,0.0,0.0,0,0,0,0,0,0,0,0,0,0,0,1,1,1,0,125,0,0,0,0
52502836,49.65625,49.65625,13.3359375,13.3359375,13.3359375,27.758514,0.90999997,0.0,nan,26.600006,49.65625,0.0,0.0,0.0,0.0,0.0,0.0,0.0,0.0,0.0,0.0,0.0,0.0,0.0,0.0,0,0.0,0.0,0.0,0.0,0.0,0.0,0,0,0,0,0,0,0,0,0,0,0,1,1,1,0,125,0,0,0,0
52702206,49.53125,49.53125,21.515625,21.515625,21.515625,27.92838,0.89,0.0,nan,26.600006,49.53125,0.0,0.0,0.0,0.0,0.0,0.0,0.0,0.0,0.0,0.0,0.0,0.0,0.0,0.0,0,0.0,0.0,0.0,0.0,0.0,0.0,0,0,0,0,0,0,0,0,0,0,0,1,1,1,0,125,0,0,0,0
52903073,49.71875,49.71875,9.4609375,9.4609375,9.4609375,28.00898,0.91999996,0.0,nan,26.600006,49.71875,0.0,0.0,0.0,0.0,0.0,0.0,0.0,0.0,0.0,0.0,0.0,0.0,0.0,0.0,0,0.0,0.0,0.0,0.0,0.0,0.0,0,0,0,0,0,0,0,0,0,0,0,1,1,1,0,125,0,0,0,0
53101716,49.8125,49.8125,5.5273438,5.5273438,5.5273438,28.056633,0.91999996,0.0,nan,26.600006,49.8125,0.0,0.0,0.0,0.0,0.0,0.0,0.0,0.0,0.0,0.0,0.0,0.0,0.0,0.0,0,0.0,0.0,0.0,0.0,0.0,0.0,0,0,0,0,0,0,0,0,0,0,0,1,1,1,0,125,0,0,0,0
53301414,49.78125,49.78125,7.265625,7.265625,7.265625,28.118896,0.91999996,0.0,nan,26.600006,49.78125,0.0,0.0,0.0,0.0,0.0,0.0,0.0,0.0,0.0,0.0,0.0,0.0,0.0,0.0,0,0.0,0.0,0.0,0.0,0.0,0.0,0,0,0,0,0,0,0,0,0,0,0,1,1,1,0,125,0,0,0,0
53500816,49.75,49.75,8.84375,8.84375,8.84375,28.19204,0.91999996,0.0,nan,26.600006,49.75,0.0,0.0,0.0,0.0,0.0,0.0,0.0,0.0,0.0,0.0,0.0,0.0,0.0,0.0,0,0.0,0.0,0.0,0.0,0.0,0.0,0,0,0,0,0,0,0,0,0,0,0,1,1,1,0,125,0,0,0,0
53700220,49.75,49.75,9.515625,9.515625,9.515625,28.272877,0.91999996,0.0,nan,26.600006,49.75,0.0,0.0,0.0,0.0,0.0,0.0,0.0,0.0,0.0,0.0,0.0,0.0,0.0,0.0,0,0.0,0.0,0.0,0.0,0.0,0.0,0,0,0,0,0,0,0,0,0,0,0,1,1,1,0,125,0,0,0,0
53898667,49.75,49.75,9.796875,9.796875,9.796875,28.350918,0.91999996,0.0,nan,26.600006,49.75,0.0,0.0,0.0,0.0,0.0,0.0,0.0,0.0,0.0,0.0,0.0,0.0,0.0,0.0,0,0.0,0.0,0.0,0.0,0.0,0.0,0,0,0,0,0,0,0,0,0,0,0,1,1,1,0,125,0,0,0,0
54098777,49.75,49.75,10.109375,10.109375,10.109375,28.436113,0.91999996,0.0,nan,26.600006,49.75,0.0,0.0,0.0,0.0,0.0,0.0,0.0,0.0,0.0,0.0,0.0,0.0,0.0,0.0,0,0.0,0.0,0.0,0.0,0.0,0.0,0,0,0,0,0,0,0,0,0,0,0,1,1,1,0,125,0,0,0,0
54298462,49.75,49.75,9.375,9.375,9.375,28.516325,0.91999996,0.0,nan,26.600006,49.75,0.0,0.0,0.0,0.0,0.0,0.0,0.0,0.0,0.0,0.0,0.0,0.0,0.0,0.0,0,0.0,0.0,0.0,0.0,0.0,0.0,0,0,0,0,0,0,0,0,0,0,0,1,1,1,0,125,0,0,0,0
54498060,49.75,49.75,9.78125,9.78125,9.78125,28.598803,0.91999996,0.0,nan,26.600006,49.75,0.0,0.0,0.0,0.0,0.0,0.0,0.0,0.0,0.0,0.0,0.0,0.0,0.0,0.0,0,0.0,0.0,0.0,0.0,0.0,0.0,0,0,0,0,0,0,0,0,0,0,0,1,1,1,0,125,0,0,0,0
54696287,49.75,49.75,9.6640625,9.6640625,9.6640625,28.679365,0.91999996,0.0,nan,26.600006,49.75,0.0,0.0,0.0,0.0,0.0,0.0,0.0,0.0,0.0,0.0,0.0,0.0,0.0,0.0,0,0.0,0.0,0.0,0.0,0.0,0.0,0,0,0,0,0,0,0,0,0,0,0,1,1,1,0,125,0,0,0,0
54895941,49.71875,49.71875,12.1953125,12.1953125,12.1953125,28.781212,0.90999997,0.0,nan,26.600006,49.71875,0.0,0.0,0.0,0.0,0.0,0.0,0.0,0.0,0.0,0.0,0.0,0.0,0.0,0.0,0,0.0,0.0,0.0,0.0,0.0,0.0,0,0,0,0,0,0,0,0,0,0,0,1,1,1,0,125,0,0,0,0
55096048,49.46875,49.46875,26.671875,26.671875,26.671875,28.997921,0.88,0.0,nan,26.600006,49.46875,0.0,0.0,0.0,0.0,0.0,0.0,0.0,0.0,0.0,0.0,0.0,0.0,0.0,0.0,0,0.0,0.0,0.0,0.0,0.0,0.0,0,0,0,0,0,0,0,0,0,0,0,1,1,1,0,125,0,0,0,0
55294544,49.5625,49.5625,20.53125,20.53125,20.53125,29.16091,0.9,0.0,nan,26.350006,49.5625,0.0,0.0,0.0,0.0,0.0,0.0,0.0,0.0,0.0,0.0,0.0,0.0,0.0,0.0,0,0.0,0.0,0.0,0.0,0.0,0.0,0,0,0,0,0,0,0,0,0,0,0,1,1,1,0,125,0,0,0,0
55493946,49.71875,49.71875,11.734375,11.734375,11.734375,29.256159,0.90999997,0.0,nan,26.350006,49.71875,0.0,0.0,0.0,0.0,0.0,0.0,0.0,0.0,0.0,0.0,0.0,0.0,0.0,0.0,0,0.0,0.0,0.0,0.0,0.0,0.0,0,0,0,0,0,0,0,0,0,0,0,1,1,1,0,125,0,0,0,0
55693514,49.71875,49.71875,11.8515625,11.8515625,11.8515625,29.3562,0.90999997,0.0,nan,26.350006,49.71875,0.0,0.0,0.0,0.0,0.0,0.0,0.0,0.0,0.0,0.0,0.0,0.0,0.0,0.0,0,0.0,0.0,0.0,0.0,0.0,0.0,0,0,0,0,0,0,0,0,0,0,0,1,1,1,0,125,0,0,0,0
55892745,49.75,49.75,10.0546875,10.0546875,10.0546875,29.441029,0.91999996,0.0,nan,26.350006,49.75,0.0,0.0,0.0,0.0,0.0,0.0,0.0,0.0,0.0,0.0,0.0,0.0,0.0,0.0,0,0.0,0.0,0.0,0.0,0.0,0.0,0,0,0,0,0,0,0,0,0,0,0,1,1,1,0,125,0,0,0,0
56092877,49.78125,49.78125,8.140625,8.140625,8.140625,29.512505,0.91999996,0.0,nan,26.350006,49.78125,0.0,0.0,0.0,0.0,0.0,0.0,0.0,0.0,0.0,0.0,0.0,0.0,0.0,0.0,0,0.0,0.0,0.0,0.0,0.0,0.0,0,0,0,0,0,0,0,0,0,0,0,1,1,1,0,125,0,0,0,0
56291576,49.59375,49.59375,19.71875,19.71875,19.71875,29.676888,0.9,0.0,nan,26.350006,49.59375,0.0,0.0,0.0,0.0,0.0,0.0,0.0,0.0,0.0,0.0,0.0,0.0,0.0,0.0,0,0.0,0.0,0.0,0.0,0.0,0.0,0,0,0,0,0,0,0,0,0,0,0,1,1,1,0,125,0,0,0,0
56491979,49.625,49.625,18.09375,18.09375,18.09375,29.829964,0.9,0.0,nan,26.350006,49.625,0.0,0.0,0.0,0.0,0.0,0.0,0.0,0.0,0.0,0.0,0.0,0.0,0.0,0.0,0,0.0,0.0,0.0,0.0,0.0,0.0,0,0,0,0,0,0,0,0,0,0,0,1,1,1,0,125,0,0,0,0
56690443,49.65625,49.65625,16.09375,16.09375,16.09375,29.965866,0.90999997,0.0,nan,26.350006,49.65625,0.0,0.0,0.0,0.0,0.0,0.0,0.0,0.0,0.0,0.0,0.0,0.0,0.0,0.0,0,0.0,0.0,0.0,0.0,0.0,0.0,0,0,0,0,0,0,0,0,0,0,0,1,1,1,0,125,0,0,0,0
56890212,49.78125,49.78125,9.078125,9.078125,9.078125,30.042786,0.91999996,0.0,nan,26.350006,49.78125,0.0,0.0,0.0,0.0,0.0,0.0,0.0,0.0,0.0,0.0,0.0,0.0,0.0,0.0,0,0.0,0.0,0.0,0.0,0.0,0.0,0,0,0,0,0,0,0,0,0,0,0,1,1,1,0,125,0,0,0,0
57090061,49.71875,49.71875,12.484375,12.484375,12.484375,30.15236,0.90999997,0.0,nan,26.350006,49.71875,0.0,0.0,0.0,0.0,0.0,0.0,0.0,0.0,0.0,0.0,0.0,0.0,0.0,0.0,0,0.0,0.0,0.0,0.0,0.0,0.0,0,0,0,0,0,0,0,0,0,0,0,1,1,1,0,125,0,0,0,0
57288613,49.71875,49.71875,11.9140625,11.9140625,11.9140625,30.254414,0.90999997,0.0,nan,26.350006,49.71875,0.0,0.0,0.0,0.0,0.0,0.0,0.0,0.0,0.0,0.0,0.0,0.0,0.0,0.0,0,0.0,0.0,0.0,0.0,0.0,0.0,0,0,0,0,0,0,0,0,0,0,0,1,1,1,0,125,0,0,0,0
57489031,49.46875,49.46875,27.875,27.875,27.875,30.490023,0.88,0.0,nan,26.350006,49.46875,0.0,0.0,0.0,0.0,0.0,0.0,0.0,0.0,0.0,0.0,0.0,0.0,0.0,0.0,0,0.0,0.0,0.0,0.0,0.0,0.0,0,0,0,0,0,0,0,0,0,0,0,1,1,1,0,125,0,0,0,0
57687446,49.625,49.625,18.359375,18.359375,18.359375,30.646544,0.9,0.0,nan,26.350006,49.625,0.0,0.0,0.0,0.0,0.0,0.0,0.0,0.0,0.0,0.0,0.0,0.0,0.0,0.0,0,0.0,0.0,0.0,0.0,0.0,0.0,0,0,0,0,0,0,0,0,0,0,0,1,1,1,0,125,0,0,0,0
57887010,49.625,49.625,17.4375,17.4375,17.4375,30.795614,0.9,0.0,nan,26.350006,49.625,0.0,0.0,0.0,0.0,0.0,0.0,0.0,0.0,0.0,0.0,0.0,0.0,0.0,0.0,0,0.0,0.0,0.0,0.0,0.0,0.0,0,0,0,0,0,0,0,0,0,0,0,1,1,1,0,125,0,0,0,0
58087016,49.8125,49.8125,6.0195312,6.0195312,6.0195312,30.850906,0.93,0.0,nan,26.350006,49.8125,0.0,0.0,0.0,0.0,0.0,0.0,0.0,0.0,0.0,0.0,0.0,0.0,0.0,0.0,0,0.0,0.0,0.0,0.0,0.0,0.0,0,0,0,0,0,0,0,0,0,0,0,1,1,1,0,125,0,0,0,0
58285668,49.6875,49.6875,14.484375,14.484375,14.484375,30.976154,0.90999997,0.0,nan,26.350006,49.6875,0.0,0.0,0.0,0.0,0.0,0.0,0.0,0.0,0.0,0.0,0.0,0.0,0.0,0.0,0,0.0,0.0,0.0,0.0,0.0,0.0,0,0,0,0,0,0,0,0,0,0,0,1,1,1,0,125,0,0,0,0
58486082,49.625,49.625,18.515625,18.515625,18.515625,31.136131,0.9,0.0,nan,26.350006,49.625,0.0,0.0,0.0,0.0,0.0,0.0,0.0,0.0,0.0,0.0,0.0,0.0,0.0,0.0,0,0.0,0.0,0.0,0.0,0.0,0.0,0,0,0,0,0,0,0,0,0,0,0,1,1,1,0,125,0,0,0,0
58684701,49.71875,49.71875,12.453125,12.453125,12.453125,31.244558,0.90999997,0.0,nan,26.350006,49.71875,0.0,0.0,0.0,0.0,0.0,0.0,0.0,0.0,0.0,0.0,0.0,0.0,0.0,0.0,0,0.0,0.0,0.0,0.0,0.0,0.0,0,0,0,0,0,0,0,0,0,0,0,1,1,1,0,125,0,0,0,0
58884439,49.78125,49.78125,8.421875,8.421875,8.421875,31.320799,0.91999996,0.0,nan,26.350006,49.78125,0.0,0.0,0.0,0.0,0.0,0.0,0.0,0.0,0.0,0.0,0.0,0.0,0.0,0.0,0,0.0,0.0,0.0,0.0,0.0,0.0,0,0,0,0,0,0,0,0,0,0,0,1,1,1,0,125,0,0,0,0
59084071,49.8125,49.8125,8.0859375,8.0859375,8.0859375,31.39481,0.91999996,0.0,nan,26.350006,49.8125,0.0,0.0,0.0,0.0,0.0,0.0,0.0,0.0,0.0,0.0,0.0,0.0,0.0,0.0,0,0.0,0.0,0.0,0.0,0.0,0.0,0,0,0,0,0,0,0,0,0,0,0,1,1,1,0,125,0,0,0,0
59283716,49.78125,49.78125,8.8359375,8.8359375,8.8359375,31.475645,0.91999996,0.0,nan,26.100006,49.78125,0.0,0.0,0.0,0.0,0.0,0.0,0.0,0.0,0.0,0.0,0.0,0.0,0.0,0.0,0,0.0,0.0,0.0,0.0,0.0,0.0,0,0,0,0,0,0,0,0,0,0,0,1,1,1,0,125,0,0,0,0
59482156,49.75,49.75,11.6484375,11.6484375,11.6484375,31.576523,0.91999996,0.0,nan,26.100006,49.75,0.0,0.0,0.0,0.0,0.0,0.0,0.0,0.0,0.0,0.0,0.0,0.0,0.0,0.0,0,0.0,0.0,0.0,0.0,0.0,0.0,0,0,0,0,0,0,0,0,0,0,0,1,1,1,0,125,0,0,0,0
59681816,49.75,49.75,11.0859375,11.0859375,11.0859375,31.670769,0.91999996,0.0,nan,26.100006,49.75,0.0,0.0,0.0,0.0,0.0,0.0,0.0,0.0,0.0,0.0,0.0,0.0,0.0,0.0,0,0.0,0.0,0.0,0.0,0.0,0.0,0,0,0,0,0,0,0,0,0,0,0,1,1,1,0,125,0,0,0,0
59880961,49.75,49.75,10.6796875,10.6796875,10.6796875,31.763256,0.91999996,0.0,nan,26.100006,49.75,0.0,0.0,0.0,0.0,0.0,0.0,0.0,0.0,0.0,0.0,0.0,0.0,0.0,0.0,0,0.0,0.0,0.0,0.0,0.0,0.0,0,0,0,0,0,0,0,0,0,0,0,1,1,1,0,125,0,0,0,0
60081582,49.59375,49.59375,20.71875,20.71875,20.71875,31.9479,0.9,0.0,nan,26.100006,49.59375,0.0,0.0,0.0,0.0,0.0,0.0,0.0,0.0,0.0,0.0,0.0,0.0,0.0,0.0,0,0.0,0.0,0.0,0.0,0.0,0.0,0,0,0,0,0,0,0,0,0,0,0,1,1,1,0,125,0,0,0,0
60281318,49.5625,49.5625,22.0,22.0,22.0,32.146294,0.9,0.0,nan,26.100006,49.5625,0.0,0.0,0.0,0.0,0.0,0.0,0.0,0.0,0.0,0.0,0.0,0.0,0.0,0.0,0,0.0,0.0,0.0,0.0,0.0,0.0,0,0,0,0,0,0,0,0,0,0,0,1,1,1,0,125,0,0,0,0
60480204,49.625,49.625,19.09375,19.09375,19.09375,32.316998,0.9,0.0,nan,26.100006,49.625,0.0,0.0,0.0,0.0,0.0,0.0,0.0,0.0,0.0,0.0,0.0,0.0,0.0,0.0,0,0.0,0.0,0.0,0.0,0.0,0.0,0,0,0,0,0,0,0,0,0,0,0,1,1,1,0,125,0,0,0,0
60678600,49.4375,49.4375,28.921875,28.921875,28.921875,32.55729,0.88,0.0,nan,26.100006,49.4375,0.0,0.0,0.0,0.0,0.0,0.0,0.0,0.0,0.0,0.0,0.0,0.0,0.0,0.0,0,0.0,0.0,0.0,0.0,0.0,0.0,0,0,0,0,0,0,0,0,0,0,0,1,1,1,0,125,0,0,0,0
60878004,49.53125,49.53125,23.671875,23.671875,23.671875,32.765194,0.89,0.0,nan,26.100006,49.53125,0.0,0.0,0.0,0.0,0.0,0.0,0.0,0.0,0.0,0.0,0.0,0.0,0.0,0.0,0,0.0,0.0,0.0,0.0,0.0,0.0,0,0,0,0,0,0,0,0,0,0,0,1,1,1,0,125,0,0,0,0
61078148,49.59375,49.59375,20.15625,20.15625,20.15625,32.944683,0.9,0.0,nan,26.100006,49.59375,0.0,0.0,0.0,0.0,0.0,0.0,0.0,0.0,0.0,0.0,0.0,0.0,0.0,0.0,0,0.0,0.0,0.0,0.0,0.0,0.0,0,0,0,0,0,0,0,0,0,0,0,1,1,1,0,125,0,0,0,0
61276821,49.75,49.75,10.3046875,10.3046875,10.3046875,33.035748,0.91999996,0.0,nan,26.100006,49.75,0.0,0.0,0.0,0.0,0.0,0.0,0.0,0.0,0.0,0.0,0.0,0.0,0.0,0.0,0,0.0,0.0,0.0,0.0,0.0,0.0,0,0,0,0,0,0,0,0,0,0,0,1,1,1,0,125,0,0,0,0
61476243,49.6875,49.6875,14.984375,14.984375,14.984375,33.167294,0.90999997,0.0,nan,26.100006,49.6875,0.0,0.0,0.0,0.0,0.0,0.0,0.0,0.0,0.0,0.0,0.0,0.0,0.0,0.0,0,0.0,0.0,0.0,0.0,0.0,0.0,0,0,0,0,0,0,0,0,0,0,0,1,1,1,0,125,0,0,0,0
61675654,49.6875,49.6875,15.4765625,15.4765625,15.4765625,33.30357,0.90999997,0.0,nan,26.100006,49.6875,0.0,0.0,0.0,0.0,0.0,0.0,0.0,0.0,0.0,0.0,0.0,0.0,0.0,0.0,0,0.0,0.0,0.0,0.0,0.0,0.0,0,0,0,0,0,0,0,0,0,0,0,1,1,1,0,125,0,0,0,0
61875252,49.75,49.75,11.03125,11.03125,11.03125,33.402847,0.91999996,0.0,nan,26.100006,49.75,0.0,0.0,0.0,0.0,0.0,0.0,0.0,0.0,0.0,0.0,0.0,0.0,0.0,0.0,0,0.0,0.0,0.0,0.0,0.0,0.0,0,0,0,0,0,0,0,0,0,0,0,1,1,1,0,125,0,0,0,0
62075189,49.75,49.75,11.1953125,11.1953125,11.1953125,33.507935,0.91999996,0.0,nan,26.100006,49.75,0.0,0.0,0.0,0.0,0.0,0.0,0.0,0.0,0.0,0.0,0.0,0.0,0.0,0.0,0,0.0,0.0,0.0,0.0,0.0,0.0,0,0,0,0,0,0,0,0,0,0,0,1,1,1,0,125,0,0,0,0
62274056,49.78125,49.78125,9.59375,9.59375,9.59375,33.59727,0.91999996,0.0,nan,26.100006,49.78125,0.0,0.0,0.0,0.0,0.0,0.0,0.0,0.0,0.0,0.0,0.0,0.0,0.0,0.0,0,0.0,0.0,0.0,0.0,0.0,0.0,0,0,0,0,0,0,0,0,0,0,0,1,1,1,0,125,0,0,0,0
62473645,49.71875,49.71875,13.3828125,13.3828125,13.3828125,33.718773,0.90999997,0.0,nan,26.100006,49.71875,0.0,0.0,0.0,0.0,0.0,0.0,0.0,0.0,0.0,0.0,0.0,0.0,0.0,0.0,0,0.0,0.0,0.0,0.0,0.0,0.0,0,0,0,0,0,0,0,0,0,0,0,1,1,1,0,125,0,0,0,0
62672707,49.6875,49.6875,15.296875,15.296875,15.296875,33.858334,0.90999997,0.0,nan,26.100006,49.6875,0.0,0.0,0.0,0.0,0.0,0.0,0.0,0.0,0.0,0.0,0.0,0.0,0.0,0.0,0,0.0,0.0,0.0,0.0,0.0,0.0,0,0,0,0,0,0,0,0,0,0,0,1,1,1,0,125,0,0,0,0
62872107,49.625,49.625,18.21875,18.21875,18.21875,34.02511,0.9,0.0,nan,26.100006,49.625,0.0,0.0,0.0,0.0,0.0,0.0,0.0,0.0,0.0,0.0,0.0,0.0,0.0,0.0,0,0.0,0.0,0.0,0.0,0.0,0.0,0,0,0,0,0,0,0,0,0,0,0,1,1,1,0,125,0,0,0,0
63072250,49.75,49.75,10.7265625,10.7265625,10.7265625,34.12635,0.91999996,0.0,nan,26.100006,49.75,0.0,0.0,0.0,0.0,0.0,0.0,0.0,0.0,0.0,0.0,0.0,0.0,0.0,0.0,0,0.0,0.0,0.0,0.0,0.0,0.0,0,0,0,0,0,0,0,0,0,0,0,1,1,1,0,125,0,0,0,0
63271923,49.84375,49.84375,6.359375,6.359375,6.359375,34.187225,0.93,0.0,nan,26.100006,49.84375,0.0,0.0,0.0,0.0,0.0,0.0,0.0,0.0,0.0,0.0,0.0,0.0,0.0,0.0,0,0.0,0.0,0.0,0.0,0.0,0.0,0,0,0,0,0,0,0,0,0,0,0,1,1,1,0,125,0,0,0,0
63470345,49.71875,49.71875,13.234375,13.234375,13.234375,34.307053,0.90999997,0.0,nan,26.100006,49.71875,0.0,0.0,0.0,0.0,0.0,0.0,0.0,0.0,0.0,0.0,0.0,0.0,0.0,0.0,0,0.0,0.0,0.0,0.0,0.0,0.0,0,0,0,0,0,0,0,0,0,0,0,1,1,1,0,125,0,0,0,0
63669751,49.71875,49.71875,13.125,13.125,13.125,34.42955,0.90999997,0.0,nan,26.100006,49.71875,0.0,0.0,0.0,0.0,0.0,0.0,0.0,0.0,0.0,0.0,0.0,0.0,0.0,0.0,0,0.0,0.0,0.0,0.0,0.0,0.0,0,0,0,0,0,0,0,0,0,0,0,1,1,1,0,125,0,0,0,0
63869163,49.75,49.75,12.15625,12.15625,12.15625,34.543373,0.91999996,0.0,nan,26.100006,49.75,0.0,0.0,0.0,0.0,0.0,0.0,0.0,0.0,0.0,0.0,0.0,0.0,0.0,0.0,0,0.0,0.0,0.0,0.0,0.0,0.0,0,0,0,0,0,0,0,0,0,0,0,1,1,1,0,125,0,0,0,0
64069301,49.75,49.75,10.8515625,10.8515625,10.8515625,34.647976,0.91999996,0.0,nan,26.100006,49.75,0.0,0.0,0.0,0.0,0.0,0.0,0.0,0.0,0.0,0.0,0.0,0.0,0.0,0.0,0,0.0,0.0,0.0,0.0,0.0,0.0,0,0,0,0,0,0,0,0,0,0,0,1,1,1,0,125,0,0,0,0
64268970,49.65625,49.65625,16.171875,16.171875,16.171875,34.803406,0.90999997,0.0,nan,26.100006,49.65625,0.0,0.0,0.0,0.0,0.0,0.0,0.0,0.0,0.0,0.0,0.0,0.0,0.0,0.0,0,0.0,0.0,0.0,0.0,0.0,0.0,0,0,0,0,0,0,0,0,0,0,0,1,1,1,0,125,0,0,0,0
64467542,49.71875,49.71875,14.015625,14.015625,14.015625,34.93308,0.90999997,0.0,nan,26.100006,49.71875,0.0,0.0,0.0,0.0,0.0,0.0,0.0,0.0,0.0,0.0,0.0,0.0,0.0,0.0,0,0.0,0.0,0.0,0.0,0.0,0.0,0,0,0,0,0,0,0,0,0,0,0,1,1,1,0,125,0,0,0,0
64667806,49.75,49.75,11.625,11.625,11.625,35.04329,0.91999996,0.0,nan,26.100006,49.75,0.0,0.0,0.0,0.0,0.0,0.0,0.0,0.0,0.0,0.0,0.0,0.0,0.0,0.0,0,0.0,0.0,0.0,0.0,0.0,0.0,0,0,0,0,0,0,0,0,0,0,0,1,1,1,0,125,0,0,0,0
64866211,49.8125,49.8125,7.75,7.75,7.75,35.118103,0.93,0.0,nan,26.100006,49.8125,0.0,0.0,0.0,0.0,0.0,0.0,0.0,0.0,0.0,0.0,0.0,0.0,0.0,0.0,0,0.0,0.0,0.0,0.0,0.0,0.0,0,0,0,0,0,0,0,0,0,0,0,1,1,1,0,125,0,0,0,0
65066350,49.78125,49.78125,9.7890625,9.7890625,9.7890625,35.209,0.91999996,0.0,nan,26.100006,49.78125,0.0,0.0,0.0,0.0,0.0,0.0,0.0,0.0,0.0,0.0,0.0,0.0,0.0,0.0,0,0.0,0.0,0.0,0.0,0.0,0.0,0,0,0,0,0,0,0,0,0,0,0,1,1,1,0,125,0,0,0,0
65266031,49.78125,49.78125,10.109375,10.109375,10.109375,35.308044,0.91999996,0.0,nan,26.100006,49.78125,0.0,0.0,0.0,0.0,0.0,0.0,0.0,0.0,0.0,0.0,0.0,0.0,0.0,0.0,0,0.0,0.0,0.0,0.0,0.0,0.0,0,0,0,0,0,0,0,0,0,0,0,1,1,1,0,125,0,0,0,0
65464482,49.78125,49.78125,10.421875,10.421875,10.421875,35.40541,0.91999996,0.0,nan,26.100006,49.78125,0.0,0.0,0.0,0.0,0.0,0.0,0.0,0.0,0.0,0.0,0.0,0.0,0.0,0.0,0,0.0,0.0,0.0,0.0,0.0,0.0,0,0,0,0,0,0,0,0,0,0,0,1,1,1,0,125,0,0,0,0
65664336,49.78125,49.78125,10.234375,10.234375,10.234375,35.505535,0.91999996,0.0,nan,26.100006,49.78125,0.0,0.0,0.0,0.0,0.0,0.0,0.0,0.0,0.0,0.0,0.0,0.0,0.0,0.0,0,0.0,0.0,0.0,0.0,0.0,0.0,0,0,0,0,0,0,0,0,0,0,0,1,1,1,0,125,0,0,0,0
65863486,49.65625,49.65625,17.515625,17.515625,17.515625,35.673626,0.90999997,0.0,nan,26.100006,49.65625,0.0,0.0,0.0,0.0,0.0,0.0,0.0,0.0,0.0,0.0,0.0,0.0,0.0,0.0,0,0.0,0.0,0.0,0.0,0.0,0.0,0,0,0,0,0,0,0,0,0,0,0,1,1,1,0,125,0,0,0,0
66063400,49.8125,49.8125,8.8203125,8.8203125,8.8203125,35.760246,0.91999996,0.0,nan,26.100006,49.8125,0.0,0.0,0.0,0.0,0.0,0.0,0.0,0.0,0.0,0.0,0.0,0.0,0.0,0.0,0,0.0,0.0,0.0,0.0,0.0,0.0,0,0,0,0,0,0,0,0,0,0,0,1,1,1,0,125,0,0,0,0
66262089,49.71875,49.71875,13.6953125,13.6953125,13.6953125,35.89223,0.91999996,0.0,nan,25.850006,49.71875,0.0,0.0,0.0,0.0,0.0,0.0,0.0,0.0,0.0,0.0,0.0,0.0,0.0,0.0,0,0.0,0.0,0.0,0.0,0.0,0.0,0,0,0,0,0,0,0,0,0,0,0,1,1,1,0,125,0,0,0,0
66461488,49.6875,49.6875,15.4296875,15.4296875,15.4296875,36.03596,0.90999997,0.0,nan,25.850006,49.6875,0.0,0.0,0.0,0.0,0.0,0.0,0.0,0.0,0.0,0.0,0.0,0.0,0.0,0.0,0,0.0,0.0,0.0,0.0,0.0,0.0,0,0,0,0,0,0,0,0,0,0,0,1,1,1,0,125,0,0,0,0
66660898,49.53125,49.53125,25.53125,25.53125,25.53125,36.279526,0.89,0.0,nan,25.850006,49.53125,0.0,0.0,0.0,0.0,0.0,0.0,0.0,0.0,0.0,0.0,0.0,0.0,0.0,0.0,0,0.0,0.0,0.0,0.0,0.0,0.0,0,0,0,0,0,0,0,0,0,0,0,1,1,1,0,125,0,0,0,0
66861308,49.78125,49.78125,11.015625,11.015625,11.015625,36.390205,0.91999996,0.0,nan,25.850006,49.78125,0.0,0.0,0.0,0.0,0.0,0.0,0.0,0.0,0.0,0.0,0.0,0.0,0.0,0.0,0,0.0,0.0,0.0,0.0,0.0,0.0,0,0,0,0,0,0,0,0,0,0,0,1,1,1,0,125,0,0,0,0
67060447,49.6875,49.6875,16.03125,16.03125,16.03125,36.54876,0.90999997,0.0,nan,25.850006,49.6875,0.0,0.0,0.0,0.0,0.0,0.0,0.0,0.0,0.0,0.0,0.0,0.0,0.0,0.0,0,0.0,0.0,0.0,0.0,0.0,0.0,0,0,0,0,0,0,0,0,0,0,0,1,1,1,0,125,0,0,0,0
67260681,49.6875,49.6875,15.3046875,15.3046875,15.3046875,36.701565,0.90999997,0.0,nan,25.850006,49.6875,0.0,0.0,0.0,0.0,0.0,0.0,0.0,0.0,0.0,0.0,0.0,0.0,0.0,0.0,0,0.0,0.0,0.0,0.0,0.0,0.0,0,0,0,0,0,0,0,0,0,0,0,1,1,1,0,125,0,0,0,0
67458546,49.65625,49.65625,17.78125,17.78125,17.78125,36.870625,0.90999997,0.0,nan,25.850006,49.65625,0.0,0.0,0.0,0.0,0.0,0.0,0.0,0.0,0.0,0.0,0.0,0.0,0.0,0.0,0,0.0,0.0,0.0,0.0,0.0,0.0,0,0,0,0,0,0,0,0,0,0,0,1,1,1,0,125,0,0,0,0
67658007,49.65625,49.65625,16.65625,16.65625,16.65625,37.03318,0.90999997,0.0,nan,25.850006,49.65625,0.0,0.0,0.0,0.0,0.0,0.0,0.0,0.0,0.0,0.0,0.0,0.0,0.0,0.0,0,0.0,0.0,0.0,0.0,0.0,0.0,0,0,0,0,0,0,0,0,0,0,0,1,1,1,0,125,0,0,0,0
67857361,49.65625,49.65625,16.34375,16.34375,16.34375,37.192448,0.90999997,0.0,nan,25.850006,49.65625,0.0,0.0,0.0,0.0,0.0,0.0,0.0,0.0,0.0,0.0,0.0,0.0,0.0,0.0,0,0.0,0.0,0.0,0.0,0.0,0.0,0,0,0,0,0,0,0,0,0,0,0,1,1,1,0,125,0,0,0,0
68057803,49.6875,49.6875,16.140625,16.140625,16.140625,37.355297,0.90999997,0.0,nan,25.850006,49.6875,0.0,0.0,0.0,0.0,0.0,0.0,0.0,0.0,0.0,0.0,0.0,0.0,0.0,0.0,0,0.0,0.0,0.0,0.0,0.0,0.0,0,0,0,0,0,0,0,0,0,0,0,1,1,1,0,125,0,0,0,0
68256188,49.65625,49.65625,16.109375,16.109375,16.109375,37.51389,0.90999997,0.0,nan,25.850006,49.65625,0.0,0.0,0.0,0.0,0.0,0.0,0.0,0.0,0.0,0.0,0.0,0.0,0.0,0.0,0,0.0,0.0,0.0,0.0,0.0,0.0,0,0,0,0,0,0,0,0,0,0,0,1,1,1,0,125,0,0,0,0
68455590,49.65625,49.65625,16.71875,16.71875,16.71875,37.675396,0.90999997,0.0,nan,25.850006,49.65625,0.0,0.0,0.0,0.0,0.0,0.0,0.0,0.0,0.0,0.0,0.0,0.0,0.0,0.0,0,0.0,0.0,0.0,0.0,0.0,0.0,0,0,0,0,0,0,0,0,0,0,0,1,1,1,0,125,0,0,0,0
68655057,49.6875,49.6875,15.9140625,15.9140625,15.9140625,37.833126,0.90999997,0.0,nan,25.850006,49.6875,0.0,0.0,0.0,0.0,0.0,0.0,0.0,0.0,0.0,0.0,0.0,0.0,0.0,0.0,0,0.0,0.0,0.0,0.0,0.0,0.0,0,0,0,0,0,0,0,0,0,0,0,1,1,1,0,125,0,0,0,0
68855405,49.6875,49.6875,16.171875,16.171875,16.171875,37.997944,0.90999997,0.0,nan,25.850006,49.6875,0.0,0.0,0.0,0.0,0.0,0.0,0.0,0.0,0.0,0.0,0.0,0.0,0.0,0.0,0,0.0,0.0,0.0,0.0,0.0,0.0,0,0,0,0,0,0,0,0,0,0,0,1,1,1,0,125,0,0,0,0
69054557,49.6875,49.6875,15.78125,15.78125,15.78125,38.156918,0.90999997,0.0,nan,25.850006,49.6875,0.0,0.0,0.0,0.0,0.0,0.0,0.0,0.0,0.0,0.0,0.0,0.0,0.0,0.0,0,0.0,0.0,0.0,0.0,0.0,0.0,0,0,0,0,0,0,0,0,0,0,0,1,1,1,0,125,0,0,0,0
69253537,49.65625,49.65625,15.9765625,15.9765625,15.9765625,38.317448,0.90999997,0.0,nan,25.850006,49.65625,0.0,0.0,0.0,0.0,0.0,0.0,0.0,0.0,0.0,0.0,0.0,0.0,0.0,0.0,0,0.0,0.0,0.0,0.0,0.0,0.0,0,0,0,0,0,0,0,0,0,0,0,1,1,1,0,125,0,0,0,0
69453378,49.6875,49.6875,16.140625,16.140625,16.140625,38.478764,0.90999997,0.0,nan,25.850006,49.6875,0.0,0.0,0.0,0.0,0.0,0.0,0.0,0.0,0.0,0.0,0.0,0.0,0.0,0.0,0,0.0,0.0,0.0,0.0,0.0,0.0,0,0,0,0,0,0,0,0,0,0,0,1,1,1,0,125,0,0,0,0
69652051,49.78125,49.78125,9.828125,9.828125,9.828125,38.577538,0.91999996,0.0,nan,25.850006,49.78125,0.0,0.0,0.0,0.0,0.0,0.0,0.0,0.0,0.0,0.0,0.0,0.0,0.0,0.0,0,0.0,0.0,0.0,0.0,0.0,0.0,0,0,0,0,0,0,0,0,0,0,0,1,1,1,0,125,0,0,0,0
69852866,49.65625,49.65625,16.4375,16.4375,16.4375,38.748894,0.90999997,0.0,nan,25.850006,49.65625,0.0,0.0,0.0,0.0,0.0,0.0,0.0,0.0,0.0,0.0,0.0,0.0,0.0,0.0,0,0.0,0.0,0.0,0.0,0.0,0.0,0,0,0,0,0,0,0,0,0,0,0,1,1,1,0,125,0,0,0,0
70051604,49.65625,49.65625,16.5,16.5,16.5,38.917892,0.90999997,0.0,nan,25.850006,49.65625,0.0,0.0,0.0,0.0,0.0,0.0,0.0,0.0,0.0,0.0,0.0,0.0,0.0,0.0,0,0.0,0.0,0.0,0.0,0.0,0.0,0,0,0,0,0,0,0,0,0,0,0,1,1,1,0,125,0,0,0,0
70250286,49.6875,49.6875,15.765625,15.765625,15.765625,39.076996,0.90999997,0.0,nan,25.850006,49.6875,0.0,0.0,0.0,0.0,0.0,0.0,0.0,0.0,0.0,0.0,0.0,0.0,0.0,0.0,0,0.0,0.0,0.0,0.0,0.0,0.0,0,0,0,0,0,0,0,0,0,0,0,1,1,1,0,125,0,0,0,0
