timestamp,timestamp_sample,output_tracking_error[0],output_tracking_error[1],output_tracking_error[2],control_mode_flags,filter_fault_flags,pos_horiz_accuracy,pos_vert_accuracy,mag_test_ratio,vel_test_ratio,pos_test_ratio,hgt_test_ratio,tas_test_ratio,hagl_test_ratio,beta_test_ratio,time_slip,accel_device_id,gyro_device_id,baro_device_id,mag_device_id,gps_check_fail_flags,innovation_check_flags,solution_status_flags,reset_count_vel_ne,reset_count_vel_d,reset_count_pos_ne,reset_count_pod_d,reset_count_quat,pre_flt_fail_innov_heading,pre_flt_fail_innov_vel_horiz,pre_flt_fail_innov_vel_vert,pre_flt_fail_innov_height,pre_flt_fail_mag_field_disturbed,health_flags,timeout_flags
16902930,16801144,0.00011409468,0.0026908633,0.001592605,67240471,0,0.14783539,0.21034323,0.0041299392,0.005885513,0.020432826,0.004695346,0.0,0.0,0.0,0.0,2490402,2490402,3997730,396809,0,0,895,2,1,2,0,3,0,0,0,0,0,0,0
16913122,16811248,0.00011000465,0.002640644,0.0020974095,67240471,0,0.1478354,0.2099644,0.0041299392,0.005885513,0.020432826,0.009037062,0.0,0.0,0.0,0.0,2490402,2490402,3997730,396809,0,0,895,2,1,2,0,3,0,0,0,0,0,0,0
17105035,17003222,0.00020578377,0.0025004838,0.0017320627,67240471,0,0.14177425,0.20884214,0.0025686396,0.016177367,0.022977952,0.014119911,0.0,0.0,0.0,0.0,2490402,2490402,3997730,396809,0,0,895,2,1,2,0,3,0,0,0,0,0,0,0
17307124,17205299,0.00012172505,0.0013990332,0.0019066302,67240471,0,0.13901396,0.20737281,0.003623967,0.01095003,0.026422955,0.004770548,0.0,0.0,0.0,0.0,2490402,2490402,3997730,396809,0,0,895,2,1,2,0,3,0,0,0,0,0,0,0
17509195,17407377,0.00016424831,0.0013233208,0.0012823029,67240471,0,0.1339401,0.20593412,0.0053087506,0.014250948,0.024499772,0.00024534969,0.0,0.0,0.0,0.0,2490402,2490402,3997730,396809,0,0,895,2,1,2,0,3,0,0,0,0,0,0,0
17701256,17599350,0.00024333967,0.0012884048,0.002807401,67240471,0,0.1293997,0.20452993,0.003907425,0.0075862324,0.02287494,0.019216612,0.0,0.0,0.0,0.0,2490402,2490402,3997730,396809,0,0,895,2,1,2,0,3,0,0,0,0,0,0,0
17903390,17801428,0.00024219682,0.0017187775,0.0020185113,67240471,0,0.1272944,0.20314945,0.005952048,0.033721495,0.026459487,0.0046887374,0.0,0.0,0.0,0.0,2490402,2490402,3997730,396809,0,0,895,2,1,2,0,3,0,0,0,0,0,0,0
18105263,18003506,0.0001554288,0.0013377427,0.0022566111,67240471,0,0.12336782,0.20179662,0.00028434294,0.010054604,0.029177131,0.00015331335,0.0,0.0,0.0,0.0,2490402,2490402,3997730,396809,0,0,895,2,1,2,0,3,0,0,0,0,0,0,0
18307306,18205583,0.00013811118,0.0015697263,0.0011827163,67240471,0,0.12154067,0.20047052,0.0019804402,0.019932384,0.02829194,0.009654817,0.0,0.0,0.0,0.0,2490402,2490402,3997730,396809,0,0,895,2,1,2,0,3,0,0,0,0,0,0,0
18509390,18407661,0.00018735667,0.00122986,0.0004709709,67240471,0,0.11811044,0.19917026,0.0018950086,0.025655758,0.03107701,0.004885999,0.0,0.0,0.0,0.0,2490402,2490402,3997730,396809,0,0,895,2,1,2,0,3,0,0,0,0,0,0,0
18701658,18599634,0.00018614097,0.000985371,0.0012117695,67240471,0,0.11495179,0.19789392,0.006255741,0.018295549,0.029451972,0.009641621,0.0,0.0,0.0,0.0,2490402,2490402,3997730,396809,0,0,895,2,1,2,0,3,0,0,0,0,0,0,0
18903439,18801712,0.00023486851,0.0008552005,0.0012872551,67240471,0,0.113471165,0.19664294,0.0012303077,0.016893767,0.028652739,0.0045178467,0.0,0.0,0.0,0.0,2490402,2490402,3997730,396809,0,0,895,2,1,2,0,3,0,0,0,0,0,0,0
19105478,19003789,0.00011988887,0.00070837355,0.0007021987,67240471,0,0.11066624,0.19541544,0.0015512987,0.0047037303,0.031619165,0.0098241735,0.0,0.0,0.0,0.0,2490402,2490402,3997730,396809,0,0,895,2,1,2,0,3,0,0,0,0,0,0,0
19307624,19205867,0.00010692115,0.0017043342,0.001419455,67240471,0,0.10934439,0.19421071,0.00038598102,0.017928679,0.030888438,0.009804665,0.0,0.0,0.0,0.0,2490402,2490402,3997730,396809,0,0,895,2,1,2,0,3,0,0,0,0,0,0,0
19509614,19407944,5.1204865e-05,0.0010686289,0.0017936835,67240471,0,0.10682918,0.19302803,0.0046206117,0.021293037,0.033872988,0.013767837,0.0,0.0,0.0,0.0,2490402,2490402,3997730,396809,0,0,895,2,1,2,0,3,0,0,0,0,0,0,0
19701732,19599918,0.00019403384,0.00046534103,0.00073199935,67240471,0,0.104476616,0.19186574,0.003546979,0.0036243668,0.032388534,0.005284553,0.0,0.0,0.0,0.0,2490402,2490402,3997730,396809,0,0,895,2,1,2,0,3,0,0,0,0,0,0,0
19903707,19801995,0.00015919014,0.00034592982,0.0012609186,67240471,0,0.10336389,0.1907252,0.008768995,0.013701041,0.03167932,0.019363908,0.0,0.0,0.0,0.0,2490402,2490402,3997730,396809,0,0,895,2,1,2,0,3,0,0,0,0,0,0,0
20105743,20004073,0.00021176398,0.0005518637,0.0015652525,67240471,0,0.10123286,0.18960485,0.00073781057,0.012909005,0.030381318,0.014503186,0.0,0.0,0.0,0.0,2490402,2490402,3997730,396809,0,0,895,2,1,2,0,3,0,0,0,0,0,0,0
20308001,20206150,5.6702575e-05,0.0013830346,0.0020467627,67240471,0,0.1002206,0.18850407,0.00043345246,0.0111372825,0.029778183,0.019189354,0.0,0.0,0.0,0.0,2490402,2490402,3997730,396809,0,0,895,2,1,2,0,3,0,0,0,0,0,0,0
20510167,20408228,0.0001809996,0.0007784037,0.0012501258,67240471,0,0.098275684,0.18742228,0.009718596,0.003469108,0.03289374,0.0047167987,0.0,0.0,0.0,0.0,2490402,2490402,3997730,396809,0,0,895,2,1,2,0,3,0,0,0,0,0,0,0
20701913,20600201,0.00015074122,0.0011220203,0.0010266529,67240471,0,0.09643669,0.18635802,0.0012676511,0.00751493,0.031665962,0.014157483,0.0,0.0,0.0,0.0,2490402,2490402,3997730,396809,0,0,895,2,1,2,0,3,0,0,0,0,0,0,0
20904002,20802279,0.00014772612,0.00117685,0.00097036926,67240471,0,0.09556188,0.18531263,0.004046237,0.0040382976,0.031073637,0.009528699,0.0,0.0,0.0,0.0,2490402,2490402,3997730,396809,0,0,895,2,1,2,0,3,0,0,0,0,0,0,0
21106055,21004356,4.8071535e-05,0.00070465537,0.000895298,67240471,0,0.09387272,0.1842847,0.0050903503,0.01469537,0.034335315,0.014148351,0.0,0.0,0.0,0.0,2490402,2490402,3997730,396809,0,0,895,2,1,2,0,3,0,0,0,0,0,0,0
21308499,21206434,7.952853e-05,0.001421925,0.0007557914,67240471,0,0.09227049,0.18327376,0.0022602417,0.01269567,0.03320363,0.023845283,0.0,0.0,0.0,0.0,2490402,2490402,3997730,396809,0,0,895,2,1,2,0,3,0,0,0,0,0,0,0
21500061,21398407,3.7602844e-05,0.0012590027,0.0012668587,67240471,0,0.091501616,0.18252619,0.0071007446,0.015553965,0.03706508,0.0016633393,0.0,0.0,0.0,0.0,2490402,2490402,3997730,396809,0,0,895,2,1,2,0,3,0,0,0,0,0,0,0
21702143,21600485,7.127541e-05,0.00047371018,0.00096386945,67240471,0,0.09001673,0.18154384,0.00084296643,0.013282307,0.03587519,0.004819532,0.0,0.0,0.0,0.0,2490402,2490402,3997730,396809,0,0,895,2,1,2,0,3,0,0,0,0,0,0,0
21904185,21802562,0.00026030824,0.0014801447,0.0010425937,67240471,0,0.08930633,0.18057723,0.005138667,0.007269444,0.035258546,0.003925429,0.0,0.0,0.0,0.0,2490402,2490402,3997730,396809,0,0,895,2,1,2,0,3,0,0,0,0,0,0,0
22106323,22004639,0.00024566913,0.0011709336,0.0010332821,67240471,0,0.08792522,0.17962594,0.004992567,0.009105955,0.03414047,0.00090245646,0.0,0.0,0.0,0.0,2490402,2490402,3997730,396809,0,0,895,2,1,2,0,3,0,0,0,0,0,0,0
22308683,22206717,0.00015613777,0.0016694622,0.0016702724,67240471,0,0.08726373,0.17868961,0.003441606,0.0041248123,0.03364191,0.00089985644,0.0,0.0,0.0,0.0,2490402,2490402,3997730,396809,0,0,895,2,1,2,0,3,0,0,0,0,0,0,0
22510494,22408794,0.00014749705,0.00086271204,0.0014714465,67240471,0,0.08597492,0.1777678,0.004408335,0.02982227,0.028284496,0.0021791905,0.0,0.0,0.0,0.0,2490402,2490402,3997730,396809,0,0,895,2,1,2,0,3,0,0,0,0,0,0,0
22702453,22600768,8.339032e-05,0.00022881555,0.0013112987,67240471,0,0.08473883,0.1768594,0.0006016413,0.048420597,0.027468957,0.00054110383,0.0,0.0,0.0,0.0,2490402,2490402,3997730,396809,0,0,895,2,1,2,0,3,0,0,0,0,0,0,0
22904475,22802845,9.6360825e-05,0.0009965993,0.0012618776,67240471,0,0.08414755,0.1759656,0.0051805503,0.008992716,0.027047563,0.0017008361,0.0,0.0,0.0,0.0,2490402,2490402,3997730,396809,0,0,895,2,1,2,0,3,0,0,0,0,0,0,0
23106593,23004922,0.00010108979,0.00022170728,0.0012853714,67240471,0,0.08299133,0.17508528,0.002113418,0.037595443,0.026313657,0.0065580723,0.0,0.0,0.0,0.0,2490402,2490402,3997730,396809,0,0,895,2,1,2,0,3,0,0,0,0,0,0,0
23308756,23207000,0.0002535549,0.0010064375,0.001957812,67240471,0,0.0824365,0.17421809,0.009354721,0.003376661,0.025967378,0.0022434182,0.0,0.0,0.0,0.0,2490402,2490402,3997730,396809,0,0,895,2,1,2,0,3,0,0,0,0,0,0,0
23510758,23409077,0.000101056394,0.00066820375,0.00171046,67240471,0,0.081349455,0.1733637,1.547072e-05,0.014161908,0.027946727,0.0067291395,0.0,0.0,0.0,0.0,2490402,2490402,3997730,396809,0,0,895,2,1,2,0,3,0,0,0,0,0,0,0
23702776,23601051,6.5614346e-05,0.0001933244,0.0014734765,67240471,0,0.08030183,0.17252114,0.0029384785,0.010312298,0.027166301,0.0052614757,0.0,0.0,0.0,0.0,2490402,2490402,3997730,396809,0,0,895,2,1,2,0,3,0,0,0,0,0,0,0
23904801,23803128,8.408652e-05,0.0016341627,0.0016743904,67240471,0,0.079800166,0.17169146,0.0047987173,0.029324457,0.026802775,0.0034748155,0.0,0.0,0.0,0.0,2490402,2490402,3997730,396809,0,0,895,2,1,2,0,3,0,0,0,0,0,0,0
24106869,24005205,6.2704145e-05,0.0009241945,0.0017804004,67240471,0,0.07881402,0.17087367,0.0025483847,0.008783759,0.029498436,0.002552255,0.0,0.0,0.0,0.0,2490402,2490402,3997730,396809,0,0,895,2,1,2,0,3,0,0,0,0,0,0,0
24309260,24207283,0.00020204509,0.0022671993,0.0016242797,67240471,0,0.07786395,0.17006752,0.0006150665,0.011435095,0.028816666,0.0089183515,0.0,0.0,0.0,0.0,2490402,2490402,3997730,396809,0,0,895,2,1,2,0,3,0,0,0,0,0,0,0
24500909,24399257,0.00018632198,0.0026602568,0.0019798493,67240471,0,0.07740513,0.16927214,0.002065621,0.014208669,0.028416194,0.0040077125,0.0,0.0,0.0,0.0,2490402,2490402,3997730,396809,0,0,895,2,1,2,0,3,0,0,0,0,0,0,0
24702974,24601334,0.00016596993,0.00091891777,0.001185416,67240471,0,0.07650529,0.16848841,0.015481234,0.013009835,0.027756399,0.0014686976,0.0,0.0,0.0,0.0,2490402,2490402,3997730,396809,0,0,895,2,1,2,0,3,0,0,0,0,0,0,0
24905076,24803411,0.0001920142,0.0019403648,0.0006682455,67240471,0,0.07607306,0.16771552,0.0006780185,0.011973879,0.030859854,0.00021642589,0.0,0.0,0.0,0.0,2490402,2490402,3997730,396809,0,0,895,2,1,2,0,3,0,0,0,0,0,0,0
25107509,25005488,0.00022781457,0.002487844,0.0009980879,67240471,0,0.07521923,0.16695322,0.0073838024,0.012855381,0.030190876,0.0021333632,0.0,0.0,0.0,0.0,2490402,2490402,3997730,396809,0,0,895,2,1,2,0,3,0,0,0,0,0,0,0
25309588,25207566,0.00029820326,0.0044100354,0.0017137239,67240471,0,0.07439389,0.16620126,0.0029740585,0.0054268613,0.02953365,0.008086091,0.0,0.0,0.0,0.0,2490402,2490402,3997730,396809,0,0,895,2,1,2,0,3,0,0,0,0,0,0,0
25501372,25399539,0.00081648806,0.012938149,0.0041484167,67240471,0,0.07399533,0.16545893,0.0007759022,0.02007575,0.029059201,0.0005799478,0.0,0.0,0.0,0.0,2490402,2490402,3997730,396809,0,0,895,2,1,2,0,3,0,0,0,0,0,0,0
25703622,25601617,0.00038522182,0.009300232,0.0044404664,67240471,0,0.07320996,0.16472699,0.001616276,0.031365834,0.028347487,0.0024476282,0.0,0.0,0.0,0.0,2490402,2490402,3997730,396809,0,0,895,2,1,2,0,3,0,0,0,0,0,0,0
25905574,25803694,0.0013177794,0.015344164,0.0015709365,67240471,0,0.07283282,0.16400471,0.003316875,0.015996678,0.027776126,0.0016784739,0.0,0.0,0.0,0.0,2490402,2490402,3997730,396809,0,0,895,2,1,2,0,3,0,0,0,0,0,0,0
26107490,26005771,0.0007925935,0.017101005,0.0049565285,67240471,0,0.07208434,0.16329192,0.0057248706,0.017433457,0.027739868,0.0046611656,0.0,0.0,0.0,0.0,2490402,2490402,3997730,396809,0,0,895,2,1,2,0,3,0,0,0,0,0,0,0
26309609,26207848,0.0007864249,0.018563088,0.006812086,67240471,0,0.07172497,0.16258837,0.0011632657,0.034245018,0.027852315,0.003016019,0.0,0.0,0.0,0.0,2490402,2490402,3997730,396809,0,0,895,2,1,2,0,3,0,0,0,0,0,0,0
26511678,26409926,0.00027986156,0.010282288,0.0057113804,67240471,0,0.071010605,0.1618939,0.0023630857,0.01217001,0.026890878,0.011321116,0.0,0.0,0.0,0.0,2490402,2490402,3997730,396809,0,0,895,2,1,2,0,3,0,0,0,0,0,0,0
26703532,26601900,0.0011062418,0.012014743,0.00078472984,67240471,0,0.07031561,0.16137913,0.0015244804,0.0055397735,0.029819688,3.2009375e-05,0.0,0.0,0.0,0.0,2490402,2490402,3997730,396809,0,0,895,2,1,2,0,3,0,0,0,0,0,0,0
26906140,26803977,0.0006438772,0.014021319,0.0041281763,67240471,0,0.06998307,0.16070007,0.0023506451,0.013348423,0.029701844,1.8617866e-05,0.0,0.0,0.0,0.0,2490402,2490402,3997730,396809,0,0,895,2,1,2,0,3,0,0,0,0,0,0,0
27107768,27006054,0.00022044368,0.003937764,0.00372233,67240471,0,0.06932009,0.16002953,0.00054516393,0.011195472,0.028926441,3.233658e-05,0.0,0.0,0.0,0.0,2490402,2490402,3997730,396809,0,0,895,2,1,2,0,3,0,0,0,0,0,0,0
27299707,27198028,0.00052285765,0.0048324424,0.0017310457,67240471,0,0.06900058,0.15936702,0.00337324,0.011201533,0.031871602,0.00949016,0.0,0.0,0.0,0.0,2490402,2490402,3997730,396809,0,0,895,2,1,2,0,3,0,0,0,0,0,0,0
27511916,27410209,0.0002486897,0.0047114273,0.0007768916,67240471,0,0.06836717,0.15871342,0.006899664,0.010391898,0.03485234,0.009562319,0.0,0.0,0.0,0.0,2490402,2490402,3997730,396809,0,0,895,2,1,2,0,3,0,0,0,0,0,0,0
27703827,27602182,4.7188656e-05,0.0015015203,0.00039688055,67240471,0,0.06774813,0.15806714,0.00017800342,0.0155639425,0.034219008,3.2881806e-05,0.0,0.0,0.0,0.0,2490402,2490402,3997730,396809,0,0,895,2,1,2,0,3,0,0,0,0,0,0,0
27905901,27804259,0.00027209095,0.003631103,0.000885553,67240471,0,0.06745232,0.15742908,0.00079984625,0.012269217,0.037424468,0.0094463015,0.0,0.0,0.0,0.0,2490402,2490402,3997730,396809,0,0,895,2,1,2,0,3,0,0,0,0,0,0,0
28108221,28006337,0.00032490175,0.005998731,0.0024350001,67240471,0,0.06685984,0.15679874,0.00025275728,0.015621411,0.036650512,0.0095301075,0.0,0.0,0.0,0.0,2490402,2490402,3997730,396809,0,0,895,2,1,2,0,3,0,0,0,0,0,0,0
28310068,28208414,0.00020048457,0.0013111716,0.0022434613,67240471,0,0.06657618,0.15617591,0.004999116,0.006549331,0.036320414,0.004547381,0.0,0.0,0.0,0.0,2490402,2490402,3997730,396809,0,0,895,2,1,2,0,3,0,0,0,0,0,0,0
28502031,28400387,0.00023038188,0.00216481,0.0012264684,67240471,0,0.066005714,0.15556024,0.000523485,0.01662873,0.0391973,0.0049986304,0.0,0.0,0.0,0.0,2490402,2490402,3997730,396809,0,0,895,2,1,2,0,3,0,0,0,0,0,0,0
28704464,28602465,5.586232e-05,0.000747004,0.00104315,67240471,0,0.06545125,0.15495211,0.002099505,0.0068644057,0.038461857,0.014511362,0.0,0.0,0.0,0.0,2490402,2490402,3997730,396809,0,0,895,2,1,2,0,3,0,0,0,0,0,0,0
28906271,28804542,0.00010645648,0.0019007052,0.0013394036,67240471,0,0.06518611,0.15435109,0.0009139745,0.025664851,0.041536078,0.0001512417,0.0,0.0,0.0,0.0,2490402,2490402,3997730,396809,0,0,895,2,1,2,0,3,0,0,0,0,0,0,0
29108293,29006619,0.00012553734,0.0027378777,0.00173889,67240471,0,0.0646526,0.15375707,0.0020510647,0.012689923,0.040866986,0.00012728789,0.0,0.0,0.0,0.0,2490402,2490402,3997730,396809,0,0,895,2,1,2,0,3,0,0,0,0,0,0,0
29310787,29208696,0.00010723111,0.0010717922,0.0016233457,67240471,0,0.06413229,0.15316989,0.0037528807,0.01054862,0.04024519,0.0045758644,0.0,0.0,0.0,0.0,2490402,2490402,3997730,396809,0,0,895,2,1,2,0,3,0,0,0,0,0,0,0
29502309,29400670,0.00022033678,0.002694174,0.0008661071,67240471,0,0.063882835,0.1525892,0.008407934,0.03267372,0.039848946,0.00019273127,0.0,0.0,0.0,0.0,2490402,2490402,3997730,396809,0,0,895,2,1,2,0,3,0,0,0,0,0,0,0
29704379,29602747,9.77608e-05,0.0013471616,0.0007990709,67240471,0,0.06338142,0.15201534,0.0004853309,0.0045761126,0.03929134,0.009695759,0.0,0.0,0.0,0.0,2490402,2490402,3997730,396809,0,0,895,2,1,2,0,3,0,0,0,0,0,0,0
29906467,29804824,0.00019170441,0.0033973358,0.0010413852,67240471,0,0.06314223,0.15144795,0.0026544067,0.007330359,0.042440023,0.019194892,0.0,0.0,0.0,0.0,2490402,2490402,3997730,396809,0,0,895,2,1,2,0,3,0,0,0,0,0,0,0
30108690,30006902,0.00016994734,0.0015210762,0.0012006836,67240471,0,0.06265862,0.15088691,0.0107638305,0.013469687,0.041574333,0.00012903468,0.0,0.0,0.0,0.0,2490402,2490402,3997730,396809,0,0,895,2,1,2,0,3,0,0,0,0,0,0,0
30310659,30208979,8.453643e-05,0.00200987,0.0013704567,67240471,0,0.062428154,0.1503321,0.0016124018,0.015925942,0.037909623,0.00960373,0.0,0.0,0.0,0.0,2490402,2490402,3997730,396809,0,0,895,2,1,2,0,3,0,0,0,0,0,0,0
30502673,30400952,0.00032277443,0.004361849,0.00063155603,67240471,0,0.061960526,0.14978322,0.005201877,0.005700162,0.03730424,0.0046800477,0.0,0.0,0.0,0.0,2490402,2490402,3997730,396809,0,0,895,2,1,2,0,3,0,0,0,0,0,0,0
30704739,30603030,0.00012047501,0.002382225,0.00022112027,67240471,0,0.061504338,0.14924054,4.0427098e-05,0.0068419385,0.036658537,0.009526327,0.0,0.0,0.0,0.0,2490402,2490402,3997730,396809,0,0,895,2,1,2,0,3,0,0,0,0,0,0,0
30906874,30805107,0.00018583682,0.0020743078,0.0007634781,67240471,0,0.06128732,0.14870374,0.0045745503,0.008262299,0.036281593,9.658803e-05,0.0,0.0,0.0,0.0,2490402,2490402,3997730,396809,0,0,895,2,1,2,0,3,0,0,0,0,0,0,0
31108915,31007185,0.00017333124,0.0031206196,0.0012515872,67240471,0,0.060846392,0.14817275,0.0004918568,0.01219923,0.035723664,0.004895204,0.0,0.0,0.0,0.0,2490402,2490402,3997730,396809,0,0,895,2,1,2,0,3,0,0,0,0,0,0,0
31300827,31199158,0.00025243103,0.0039154994,0.0010958938,67240471,0,0.060636345,0.14777887,0.008416208,0.010948686,0.035554163,0.0046485825,0.0,0.0,0.0,0.0,2490402,2490402,3997730,396809,0,0,895,2,1,2,0,3,0,0,0,0,0,0,0
31503025,31401235,0.00024408502,0.0032430359,0.0007770409,67240471,0,0.060209863,0.14725776,0.0020931133,0.0049647144,0.034793038,0.0035071762,0.0,0.0,0.0,0.0,2490402,2490402,3997730,396809,0,0,895,2,1,2,0,3,0,0,0,0,0,0,0
31704984,31603312,0.00019101203,0.0024678393,0.0009703424,67240471,0,0.05979258,0.14674218,0.0053511206,0.00840535,0.03439821,0.0008073514,0.0,0.0,0.0,0.0,2490402,2490402,3997730,396809,0,0,895,2,1,2,0,3,0,0,0,0,0,0,0
31907190,31805389,0.00026291778,0.0030531955,0.0005979423,67240471,0,0.059594702,0.14623201,0.010425244,0.011045555,0.034280073,0.0046239495,0.0,0.0,0.0,0.0,2490402,2490402,3997730,396809,0,0,895,2,1,2,0,3,0,0,0,0,0,0,0
32109141,32007467,0.00016667807,0.001995855,0.0007015781,67240471,0,0.05919064,0.14572717,0.0010392241,0.021982243,0.033639673,0.004107371,0.0,0.0,0.0,0.0,2490402,2490402,3997730,396809,0,0,895,2,1,2,0,3,0,0,0,0,0,0,0
32301085,32199440,2.013143e-05,0.0015620635,0.0007686152,67240471,0,0.058998935,0.14522748,0.0026078967,0.01981141,0.03346199,0.00743552,0.0,0.0,0.0,0.0,2490402,2490402,3997730,396809,0,0,895,2,1,2,0,3,0,0,0,0,0,0,0
32503268,32401517,4.5582117e-05,0.0010949335,0.0008607184,67240471,0,0.0586074,0.14473301,0.005219257,0.019319726,0.032980006,0.004920888,0.0,0.0,0.0,0.0,2490402,2490402,3997730,396809,0,0,895,2,1,2,0,3,0,0,0,0,0,0,0
32705295,32603595,7.7987206e-05,0.0011259647,0.0006840262,67240471,0,0.058223885,0.1442436,0.0029151777,0.016670482,0.0326592,0.0060598888,0.0,0.0,0.0,0.0,2490402,2490402,3997730,396809,0,0,895,2,1,2,0,3,0,0,0,0,0,0,0
32907352,32805672,0.0002527801,0.0042858557,0.00095864304,67240471,0,0.058042683,0.14375918,0.0003752449,0.011404642,0.032385223,0.00673902,0.0,0.0,0.0,0.0,2490402,2490402,3997730,396809,0,0,895,2,1,2,0,3,0,0,0,0,0,0,0
33109524,33007749,0.00015990168,0.0019051115,0.00064238044,67240471,0,0.0576707,0.14327964,0.005215926,0.011038634,0.031945843,0.0033896212,0.0,0.0,0.0,0.0,2490402,2490402,3997730,396809,0,0,895,2,1,2,0,3,0,0,0,0,0,0,0
33311695,33209826,0.000112664326,0.002272807,0.0010887096,67240471,0,0.057495207,0.1428049,0.0011151618,0.020181883,0.031783402,0.004168279,0.0,0.0,0.0,0.0,2490402,2490402,3997730,396809,0,0,895,2,1,2,0,3,0,0,0,0,0,0,0
33503622,33401800,0.00024622894,0.0031371948,0.0011221005,67240471,0,0.057133954,0.14233485,0.010694042,0.0120121455,0.031509034,0.00010389174,0.0,0.0,0.0,0.0,2490402,2490402,3997730,396809,0,0,895,2,1,2,0,3,0,0,0,0,0,0,0
33705566,33603877,0.000111272144,0.0018858445,0.00068071176,67240471,0,0.056779973,0.14186949,0.005827056,0.013362947,0.031035813,0.0062931073,0.0,0.0,0.0,0.0,2490402,2490402,3997730,396809,0,0,895,2,1,2,0,3,0,0,0,0,0,0,0
33907608,33805954,0.00012158664,0.0013817305,0.0005652435,67240471,0,0.056613375,0.14140871,0.00033607174,0.014253964,0.03067365,0.0021618207,0.0,0.0,0.0,0.0,2490402,2490402,3997730,396809,0,0,895,2,1,2,0,3,0,0,0,0,0,0,0
34109681,34008032,9.674842e-05,0.0018093948,0.00057022617,67240471,0,0.05626952,0.14095244,0.0032455558,0.014633587,0.033747207,0.006128839,0.0,0.0,0.0,0.0,2490402,2490402,3997730,396809,0,0,895,2,1,2,0,3,0,0,0,0,0,0,0
34301655,34200005,0.00016565342,0.0028271615,0.00057648326,67240471,0,0.05610783,0.14050055,0.007029609,0.015547492,0.03348547,0.006692882,0.0,0.0,0.0,0.0,2490402,2490402,3997730,396809,0,0,895,2,1,2,0,3,0,0,0,0,0,0,0
34503730,34402082,0.00015372635,0.0027250242,0.00086546486,67240471,0,0.055773653,0.14005305,0.0028752715,0.006643249,0.03311185,0.0005644497,0.0,0.0,0.0,0.0,2490402,2490402,3997730,396809,0,0,895,2,1,2,0,3,0,0,0,0,0,0,0
34705829,34604159,0.00022860647,0.0038633568,0.00014213155,67240471,0,0.055445656,0.13960984,0.006555897,0.008737845,0.03288322,0.0028554788,0.0,0.0,0.0,0.0,2490402,2490402,3997730,396809,0,0,895,2,1,2,0,3,0,0,0,0,0,0,0
34907996,34806237,0.00041959752,0.007880943,0.0010635875,67240471,0,0.05529195,0.13917087,0.005108811,0.010674868,0.032508172,0.0020870583,0.0,0.0,0.0,0.0,2490402,2490402,3997730,396809,0,0,895,2,1,2,0,3,0,0,0,0,0,0,0
35110288,35008314,0.0006462034,0.013624286,0.0026861755,67240471,0,0.054972935,0.13873604,0.00080154807,0.024701595,0.028584635,0.002861824,0.0,0.0,0.0,0.0,2490402,2490402,3997730,396809,0,0,895,2,1,2,0,3,0,0,0,0,0,0,0
35302003,35200287,0.0013181682,0.02842263,0.0050411667,67240471,0,0.05482364,0.13830529,0.008602573,0.019962458,0.028457165,0.0021115828,0.0,0.0,0.0,0.0,2490402,2490402,3997730,396809,0,0,895,2,1,2,0,3,0,0,0,0,0,0,0
35504139,35402365,0.0035349978,0.073305294,0.012011335,67240471,0,0.054513235,0.13787858,0.00400308,0.022816734,0.024756813,0.0011523423,0.0,0.0,0.0,0.0,2490402,2490402,3997730,396809,0,0,895,2,1,2,0,3,0,0,0,0,0,0,0
35706164,35604442,0.0027781927,0.06168103,0.01703943,67240471,0,0.05420826,0.13745584,0.000111046655,0.08611575,0.014338512,0.008450659,0.0,0.0,0.0,0.0,2490402,2490402,3997730,396809,0,0,895,2,1,2,0,3,0,0,0,0,0,0,0
35908452,35806519,0.0027955102,0.06954097,0.018514015,67240471,0,0.05406606,0.13703701,0.009437814,0.10230223,0.007287617,0.0072662174,0.0,0.0,0.0,0.0,2490402,2490402,3997730,396809,0,0,895,2,1,2,0,3,0,0,0,0,0,0,0
36110378,36008596,0.00094585994,0.025115397,0.014105656,131607,0,0.05382726,0.13663337,0.015357125,0.1351428,0.023563514,0.00456489,0.0,0.0,0.0,0.0,2490402,2490402,3997730,396809,0,0,895,2,1,2,0,3,0,0,0,0,0,0,0
36302367,36200574,0.00040688273,0.0029621786,0.0061503435,131607,0,0.05416713,0.13641617,0.013431441,0.13509007,0.030286327,0.00464702,0.0,0.0,0.0,0.0,2490402,2490402,3997730,396809,0,0,895,2,1,2,0,3,0,0,0,0,0,0,0
36504324,36402647,0.00063116156,0.010805598,0.0031396782,131607,0,0.05533769,0.13628481,0.012044034,0.16916847,0.04970371,0.028521905,0.0,0.0,0.0,0.0,2490402,2490402,3997730,396809,0,0,895,2,1,2,0,3,0,0,0,0,0,0,0
36706472,36604724,0.0012309457,0.02057345,0.0114380615,131607,0,0.058002412,0.13645738,0.015435402,0.17601192,0.07319006,0.009398708,0.0,0.0,0.0,0.0,2490402,2490402,3997730,396809,0,0,895,2,1,2,0,3,0,0,0,0,0,0,0
36908464,36806802,0.0012029661,0.02128458,0.014524616,131607,0,0.06293973,0.1370759,0.014119249,0.1740206,0.08399655,0.028632903,0.0,0.0,0.0,0.0,2490402,2490402,3997730,396809,0,0,895,2,1,2,0,3,0,0,0,0,0,0,0
37100487,36998775,0.057979353,1.165357,0.6524655,67240471,0,0.055886205,0.13533695,0.009730887,0.18359615,0.104817145,0.028598588,0.0,0.0,0.0,0.0,2490402,2490402,3997730,396809,0,0,895,2,1,2,0,3,0,0,0,0,0,0,0
37302543,37200852,0.02874745,0.53415185,0.4136756,131607,0,0.055837024,0.13494837,0.036626063,0.96117437,0.40911636,0.0077608395,0.0,0.0,0.0,0.0,2490402,2490402,3997730,396809,0,0,895,2,1,2,0,3,0,1,0,0,0,0,0
37504557,37402930,0.0026632666,0.18479279,0.20674355,131607,0,0.056016825,0.13464552,0.039482664,1.0553305,0.5548659,0.0025033124,0.0,0.0,0.0,0.0,2490402,2490402,3997730,396809,0,1,1919,2,1,2,0,3,0,1,0,0,0,0,0
37706655,37605007,0.0020266352,0.013274277,0.05246817,131607,0,0.0571718,0.13454083,0.05699479,1.0845842,0.7048152,0.022335768,0.0,0.0,0.0,0.0,2490402,2490402,3997730,396809,0,1,1919,2,1,2,0,3,0,1,0,0,0,0,0
37908739,37807084,0.00056855293,0.060155295,0.03279585,131607,0,0.060140334,0.13477048,0.042554706,1.1506103,0.78952456,0.023178041,0.0,0.0,0.0,0.0,2490402,2490402,3997730,396809,0,1,1919,2,1,2,0,3,0,1,0,0,0,0,0
38100806,37999058,0.00060062023,0.09632558,0.093552016,131607,0,0.064753294,0.13540237,0.045842987,1.2095429,0.9518747,0.014608523,0.0,0.0,0.0,0.0,2490402,2490402,3997730,396809,0,1,1919,2,1,2,0,3,0,1,0,0,0,0,0
38302904,38201135,0.00064521463,0.09869375,0.09551105,131607,0,0.072713636,0.13671727,0.047682807,1.246757,1.0402277,0.010872546,0.0,0.0,0.0,0.0,2490402,2490402,3997730,396809,0,3,1919,2,1,2,0,3,0,1,0,0,0,0,0
38504951,38403212,0.0007462517,0.095182694,0.09233421,131607,0,0.08354074,0.13875231,0.04555585,1.310795,1.234077,0.031067953,0.0,0.0,0.0,0.0,2490402,2490402,3997730,396809,0,3,1919,2,1,2,0,3,0,1,0,0,0,0,0
38706974,38605289,0.00071603333,0.08969173,0.08667374,131607,0,0.09724775,0.14160478,0.045104012,1.4025844,1.4342958,0.027360255,0.0,0.0,0.0,0.0,2490402,2490402,3997730,396809,0,3,1919,2,1,2,0,3,0,1,0,0,0,0,0
38908975,38807367,0.0007839307,0.08320844,0.0794234,131607,0,0.11367955,0.14553365,0.04565126,1.3914543,1.5403597,0.023742758,0.0,0.0,0.0,0.0,2490402,2490402,3997730,396809,0,3,1919,2,1,2,0,3,0,1,0,0,0,0,0
39111056,39009444,0.00084439694,0.07715592,0.07250316,537002519,0,0.13273378,0.15016843,0.042021558,1.4615805,1.7499726,0.034549523,0.0,0.0,0.0,0.0,2490402,2490402,3997730,396809,0,3,1919,2,1,2,0,3,0,1,0,0,0,0,0
39303048,39201417,0.00071737525,0.07107845,0.06568442,537002519,0,0.15313308,0.15569507,0.037968673,1.5131041,1.8636591,0.045373805,0.0,0.0,0.0,0.0,2490402,2490402,3997730,396809,0,3,1919,2,1,2,0,3,0,1,0,0,0,0,0
39505152,39403495,0.00096362375,0.066134,0.061203912,537002519,0,0.1768326,0.16182874,0.035652455,1.6051605,2.0834718,0.08400717,0.0,0.0,0.0,0.0,2490402,2490402,3997730,396809,0,3,1919,2,1,2,0,3,0,1,0,0,0,0,0
39707413,39605572,0.0011094398,0.061709758,0.056621213,537002519,0,0.20282204,0.16845797,0.040702984,1.6609008,2.3108816,0.017937373,0.0,0.0,0.0,0.0,2490402,2490402,3997730,396809,0,3,1919,2,1,2,0,3,0,1,0,0,0,0,0
39909294,39807649,0.0008926762,0.05598596,0.05077016,537002519,0,0.23114347,0.17659351,0.03464082,1.6756128,2.4274569,0.05671532,0.0,0.0,0.0,0.0,2490402,2490402,3997730,396809,0,3,1919,2,1,2,0,3,0,1,0,0,0,0,0
40111384,40009726,0.001040693,0.05287044,0.049959015,537002519,0,0.2616157,0.1839833,0.040799167,1.7300801,2.6489897,0.085105956,0.0,0.0,0.0,0.0,2490402,2490402,3997730,396809,0,3,1919,2,1,2,0,3,0,1,0,0,0,0,0
40303500,40201700,0.00094305055,0.047910355,0.044887412,537002519,0,0.29257882,0.1924955,0.0337033,1.7973176,2.766535,0.056795076,0.0,0.0,0.0,0.0,2490402,2490402,3997730,396809,0,3,1919,2,1,2,0,3,0,1,0,0,0,0,0
40505515,40403777,0.0008899692,0.044555116,0.04325469,537002519,0,0.3274456,0.20004548,0.03211409,1.861475,2.9840324,0.05645173,0.0,0.0,0.0,0.0,2490402,2490402,3997730,396809,0,3,1919,2,1,2,0,3,0,1,0,0,0,0,0
40707526,40605854,0.0011715391,0.04351426,0.048903167,537002519,0,0.36438367,0.20740885,0.023720033,1.9090811,3.1900733,0.07446618,0.0,0.0,0.0,0.0,2490402,2490402,3997730,396809,0,3,1919,2,1,2,0,3,0,1,0,0,0,0,0
40909617,40807932,0.00084589265,0.03719474,0.037091874,537002519,0,0.40361857,0.21694805,0.032749966,1.8939342,3.2928712,0.05551188,0.0,0.0,0.0,0.0,2490402,2490402,3997730,396809,0,3,1919,2,1,2,0,3,0,1,0,0,0,0,0
41101561,40999905,0.0008413558,0.034739748,0.03542838,537002519,0,0.44310886,0.22369143,0.032990042,2.0042188,3.4759061,0.04743765,0.0,0.0,0.0,0.0,2490402,2490402,3997730,396809,0,3,1919,2,1,2,0,3,0,1,0,0,0,0,0
41303612,41201982,0.0006508552,0.030027319,0.026597407,537002519,0,0.4867075,0.23319446,0.023870802,2.0238714,3.574314,0.051098585,0.0,0.0,0.0,0.0,2490402,2490402,3997730,396809,0,3,1919,2,1,2,0,3,0,1,0,0,0,0,0
41505952,41404060,0.00075438153,0.02761854,0.026536461,537002519,0,0.5325791,0.23958717,0.03169085,2.0847604,3.7337978,0.06392767,0.0,0.0,0.0,0.0,2490402,2490402,3997730,396809,0,3,1919,2,1,2,0,3,0,1,0,0,0,0,0
41707780,41606137,0.0007406715,0.026062762,0.028381968,537002519,0,0.5809881,0.24557261,0.032800157,2.1040547,3.8731604,0.053073395,0.0,0.0,0.0,0.0,2490402,2490402,3997730,396809,0,3,1919,2,1,2,0,3,0,1,0,0,0,0,0
41909871,41808214,0.00062573014,0.02256564,0.020387312,537002519,0,0.6315887,0.25443912,0.029989922,2.0997136,3.943387,0.05533308,0.0,0.0,0.0,0.0,2490402,2490402,3997730,396809,0,3,1919,2,1,2,0,3,0,1,0,0,0,0,0
42101873,42000188,0.0005552151,0.020048615,0.012636586,537002519,0,0.6817726,0.25895426,0.036626123,2.1629345,4.0466914,0.0452593,0.0,0.0,0.0,0.0,2490402,2490402,3997730,396809,0,3,1919,2,1,2,0,3,0,1,0,0,0,0,0
42304099,42202265,0.0005481476,0.01823332,0.010095869,537002519,0,0.73720586,0.26725358,0.04088249,2.142079,4.096829,0.04921197,0.0,0.0,0.0,0.0,2490402,2490402,3997730,396809,0,3,1919,2,1,2,0,3,0,1,0,0,0,0,0
42505946,42404342,0.00073408714,0.017174423,0.010373855,537002519,0,0.7948663,0.27175224,0.052945703,2.1261706,4.16546,0.047146622,0.0,0.0,0.0,0.0,2490402,2490402,3997730,396809,0,3,1919,2,1,2,0,3,0,1,0,0,0,0,0
42708026,42606420,0.0007585207,0.0190778,0.024223331,537002519,0,0.8549201,0.27592045,0.051974975,2.2448418,4.2224383,0.03786525,0.0,0.0,0.0,0.0,2490402,2490402,3997730,396809,0,3,1919,2,1,2,0,3,0,1,0,0,0,0,0
42910187,42808497,0.0008232736,0.013914651,0.010201759,537002519,0,0.91735905,0.28317687,0.049577333,2.2347267,4.2545514,0.043042935,0.0,0.0,0.0,0.0,2490402,2490402,3997730,396809,0,3,1919,2,1,2,0,3,0,1,0,0,0,0,0
43102083,43000470,0.0006945324,0.014738785,0.016232003,537002519,0,20.069017,0.28597116,0.04907773,2.3195941,4.288981,0.039277524,0.0,0.0,0.0,0.0,2490402,2490402,3997730,396809,0,3,1919,2,1,2,0,3,0,1,0,0,0,0,0
43304161,43202548,0.0009175696,0.01252178,0.012420058,537002519,0,20.722143,0.29258883,0.05999141,2.314517,4.310391,0.042380553,0.0,0.0,0.0,0.0,2490402,2490402,3997730,396809,0,3,1919,2,1,2,0,3,0,1,0,0,0,0,0
43506101,43404625,0.06641982,2.402707,6.7022834,67240471,0,0.357944,0.19642454,0.002688813,4.8942432,9.633042,0.015062804,0.0,0.0,0.0,0.0,2490402,2490402,3997730,396809,0,3,1919,2,1,2,0,3,0,1,0,0,0,0,0
43708332,43606702,0.036520835,0.749534,3.2822607,67240471,0,0.33444765,0.19474283,0.050960373,4.7930813,10.6137,0.022619626,0.0,0.0,0.0,0.0,2490402,2490402,3997730,396809,0,3,1919,2,1,2,0,3,0,1,0,0,0,0,0
43900171,43798676,0.022532962,0.1355318,1.5339333,67240471,0,0.3221585,0.19303094,0.050201744,4.9511523,10.954563,0.034192305,0.0,0.0,0.0,0.0,2490402,2490402,3997730,396809,0,3,1919,2,1,2,0,3,0,1,0,0,0,0,0
44102230,44000753,0.015895508,0.39892444,0.41640073,67240471,0,0.31493923,0.19151613,0.058182523,4.6755695,11.933634,0.030618774,0.0,0.0,0.0,0.0,2490402,2490402,3997730,396809,0,3,1919,2,1,2,0,3,0,1,0,0,0,0,0
44304305,44202830,0.014479298,0.49451587,0.20542483,67240471,0,0.30931363,0.19006461,0.060901444,4.7935567,12.267877,0.042764734,0.0,0.0,0.0,0.0,2490402,2490402,3997730,396809,0,3,1919,2,1,2,0,3,0,1,0,0,0,0,0
44506387,44404908,0.014602016,0.5014395,0.49557117,67240471,0,0.30490366,0.18866913,0.07844967,4.6086073,13.152253,0.045903202,0.0,0.0,0.0,0.0,2490402,2490402,3997730,396809,0,3,1919,2,1,2,0,3,0,1,0,0,0,0,0
44708645,44606985,0.010823725,0.4459614,0.662322,67240471,0,0.3020625,0.1873827,0.07953817,4.602265,13.87721,0.054423288,0.0,0.0,0.0,0.0,2490402,2490402,3997730,396809,0,3,1919,2,1,2,0,3,0,1,0,0,0,0,0
44900543,44798959,0.007356109,0.3741549,0.73804677,67240471,0,0.30032775,0.18620075,0.08410814,4.617983,14.1985035,0.054729775,0.0,0.0,0.0,0.0,2490402,2490402,3997730,396809,0,3,1919,2,1,2,0,3,0,1,0,0,0,0,0
45102570,45001036,0.00833225,0.3224552,0.73067665,67240471,0,0.29851845,0.18501915,0.09162636,4.5666494,14.93627,0.05166705,0.0,0.0,0.0,0.0,2490402,2490402,3997730,396809,0,3,1919,2,1,2,0,3,0,1,0,0,0,0,0
45304698,45203113,0.009008819,0.29515687,0.6915544,67240471,0,0.29689306,0.18385032,0.104656026,4.566052,15.253538,0.058710296,0.0,0.0,0.0,0.0,2490402,2490402,3997730,396809,0,3,1919,2,1,2,0,3,0,1,0,0,0,0,0
45506819,45405190,0.0070467135,0.24208432,0.66680783,67240471,0,0.29583207,0.18274619,0.0968487,4.5387473,15.938758,0.05942854,0.0,0.0,0.0,0.0,2490402,2490402,3997730,396809,0,3,1919,2,1,2,0,3,0,1,0,0,0,0,0
45708862,45607268,0.004766701,0.16109677,0.64977443,67240471,0,0.29514396,0.18171169,0.09424864,4.449332,16.617645,0.06490258,0.0,0.0,0.0,0.0,2490402,2490402,3997730,396809,0,3,1919,2,1,2,0,3,0,1,0,0,0,0,0
45910970,45809345,0.004563421,0.1424172,0.5933271,67240471,0,0.29441923,0.18068543,0.106047794,4.506627,16.929853,0.06773172,0.0,0.0,0.0,0.0,2490402,2490402,3997730,396809,0,3,1919,2,1,2,0,3,0,1,0,0,0,0,0
46102940,46001319,0.009914265,0.16788392,0.54368633,67240471,0,0.2937446,0.17992748,0.1294452,4.452906,17.585014,0.06267054,0.0,0.0,0.0,0.0,2490402,2490402,3997730,396809,0,3,1919,2,1,2,0,3,0,1,0,0,0,0,0
46304889,46203396,0.008683049,0.16315682,0.50324214,67240471,0,0.2931771,0.17895226,0.13658364,4.494592,17.900137,0.04316497,0.0,0.0,0.0,0.0,2490402,2490402,3997730,396809,0,3,1919,2,1,2,0,3,0,1,0,0,0,0,0
46507185,46405473,0.00614542,0.14592592,0.46161836,67240471,0,0.29269782,0.17799632,0.1466579,4.466875,18.53529,0.07143258,0.0,0.0,0.0,0.0,2490402,2490402,3997730,396809,0,3,1919,2,1,2,0,3,0,1,0,0,0,0,0
46709028,46607551,0.006250926,0.1358746,0.42437857,67240471,0,0.29231706,0.17706068,0.16183722,4.520756,19.179592,0.07553008,0.0,0.0,0.0,0.0,2490402,2490402,3997730,396809,0,3,1919,2,1,2,0,3,0,1,0,0,0,0,0
46900998,46799524,0.004887933,0.1112785,0.3911424,67240471,0,0.29197794,0.17614496,0.16735786,4.5146832,19.494804,0.055815693,0.0,0.0,0.0,0.0,2490402,2490402,3997730,396809,0,3,1919,2,1,2,0,3,0,1,0,0,0,0,0
47103140,47001601,0.0036505868,0.07806684,0.3545047,67240471,0,0.29166463,0.17524163,0.17160091,4.477862,20.135387,0.069573574,0.0,0.0,0.0,0.0,2490402,2490402,3997730,396809,0,3,1919,2,1,2,0,3,0,1,0,0,0,0,0
47305233,47203679,0.003211786,0.051356,0.32404882,67240471,0,0.29143563,0.17435452,0.16545603,4.520021,20.450499,0.059240647,0.0,0.0,0.0,0.0,2490402,2490402,3997730,396809,0,3,1919,2,1,2,0,3,0,1,0,0,0,0,0
47507297,47405756,0.0024114777,0.029068261,0.29799023,67240471,0,0.29120204,0.17348649,0.17520629,4.47,21.081203,0.07773854,0.0,0.0,0.0,0.0,2490402,2490402,3997730,396809,0,3,1919,2,1,2,0,3,0,1,0,0,0,0,0
47709328,47607833,0.0021917582,0.038592435,0.27667296,67240471,0,0.29100642,0.17263705,0.1747205,4.530716,21.715662,0.072062925,0.0,0.0,0.0,0.0,2490402,2490402,3997730,396809,0,3,1919,2,1,2,0,3,0,1,0,0,0,0,0
47901734,47799807,0.0018207065,0.045498714,0.2513015,67240471,0,0.2908708,0.17180194,0.16904499,4.545557,22.034092,0.061715327,0.0,0.0,0.0,0.0,2490402,2490402,3997730,396809,0,3,1919,2,1,2,0,3,0,1,0,0,0,0,0
48103405,48001884,0.0020897423,0.044514507,0.22169866,67240471,0,0.2906625,0.1709751,0.17031425,4.5508056,22.671389,0.07540708,0.0,0.0,0.0,0.0,2490402,2490402,3997730,396809,0,3,1919,2,1,2,0,3,0,1,0,0,0,0,0
48305515,48203962,0.0016732122,0.030411046,0.19886695,67240471,0,0.29048926,0.17015946,0.18126938,4.5854554,22.99029,0.084149815,0.0,0.0,0.0,0.0,2490402,2490402,3997730,396809,0,3,1919,2,1,2,0,3,0,1,0,0,0,0,0
48507527,48406039,0.0011116007,0.040390715,0.18332647,67240471,0,0.2903584,0.16935392,0.18138602,4.5759015,23.628344,0.07384649,0.0,0.0,0.0,0.0,2490402,2490402,3997730,396809,0,3,1919,2,1,2,0,3,0,1,0,0,0,0,0
48709706,48608117,0.004228019,0.089131035,0.16736108,67240471,0,0.29011312,0.16855961,0.1529121,4.61979,24.268232,0.05912354,0.0,0.0,0.0,0.0,2490402,2490402,3997730,396809,0,3,1919,2,1,2,0,3,0,1,0,0,0,0,0
48901795,48800090,0.0077271936,0.1434234,0.14912586,67240471,0,0.2897975,0.16777745,0.1356426,4.618218,24.594805,0.08747584,0.0,0.0,0.0,0.0,2490402,2490402,3997730,396809,0,3,1919,2,1,2,0,3,0,1,0,0,0,0,0
49103765,49002167,0.006389274,0.13700573,0.1276841,67240471,0,0.28961736,0.16700734,0.14048423,4.646345,25.242464,0.06314493,0.0,0.0,0.0,0.0,2490402,2490402,3997730,396809,0,3,1919,2,1,2,0,3,0,1,0,0,0,0,0
49305855,49204245,0.0049665435,0.120202094,0.11187082,67240471,0,0.28941113,0.16624817,0.12894505,4.6740603,25.56919,0.0864936,0.0,0.0,0.0,0.0,2490402,2490402,3997730,396809,0,3,1919,2,1,2,0,3,0,1,0,0,0,0,0
49507964,49406322,0.006687264,0.13558862,0.10052266,67240471,0,0.28910625,0.16549689,0.107044384,4.6638784,26.22406,0.081299014,0.0,0.0,0.0,0.0,2490402,2490402,3997730,396809,0,3,1919,2,1,2,0,3,0,1,0,0,0,0,0
49700473,49598295,0.005753856,0.12307219,0.097568415,67240471,0,0.28891405,0.1647486,0.10177547,4.658678,26.87782,0.09503407,0.0,0.0,0.0,0.0,2490402,2490402,3997730,396809,0,3,1919,2,1,2,0,3,0,1,0,0,0,0,0
49912240,49810477,0.0028657229,0.07724443,0.09953117,67240471,0,0.28876293,0.1640157,0.10821407,4.625392,27.201998,0.07046301,0.0,0.0,0.0,0.0,2490402,2490402,3997730,396809,0,3,1919,2,1,2,0,3,0,1,0,0,0,0,0
50104329,50002450,0.0031137574,0.071869075,0.097191945,67240471,0,0.2886096,0.1632983,0.10698834,4.6120186,27.84543,0.084170975,0.0,0.0,0.0,0.0,2490402,2490402,3997730,396809,0,3,1919,2,1,2,0,3,0,1,0,0,0,0,0
50306185,50204528,0.003366112,0.06410478,0.09133184,67240471,0,0.2885024,0.16258983,0.094256915,4.5976334,28.169016,0.078659385,0.0,0.0,0.0,0.0,2490402,2490402,3997730,396809,0,3,1919,2,1,2,0,3,0,1,0,0,0,0,0
50508282,50406605,0.0012619526,0.025402969,0.08545767,67240471,0,0.2883889,0.16189274,0.098887086,4.6085005,28.811968,0.1064825,0.0,0.0,0.0,0.0,2490402,2490402,3997730,396809,0,3,1919,2,1,2,0,3,0,1,0,0,0,0,0
50710391,50608682,0.002167819,0.05425033,0.082078926,67240471,0,0.2882491,0.16120183,0.10431938,4.5851655,29.45485,0.086483,0.0,0.0,0.0,0.0,2490402,2490402,3997730,396809,0,3,1919,2,1,2,0,3,0,1,0,0,0,0,0
50902267,50800656,0.0029003043,0.07519223,0.08374249,67240471,0,0.28815117,0.16068545,0.09996797,4.5845966,29.778738,0.09211741,0.0,0.0,0.0,0.0,2490402,2490402,3997730,396809,0,3,1919,2,1,2,0,3,0,1,0,0,0,0,0
51104400,51002733,0.0034651386,0.10666073,0.08492481,67240471,0,0.28800595,0.16000745,0.10198367,4.5501037,30.417833,0.0962879,0.0,0.0,0.0,0.0,2490402,2490402,3997730,396809,0,3,1919,2,1,2,0,3,0,1,0,0,0,0,0
51306459,51204811,0.0033854372,0.100985296,0.08208165,67240471,0,0.28788465,0.15934578,0.104342245,4.5661526,30.733004,0.082597174,0.0,0.0,0.0,0.0,2490402,2490402,3997730,396809,0,3,1919,2,1,2,0,3,0,1,0,0,0,0,0
51509002,51406888,0.0026488905,0.08623205,0.07447128,67240471,0,0.28780892,0.1586907,0.11231257,4.569401,31.370731,0.08389267,0.0,0.0,0.0,0.0,2490402,2490402,3997730,396809,0,3,1919,2,1,2,0,3,0,1,0,0,0,0,0
51710588,51608966,0.0036338093,0.10190046,0.067627326,67240471,0,0.28768158,0.1580442,0.10788437,4.571321,32.012363,0.09219385,0.0,0.0,0.0,0.0,2490402,2490402,3997730,396809,0,3,1919,2,1,2,0,3,0,1,0,0,0,0,0
51902675,51800942,0.0016018073,0.050954636,0.058021836,131607,0,0.28759673,0.15741275,0.10726423,4.566277,32.335663,0.096156135,0.0,0.0,0.0,0.0,2490402,2490402,3997730,396809,0,3,1919,2,1,2,0,3,0,1,0,0,0,0,0
52104489,52003017,0.0007945014,0.023405634,0.32455775,131607,0,0.3087751,0.15729655,0.092675276,4.555337,32.975384,0.09430354,0.0,0.0,0.0,0.0,2490402,2490402,3997730,396809,0,3,1919,3,2,3,0,3,0,1,0,0,0,0,0
52306618,52205094,0.0007766386,0.014684965,0.35985032,131607,0,0.29041237,0.16742103,0.09745561,0.010687809,0.009604089,0.09630326,0.0,0.0,0.0,0.0,2490402,2490402,3997730,396809,0,0,895,3,2,3,0,3,0,1,0,0,0,0,0
52508711,52407171,0.00084615115,0.019886075,0.14152911,131607,0,0.25709474,0.17801885,0.09060575,0.04479069,0.0025930014,0.0936673,0.0,0.0,0.0,0.0,2490402,2490402,3997730,396809,0,0,895,3,2,3,0,3,0,1,0,0,0,0,0
52700926,52599145,0.0006139893,0.047231328,0.03093613,131607,0,0.23390728,0.1871173,0.08602827,0.09441203,0.032658655,0.08753636,0.0,0.0,0.0,0.0,2490402,2490402,3997730,396809,0,0,895,3,2,3,0,3,0,1,0,0,0,0,0
52902988,52801222,0.0006639773,0.036720585,0.0222869,131607,0,0.23122482,0.20103407,0.08512493,0.0685598,0.008297528,0.08937236,0.0,0.0,0.0,0.0,2490402,2490402,3997730,396809,0,0,895,3,2,3,0,3,0,1,0,0,0,0,0
53104868,53003300,0.000698367,0.044507127,0.042886153,131607,0,0.21676707,0.20967427,0.081787534,0.11690411,0.026948748,0.08509758,0.0,0.0,0.0,0.0,2490402,2490402,3997730,396809,0,0,895,3,2,3,0,3,0,1,0,0,0,0,0
53306879,53205377,0.0005321307,0.03031424,0.045018762,131607,0,0.21719848,0.2225202,0.08787989,0.10390602,0.01564427,0.08308995,0.0,0.0,0.0,0.0,2490402,2490402,3997730,396809,0,0,895,3,2,3,0,3,0,1,0,0,0,0,0
53508931,53407456,0.00057778275,0.03517412,0.05364473,131607,0,0.20677954,0.22974952,0.09072323,0.1497725,0.030207096,0.07835215,0.0,0.0,0.0,0.0,2490402,2490402,3997730,396809,0,0,895,3,2,3,0,3,0,1,0,0,0,0,0
53700901,53599428,0.00072490855,0.04134455,0.062009152,131607,0,0.19768384,0.23565263,0.08735746,0.14035746,0.02318301,0.083624594,0.0,0.0,0.0,0.0,2490402,2490402,3997730,396809,0,0,895,3,2,3,0,3,0,1,0,0,0,0,0
53902990,53801506,0.0006244392,0.028486306,0.052568864,131607,0,0.20018257,0.24642554,0.093807966,0.171198,0.036934167,0.0750022,0.0,0.0,0.0,0.0,2490402,2490402,3997730,396809,0,0,895,3,2,3,0,3,0,1,0,0,0,0,0
54105068,54003583,0.00081156904,0.03225705,0.056448065,131607,0,0.1934336,0.2521506,0.09822341,0.16232087,0.03393018,0.07317348,0.0,0.0,0.0,0.0,2490402,2490402,3997730,396809,0,0,895,3,2,3,0,3,0,1,0,0,0,0,0
54307499,54205660,0.0008988413,0.017966468,0.042620257,131607,0,0.19675244,0.26174757,0.09659839,0.14824048,0.04800101,0.069244094,0.0,0.0,0.0,0.0,2490402,2490402,3997730,396809,0,0,895,3,2,3,0,3,0,1,0,0,0,0,0
54509310,54407738,0.0010918572,0.022749752,0.04618234,131607,0,0.19108075,0.26652384,0.104720026,0.16347754,0.04298915,0.06639108,0.0,0.0,0.0,0.0,2490402,2490402,3997730,396809,0,0,895,3,2,3,0,3,0,1,0,0,0,0,0
54701287,54599711,0.0011445672,0.029934889,0.053489774,131607,0,0.18548395,0.27024546,0.10362228,0.16625226,0.051625915,0.06512308,0.0,0.0,0.0,0.0,2490402,2490402,3997730,396809,0,0,895,3,2,3,0,3,0,1,0,0,0,0,0
54903351,54801789,0.001210937,0.017558556,0.038131803,131607,0,0.18950666,0.27823663,0.10237306,0.17266157,0.064383656,0.07158691,0.0,0.0,0.0,0.0,2490402,2490402,3997730,396809,0,0,895,3,2,3,0,3,0,1,0,0,0,0,0
55105548,55003866,0.0014856663,0.023394851,0.043377787,131607,0,0.18515563,0.2819787,0.09321683,0.16632745,0.05820945,0.06634356,0.0,0.0,0.0,0.0,2490402,2490402,3997730,396809,0,0,895,3,2,3,0,3,0,1,0,0,0,0,0
55307527,55205944,0.12325138,3.4930186,4.1137094,67240471,0,0.15093474,0.18589364,0.10794831,4.404463,2.6688135,0.060499944,0.0,0.0,0.0,0.0,2490402,2490402,3997730,396809,0,3,1919,3,2,3,0,3,0,1,0,0,0,0,0
55509560,55408021,0.033496723,1.056393,1.9932013,67240471,0,0.15004997,0.18419589,0.11817052,4.431585,3.4021254,0.06626786,0.0,0.0,0.0,0.0,2490402,2490402,3997730,396809,0,3,1919,3,2,3,0,3,0,1,0,0,0,0,0
55701473,55599995,0.022352662,0.053933937,0.6701392,131607,0,0.14942099,0.1828611,0.13884665,4.5333934,4.123194,0.052805997,0.0,0.0,0.0,0.0,2490402,2490402,3997730,396809,0,3,1919,3,2,3,0,3,0,1,0,0,0,0,0
55903634,55802073,0.0033264519,0.36709294,0.17870264,131607,0,0.14903648,0.18158056,0.1351597,4.6401033,4.4610343,0.06653857,0.0,0.0,0.0,0.0,2490402,2490402,3997730,396809,0,3,1919,3,2,3,0,3,0,1,0,0,0,0,0
56106097,56004150,0.0019226277,0.4799599,0.5786469,131607,0,0.1486307,0.18018901,0.13217972,4.844676,5.1607375,0.06617301,0.0,0.0,0.0,0.0,2490402,2490402,3997730,396809,0,3,1919,3,2,3,0,3,0,1,0,0,0,0,0
56307780,56206227,0.0011675839,0.5104142,0.74362785,131607,0,0.14850523,0.17878056,0.12497281,5.0345635,5.5269413,0.047249902,0.0,0.0,0.0,0.0,2490402,2490402,3997730,396809,0,3,1919,3,2,3,0,3,0,1,0,0,0,0,0
56499724,56398201,0.0009577196,0.5022033,0.78589255,131607,0,0.14898416,0.17747766,0.117396586,5.2587304,6.2904305,0.04309805,0.0,0.0,0.0,0.0,2490402,2490402,3997730,396809,0,3,1919,3,2,3,0,3,0,1,0,0,0,0,0
56701774,56600278,0.001116467,0.47620386,0.7696973,537002519,0,0.15055041,0.17634,0.11988015,5.4712677,7.0790825,0.058521822,0.0,0.0,0.0,0.0,2490402,2490402,3997730,396809,0,3,1919,3,2,3,0,3,0,1,0,0,0,0,0
56903915,56802356,0.089440405,1.6221898,1.2632185,67240471,0,0.14896235,0.17530976,0.06631986,4.271505,7.2188497,0.076938696,0.0,0.0,0.0,0.0,2490402,2490402,3997730,396809,0,3,1919,3,2,3,0,3,0,1,0,0,0,0,0
57105936,57004433,0.0126064345,0.96372086,1.0315115,67240471,0,0.14880602,0.17417671,0.033002947,4.2914915,7.8695,0.039772384,0.0,0.0,0.0,0.0,2490402,2490402,3997730,396809,0,3,1919,3,2,3,0,3,0,1,0,0,0,0,0
57307991,57206511,0.0044003637,0.5839046,0.78940207,67240471,0,0.14866772,0.17309488,0.020186529,4.2445464,8.194626,0.03493916,0.0,0.0,0.0,0.0,2490402,2490402,3997730,396809,0,3,1919,3,2,3,0,3,0,1,0,0,0,0,0
57510139,57408588,0.0055990214,0.38660455,0.60158205,67240471,0,0.14855094,0.17206226,0.0072848736,4.234531,8.832282,0.04432652,0.0,0.0,0.0,0.0,2490402,2490402,3997730,396809,0,3,1919,3,2,3,0,3,0,1,0,0,0,0,0
57702089,57600565,0.0049616415,0.28718433,0.47389954,67240471,0,0.14845446,0.17108016,0.011186611,4.2318997,9.463072,0.048718806,0.0,0.0,0.0,0.0,2490402,2490402,3997730,396809,0,3,1919,3,2,3,0,3,0,1,0,0,0,0,0
57904859,57802640,0.006046646,0.21350852,0.38042122,67240471,0,0.14836662,0.17013793,0.005679476,4.20682,9.77592,0.034023665,0.0,0.0,0.0,0.0,2490402,2490402,3997730,396809,0,3,1919,3,2,3,0,3,0,1,0,0,0,0,0
58106195,58004717,0.0041295397,0.15212664,0.31236827,67240471,0,0.14828706,0.16924407,0.005294793,4.2200093,10.400033,0.009886688,0.0,0.0,0.0,0.0,2490402,2490402,3997730,396809,0,3,1919,3,2,3,0,3,0,1,0,0,0,0,0
58308272,58206795,0.007091403,0.15048581,0.2625189,67240471,0,0.1482217,0.16836809,0.006793456,4.188942,10.712635,0.033288464,0.0,0.0,0.0,0.0,2490402,2490402,3997730,396809,0,3,1919,3,2,3,0,3,0,1,0,0,0,0,0
58510348,58408872,0.008244715,0.1574071,0.22982945,67240471,0,0.14817046,0.16751014,0.01578485,4.203593,11.335174,0.047098998,0.0,0.0,0.0,0.0,2490402,2490402,3997730,396809,0,3,1919,3,2,3,0,3,0,1,0,0,0,0,0
58702507,58600846,0.0064418414,0.15164807,0.20665914,67240471,0,0.14813156,0.16667815,0.033089098,4.210094,11.952913,0.04203403,0.0,0.0,0.0,0.0,2490402,2490402,3997730,396809,0,3,1919,3,2,3,0,3,0,1,0,0,0,0,0
58904625,58802924,0.004935838,0.1360295,0.1851233,67240471,0,0.14809905,0.16586694,0.04387175,4.1970587,12.2641735,0.012868956,0.0,0.0,0.0,0.0,2490402,2490402,3997730,396809,0,3,1919,3,2,3,0,3,0,1,0,0,0,0,0
59106619,59005001,0.008199606,0.144207,0.16720413,67240471,0,0.14807291,0.16507237,0.054508265,4.230876,12.884435,0.01750968,0.0,0.0,0.0,0.0,2490402,2490402,3997730,396809,0,3,1919,3,2,3,0,3,0,1,0,0,0,0,0
59308746,59207078,0.00547341,0.13139153,0.15234314,67240471,0,0.14805457,0.16428947,0.06934425,4.2127957,13.195516,0.026803112,0.0,0.0,0.0,0.0,2490402,2490402,3997730,396809,0,3,1919,3,2,3,0,3,0,1,0,0,0,0,0
59500782,59399052,0.009972271,0.15269564,0.1404018,67240471,0,0.14803955,0.1635286,0.08707356,4.1898127,13.815427,0.0316445,0.0,0.0,0.0,0.0,2490402,2490402,3997730,396809,0,3,1919,3,2,3,0,3,0,1,0,0,0,0,0
59702831,59601130,0.008191313,0.1446716,0.12759669,67240471,0,0.14802723,0.16278543,0.10302692,4.189594,14.434126,0.02676032,0.0,0.0,0.0,0.0,2490402,2490402,3997730,396809,0,3,1919,3,2,3,0,3,0,1,0,0,0,0,0
59904922,59803207,0.003966291,0.111231394,0.112768605,67240471,0,0.14801951,0.16205344,0.106120214,4.217094,14.743923,0.04563996,0.0,0.0,0.0,0.0,2490402,2490402,3997730,396809,0,3,1919,3,2,3,0,3,0,1,0,0,0,0,0
60106937,60005285,0.004546064,0.09520663,0.097787365,67240471,0,0.14801417,0.16133691,0.113231495,4.2152834,15.3629465,0.04071508,0.0,0.0,0.0,0.0,2490402,2490402,3997730,396809,0,3,1919,3,2,3,0,3,0,1,0,0,0,0,0
60309213,60207362,0.0044122525,0.08062319,0.08260636,67240471,0,0.14800988,0.16063677,0.11549005,4.193763,15.672316,0.049911816,0.0,0.0,0.0,0.0,2490402,2490402,3997730,396809,0,3,1919,3,2,3,0,3,0,1,0,0,0,0,0
60500956,60399336,0.0013344984,0.04098168,0.0661091,67240471,0,0.14800736,0.16011652,0.111505695,4.239876,16.294981,0.041606564,0.0,0.0,0.0,0.0,2490402,2490402,3997730,396809,0,3,1919,3,2,3,0,3,0,1,0,0,0,0,0
60703108,60601413,0.0037910151,0.032805618,0.048872896,67240471,0,0.1480063,0.15943657,0.10524003,4.2282896,16.918095,0.02734095,0.0,0.0,0.0,0.0,2490402,2490402,3997730,396809,0,3,1919,3,2,3,0,3,0,1,0,0,0,0,0
60905140,60803491,0.004275955,0.053114075,0.037495814,67240471,0,0.14800592,0.1587669,0.096003674,4.2285914,17.22752,0.03352618,0.0,0.0,0.0,0.0,2490402,2490402,3997730,396809,0,3,1919,3,2,3,0,3,0,1,0,0,0,0,0
61107244,61005569,0.005817428,0.07556872,0.034402613,67240471,0,0.14800653,0.15810624,0.08034057,4.2292356,17.850296,0.036634993,0.0,0.0,0.0,0.0,2490402,2490402,3997730,396809,0,3,1919,3,2,3,0,3,0,1,0,0,0,0,0
61309263,61207646,0.0074450043,0.097189896,0.039240707,67240471,0,0.14800818,0.15745288,0.069886215,4.2109003,18.164764,0.03582163,0.0,0.0,0.0,0.0,2490402,2490402,3997730,396809,0,3,1919,3,2,3,0,3,0,1,0,0,0,0,0
61501219,61399620,0.007245439,0.10611706,0.04380939,67240471,0,0.14801024,0.15680827,0.04942478,4.1937537,18.783403,0.027259674,0.0,0.0,0.0,0.0,2490402,2490402,3997730,396809,0,3,1919,3,2,3,0,3,0,1,0,0,0,0,0
61703304,61601697,0.006459746,0.101728246,0.04597902,67240471,0,0.14801309,0.15617059,0.049347043,4.149417,19.398388,0.030455062,0.0,0.0,0.0,0.0,2490402,2490402,3997730,396809,0,3,1919,3,2,3,0,3,0,1,0,0,0,0,0
61905379,61803775,0.00492483,0.08266561,0.043833148,67240471,0,0.14801672,0.15554278,0.0463348,4.1230183,19.704548,0.026340049,0.0,0.0,0.0,0.0,2490402,2490402,3997730,396809,0,3,1919,3,2,3,0,3,0,1,0,0,0,0,0
62107468,62005852,0.0004153005,0.028611628,0.030737,131607,0,0.14807852,0.15493047,0.044258155,4.0913086,20.306562,0.03812798,0.0,0.0,0.0,0.0,2490402,2490402,3997730,396809,0,3,1919,3,2,3,0,3,0,1,0,0,0,0,0
62299447,62197826,0.00041849335,0.03088921,0.019681728,131607,0,0.14835076,0.15439527,0.05161917,4.094093,20.608833,0.033322923,0.0,0.0,0.0,0.0,2490402,2490402,3997730,396809,0,3,1919,3,2,3,0,3,0,1,0,0,0,0,0
62511947,62410008,0.0005265617,0.03967574,0.017227285,131607,0,0.14912651,0.15405075,0.053619966,4.0728555,21.215023,0.033987395,0.0,0.0,0.0,0.0,2490402,2490402,3997730,396809,0,3,1919,3,2,3,0,3,0,1,0,0,0,0,0
62703624,62601981,0.0004728362,0.042065162,0.019035297,131607,0,0.15050785,0.15393901,0.06533751,4.0732765,21.809004,0.0348287,0.0,0.0,0.0,0.0,2490402,2490402,3997730,396809,0,3,1919,3,2,3,0,3,0,1,0,0,0,0,0
62905760,62804059,0.0005252047,0.041440796,0.020214316,537002519,0,0.15295808,0.15422592,0.065507255,4.0655346,22.10572,0.031024022,0.0,0.0,0.0,0.0,2490402,2490402,3997730,396809,0,3,1919,3,2,3,0,3,0,1,0,0,0,0,0
63107731,63006137,0.013958017,0.33874154,0.21108913,67240471,0,0.14958565,0.15261188,0.06297426,4.023015,22.676765,0.028829398,0.0,0.0,0.0,0.0,2490402,2490402,3997730,396809,0,3,1919,3,2,3,0,3,0,1,0,0,0,0,0
63309884,63208214,0.00978218,0.23178224,0.14185697,67240471,0,0.1495866,0.1520354,0.077301264,4.0961514,23.032879,0.035320044,0.0,0.0,0.0,0.0,2490402,2490402,3997730,396809,0,3,1919,3,2,3,0,3,0,1,0,0,0,0,0
63501965,63400188,0.0049691843,0.18196508,0.09429572,67240471,0,0.14958747,0.15146407,0.08781738,4.109227,23.636904,0.02637755,0.0,0.0,0.0,0.0,2490402,2490402,3997730,396809,0,3,1919,3,2,3,0,3,0,1,0,0,0,0,0
63704027,63602266,0.005241381,0.15346739,0.060264543,67240471,0,0.1495892,0.15089968,0.09633363,4.128119,24.245129,0.031868186,0.0,0.0,0.0,0.0,2490402,2490402,3997730,396809,0,3,1919,3,2,3,0,3,0,1,0,0,0,0,0
63906100,63804343,0.004718409,0.120796934,0.038333047,67240471,0,0.14959173,0.15034187,0.10031561,4.140758,24.550016,0.029227475,0.0,0.0,0.0,0.0,2490402,2490402,3997730,396809,0,3,1919,3,2,3,0,3,0,1,0,0,0,0,0
64108188,64006421,0.0031092193,0.07912327,0.022231441,67240471,0,0.14959489,0.14979072,0.09888555,4.1648893,25.154419,0.021958077,0.0,0.0,0.0,0.0,2490402,2490402,3997730,396809,0,3,1919,3,2,3,0,3,0,1,0,0,0,0,0
64310866,64208498,0.0014684096,0.02684062,0.010472748,67240471,0,0.14959906,0.14924525,0.09705275,4.183549,25.76389,0.027334234,0.0,0.0,0.0,0.0,2490402,2490402,3997730,396809,0,3,1919,3,2,3,0,3,0,1,0,0,0,0,0
64502206,64400472,0.00078753976,0.016692,0.012861988,67240471,0,0.14961222,0.14870778,0.08654505,4.1822543,26.072733,0.02400414,0.0,0.0,0.0,0.0,2490402,2490402,3997730,396809,0,3,1919,3,2,3,0,3,0,1,0,0,0,0,0
64704318,64602550,0.000789256,0.02117986,0.019003091,67240471,0,0.14961793,0.14817496,0.08707378,4.1621346,26.68198,0.018363822,0.0,0.0,0.0,0.0,2490402,2490402,3997730,396809,0,3,1919,3,2,3,0,3,0,1,0,0,0,0,0
64906341,64804628,0.0011001622,0.036320083,0.027384989,67240471,0,0.14962357,0.14764714,0.08856071,4.1408134,26.986542,0.030096324,0.0,0.0,0.0,0.0,2490402,2490402,3997730,396809,0,3,1919,3,2,3,0,3,0,1,0,0,0,0,0
65108364,65006705,0.0013417077,0.052269764,0.035906233,67240471,0,0.14962916,0.14712477,0.08656173,4.139016,27.591837,0.026067834,0.0,0.0,0.0,0.0,2490402,2490402,3997730,396809,0,3,1919,3,2,3,0,3,0,1,0,0,0,0,0
65310540,65208783,0.0013133247,0.0560825,0.040294595,67240471,0,0.14963332,0.146609,0.077481166,4.08937,28.196644,0.027621282,0.0,0.0,0.0,0.0,2490402,2490402,3997730,396809,0,3,1919,3,2,3,0,3,0,1,0,0,0,0,0
65502407,65400756,0.0009533718,0.045427192,0.037615776,67240471,0,0.14963587,0.14622489,0.090982266,4.105606,28.496832,0.02749117,0.0,0.0,0.0,0.0,2490402,2490402,3997730,396809,0,3,1919,3,2,3,0,3,0,1,0,0,0,0,0
65704558,65602834,0.0011578986,0.04545119,0.03552006,67240471,0,0.14964066,0.14571917,0.06753257,4.054081,29.092989,0.027354019,0.0,0.0,0.0,0.0,2490402,2490402,3997730,396809,0,3,1919,3,2,3,0,3,0,1,0,0,0,0,0
65906547,65804912,0.000786715,0.035254676,0.029977458,67240471,0,0.14964567,0.14521839,0.07582553,4.055079,29.393242,0.017680924,0.0,0.0,0.0,0.0,2490402,2490402,3997730,396809,0,3,1919,3,2,3,0,3,0,1,0,0,0,0,0
66109028,66006989,0.0008841513,0.030023905,0.024868315,67240471,0,0.1496503,0.14472376,0.08079021,4.0230026,29.984966,0.027000422,0.0,0.0,0.0,0.0,2490402,2490402,3997730,396809,0,3,1919,3,2,3,0,3,0,1,0,0,0,0,0
66300609,66198963,0.00080312823,0.027627606,0.020139396,67240471,0,0.14965183,0.14423484,0.08401473,4.0175686,30.280914,0.012560819,0.0,0.0,0.0,0.0,2490402,2490402,3997730,396809,0,3,1919,3,2,3,0,3,0,1,0,0,0,0,0
66502677,66401041,0.0013844661,0.02815426,0.011267072,67240471,0,0.14965671,0.14374942,0.09033716,4.0123796,30.876612,0.002932116,0.0,0.0,0.0,0.0,2490402,2490402,3997730,396809,0,3,1919,3,2,3,0,3,0,1,0,0,0,0,0
66704771,66603118,0.0025702382,0.043896623,0.009280504,67240471,0,0.14966008,0.14327174,0.0912115,4.0420113,31.471529,0.012420372,0.0,0.0,0.0,0.0,2490402,2490402,3997730,396809,0,3,1919,3,2,3,0,3,0,1,0,0,0,0,0
66906843,66805196,0.0031881928,0.067856945,0.02191379,67240471,0,0.14966466,0.14279728,0.09352378,4.054124,31.772717,0.021857332,0.0,0.0,0.0,0.0,2490402,2490402,3997730,396809,0,3,1919,3,2,3,0,3,0,1,0,0,0,0,0
67108868,67007274,0.003198775,0.07384969,0.03015433,67240471,0,0.14966983,0.14232527,0.103636116,4.0912466,32.37651,0.01706656,0.0,0.0,0.0,0.0,2490402,2490402,3997730,396809,0,3,1919,3,2,3,0,3,0,1,0,0,0,0,0
67300905,67199248,0.0033358037,0.07396323,0.03372301,67240471,0,0.14967267,0.1418583,0.096802816,4.1628466,32.681618,0.01218121,0.0,0.0,0.0,0.0,2490402,2490402,3997730,396809,0,3,1919,3,2,3,0,3,0,1,0,0,0,0,0
67503019,67401325,0.001969775,0.05012983,0.02789846,67240471,0,0.14967808,0.14139754,0.108800165,4.1475134,33.294773,0.016940745,0.0,0.0,0.0,0.0,2490402,2490402,3997730,396809,0,3,1919,3,2,3,0,3,0,1,0,0,0,0,0
67705043,67603403,0.0014162267,0.026084859,0.017560953,67240471,0,0.14968382,0.14094159,0.1032938,4.188724,33.90798,0.0071594976,0.0,0.0,0.0,0.0,2490402,2490402,3997730,396809,0,3,1919,3,2,3,0,3,0,1,0,0,0,0,0
67907119,67805481,0.0009358026,0.020488167,0.005511507,67240471,0,0.1496892,0.14048994,0.09171359,4.1818504,34.21719,0.026249776,0.0,0.0,0.0,0.0,2490402,2490402,3997730,396809,0,3,1919,3,2,3,0,3,0,1,0,0,0,0,0
68109373,68007558,0.0008248845,0.029836567,0.010642646,67240471,0,0.14969489,0.14004236,0.09494484,4.2007914,34.839333,0.006956139,0.0,0.0,0.0,0.0,2490402,2490402,3997730,396809,0,3,1919,3,2,3,0,3,0,1,0,0,0,0,0
68311260,68209636,0.0008275237,0.030491589,0.01534495,67240471,0,0.14970048,0.13959925,0.09332761,4.224279,35.148426,0.016509615,0.0,0.0,0.0,0.0,2490402,2490402,3997730,396809,0,3,1919,3,2,3,0,3,0,1,0,0,0,0,0
68503143,68401610,0.0010752236,0.0429438,0.02100313,67240471,0,0.14970315,0.13915941,0.0853325,4.25366,35.77047,0.0020859696,0.0,0.0,0.0,0.0,2490402,2490402,3997730,396809,0,3,1919,3,2,3,0,3,0,1,0,0,0,0,0
68705162,68603688,0.0015402426,0.056740165,0.027471228,67240471,0,0.14970894,0.13872388,0.07628837,4.226076,36.397133,0.011537906,0.0,0.0,0.0,0.0,2490402,2490402,3997730,396809,0,3,1919,3,2,3,0,3,0,1,0,0,0,0,0
68907346,68805765,0.0025622007,0.0769806,0.03598353,67240471,0,0.14971334,0.13829327,0.07714042,4.245277,36.710297,0.021001806,0.0,0.0,0.0,0.0,2490402,2490402,3997730,396809,0,3,1919,3,2,3,0,3,0,1,0,0,0,0,0
69109398,69007843,0.0026651642,0.083001554,0.34138492,67240471,0,0.41209406,0.13869219,0.07094529,4.196775,37.332523,0.02099601,0.0,0.0,0.0,0.0,2490402,2490402,3997730,396809,0,3,1919,4,3,4,0,3,0,1,0,0,0,0,0
69301388,69199817,0.00047094264,4.0476327,0.7297956,67240471,0,0.35568643,0.13744318,0.07726171,4.2017956,0.27271432,0.025626102,0.0,0.0,0.0,0.0,2490402,2490402,3997730,396809,0,1,1919,4,3,4,0,3,0,1,0,0,0,0,0
69503433,69401894,0.0024143606,1.5187732,0.40259257,131607,0,0.28983596,0.1370243,0.081347115,4.2009964,0.6935893,0.016011406,0.0,0.0,0.0,0.0,2490402,2490402,3997730,396809,0,1,1919,4,3,4,0,3,0,1,0,0,0,0,0
69705513,69603972,0.0007494943,0.3270804,0.11287061,131607,0,0.26823834,0.13666032,0.08335632,4.1894593,1.0548751,0.008090248,0.0,0.0,0.0,0.0,2490402,2490402,3997730,396809,0,3,1919,4,3,4,0,3,0,1,0,0,0,0,0
69907646,69806050,0.0006409217,0.21147048,0.04504974,131607,0,0.26846084,0.13644397,0.08367572,4.196042,1.3494346,0.034951787,0.0,0.0,0.0,0.0,2490402,2490402,3997730,396809,0,3,1919,4,3,4,0,3,0,1,0,0,0,0,0
70109687,70008127,0.0007219765,0.43700588,0.058902375,131607,0,0.2689833,0.13647725,0.0907833,4.156017,1.9465594,0.0016019344,0.0,0.0,0.0,0.0,2490402,2490402,3997730,396809,0,3,1919,4,3,4,0,3,0,1,0,0,0,0,0
70301594,70200101,0.0008263173,0.51416016,0.12821303,131607,0,0.2699081,0.13693011,0.08825726,4.1801133,2.2400317,0.012613632,0.0,0.0,0.0,0.0,2490402,2490402,3997730,396809,0,3,1919,4,3,4,0,3,0,1,0,0,0,0,0
70503708,70402179,0.0006279296,0.5278037,0.16573665,131607,0,0.27152202,0.13776757,0.087503664,4.1372705,2.8269346,0.012019331,0.0,0.0,0.0,0.0,2490402,2490402,3997730,396809,0,3,1919,4,3,4,0,3,0,1,0,0,0,0,0
70706207,70604257,0.019555666,0.6189222,0.3135209,67240471,0,0.2691122,0.1355273,0.08520285,4.110292,3.414003,0.00878226,0.0,0.0,0.0,0.0,2490402,2490402,3997730,396809,0,3,1919,4,3,4,0,3,0,1,0,0,0,0,0
70907830,70806335,0.011331255,0.51261014,0.23011637,67240471,0,0.26911512,0.13512598,0.10626651,4.362846,3.7961187,0.0031864913,0.0,0.0,0.0,0.0,2490402,2490402,3997730,396809,0,3,1919,4,3,4,0,3,0,1,0,0,0,0,0
71109932,71008412,0.0027780524,0.45514405,0.17549834,67240471,0,0.2691173,0.13472812,0.110653676,4.4026895,4.4147124,0.0059592593,0.0,0.0,0.0,0.0,2490402,2490402,3997730,396809,0,3,1919,4,3,4,0,3,0,1,0,0,0,0,0
71302080,71200386,0.00072884705,0.4019556,0.14110735,67240471,0,0.26911995,0.13433345,0.09739588,4.409429,4.7267346,0.0072822277,0.0,0.0,0.0,0.0,2490402,2490402,3997730,396809,0,3,1919,4,3,4,0,3,0,1,0,0,0,0,0
71504100,71402465,0.0012295479,0.36905813,0.11817755,67240471,0,0.2691227,0.13394266,0.10534884,4.4290013,5.350242,0.00027641738,0.0,0.0,0.0,0.0,2490402,2490402,3997730,396809,0,3,1919,4,3,4,0,3,0,1,0,0,0,0,0
71706224,71604542,0.0022608356,0.34159324,0.10416127,67240471,0,0.26912555,0.13355514,0.09544162,4.4056053,5.974038,0.0078627905,0.0,0.0,0.0,0.0,2490402,2490402,3997730,396809,0,3,1919,4,3,4,0,3,0,1,0,0,0,0,0
71908298,71806619,0.0023388695,0.3174976,0.09429481,67240471,0,0.26912847,0.13317096,0.08574462,4.4432163,6.2857437,0.005138815,0.0,0.0,0.0,0.0,2490402,2490402,3997730,396809,0,3,1919,4,3,4,0,3,0,1,0,0,0,0,0
72100305,71998593,0.0008706403,0.29447743,0.08475115,67240471,0,0.26913667,0.13279653,0.08744784,4.423772,6.9094343,0.006498287,0.0,0.0,0.0,0.0,2490402,2490402,3997730,396809,0,3,1919,4,3,4,0,3,0,1,0,0,0,0,0
72302222,72200671,0.00095379277,0.27087831,0.07541016,67240471,0,0.2691398,0.13241875,0.099813685,4.4270515,7.2211194,0.008588796,0.0,0.0,0.0,0.0,2490402,2490402,3997730,396809,0,3,1919,4,3,4,0,3,0,1,0,0,0,0,0
72504268,72402749,0.00074168155,0.24992809,0.06555302,67240471,0,0.26914307,0.1320445,0.07483698,4.403207,7.844902,0.0031298548,0.0,0.0,0.0,0.0,2490402,2490402,3997730,396809,0,3,1919,4,3,4,0,3,0,1,0,0,0,0,0
