timestamp,timestamp_sample,accel_device_id,gyro_device_id,delta_angle[0],delta_angle[1],delta_angle[2],delta_velocity[0],delta_velocity[1],delta_velocity[2],delta_angle_dt,delta_velocity_dt,delta_velocity_clipping,accel_calibration_count,gyro_calibration_count
17064083,17063845,2490402,2490402,4.598256e-06,3.2024727e-05,1.0355677e-05,-0.0015207693,0.0014623379,-0.049488254,5052,5052,0,1,1
17564211,17563987,2490402,2490402,4.8241004e-06,2.9384788e-05,5.4505904e-06,-0.001472917,0.0015766966,-0.04948244,5052,5052,0,1,1
18064342,18064129,2490402,2490402,1.0411068e-05,2.6858364e-05,1.6766921e-06,-0.0014558837,0.0014547554,-0.049462114,5052,5052,0,1,1
18564486,18564271,2490402,2490402,1.5465692e-05,3.0824853e-05,5.2569885e-06,-0.0014838392,0.0013161171,-0.04949764,5052,5052,0,1,1
19064627,19064412,2490402,2490402,1.4562855e-05,3.2308497e-05,1.1792147e-06,-0.001464936,0.0014208342,-0.049474277,5051,5051,0,1,1
19564768,19564554,2490402,2490402,7.460535e-07,3.3535656e-05,4.6524106e-06,-0.0014974681,0.0014660717,-0.04951162,5052,5052,0,1,1
20064988,20064696,2490402,2490402,1.6764634e-05,2.5329842e-05,6.200233e-06,-0.0014333768,0.0016572631,-0.049463965,5052,5052,0,1,1
20565054,20564838,2490402,2490402,4.2262167e-07,3.2163098e-05,7.0936962e-06,-0.0014812286,0.001537441,-0.04949437,5052,5052,0,1,1
21065214,21064979,2490402,2490402,1.599418e-05,2.9998171e-05,5.7432303e-06,-0.001410954,0.0013763404,-0.049412075,5051,5051,0,1,1
21565340,21565121,2490402,2490402,9.069081e-06,3.6848392e-05,6.1360756e-06,-0.001570473,0.0014902243,-0.04953404,5052,5052,0,1,1
22065478,22065263,2490402,2490402,-7.474458e-07,2.9745572e-05,5.340225e-06,-0.001455386,0.0015915245,-0.04948315,5052,5052,0,1,1
22565620,22565404,2490402,2490402,8.6523905e-06,3.3605025e-05,3.7234201e-06,-0.0015147208,0.0014585559,-0.049488243,5052,5052,0,1,1
23065760,23065546,2490402,2490402,4.8671986e-06,2.7012944e-05,3.4768577e-06,-0.0014340687,0.0014796802,-0.04940947,5052,5052,0,1,1
23565920,23565687,2490402,2490402,5.894348e-06,2.5109843e-05,5.9258596e-06,-0.0016055696,0.0013049213,-0.050533015,5052,5052,0,1,1
24066041,24065829,2490402,2490402,1.2557939e-05,2.1704956e-05,2.804899e-06,-0.0012646975,0.001245287,-0.05001122,5052,5052,0,1,1
24566185,24565970,2490402,2490402,-3.63005e-06,2.972646e-05,2.0550483e-06,-0.0015837597,0.0016645794,-0.049599804,5051,5051,0,1,1
25061278,25061064,2490402,2490402,2.97327e-05,2.7630178e-05,1.6000298e-05,-0.0013458476,0.0012343843,-0.04934258,5056,5056,0,1,1
25561420,25561203,2490402,2490402,-1.3443006e-05,-3.901071e-06,2.7833552e-05,-0.0018340495,0.0015075951,-0.049128186,5054,5054,0,1,1
26061579,26061343,2490402,2490402,2.2176402e-05,7.7397155e-05,1.5175668e-07,-0.0019995966,0.0013990175,-0.04920175,5052,5052,0,1,1
26566769,26566536,2490402,2490402,3.4542204e-06,1.774494e-05,4.9427013e-06,-0.001368911,0.0014896968,-0.049556777,5052,5052,0,1,1
27066891,27066677,2490402,2490402,2.244234e-05,3.15959e-05,2.9632483e-06,-0.0018508945,0.0016919633,-0.049565744,5052,5052,0,1,1
27567036,27566818,2490402,2490402,2.7430406e-05,3.9082784e-05,-4.358897e-06,-0.0015983388,0.0014519625,-0.049242042,5052,5052,0,1,1
28062145,28061910,2490402,2490402,-8.164867e-06,3.0295285e-05,1.1731927e-05,-0.0017020772,0.001682891,-0.04935374,5054,5054,0,1,1
28562262,28562049,2490402,2490402,2.1196316e-05,3.3996166e-05,-4.2921724e-06,-0.0015223604,0.0014938597,-0.049260687,5052,5052,0,1,1
29062404,29062191,2490402,2490402,1.0034873e-05,3.3735225e-05,2.542687e-06,-0.001606004,0.0014324527,-0.04939613,5052,5052,0,1,1
29562546,29562332,2490402,2490402,1.8412058e-05,3.7135054e-05,-5.936216e-06,-0.0015064084,0.0016799122,-0.049624026,5052,5052,0,1,1
30062686,30062473,2490402,2490402,1.1638283e-05,2.296545e-05,3.6294819e-06,-0.0015137005,0.001276668,-0.049429767,5052,5052,0,1,1
30563413,30562614,2490402,2490402,5.5458436e-06,3.549232e-05,5.297004e-06,-0.0015193751,0.0020532543,-0.049768817,5052,5052,0,1,1
31063203,31062755,2490402,2490402,-1.2756881e-05,2.281916e-05,9.598436e-06,-0.0015574137,0.0010497009,-0.049652662,5052,5052,0,1,1
31568161,31567949,2490402,2490402,2.0191666e-05,3.621013e-05,9.1792185e-07,-0.0015895468,0.0015532046,-0.04948657,5052,5052,0,1,1
32063274,32063038,2490402,2490402,1.4420773e-05,2.6621941e-05,2.3891e-06,-0.001562249,0.0016960038,-0.049258288,5052,5052,0,1,1
32563394,32563179,2490402,2490402,-1.4613354e-05,3.3408327e-05,2.9957384e-06,-0.0017172826,0.0014500831,-0.049545493,5052,5052,0,1,1
33063546,33063320,2490402,2490402,-3.1376143e-07,3.940426e-05,6.4231326e-06,-0.0018811382,0.0012014724,-0.04931936,5052,5052,0,1,1
33563675,33563461,2490402,2490402,8.296201e-06,3.6901656e-05,1.0146299e-05,-0.0017897654,0.0017250287,-0.049186844,5051,5051,0,1,1
34063816,34063603,2490402,2490402,5.416915e-06,2.53788e-05,1.5012591e-05,-0.0017766022,0.0013316944,-0.04953702,5052,5052,0,1,1
34563963,34563744,2490402,2490402,1.3639369e-05,3.3973647e-05,1.6872615e-05,-0.001328246,0.0014150898,-0.0493496,5052,5052,0,1,1
35064101,35063885,2490402,2490402,2.127294e-05,2.0860056e-05,2.9364302e-05,-0.001257716,0.0017073764,-0.0490238,5052,5052,0,1,1
35564242,35564026,2490402,2490402,-2.6094276e-05,1.8308292e-05,9.5405405e-05,-0.00044854276,0.0012136002,-0.04984019,5051,5051,0,1,1
36064410,36064168,2490402,2490402,0.00016749495,5.2174248e-05,0.00015480825,0.0029663458,0.0008148295,-0.050083615,5052,5052,0,1,1
36564523,36564309,2490402,2490402,-0.00010327435,1.7197563e-05,6.701964e-05,0.011191119,0.0011482568,-0.05156426,5052,5052,0,1,1
37064664,37064450,2490402,2490402,8.1253165e-05,-3.733424e-05,-1.0411584e-05,-0.0033926677,-0.0016749785,-0.043352995,5052,5052,0,1,1
37564803,37564591,2490402,2490402,3.7093043e-05,2.0339417e-05,3.770245e-05,-0.0073871855,0.0054266225,-0.046011545,5052,5052,0,1,1
38064947,38064733,2490402,2490402,1.0241795e-05,-0.00014080819,2.0786094e-05,0.025411565,0.010662876,-0.0534202,5052,5052,0,1,1
38565089,38564874,2490402,2490402,3.0215062e-05,5.0521753e-06,2.8078982e-06,0.0018727476,0.0053016436,-0.07007935,5052,5052,0,1,1
39065244,39065015,2490402,2490402,1.8240129e-05,-7.401857e-05,-3.9477673e-05,0.020661118,-0.0040760366,-0.03685777,5052,5052,0,1,1
39565381,39565156,2490402,2490402,3.0828898e-05,2.8582941e-05,2.7447804e-05,0.016451996,0.004747238,-0.053806562,5052,5052,0,1,1
40065524,40065298,2490402,2490402,6.407085e-05,3.2890715e-05,-2.3478155e-05,0.012068459,0.0039912015,-0.03760624,5052,5052,0,1,1
40565684,40565439,2490402,2490402,1.4878852e-05,3.3982295e-05,-4.563618e-05,0.009802813,-0.00051454554,-0.061412472,5052,5052,0,1,1
41066157,41065580,2490402,2490402,0.00012976602,-8.498893e-05,3.5577516e-05,0.005621467,0.002119121,-0.05258726,5052,5052,0,1,1
41565950,41565722,2490402,2490402,2.6065472e-05,3.6728565e-05,2.5239515e-05,0.0038527953,0.002441713,-0.05070357,5048,5048,0,1,1
42066092,42065863,2490402,2490402,2.8701894e-05,0.0002774575,2.3133842e-05,0.0018732584,0.0016641457,-0.050529007,5052,5052,0,1,1
42561203,42560952,2490402,2490402,2.7491842e-05,5.9449332e-05,2.2920849e-05,-0.002986434,0.0010445295,-0.051707804,5052,5052,0,1,1
43061319,43061094,2490402,2490402,0.000113622445,-3.451904e-05,-1.7272925e-05,-0.0031915305,-0.00012737121,-0.047845587,5052,5052,0,1,1
43561428,43561235,2490402,2490402,8.642467e-05,-3.4220495e-05,3.018714e-06,-0.0020289023,0.0008294392,-0.046854164,5052,5052,0,1,1
44066620,44066428,2490402,2490402,2.2819235e-05,5.209664e-05,3.503415e-05,-0.0030834116,0.0018387183,-0.049606252,5052,5052,0,1,1
44566766,44566570,2490402,2490402,1.5847752e-05,-2.5487489e-06,7.1331015e-05,-0.0009681214,0.00074737496,-0.048577443,5052,5052,0,1,1
45066901,45066711,2490402,2490402,4.5407684e-05,6.930685e-06,8.9565314e-05,-0.0024234147,-0.0002843233,-0.049188603,5052,5052,0,1,1
45567181,45566852,2490402,2490402,0.000105479936,6.550465e-05,9.5887335e-05,-0.001546268,-0.0001524752,-0.048929684,5052,5052,0,1,1
46062137,46061942,2490402,2490402,5.984781e-05,6.63142e-05,5.8153928e-05,-0.0013466121,0.002686514,-0.049700174,5052,5052,0,1,1
46562600,46562083,2490402,2490402,1.5967993e-05,6.911794e-05,-4.3952172e-05,-0.0014884939,0.0020764442,-0.050012257,5052,5052,0,1,1
47062431,47062225,2490402,2490402,-1.8019395e-05,6.140831e-05,-6.848832e-05,-0.0014836653,0.00039796386,-0.048916947,5052,5052,0,1,1
47562560,47562366,2490402,2490402,-3.868553e-05,3.0844552e-05,-9.083504e-05,0.0006926175,0.000496487,-0.049693987,5052,5052,0,1,1
48062701,48062508,2490402,2490402,-2.0896057e-05,1.2315008e-05,-0.0001273898,-0.0008404572,0.0018225649,-0.05009808,5053,5053,0,1,1
48562851,48562649,2490402,2490402,-5.270109e-05,-5.4670578e-05,-0.00010502647,0.0010664717,0.0009625761,-0.04871492,5052,5052,0,1,1
49068056,49067842,2490402,2490402,-8.048443e-05,2.4907442e-05,-2.4470111e-05,-4.149512e-05,0.0010578244,-0.049214575,5052,5052,0,1,1
49563150,49562934,2490402,2490402,5.6738685e-05,5.2691455e-05,4.1221145e-05,-0.0011741131,0.0004887234,-0.049435444,5054,5054,0,1,1
50063287,50063073,2490402,2490402,4.0891035e-05,6.0664574e-05,8.55873e-05,-0.00081040955,-0.0007979124,-0.05016563,5052,5052,0,1,1
50563429,50563215,2490402,2490402,7.990083e-06,6.650952e-06,8.513452e-05,-0.0025827657,-2.290978e-05,-0.04934717,5052,5052,0,1,1
51063609,51063357,2490402,2490402,-8.314098e-05,3.734574e-05,7.933352e-06,-0.00092077855,0.00091142196,-0.04866239,5052,5052,0,1,1
51563721,51563498,2490402,2490402,-6.3905696e-05,4.7988276e-05,-0.00015960453,-0.0011516658,0.0028736622,-0.04885919,5052,5052,0,1,1
52063852,52063640,2490402,2490402,-9.69929e-05,2.6581469e-05,-0.00017044038,-0.0009963617,-0.0030303805,-0.049646102,5052,5052,0,1,1
52563973,52563781,2490402,2490402,0.000105971,2.8814162e-05,-7.535942e-05,-0.00060186844,-0.00044972936,-0.050988205,5051,5051,0,1,1
53064115,53063923,2490402,2490402,0.00013984076,3.9267637e-05,6.940207e-05,-0.0010763607,-0.0021645825,-0.04988103,5052,5052,0,1,1
53564280,53564065,2490402,2490402,0.00010882297,1.2801658e-05,0.00025898853,-0.0012953725,0.0014142653,-0.049406122,5052,5052,0,1,1
54064454,54064206,2490402,2490402,-5.4712254e-05,-1.4545793e-05,0.00031508406,-0.0014640575,0.0031400013,-0.04840362,5052,5052,0,1,1
54564540,54564348,2490402,2490402,2.7823266e-05,7.905346e-07,1.7362718e-05,-0.0012125083,0.0049460186,-0.04928267,5052,5052,0,1,1
55064689,55064490,2490402,2490402,-4.1795898e-05,2.4805691e-05,-0.00012554995,-0.00083426345,0.003078892,-0.049276102,5052,5052,0,1,1
55564843,55564631,2490402,2490402,-3.5493118e-05,8.291549e-05,-0.00025299302,-0.0009827813,0.0024406463,-0.050410867,5052,5052,0,1,1
56064968,56064773,2490402,2490402,-2.3747372e-05,1.3273368e-05,-0.00019613921,-0.00097641477,0.0010536878,-0.04899432,5052,5052,0,1,1
56565729,56564915,2490402,2490402,-1.1643165e-06,3.6157915e-05,-8.738465e-06,-0.0013242286,0.0016624784,-0.04947806,5052,5052,0,1,1
57065421,57065057,2490402,2490402,0.00012739614,7.858893e-06,3.4271845e-06,-0.00082047284,0.001335876,-0.048520114,5049,5049,0,1,1
57565414,57565198,2490402,2490402,0.00013672655,9.908839e-06,5.652934e-05,-0.0008836845,0.0005552855,-0.050419413,5052,5052,0,1,1
58065530,58065340,2490402,2490402,0.0001657227,6.402992e-05,8.378546e-05,-0.0010648867,0.00055847777,-0.050966285,5052,5052,0,1,1
58565673,58565482,2490402,2490402,9.504631e-05,7.5412194e-05,6.550674e-05,-0.00088967127,0.00078117044,-0.049971238,5052,5052,0,1,1
59065838,59065625,2490402,2490402,2.4908803e-05,3.582089e-05,4.508488e-05,-0.0019478869,0.0016335516,-0.048929695,5052,5052,0,1,1
59565979,59565766,2490402,2490402,-0.00010430592,2.6509833e-05,-4.9900842e-05,-0.0013324742,0.0026182064,-0.04929989,5052,5052,0,1,1
60061100,60060856,2490402,2490402,-0.0001239432,2.1833677e-05,-0.00014162263,-0.0011003959,0.002939455,-0.049683455,5052,5052,0,1,1
60561219,60560998,2490402,2490402,-7.356621e-05,2.8721204e-05,-0.00016036861,-0.00032956136,0.00078413275,-0.049708866,5052,5052,0,1,1
61061359,61061140,2490402,2490402,-5.712836e-05,1.6761893e-05,8.63095e-06,-8.8722954e-05,-0.0001033273,-0.049268056,5052,5052,0,1,1
61566553,61566334,2490402,2490402,3.423674e-05,3.489326e-05,0.00017103503,-0.0006576339,-0.0015653757,-0.04938516,5052,5052,0,1,1
62066690,62066476,2490402,2490402,0.00018577118,4.597838e-05,0.00019527109,-0.0011241707,0.0008618324,-0.049295254,5050,5050,0,1,1
62566830,62566618,2490402,2490402,9.763554e-05,1.9786767e-05,4.8179296e-05,-0.0011165165,0.0020541858,-0.048916258,5049,5049,0,1,1
63066973,63066760,2490402,2490402,0.00010715688,4.2183707e-05,-6.210443e-05,-0.0007822064,0.0015949635,-0.049026325,5052,5052,0,1,1
63562066,63561850,2490402,2490402,3.812304e-05,5.75079e-05,-0.00012855451,-0.0009969192,0.0014115769,-0.050011728,5052,5052,0,1,1
64062256,64061992,2490402,2490402,-4.1472034e-05,4.771751e-05,-0.0001118532,-0.0010477866,0.00042223788,-0.04956111,5052,5052,0,1,1
64562349,64562134,2490402,2490402,-0.00010106823,2.016155e-05,-2.7575077e-06,-0.0011128142,-1.1657387e-05,-0.04898301,5052,5052,0,1,1
65062510,65062276,2490402,2490402,-4.0569303e-05,1.5148754e-05,8.133742e-05,-0.0012118791,0.00022055951,-0.049265314,5051,5051,0,1,1
65562631,65562419,2490402,2490402,4.4435008e-05,1.95709e-05,0.00011622911,-0.0011984505,0.00037401033,-0.04951701,5052,5052,0,1,1
66062775,66062561,2490402,2490402,9.801654e-05,2.1775188e-05,0.00013061923,-0.0005722749,0.0009002558,-0.04887375,5052,5052,0,1,1
66567968,66567755,2490402,2490402,3.6262903e-05,5.9446822e-05,4.5135264e-05,-0.00018654279,0.002217343,-0.04964905,5052,5052,0,1,1
67063159,67062845,2490402,2490402,1.8822129e-06,3.778908e-05,-0.000116978736,-0.0012760859,0.0030423612,-0.049805764,5052,5052,0,1,1
67563204,67562987,2490402,2490402,-5.9347993e-05,2.2273109e-05,-5.45056e-05,-0.00057144783,0.0014427626,-0.04903874,5051,5051,0,1,1
68063347,68063130,2490402,2490402,-6.7828325e-05,8.374283e-06,-6.481093e-05,-0.00024409132,0.0013686365,-0.04964411,5052,5052,0,1,1
68563465,68563272,2490402,2490402,-7.14177e-05,-8.612712e-06,8.7965054e-05,-0.0007354876,-0.00086151337,-0.04934684,5052,5052,0,1,1
69063609,69063415,2490402,2490402,3.421188e-05,9.429828e-06,0.0001522061,-0.0006342341,-0.0001672188,-0.04941177,5052,5052,0,1,1
69563748,69563557,2490402,2490402,0.00020088286,2.3889743e-05,0.0001545013,-0.0008693734,0.0011782139,-0.04957416,5052,5052,0,1,1
70063891,70063699,2490402,2490402,0.00014113127,3.8966973e-05,-5.9531896e-05,-0.0007202423,0.0034737873,-0.049718466,5052,5052,0,1,1
70564034,70563841,2490402,2490402,9.280418e-05,4.920358e-05,-0.00021992314,-0.001216158,0.0013725678,-0.04907498,5052,5052,0,1,1
71064180,71063984,2490402,2490402,-4.532873e-05,5.5517005e-05,-0.00013368743,-0.0010867328,0.0007659453,-0.04965437,5052,5052,0,1,1
71564318,71564126,2490402,2490402,-7.147256e-05,3.329943e-05,-2.924636e-05,-0.0010142712,0.000817807,-0.049380627,5052,5052,0,1,1
72064459,72064269,2490402,2490402,-3.1335574e-05,3.7158225e-05,2.603529e-05,-0.00118105,0.00042433623,-0.049429834,5052,5052,0,1,1
72564779,72564411,2490402,2490402,5.0294366e-06,3.789944e-05,4.033744e-05,-0.0011429882,0.0008657935,-0.0492362,5052,5052,0,1,1
73064768,73064554,2490402,2490402,1.2548892e-05,5.5021712e-05,1.8174665e-05,-0.0015642125,0.00094380596,-0.049504433,5052,5052,0,1,1
73564888,73564696,2490402,2490402,2.7370595e-05,4.6761324e-05,2.6409749e-05,-0.0012111731,0.0011469421,-0.049777396,5052,5052,0,1,1
74065036,74064839,2490402,2490402,-3.5704063e-05,4.6003763e-05,4.81842e-05,-0.0014598197,0.0015596991,-0.049376283,5052,5052,0,1,1
74565175,74564981,2490402,2490402,-6.9331974e-05,2.991354e-05,0.00013380198,-0.0009862868,-0.0006921697,-0.04953979,5052,5052,0,1,1
75065337,75065124,2490402,2490402,8.76127e-05,2.4123707e-05,0.0001645724,-0.001301781,0.00085061346,-0.049213797,5052,5052,0,1,1
75565457,75565266,2490402,2490402,0.00012875807,3.0831263e-05,2.8532651e-05,-0.0013430924,0.0028704493,-0.049610607,5052,5052,0,1,1
76065601,76065409,2490402,2490402,4.0077255e-05,3.2442655e-05,-8.794475e-05,-0.00143453,0.0012080509,-0.04908987,5052,5052,0,1,1
76565742,76565552,2490402,2490402,-8.053047e-07,3.3416767e-05,-0.00010903242,-0.0011553894,0.000903357,-0.049359538,5052,5052,0,1,1
77066084,77065694,2490402,2490402,-2.6465357e-05,7.0981814e-06,-4.091947e-05,-0.0012832786,0.00025651313,-0.04886443,5052,5052,0,1,1
77561402,77560785,2490402,2490402,-5.3789845e-05,-1.5249997e-06,6.760913e-06,-0.0010547632,0.00068842625,-0.049057875,5052,5052,0,1,1
78061126,78060929,2490402,2490402,-3.509807e-05,1.8459526e-05,2.3273358e-05,-0.0016264668,0.0007397795,-0.048414063,5053,5053,0,1,1
78561265,78561071,2490402,2490402,9.373587e-06,-1.8279753e-06,-9.2900524e-07,-0.0010433889,0.0010701743,-0.04859941,5052,5052,0,1,1
79066459,79066265,2490402,2490402,1.408825e-05,9.328994e-05,-1.2701906e-05,-0.00022174223,0.0009057372,-0.05118601,5052,5052,0,1,1
79566598,79566408,2490402,2490402,-1.6631699e-05,7.528176e-05,-2.3990782e-05,-0.0004213198,0.00019119984,-0.050384372,5052,5052,0,1,1
80066742,80066551,2490402,2490402,6.7914402e-06,6.113577e-05,-4.642509e-05,-0.000649159,0.0012292967,-0.05060386,5052,5052,0,1,1
80566884,80566694,2490402,2490402,-1.9901132e-05,3.1418156e-05,-0.0001114168,-0.00055040955,0.00072774215,-0.04982693,5052,5052,0,1,1
81061976,81061785,2490402,2490402,-2.501579e-05,9.855765e-06,-8.801957e-05,-0.0004413473,0.0003872711,-0.049232233,5052,5052,0,1,1
81562126,81561928,2490402,2490402,1.6898908e-06,-3.710624e-05,9.283851e-05,-0.00016538349,-0.002337141,-0.049231067,5052,5052,0,1,1
82062266,82062071,2490402,2490402,6.467842e-05,8.910362e-05,0.00016959816,-0.0008985551,0.002112378,-0.051310666,5052,5052,0,1,1
82562406,82562214,2490402,2490402,9.385555e-05,8.33058e-05,7.097925e-05,-0.0012793769,0.0022601893,-0.05061574,5052,5052,0,1,1
83067635,83067409,2490402,2490402,-1.0996368e-05,9.251386e-05,-5.5692733e-05,-0.0003283285,0.0022756034,-0.05081543,5052,5052,0,1,1
83567752,83567551,2490402,2490402,-3.470146e-05,8.107728e-06,-0.00013527539,-0.0006727071,0.0021929648,-0.0496901,5051,5051,0,1,1
84067919,84067695,2490402,2490402,-4.5175304e-05,4.4302327e-05,-7.801249e-05,-0.0008339297,-0.00022504576,-0.049396705,5052,5052,0,1,1
84563032,84562786,2490402,2490402,1.2350456e-05,3.5965477e-05,5.3758224e-05,-0.0018397499,0.00082604284,-0.048251558,5052,5052,0,1,1
85063154,85062929,2490402,2490402,-1.5246837e-06,-6.6213015e-06,8.3216284e-05,-0.00085991324,0.0016308578,-0.04895139,5052,5052,0,1,1
85563297,85563072,2490402,2490402,1.7955184e-05,1.4921664e-05,0.00011456833,-0.0011639033,0.00087342924,-0.04914388,5052,5052,0,1,1
86063444,86063215,2490402,2490402,-5.234461e-06,5.1488205e-05,6.0328177e-05,-0.00091445446,0.001862886,-0.050265644,5052,5052,0,1,1
86563584,86563358,2490402,2490402,-1.4650522e-05,5.653042e-05,3.467366e-05,-0.0012715948,0.0014071979,-0.050065905,5051,5051,0,1,1
87063725,87063501,2490402,2490402,4.4729888e-05,2.5301217e-05,4.086909e-05,-0.0018022269,0.00048521077,-0.049641326,5052,5052,0,1,1
87563870,87563644,2490402,2490402,4.9983963e-05,2.7108843e-05,7.714514e-05,-0.0009158017,0.0003447274,-0.04937778,5052,5052,0,1,1
88064324,88063788,2490402,2490402,8.2601655e-05,1.4907376e-05,3.500313e-05,-0.0017433217,0.0015417893,-0.049720492,5052,5052,0,1,1
88564156,88563931,2490402,2490402,6.602906e-05,1.0347859e-07,-4.4568416e-05,-0.00072759046,0.0010323181,-0.049491823,5052,5052,0,1,1
89064301,89064074,2490402,2490402,-1.3899499e-05,-3.856089e-06,-2.2816019e-05,-0.00072728907,0.0012844196,-0.04927021,5052,5052,0,1,1
89564445,89564217,2490402,2490402,4.431393e-05,2.5491758e-05,-1.9057603e-05,-0.00033451075,0.0014584702,-0.04936073,5052,5052,0,1,1
90064606,90064361,2490402,2490402,-2.8860708e-05,4.971032e-05,-3.727274e-05,-0.000914062,0.0020178321,-0.04996273,5052,5052,0,1,1
90564734,90564504,2490402,2490402,-2.910111e-05,3.331791e-05,-6.4475644e-05,-0.0008870055,0.00087663694,-0.049084753,5050,5050,0,1,1
91064876,91064648,2490402,2490402,1.3460773e-05,3.763334e-05,-6.3050364e-05,-0.0011438207,0.000111165646,-0.04919735,5053,5053,0,1,1
91565016,91564791,2490402,2490402,7.353625e-05,4.52397e-05,2.8628342e-06,-0.0013177576,1.2924478e-05,-0.050022487,5052,5052,0,1,1
92065161,92064934,2490402,2490402,1.6361522e-05,5.2772153e-05,8.268133e-05,-0.001527107,0.0011399582,-0.048957616,5052,5052,0,1,1
92565324,92565078,2490402,2490402,-3.1739382e-05,-3.7367812e-05,0.00010759695,-0.0017550708,0.00048099563,-0.04815577,5052,5052,0,1,1
93065445,93065221,2490402,2490402,1.2171353e-05,7.3505644e-06,8.406044e-05,-0.0011545202,0.0010605524,-0.04962128,5052,5052,0,1,1
93565590,93565364,2490402,2490402,6.929812e-05,5.69709e-05,3.7748567e-05,-0.0012666997,0.0012224262,-0.049594346,5051,5051,0,1,1
94065732,94065508,2490402,2490402,1.6322694e-05,4.0392908e-05,1.7150678e-05,-0.0015284261,0.0013592886,-0.04869557,5052,5052,0,1,1
94565895,94565652,2490402,2490402,3.8660666e-05,4.1011142e-05,-7.878926e-05,-0.002032819,0.0014762527,-0.049093667,5048,5048,0,1,1
95060978,95060743,2490402,2490402,-0.00011079125,5.0140034e-06,-0.00010735846,-0.001641768,0.0019843571,-0.04888618,5052,5052,0,1,1
95561132,95560887,2490402,2490402,-0.000106791,1.1974886e-05,-0.00015705405,-0.0013212593,0.00019838531,-0.049494855,5052,5052,0,1,1
96061258,96061030,2490402,2490402,1.06619855e-05,3.601949e-05,-9.843531e-05,-0.00034753518,0.0001410842,-0.04965864,5052,5052,0,1,1
96566452,96566226,2490402,2490402,7.765968e-06,6.392438e-06,4.2550295e-05,-0.0012624934,0.0005320895,-0.049622316,5052,5052,0,1,1
97066593,97066370,2490402,2490402,2.7992934e-05,3.181734e-05,0.000151807,-0.0005774726,0.0009649382,-0.0498144,5052,5052,0,1,1
97566740,97566513,2490402,2490402,5.6519042e-05,4.3453147e-05,0.00014751324,-0.0018377264,0.0013475172,-0.049404573,5052,5052,0,1,1
98067215,98066657,2490402,2490402,6.26722e-05,5.1263094e-05,1.9546342e-05,-0.0015539483,0.0019852112,-0.050060105,5052,5052,0,1,1
98561942,98561749,2490402,2490402,-6.762575e-05,6.444252e-05,-9.868105e-05,-0.0017029477,0.003558873,-0.050003584,5052,5052,0,1,1
99062218,99061892,2490402,2490402,-9.420746e-05,2.8563894e-05,-0.000114058006,-0.001982009,0.0015953371,-0.04902384,5051,5051,0,1,1
99562231,99562036,2490402,2490402,-1.1516532e-05,1.3433789e-05,5.1002786e-05,-0.0015930511,-0.0009845489,-0.049082294,5052,5052,0,1,1
100062374,100062180,2490402,2490402,5.635625e-05,2.2527725e-05,0.000117805466,-0.0016102532,0.00045802837,-0.050040077,5052,5052,0,1,1
100562516,100562324,2490402,2490402,6.221077e-05,1.8937712e-05,0.00011732095,-0.0016339015,0.00097044953,-0.049453806,5052,5052,0,1,1
101067713,101067520,2490402,2490402,2.142594e-05,1.6078064e-05,4.833912e-05,-0.0016003996,0.0019415154,-0.049151264,5052,5052,0,1,1
101562802,101562612,2490402,2490402,-3.0053805e-05,2.5963358e-05,-7.516811e-05,-0.0015365239,0.001649156,-0.04946601,5052,5052,0,1,1
102062950,102062755,2490402,2490402,-2.0569007e-05,4.259459e-05,-0.00010578774,-0.0017712606,0.0008139659,-0.049231585,5051,5051,0,1,1
102563091,102562899,2490402,2490402,6.0306293e-06,5.401255e-06,-7.344084e-05,-0.0016390872,0.00058155437,-0.049592927,5052,5052,0,1,1
103063242,103063043,2490402,2490402,3.741981e-05,2.5118305e-05,1.1297951e-05,-0.0015817945,-3.9849085e-05,-0.049520597,5052,5052,0,1,1
103563523,103563187,2490402,2490402,-4.2436328e-05,2.0872272e-05,6.284509e-05,-0.0016098759,0.0006132919,-0.049455114,5052,5052,0,1,1
104063548,104063332,2490402,2490402,9.536427e-05,1.8022372e-05,5.2142943e-05,-0.0014489676,0.0002130072,-0.049858004,5053,5053,0,1,1
104563668,104563475,2490402,2490402,2.6377524e-05,3.088661e-05,7.984953e-05,-0.0017341506,0.00021481566,-0.049872555,5052,5052,0,1,1
105063812,105063619,2490402,2490402,7.8964775e-05,5.9851463e-05,4.957904e-05,-0.0010246943,0.0015245555,-0.050586786,5052,5052,0,1,1
105563979,105563763,2490402,2490402,-6.389845e-06,5.291002e-05,3.8179965e-05,-0.0017661264,0.0010802993,-0.050518826,5052,5052,0,1,1
106064098,106063907,2490402,2490402,-1.0623239e-05,6.011715e-05,2.294753e-06,-0.0019852703,0.0015488864,-0.050126,5051,5051,0,1,1
106564244,106564052,2490402,2490402,-1.4295305e-05,1.9721518e-05,-4.378859e-05,-0.0022058086,0.0010483293,-0.050209664,5052,5052,0,1,1
107064388,107064196,2490402,2490402,-3.8919206e-06,1.4188987e-05,-5.271854e-05,-0.0019407386,0.0014650617,-0.048866034,5052,5052,0,1,1
107564531,107564340,2490402,2490402,7.191446e-05,-1.6700175e-06,-1.923609e-05,-0.0020500468,0.0002107795,-0.04946845,5052,5052,0,1,1
108064678,108064484,2490402,2490402,5.0010676e-05,-1.7976025e-05,4.174056e-05,-0.0017952905,0.00027906062,-0.048973106,5051,5051,0,1,1
108565075,108564629,2490402,2490402,9.722214e-05,1.0605803e-05,8.078839e-05,-0.0018140365,0.0015622327,-0.04876057,5053,5053,0,1,1
109064965,109064772,2490402,2490402,-4.249221e-05,4.4456578e-05,7.688283e-07,-0.0017104953,0.0022960247,-0.05000781,5051,5051,0,1,1
109565109,109564917,2490402,2490402,-7.1414186e-05,9.2894625e-05,-0.00016430362,-0.002081677,0.0027461688,-0.05020972,5052,5052,0,1,1
110065259,110065061,2490402,2490402,-7.782817e-05,5.4386368e-05,-0.00018120166,-0.002037376,-2.0027132e-05,-0.049174722,5052,5052,0,1,1
110565396,110565205,2490402,2490402,-5.347078e-05,4.044129e-05,-6.320115e-05,-0.0018253105,-0.0011225813,-0.049612544,5052,5052,0,1,1
111065541,111065350,2490402,2490402,-3.2551565e-05,5.129344e-05,9.627028e-05,-0.001997101,-0.0010778662,-0.049565036,5052,5052,0,1,1
111565685,111565494,2490402,2490402,5.14547e-05,3.1506905e-05,9.756597e-05,-0.0019246696,0.0011701147,-0.04897352,5052,5052,0,1,1
112065833,112065638,2490402,2490402,6.567777e-05,3.104328e-05,1.2678686e-05,-0.0017563825,-0.00084243045,-0.05001907,5046,5046,0,1,1
112565976,112565783,2490402,2490402,4.1611594e-05,3.0319403e-05,3.6687157e-05,-0.0017297787,0.00010269807,-0.049688887,5052,5052,0,1,1
113061091,113060875,2490402,2490402,1.5608839e-05,1.9359006e-05,2.1029758e-05,-0.0017391952,0.0017461062,-0.04843603,5052,5052,0,1,1
113566290,113566072,2490402,2490402,-6.2390776e-05,3.0627645e-05,3.575615e-05,-0.0018263109,0.0005174457,-0.04881959,5052,5052,0,1,1
114066547,114066216,2490402,2490402,-5.546912e-06,2.5496402e-05,3.0423369e-05,-0.0017539382,0.00032023416,-0.049033407,5052,5052,0,1,1
114566556,114566361,2490402,2490402,-7.665733e-06,1.724907e-05,2.643698e-05,-0.0014350157,-3.9112423e-05,-0.04875996,5052,5052,0,1,1
115066698,115066505,2490402,2490402,7.600101e-05,3.4468067e-05,4.7707454e-05,-0.0019599139,3.2020846e-05,-0.049245566,5052,5052,0,1,1
115566841,115566650,2490402,2490402,9.0536225e-05,4.928698e-05,-2.7015856e-05,-0.0018280178,0.0010918751,-0.04891812,5052,5052,0,1,1
116061934,116061743,2490402,2490402,0.000102690596,4.756674e-05,-0.00012844962,-0.0021782524,0.0023443946,-0.04945479,5052,5052,0,1,1
116562084,116561887,2490402,2490402,-7.094959e-05,5.991806e-05,-0.00015627372,-0.0019327913,0.0009916442,-0.050300125,5052,5052,0,1,1
117062231,117062033,2490402,2490402,-6.789734e-05,2.8161117e-05,-7.856026e-05,-0.0019314683,0.00077099056,-0.04907413,5053,5053,0,1,1
117562369,117562177,2490402,2490402,-3.3281558e-05,2.1083615e-05,5.3546577e-05,-0.0023099906,-2.6686084e-05,-0.04959112,5052,5052,0,1,1
118062513,118062321,2490402,2490402,4.000334e-05,2.791567e-05,8.6627304e-05,-0.0021322388,0.0018105787,-0.049180012,5052,5052,0,1,1
118567714,118567519,2490402,2490402,2.4150435e-05,2.3307879e-05,6.899326e-05,-0.0018534409,0.0006253874,-0.049764194,5053,5053,0,1,1
119063104,119062610,2490402,2490402,3.5451638e-05,0.00016057218,6.0584644e-05,-0.002736232,0.0015984358,-0.05075934,5051,5051,0,1,1
119563041,119562755,2490402,2490402,0.000101757454,4.1197854e-05,4.578378e-06,-0.0021804054,0.0012637419,-0.04969175,5052,5052,0,1,1
120063096,120062900,2490402,2490402,6.2169296e-05,0.00013772635,-3.5810626e-05,-0.0025378722,0.0013882655,-0.05002573,5052,5052,0,1,1
120563236,120563045,2490402,2490402,-1.3459171e-05,1.256814e-05,-6.063291e-05,-0.0019078426,0.0015384132,-0.049621943,5052,5052,0,1,1
121063383,121063190,2490402,2490402,-6.251813e-05,2.113907e-06,-0.00012642384,-0.0020877994,0.0010339762,-0.049131952,5052,5052,0,1,1
121563527,121563334,2490402,2490402,-6.0681785e-05,5.9400823e-05,-0.000110148954,-0.00013145604,0.0009015841,-0.048465863,5052,5052,0,1,1
122063671,122063479,2490402,2490402,1.3535547e-05,0.00015889018,-4.9483747e-06,-0.0027478095,0.00041908855,-0.05141039,5052,5052,0,1,1
122563816,122563624,2490402,2490402,-7.2519506e-06,2.5734189e-05,0.000106402564,-0.00046711622,0.00021311599,-0.04959461,5052,5052,0,1,1
123063960,123063769,2490402,2490402,2.8735129e-05,4.8562397e-06,0.000101228965,-0.0016520431,0.001199783,-0.049047124,5052,5052,0,1,1
123564126,123563914,2490402,2490402,-1.6108497e-05,5.2197473e-05,0.00010086859,-0.00077637867,0.0009837768,-0.048822593,5052,5052,0,1,1
124064251,124064059,2490402,2490402,-6.531083e-05,4.9950446e-05,7.787799e-05,-0.0027172104,0.00033188844,-0.05064225,5052,5052,0,1,1
124564395,124564204,2490402,2490402,-2.46433e-07,6.723068e-05,-5.937767e-06,-0.0010448366,0.0015260251,-0.049246922,5052,5052,0,1,1
125064560,125064349,2490402,2490402,0.00017929902,7.385948e-05,-0.00015641587,-0.0013947728,0.0022370932,-0.052108124,5052,5052,0,1,1
125564689,125564494,2490402,2490402,-7.1793394e-05,5.072611e-05,-7.764389e-05,-0.0013971163,0.00014067914,-0.041842617,5052,5052,0,1,1
126064833,126064639,2490402,2490402,-0.00018622787,-6.138949e-05,4.969903e-05,-0.0018283736,-0.0017600916,-0.05716554,5052,5052,0,1,1
126564976,126564784,2490402,2490402,-4.8595248e-05,4.1738967e-05,0.00014957013,-0.0049592135,0.001082951,-0.03772933,5052,5052,0,1,1
127065175,127064931,2490402,2490402,0.00010565455,-0.00011279094,0.00010967153,0.0029202385,0.0032125206,-0.07337114,5054,5054,0,1,1
127565266,127565074,2490402,2490402,-9.4263276e-05,-4.167042e-05,9.373716e-05,0.0055350405,0.0035346516,-0.06163871,5052,5052,0,1,1
128065409,128065220,2490402,2490402,0.00010988455,6.3512256e-05,1.3395296e-05,-0.0021047548,0.0040885746,-0.06339574,5052,5052,0,1,1
128565557,128565365,2490402,2490402,9.684954e-05,-1.9225172e-05,-4.1861167e-06,-0.0071470877,0.0045637325,-0.020887937,5052,5052,0,1,1
129065704,129065510,2490402,2490402,7.206431e-05,3.0548304e-05,-3.272001e-05,0.0049160826,0.002857932,-0.043498952,5052,5052,0,1,1
129566385,129565655,2490402,2490402,-0.00014971464,6.929869e-05,-6.237423e-05,-0.0045136637,0.00023958925,-0.041342277,5052,5052,0,1,1
130065995,130065801,2490402,2490402,-5.5472956e-05,8.73278e-05,-5.2135947e-05,0.00024109545,0.0012838498,-0.038985927,5052,5052,0,1,1
130561184,130560894,2490402,2490402,0.00016328674,-6.709985e-06,-7.0281767e-06,-0.0073283343,-0.00033562176,-0.070530236,5052,5052,0,1,1
131061235,131061039,2490402,2490402,0.00013231198,0.00012604687,-1.7136646e-05,0.003335365,-0.0009516468,-0.04986782,5052,5052,0,1,1
131566428,131566236,2490402,2490402,-7.94401e-05,-9.2762115e-05,-3.3288765e-05,-0.015305555,-0.0027541078,-0.033835307,5052,5052,0,1,1
132066585,132066383,2490402,2490402,0.00019455177,0.00012800239,-2.8113827e-05,-0.0033508237,0.0011605026,-0.0742064,5053,5053,0,1,1
132566718,132566527,2490402,2490402,-0.00019779979,3.503496e-06,-1.5163171e-06,-0.01172168,-0.010616254,-0.022386558,5052,5052,0,1,1
133066863,133066672,2490402,2490402,-0.00014498811,3.992494e-05,1.084473e-05,-0.0047080913,-0.009777337,-0.054471985,5052,5052,0,1,1
133561960,133561766,2490402,2490402,-4.6323454e-05,9.115987e-06,1.2840012e-05,-0.0021878665,0.0024431609,-0.03196075,5052,5052,0,1,1
134062127,134061911,2490402,2490402,-9.126324e-05,9.0076865e-05,5.3648797e-05,-3.3267803e-05,-0.008227883,-0.05709479,5051,5051,0,1,1
134562957,134562057,2490402,2490402,7.974122e-05,-4.213242e-05,4.600329e-05,0.003577861,-0.004110663,-0.05563481,5052,5052,0,1,1
135062397,135062203,2490402,2490402,-9.800169e-05,0.00012181108,6.495295e-05,0.0010961118,-0.0018860876,-0.04988051,5051,5051,0,1,1
135562539,135562348,2490402,2490402,5.5866447e-05,-2.0274454e-05,8.514072e-05,0.004435026,-0.0023958166,-0.061905142,5052,5052,0,1,1
136067737,136067546,2490402,2490402,0.00015681284,0.000108517626,7.8271056e-05,0.010505912,-0.0022334845,-0.068742715,5053,5053,0,1,1
136562829,136562639,2490402,2490402,7.0682494e-05,-9.995369e-05,8.633402e-05,-0.0029807442,0.00751898,-0.04761723,5052,5052,0,1,1
137063019,137062785,2490402,2490402,-0.00012920717,-0.0001524855,7.0013426e-05,0.0033834123,-0.0018844059,-0.053989433,5051,5051,0,1,1
137563120,137562930,2490402,2490402,8.800654e-05,0.0002397017,6.4753454e-05,0.004813835,0.0072644576,-0.063601576,5052,5052,0,1,1
138063268,138063076,2490402,2490402,7.760947e-05,-8.943593e-05,9.8203585e-05,0.007503837,-0.0016103786,-0.052746043,5052,5052,0,1,1
138563415,138563222,2490402,2490402,0.0002000288,0.00016095834,9.786795e-07,0.0043695476,0.0021666477,-0.06016909,5052,5052,0,1,1
139063562,139063367,2490402,2490402,0.00011157521,-2.895526e-06,-7.88132e-05,-0.0023022972,-0.0022683048,-0.035714615,5052,5052,0,1,1
139563705,139563513,2490402,2490402,6.2044654e-07,0.00013624632,-0.000121401295,0.0004495312,-0.0059985877,-0.064703144,5052,5052,0,1,1
140064041,140063660,2490402,2490402,5.4822944e-05,0.0001367234,-0.00010299398,0.007483039,0.007250065,-0.055532426,5053,5053,0,1,1
140563996,140563804,2490402,2490402,0.00010594426,9.365104e-06,-0.00019253965,0.001245842,-0.0008539463,-0.05171553,5051,5051,0,1,1
141064144,141063950,2490402,2490402,-8.2975974e-05,0.00011384098,-0.00023798725,0.008908668,-0.0068159653,-0.0414782,5052,5052,0,1,1
141564291,141564096,2490402,2490402,3.8875846e-06,4.2019845e-05,-0.00017196582,0.012852923,0.008602941,-0.06739809,5052,5052,0,1,1
142064434,142064242,2490402,2490402,-0.00023806366,0.00016093667,-5.5116016e-06,-0.009298909,-0.012287452,-0.055313095,5052,5052,0,1,1
142564580,142564388,2490402,2490402,-6.192205e-05,-6.495613e-05,-3.1660927e-06,-0.0017662905,0.01127358,-0.016601203,5052,5052,0,1,1
143064745,143064534,2490402,2490402,-6.594503e-05,-3.2185057e-05,2.2439144e-05,-0.012931712,0.0016960741,-0.046154696,5052,5052,0,1,1
143564873,143564680,2490402,2490402,0.00012938182,0.00016403521,-0.00010029218,0.014281826,-0.010609577,-0.06372679,5052,5052,0,1,1
144065016,144064826,2490402,2490402,0.00010142032,9.2114715e-05,-3.2180567e-05,0.0078551555,-0.009213367,-0.049886484,5053,5053,0,1,1
144565162,144564971,2490402,2490402,-0.00010541796,3.5128832e-07,4.3185755e-05,-0.015685376,0.0132482415,-0.031833436,5052,5052,0,1,1
145065623,145065117,2490402,2490402,2.3768795e-05,-2.3308463e-05,5.584896e-05,-0.015787035,0.011963179,-0.031950157,5052,5052,0,1,1
145565571,145565264,2490402,2490402,7.876307e-05,6.278562e-05,3.864653e-05,0.016130803,0.011535671,-0.052656654,5053,5053,0,1,1
146065603,146065409,2490402,2490402,-8.223848e-05,1.6671931e-05,5.0819664e-05,0.0047453605,-0.0025652242,-0.053467084,5051,5051,0,1,1
146565749,146565556,2490402,2490402,6.96372e-05,4.2547643e-05,3.0717845e-05,-0.0050345715,0.0030087112,-0.03750042,5053,5053,0,1,1
147065922,147065702,2490402,2490402,-9.054296e-05,0.00011349079,9.3475894e-05,0.009213782,0.0021235521,-0.05789707,5052,5052,0,1,1
147560997,147560796,2490402,2490402,-2.7459751e-05,0.0001428004,-2.2540025e-05,0.0039545577,0.004524627,-0.049177513,5052,5052,0,1,1
148061181,148060942,2490402,2490402,-4.1213152e-05,-5.931199e-05,-5.4371894e-06,-0.004827191,0.006317248,-0.05658378,5052,5052,0,1,1
148561283,148561088,2490402,2490402,1.6799477e-05,0.00011601069,-1.5632884e-05,-0.003485377,0.0029043981,-0.052012905,5052,5052,0,1,1
149066481,149066286,2490402,2490402,7.634241e-05,8.93539e-06,-7.286575e-05,0.0050025266,0.0044001923,-0.044056848,5052,5052,0,1,1
149566624,149566432,2490402,2490402,4.486117e-06,3.59541e-05,-8.563888e-05,-0.00097498397,0.0024248145,-0.0499853,5052,5052,0,1,1
150066966,150066579,2490402,2490402,4.752296e-05,0.000104759994,-7.396878e-05,0.00041827277,0.0023539676,-0.059724085,5052,5052,0,1,1
150566921,150566725,2490402,2490402,-0.00010554022,4.236163e-06,-3.3931603e-05,-0.00021526494,0.002675524,-0.04789959,5052,5052,0,1,1
151062187,151061819,2490402,2490402,-4.0096078e-05,2.063048e-05,-4.535226e-05,0.0028936397,0.0039405157,-0.05380421,5052,5052,0,1,1
151562161,151561966,2490402,2490402,-6.64045e-05,2.6703712e-05,6.9812563e-06,-0.008285113,0.0017528109,-0.040888682,5053,5053,0,1,1
152062305,152062112,2490402,2490402,-2.5245683e-05,1.7156275e-05,1.59341e-05,-0.004780017,0.0016570414,-0.0411856,5052,5052,0,1,1
152562469,152562258,2490402,2490402,-6.7569213e-06,1.01087535e-05,-3.3690014e-06,-0.0044456352,0.004942041,-0.036614012,5052,5052,0,1,1
153062595,153062404,2490402,2490402,8.208706e-05,1.9133726e-05,1.6048296e-05,-0.0071686865,0.00542517,-0.053363662,5052,5052,0,1,1
153562742,153562551,2490402,2490402,-1.0116563e-05,-2.7378187e-06,6.257449e-05,0.00086730515,0.0033109689,-0.04935464,5052,5052,0,1,1
154067945,154067749,2490402,2490402,0.00014948934,4.8928465e-05,8.427799e-05,-0.0006714314,0.0032968814,-0.051100187,5052,5052,0,1,1
154563040,154562844,2490402,2490402,0.00012980137,7.071583e-05,5.205987e-05,0.00063211203,0.0014366781,-0.053049013,5053,5053,0,1,1
155063204,155062991,2490402,2490402,-0.00012371964,3.8929054e-05,8.707269e-05,-0.000163195,0.00040871793,-0.04806518,5053,5053,0,1,1
155563330,155563136,2490402,2490402,5.421705e-05,-8.032109e-05,7.321335e-05,-0.001506547,0.0046301344,-0.04734685,5051,5051,0,1,1
156063475,156063283,2490402,2490402,0.00010341398,0.00010707249,8.0222795e-05,-0.0008691962,0.0030933346,-0.051825896,5052,5052,0,1,1
156563621,156563429,2490402,2490402,-1.7497277e-05,2.32902e-05,3.4463377e-05,-0.004132552,0.0016684103,-0.052279938,5051,5051,0,1,1
157063769,157063576,2490402,2490402,4.354577e-05,6.520389e-05,1.1582192e-05,-0.003122101,0.0012058681,-0.050171193,5052,5052,0,1,1
157563916,157563723,2490402,2490402,2.8795172e-05,-1.3347898e-05,-4.5338746e-07,-0.0039426945,-0.0009550768,-0.05173558,5052,5052,0,1,1
158064075,158063869,2490402,2490402,3.3056673e-05,3.6775033e-05,-3.320763e-06,-0.002506889,-0.00021898093,-0.049668398,5052,5052,0,1,1
158564212,158564016,2490402,2490402,-4.966742e-05,2.6993133e-05,-2.0010642e-05,-0.00037501843,0.00031410845,-0.049568854,5052,5052,0,1,1
159064355,159064162,2490402,2490402,5.504119e-05,1.9689605e-05,-1.775164e-05,-0.00086738996,0.0006506392,-0.049412604,5052,5052,0,1,1
159564501,159564309,2490402,2490402,-5.426886e-06,6.635772e-05,4.122464e-05,-0.00251182,0.00018125931,-0.049332343,5052,5052,0,1,1
160064671,160064456,2490402,2490402,8.579172e-05,4.243052e-05,-1.8342602e-05,-0.0007976474,0.001212967,-0.04954599,5052,5052,0,1,1
160565448,160564603,2490402,2490402,1.786503e-05,1.2350759e-05,3.992714e-06,-0.00085087627,-4.6644633e-05,-0.04927449,5052,5052,0,1,1
161064942,161064749,2490402,2490402,-1.5056967e-05,3.7461516e-05,2.8201355e-05,-0.0016763492,3.4769724e-05,-0.04961059,5052,5052,0,1,1
161565093,161564896,2490402,2490402,4.8545767e-06,3.628504e-05,-3.377909e-06,-0.0014646936,-9.210242e-05,-0.04961315,5052,5052,0,1,1
162065255,162065043,2490402,2490402,1.8181927e-05,3.983253e-05,1.3356273e-05,-0.0011275851,3.2287535e-05,-0.049459487,5052,5052,0,1,1
162565399,162565190,2490402,2490402,-3.6378729e-06,2.6627451e-05,1.1838485e-05,-0.0010372469,0.00092037494,-0.049219895,5052,5052,0,1,1
163065551,163065336,2490402,2490402,1.8845363e-05,4.492809e-05,8.796873e-06,-0.0013862692,0.00036947982,-0.04950647,5052,5052,0,1,1
163565677,163565483,2490402,2490402,-4.2948563e-05,2.6952042e-05,1.3239941e-05,-0.0012052377,0.0002416827,-0.049404785,5052,5052,0,1,1
164065825,164065630,2490402,2490402,-5.4241027e-06,3.943608e-05,7.1562777e-06,-0.001197471,0.00044012236,-0.049398366,5047,5047,0,1,1
164565969,164565777,2490402,2490402,4.92469e-05,4.5334175e-05,-1.5789004e-05,-0.0011046561,1.5648548e-05,-0.049759496,5052,5052,0,1,1
165061067,165060872,2490402,2490402,1.8298123e-06,3.32716e-05,-7.820504e-06,-0.0012224364,0.00089252443,-0.049721863,5052,5052,0,1,1
165561215,165561019,2490402,2490402,-1.4080159e-05,3.3551587e-05,1.668487e-05,-0.0010524677,0.0007792584,-0.04937091,5051,5051,0,1,1
166061546,166061166,2490402,2490402,-2.0691949e-05,3.2186654e-05,-7.575763e-06,-0.0011168823,0.00038065226,-0.04947449,5052,5052,0,1,1
166566555,166566365,2490402,2490402,2.2696033e-05,3.778554e-05,8.892867e-06,-0.001260367,0.00052840967,-0.049473748,5052,5052,0,1,1
167066704,167066512,2490402,2490402,9.958422e-05,6.04501e-05,-3.7078054e-05,-0.0015197853,0.00011034268,-0.049679074,5052,5052,0,1,1
167566852,167566659,2490402,2490402,8.644094e-05,3.1757958e-05,-5.578683e-06,-0.0009366494,-0.00011721691,-0.049413208,5052,5052,0,1,1
168061970,168061754,2490402,2490402,5.2566756e-05,4.8461327e-05,-9.925805e-06,-0.0010355085,-0.00011029879,-0.049238406,5052,5052,0,1,1
168562121,168561901,2490402,2490402,-6.3816137e-06,8.114606e-06,1.7604701e-05,-0.00082239375,-2.0243604e-05,-0.049725633,5052,5052,0,1,1
169062242,169062048,2490402,2490402,1.0544976e-05,3.781996e-05,-6.26513e-06,-0.0014045353,-0.000637828,-0.049614906,5052,5052,0,1,1
169562389,169562195,2490402,2490402,-4.4220436e-05,1.0374812e-05,4.0203973e-05,-0.0010594913,0.00042258488,-0.049529202,5052,5052,0,1,1
170062533,170062342,2490402,2490402,-1.8343615e-05,3.216981e-05,2.7945065e-08,-0.001687469,0.0001539356,-0.04956798,5052,5052,0,1,1
170562681,170562489,2490402,2490402,4.792789e-05,4.9957816e-05,9.050335e-06,-0.0010996354,-3.9202256e-05,-0.049547594,5052,5052,0,1,1
171068118,171067689,2490402,2490402,2.4310653e-05,4.5786564e-05,-3.2301614e-05,-0.0013060316,-0.00043880922,-0.05011423,5052,5052,0,1,1
171563040,171562784,2490402,2490402,2.1655565e-05,4.7054466e-05,5.611174e-07,-0.0010993443,-0.0006967448,-0.049536213,5052,5052,0,1,1
172063144,172062931,2490402,2490402,-7.380054e-05,2.4929312e-05,1.6898739e-05,-0.0012714929,0.0009116974,-0.050293777,5052,5052,0,1,1
172563270,172563078,2490402,2490402,9.669026e-06,3.319381e-05,1.0425902e-05,-0.001064635,-0.00012449131,-0.04929574,5052,5052,0,1,1
173063436,173063226,2490402,2490402,3.1247753e-05,4.4506574e-05,-2.5217828e-06,-0.0010985541,-0.00072063785,-0.049373318,5052,5052,0,1,1
173563567,173563373,2490402,2490402,2.666983e-05,3.510187e-05,-9.081981e-06,-0.001178837,0.0003286371,-0.049508225,5052,5052,0,1,1
174063715,174063520,2490402,2490402,3.8639235e-05,4.742997e-05,5.3175035e-07,-0.0012064893,-7.667692e-05,-0.049839262,5052,5052,0,1,1
174563860,174563668,2490402,2490402,-2.6756543e-05,3.2897744e-05,5.6141544e-06,-0.00088254083,7.271417e-05,-0.0494397,5052,5052,0,1,1
175064007,175063815,2490402,2490402,-9.266341e-06,2.6083633e-05,1.9508807e-06,-0.0010327633,-0.00017127555,-0.049433548,5052,5052,0,1,1
175564153,175563962,2490402,2490402,2.6715961e-05,3.96692e-05,-1.3491309e-05,-0.0011568143,-0.00014025494,-0.049449943,5052,5052,0,1,1
176064766,176064110,2490402,2490402,3.3218595e-05,3.960741e-05,1.3054072e-05,-0.0011270682,-0.0012431898,-0.04947897,5052,5052,0,1,1
176564473,176564257,2490402,2490402,3.287692e-05,4.1287403e-05,2.0173284e-06,-0.001166791,0.00011544341,-0.049475383,5052,5052,0,1,1
177064600,177064405,2490402,2490402,1.1696979e-05,3.428676e-05,-8.723202e-06,-0.0009468084,-0.00021244267,-0.049612563,5052,5052,0,1,1
177564741,177564552,2490402,2490402,1.6655522e-06,3.417392e-05,-2.9591965e-07,-0.001201065,5.708773e-06,-0.049520597,5052,5052,0,1,1
178064894,178064700,2490402,2490402,-7.891686e-06,3.2917367e-05,-6.7017304e-06,-0.0010652997,-0.00022776703,-0.049608205,5052,5052,0,1,1
178565038,178564847,2490402,2490402,6.7214074e-07,3.8610644e-05,6.514302e-06,-0.0011838395,0.00042090082,-0.049312208,5052,5052,0,1,1
179065210,179064995,2490402,2490402,2.95068e-05,3.3194752e-05,6.451866e-06,-0.0010265423,-4.439997e-05,-0.049579583,5052,5052,0,1,1
179565332,179565142,2490402,2490402,5.100695e-05,3.811415e-05,-4.3582677e-06,-0.0011388981,-0.00040510794,-0.049506534,5052,5052,0,1,1
180065482,180065290,2490402,2490402,7.782291e-05,4.077698e-05,-2.991081e-06,-0.0011349437,-0.00040012403,-0.049566235,5052,5052,0,1,1
180565631,180565438,2490402,2490402,8.9215246e-07,3.6183137e-05,-7.092787e-06,-0.0011772539,-0.00039106535,-0.049933493,5052,5052,0,1,1
181065775,181065585,2490402,2490402,-3.257854e-05,1.7979728e-05,1.9018458e-05,-0.00088135485,-0.0003955729,-0.04952485,5050,5050,0,1,1
181565929,181565735,2490402,2490402,1.6476672e-05,3.526257e-05,-8.618939e-06,-0.0012758675,-0.00017858352,-0.04939675,5053,5053,0,1,1
182066099,182065881,2490402,2490402,3.53117e-05,3.311823e-05,2.6090909e-06,-0.0011178703,-0.00059291994,-0.04948107,5052,5052,0,1,1
182561189,182560976,2490402,2490402,1.9229015e-05,3.9729355e-05,-8.5316934e-08,-0.0012888229,0.00012972733,-0.049290277,5051,5051,0,1,1
183061316,183061124,2490402,2490402,-5.553772e-07,2.8041395e-05,2.1326692e-05,-0.0010696222,-0.00016182945,-0.049479954,5052,5052,0,1,1
183561465,183561272,2490402,2490402,2.2117805e-05,3.8674225e-05,3.6012716e-06,-0.0011488157,-0.00050735153,-0.04951381,5052,5052,0,1,1
184066669,184066472,2490402,2490402,4.3746863e-05,3.765518e-05,-4.2477755e-06,-0.0009768921,-0.00054293853,-0.049427327,5052,5052,0,1,1
184566814,184566620,2490402,2490402,-2.281697e-05,3.350268e-05,1.1580924e-05,-0.0010701745,-0.0004999225,-0.049438726,5052,5052,0,1,1
185066961,185066767,2490402,2490402,-5.5360255e-05,2.0061321e-05,2.2145558e-05,-0.0010659221,0.00067071157,-0.049461395,5052,5052,0,1,1
185567106,185566915,2490402,2490402,6.2406216e-06,3.4572437e-05,-2.192266e-06,-0.0013726035,-4.803108e-05,-0.049489502,5052,5052,0,1,1
186062228,186062011,2490402,2490402,2.4889037e-05,4.4646742e-05,-6.108807e-07,-0.0012188893,-0.00015060575,-0.049531464,5052,5052,0,1,1
186562454,186562159,2490402,2490402,-1.8052488e-05,2.9650184e-05,5.235412e-06,-0.0012618272,-0.00021407582,-0.049481843,5052,5052,0,1,1
187062501,187062308,2490402,2490402,1.0308536e-05,4.5090703e-05,9.962418e-06,-0.0011538763,-0.00033701025,-0.049522813,5053,5053,0,1,1
187562649,187562455,2490402,2490402,-5.0949825e-06,3.164247e-05,8.292529e-06,-0.001160737,-0.0003127284,-0.049462594,5052,5052,0,1,1
188062795,188062603,2490402,2490402,6.5825584e-06,3.7011592e-05,4.0698246e-06,-0.0011227743,-0.00025040293,-0.049498707,5052,5052,0,1,1
188562955,188562751,2490402,2490402,-1.7070033e-06,3.6090667e-05,5.120973e-06,-0.0011386443,-0.0003298094,-0.049548067,5052,5052,0,1,1
189068145,189067951,2490402,2490402,1.22914325e-05,3.9841645e-05,3.3722197e-06,-0.0011287914,-0.00024920903,-0.049557745,5052,5052,0,1,1
189563243,189563047,2490402,2490402,9.3015415e-06,3.2884633e-05,-2.861863e-07,-0.0011650152,-0.00025876428,-0.049478527,5052,5052,0,1,1
190063415,190063195,2490402,2490402,1.5010074e-05,3.8586226e-05,1.0444925e-06,-0.0010863965,-0.00021075935,-0.049577706,5052,5052,0,1,1
