timestamp,timestamp_sample,output_tracking_error[0],output_tracking_error[1],output_tracking_error[2],control_mode_flags,filter_fault_flags,pos_horiz_accuracy,pos_vert_accuracy,mag_test_ratio,vel_test_ratio,pos_test_ratio,hgt_test_ratio,tas_test_ratio,hagl_test_ratio,beta_test_ratio,time_slip,accel_device_id,gyro_device_id,baro_device_id,mag_device_id,gps_check_fail_flags,innovation_check_flags,solution_status_flags,reset_count_vel_ne,reset_count_vel_d,reset_count_pos_ne,reset_count_pod_d,reset_count_quat,pre_flt_fail_innov_heading,pre_flt_fail_innov_vel_horiz,pre_flt_fail_innov_vel_vert,pre_flt_fail_innov_height,pre_flt_fail_mag_field_disturbed,health_flags,timeout_flags
16899333,16798879,6.7008594e-05,0.0025641476,0.0023019717,67240471,0,0.1478359,0.20314854,0.00053710974,0.005965627,0.020540074,0.0066196374,0.0,0.0,0.0,0.0,3932210,3932210,3997730,458770,0,0,895,2,1,2,0,3,0,0,0,0,0,0,0
16909378,16808872,9.227599e-05,0.002540694,0.0023183853,67240471,0,0.14783621,0.20314865,0.003200517,0.005965627,0.020540074,0.0066196374,0.0,0.0,0.0,0.0,3932210,3932210,3997730,458770,0,0,895,2,1,2,0,3,0,0,0,0,0,0,0
17109132,17008689,0.00014727219,0.0016770669,0.001746594,67240471,0,0.14177513,0.20179582,0.0011847608,0.016479552,0.02300279,0.01602228,0.0,0.0,0.0,0.0,3932210,3932210,3997730,458770,0,0,895,2,1,2,0,3,0,0,0,0,0,0,0
17309238,17208507,6.836891e-05,0.0008834616,0.0032682936,67240471,0,0.13640402,0.20046976,0.0045817494,0.02141488,0.025453104,0.0029162818,0.0,0.0,0.0,0.0,3932210,3932210,3997730,458770,0,0,895,2,1,2,0,3,0,0,0,0,0,0,0
17509344,17408326,0.00010167615,0.0012656176,0.0011851647,67240471,0,0.13394149,0.19916959,0.002288094,0.01366242,0.024550464,0.0016299358,0.0,0.0,0.0,0.0,3932210,3932210,3997730,458770,0,0,895,2,1,2,0,3,0,0,0,0,0,0,0
17708615,17608144,0.00013631064,0.0016194144,0.002613825,67240471,0,0.1293865,0.19789451,0.00020749797,0.009169308,0.022887183,0.017381663,0.0,0.0,0.0,0.0,3932210,3932210,3997730,458770,0,0,895,2,1,2,0,3,0,0,0,0,0,0,0
17908380,17807963,6.689543e-05,0.0013685155,0.0018974737,67240471,0,0.12728071,0.19664367,0.0020022825,0.033399902,0.026486808,0.0029057986,0.0,0.0,0.0,0.0,3932210,3932210,3997730,458770,0,0,895,2,1,2,0,3,0,0,0,0,0,0,0
18108199,18007782,0.00013506021,0.0022170772,0.0022647379,67240471,0,0.1233544,0.19541632,0.00088347297,0.010535061,0.029212149,0.0018817383,0.0,0.0,0.0,0.0,3932210,3932210,3997730,458770,0,0,895,2,1,2,0,3,0,0,0,0,0,0,0
18308098,18207600,0.00017495625,0.0028136375,0.0013286065,67240471,0,0.12152713,0.19421174,0.00014797375,0.020024458,0.028342804,0.011346909,0.0,0.0,0.0,0.0,3932210,3932210,3997730,458770,0,0,895,2,1,2,0,3,0,0,0,0,0,0,0
18507834,18407419,0.00011124494,0.0018885664,0.0010379165,67240471,0,0.11811624,0.19303505,0.001845894,0.02537285,0.031123318,0.006536057,0.0,0.0,0.0,0.0,3932210,3932210,3997730,458770,0,0,895,2,1,2,0,3,0,0,0,0,0,0,0
18707704,18607238,9.090229e-05,0.0011957468,0.001538075,67240471,0,0.114957936,0.19187275,0.0012686306,0.018171601,0.02949254,0.01123872,0.0,0.0,0.0,0.0,3932210,3932210,3997730,458770,0,0,895,2,1,2,0,3,0,0,0,0,0,0,0
18907477,18807057,0.00010669606,0.0016713667,0.001707908,67240471,0,0.113474205,0.19073133,0.00030878384,0.017016124,0.028674392,0.002952977,0.0,0.0,0.0,0.0,3932210,3932210,3997730,458770,0,0,895,2,1,2,0,3,0,0,0,0,0,0,0
19107305,19006876,4.749613e-05,0.001014782,0.0011945423,67240471,0,0.11066638,0.18961018,0.0014657073,0.0048426175,0.03165045,0.0113440305,0.0,0.0,0.0,0.0,3932210,3932210,3997730,458770,0,0,895,2,1,2,0,3,0,0,0,0,0,0,0
19307657,19206695,0.00014861453,0.0024837228,0.0015924685,67240471,0,0.10934196,0.18850867,0.0008938163,0.017865017,0.03093234,0.01129612,0.0,0.0,0.0,0.0,3932210,3932210,3997730,458770,0,0,895,2,1,2,0,3,0,0,0,0,0,0,0
19506958,19406514,8.600348e-05,0.001212013,0.0021585517,67240471,0,0.106824495,0.18742627,0.0024035051,0.021136327,0.033879507,0.012320336,0.0,0.0,0.0,0.0,3932210,3932210,3997730,458770,0,0,895,2,1,2,0,3,0,0,0,0,0,0,0
19706804,19606333,0.00011309666,0.0007646639,0.00096941134,67240471,0,0.10447384,0.18636245,0.0047048717,0.004107118,0.032377888,0.0066915005,0.0,0.0,0.0,0.0,3932210,3932210,3997730,458770,0,0,895,2,1,2,0,3,0,0,0,0,0,0,0
19906569,19806153,4.837255e-05,0.0008810073,0.00096516265,67240471,0,0.10335935,0.18531665,0.0009329444,0.013913075,0.03165953,0.020751033,0.0,0.0,0.0,0.0,3932210,3932210,3997730,458770,0,0,895,2,1,2,0,3,0,0,0,0,0,0,0
20106387,20005972,7.514068e-05,0.0012206002,0.0011646998,67240471,0,0.10122703,0.18428841,0.00011995889,0.012826107,0.030336997,0.01585997,0.0,0.0,0.0,0.0,3932210,3932210,3997730,458770,0,0,895,2,1,2,0,3,0,0,0,0,0,0,0
20306354,20205791,0.00014766415,0.002646577,0.0020746316,67240471,0,0.10021357,0.18327719,0.0016465993,0.011040963,0.0296542,0.02052256,0.0,0.0,0.0,0.0,3932210,3932210,3997730,458770,0,0,895,2,1,2,0,3,0,0,0,0,0,0,0
20506209,20405735,4.88856e-05,0.0013739587,0.001327898,67240471,0,0.0982679,0.18228258,0.0009271846,0.003351453,0.032913037,0.0034171396,0.0,0.0,0.0,0.0,3932210,3932210,3997730,458770,0,0,895,2,1,2,0,3,0,0,0,0,0,0,0
20706004,20605555,0.0001726231,0.0018826076,0.0014366803,67240471,0,0.096431985,0.18130407,0.0001930362,0.007935955,0.03169015,0.0128960665,0.0,0.0,0.0,0.0,3932210,3932210,3997730,458770,0,0,895,2,1,2,0,3,0,0,0,0,0,0,0
20906058,20805374,8.007536e-05,0.001066176,0.0013089253,67240471,0,0.095556736,0.18034124,0.0011498713,0.0041339444,0.031087706,0.008294761,0.0,0.0,0.0,0.0,3932210,3932210,3997730,458770,0,0,895,2,1,2,0,3,0,0,0,0,0,0,0
21106165,21005193,0.0001389587,0.0017335301,0.0013272772,67240471,0,0.09386744,0.17939371,0.004782851,0.014741112,0.034337737,0.012944433,0.0,0.0,0.0,0.0,3932210,3932210,3997730,458770,0,0,895,2,1,2,0,3,0,0,0,0,0,0,0
21305461,21205013,0.00016240477,0.0023179194,0.0016737331,67240471,0,0.093061,0.17846106,0.005631264,0.012773491,0.03368187,0.02511323,0.0,0.0,0.0,0.0,3932210,3932210,3997730,458770,0,0,895,2,1,2,0,3,0,0,0,0,0,0,0
21505250,21404832,8.12859e-05,0.0022106466,0.0014350635,67240471,0,0.09149984,0.17777176,0.001707075,0.014769329,0.036883604,0.0005129044,0.0,0.0,0.0,0.0,3932210,3932210,3997730,458770,0,0,895,2,1,2,0,3,0,0,0,0,0,0,0
21705077,21604652,5.995458e-05,0.00020613907,0.0011695455,67240471,0,0.090015404,0.17686422,0.00033833866,0.013222104,0.035738535,0.003686385,0.0,0.0,0.0,0.0,3932210,3932210,3997730,458770,0,0,895,2,1,2,0,3,0,0,0,0,0,0,0
21904888,21804471,6.662803e-05,0.0004906507,0.0014547674,67240471,0,0.08930539,0.17597055,0.0025310817,0.0065538837,0.035210494,0.00282932,0.0,0.0,0.0,0.0,3932210,3932210,3997730,458770,0,0,895,2,1,2,0,3,0,0,0,0,0,0,0
22104706,22004291,0.00018866957,0.002778935,0.001006226,67240471,0,0.08792483,0.17509037,0.004108702,0.009380498,0.03418245,0.00029477902,0.0,0.0,0.0,0.0,3932210,3932210,3997730,458770,0,0,895,2,1,2,0,3,0,0,0,0,0,0,0
22304524,22204110,0.000110363595,0.0014988554,0.0014021596,67240471,0,0.087264,0.17422335,0.0034721307,0.005022522,0.033602923,0.0002739911,0.0,0.0,0.0,0.0,3932210,3932210,3997730,458770,0,0,895,2,1,2,0,3,0,0,0,0,0,0,0
22504428,22403931,4.9499875e-05,0.0003713279,0.0013783535,67240471,0,0.08597576,0.17336912,0.0012761474,0.029708007,0.02822486,0.003397553,0.0,0.0,0.0,0.0,3932210,3932210,3997730,458770,0,0,895,2,1,2,0,3,0,0,0,0,0,0,0
22704164,22603750,7.1039976e-05,0.0002841913,0.0012596047,67240471,0,0.08476963,0.17253397,0.0012034727,0.048335824,0.027446765,0.0017369518,0.0,0.0,0.0,0.0,3932210,3932210,3997730,458770,0,0,895,2,1,2,0,3,0,0,0,0,0,0,0
22903997,22803569,5.679801e-05,0.0009975317,0.0012162132,67240471,0,0.08417411,0.17170313,0.0007591882,0.00889968,0.027059697,0.0005374424,0.0,0.0,0.0,0.0,3932210,3932210,3997730,458770,0,0,895,2,1,2,0,3,0,0,0,0,0,0,0
23103804,23003389,2.4585855e-05,0.0009891557,0.0009831294,67240471,0,0.08301354,0.1708843,0.0006312459,0.03787875,0.02630053,0.005422603,0.0,0.0,0.0,0.0,3932210,3932210,3997730,458770,0,0,895,2,1,2,0,3,0,0,0,0,0,0,0
23303748,23203334,4.2248757e-05,0.00069431606,0.0016700414,67240471,0,0.08245524,0.17007722,0.00032489878,0.0036544716,0.025917297,0.0033566693,0.0,0.0,0.0,0.0,3932210,3932210,3997730,458770,0,0,895,2,1,2,0,3,0,0,0,0,0,0,0
23503568,23403156,3.3247645e-05,0.0006216205,0.0012919782,67240471,0,0.0813648,0.1692816,0.003010064,0.013959048,0.02807446,0.007820449,0.0,0.0,0.0,0.0,3932210,3932210,3997730,458770,0,0,895,2,1,2,0,3,0,0,0,0,0,0,0
23703396,23602974,0.0016888097,0.0006375542,0.0012187293,67240471,0,0.08031713,0.1684972,0.12018829,0.0102473935,0.027296565,0.006325164,0.0,0.0,0.0,0.0,3932210,3932210,3997730,458770,0,0,895,2,1,2,0,3,0,0,0,0,0,0,0
23903213,23802793,0.004124259,0.00044606958,0.0014464996,67240471,0,0.07981331,0.16772376,0.08623708,0.030381646,0.026939407,0.0024611368,0.0,0.0,0.0,0.0,3932210,3932210,3997730,458770,0,0,895,2,1,2,0,3,0,0,0,0,0,0,0
24103092,24002613,0.0027086195,0.00081849634,0.001761295,67240471,0,0.078825146,0.16696098,0.08450152,0.008904761,0.02966952,0.0015697572,0.0,0.0,0.0,0.0,3932210,3932210,3997730,458770,0,0,895,2,1,2,0,3,0,0,0,0,0,0,0
24302848,24202433,0.0022832246,0.0029358487,0.002326417,67240471,0,0.07835005,0.16620867,0.07968777,0.010370081,0.02928265,0.007935744,0.0,0.0,0.0,0.0,3932210,3932210,3997730,458770,0,0,895,2,1,2,0,3,0,0,0,0,0,0,0
24502672,24402253,0.0007866061,0.0030046208,0.002147193,67240471,0,0.07741604,0.16546656,0.006165735,0.013849079,0.02856843,0.0030561842,0.0,0.0,0.0,0.0,3932210,3932210,3997730,458770,0,0,895,2,1,2,0,3,0,0,0,0,0,0,0
24702513,24602074,0.0016509349,0.0006526773,0.0013993162,67240471,0,0.07651529,0.16473441,0.08770893,0.011931924,0.027855221,0.0023950434,0.0,0.0,0.0,0.0,3932210,3932210,3997730,458770,0,0,895,2,1,2,0,3,0,0,0,0,0,0,0
24902310,24801893,0.0028671403,0.0015897225,0.0009946534,67240471,0,0.07608259,0.164012,0.07998688,0.010908079,0.030936858,0.0006917703,0.0,0.0,0.0,0.0,3932210,3932210,3997730,458770,0,0,895,2,1,2,0,3,0,0,0,0,0,0,0
25102209,25001714,0.0019406935,0.003605488,0.0013360955,67240471,0,0.07522845,0.16329913,0.07198952,0.012333895,0.030308653,0.0030251357,0.0,0.0,0.0,0.0,3932210,3932210,3997730,458770,0,0,895,2,1,2,0,3,0,0,0,0,0,0,0
25302001,25201534,0.001318206,0.0074683805,0.0023248573,67240471,0,0.07481842,0.16259557,0.04347749,0.012896079,0.030123074,0.007210486,0.0,0.0,0.0,0.0,3932210,3932210,3997730,458770,0,0,895,2,1,2,0,3,0,0,0,0,0,0,0
25501815,25401354,0.0017055796,0.02309853,0.0052941362,67240471,0,0.07400695,0.16190115,0.04034379,0.015433838,0.030001,0.0014336618,0.0,0.0,0.0,0.0,3932210,3932210,3997730,458770,0,0,895,2,1,2,0,3,0,0,0,0,0,0,0
25701620,25601175,0.00040448463,0.0029245038,0.0040769824,67240471,0,0.07322194,0.16121563,0.008294189,0.031175615,0.028428905,0.0016227919,0.0,0.0,0.0,0.0,3932210,3932210,3997730,458770,0,0,895,2,1,2,0,3,0,0,0,0,0,0,0
25901469,25800994,0.002070752,0.03238168,0.003285194,67240471,0,0.07284548,0.16070797,0.00987921,0.026673386,0.02830648,0.008699876,0.0,0.0,0.0,0.0,3932210,3932210,3997730,458770,0,0,895,2,1,2,0,3,0,0,0,0,0,0,0
26111247,26010806,0.00070050923,0.017201452,0.006196857,67240471,0,0.07209779,0.1598706,0.022522857,0.018804485,0.0271407,0.003861017,0.0,0.0,0.0,0.0,3932210,3932210,3997730,458770,0,0,895,2,1,2,0,3,0,0,0,0,0,0,0
26311233,26210626,0.00077743194,0.020194506,0.0064266655,67240471,0,0.07137293,0.15921065,0.016290898,0.01856946,0.027530419,0.002216658,0.0,0.0,0.0,0.0,3932210,3932210,3997730,458770,0,0,895,2,1,2,0,3,0,0,0,0,0,0,0
26510951,26410446,0.00037587568,0.0042624315,0.0047424193,67240471,0,0.07102563,0.15855888,0.008413176,0.010877631,0.027192442,0.012081264,0.0,0.0,0.0,0.0,3932210,3932210,3997730,458770,0,0,895,2,1,2,0,3,0,0,0,0,0,0,0
26700832,26600276,0.0011964561,0.019722097,0.00044665908,67240471,0,0.0703333,0.1580761,0.009419989,0.009855615,0.030590896,0.0007742466,0.0,0.0,0.0,0.0,3932210,3932210,3997730,458770,0,0,895,2,1,2,0,3,0,0,0,0,0,0,0
26900554,26800096,0.0005359729,0.010763004,0.003177917,67240471,0,0.07003401,0.15744545,0.0053150947,0.013714547,0.029913545,0.00070946873,0.0,0.0,0.0,0.0,3932210,3932210,3997730,458770,0,0,895,2,1,2,0,3,0,0,0,0,0,0,0
27100328,26999919,0.00020264792,0.008100415,0.004424708,67240471,0,0.06936503,0.1568138,0.0041854642,0.011458637,0.02920391,0.0007418124,0.0,0.0,0.0,0.0,3932210,3932210,3997730,458770,0,0,895,2,1,2,0,3,0,0,0,0,0,0,0
27300235,27199737,0.00032226465,0.001707629,0.002295336,67240471,0,0.06904244,0.15618986,0.006432417,0.013986295,0.032490686,0.010185875,0.0,0.0,0.0,0.0,3932210,3932210,3997730,458770,0,0,895,2,1,2,0,3,0,0,0,0,0,0,0
27510282,27409548,0.00033331572,0.004516139,0.0009966101,67240471,0,0.06840838,0.15557471,0.0082826195,0.010515743,0.035316262,0.008885994,0.0,0.0,0.0,0.0,3932210,3932210,3997730,458770,0,0,895,2,1,2,0,3,0,0,0,0,0,0,0
27709857,27609369,0.00024392136,0.0013420266,0.0008234287,67240471,0,0.06778617,0.15496558,0.0038956983,0.015527085,0.03478917,0.00063534087,0.0,0.0,0.0,0.0,3932210,3932210,3997730,458770,0,0,895,2,1,2,0,3,0,0,0,0,0,0,0
27909689,27809189,0.00016143646,0.001698943,0.0011391382,67240471,0,0.06748688,0.15436369,0.005878681,0.012700783,0.037895124,0.010092469,0.0,0.0,0.0,0.0,3932210,3932210,3997730,458770,0,0,895,2,1,2,0,3,0,0,0,0,0,0,0
28109504,28009011,0.00039954408,0.0061521525,0.0026131184,67240471,0,0.066890895,0.15376893,0.010486933,0.015963139,0.037258457,0.008906557,0.0,0.0,0.0,0.0,3932210,3932210,3997730,458770,0,0,895,2,1,2,0,3,0,0,0,0,0,0,0
28309331,28208831,0.00017845615,0.0018890258,0.001947036,67240471,0,0.066604696,0.15318115,0.007608514,0.0049890843,0.036962762,0.0039425776,0.0,0.0,0.0,0.0,3932210,3932210,3997730,458770,0,0,895,2,1,2,0,3,0,0,0,0,0,0,0
28509287,28408652,0.00023201319,0.0024438268,0.0008573236,67240471,0,0.066033125,0.15260018,0.0033076415,0.016130421,0.039630182,0.0055860486,0.0,0.0,0.0,0.0,3932210,3932210,3997730,458770,0,0,895,2,1,2,0,3,0,0,0,0,0,0,0
28709161,28608472,3.2746986e-05,0.0007007791,0.0008213639,67240471,0,0.06547671,0.15202592,0.00400241,0.0068678996,0.038902085,0.01516773,0.0,0.0,0.0,0.0,3932210,3932210,3997730,458770,0,0,895,2,1,2,0,3,0,0,0,0,0,0,0
28908735,28808293,0.00023988595,0.0026167915,0.0014577996,67240471,0,0.065210424,0.15145822,0.003017676,0.025318537,0.0420125,0.00079206045,0.0,0.0,0.0,0.0,3932210,3932210,3997730,458770,0,0,895,2,1,2,0,3,0,0,0,0,0,0,0
29108538,29008113,0.00024558546,0.003255848,0.0017647452,67240471,0,0.064675815,0.15089697,0.004021352,0.012369305,0.041370887,0.00075144996,0.0,0.0,0.0,0.0,3932210,3932210,3997730,458770,0,0,895,2,1,2,0,3,0,0,0,0,0,0,0
29308429,29207934,0.0001707494,0.0009699664,0.0013773196,67240471,0,0.0644205,0.15034202,0.0041583013,0.005634804,0.041040692,0.00396199,0.0,0.0,0.0,0.0,3932210,3932210,3997730,458770,0,0,895,2,1,2,0,3,0,0,0,0,0,0,0
29508175,29407755,0.00019510117,0.0023322026,0.0010427907,67240471,0,0.06390626,0.14979325,0.0008099827,0.032415207,0.04025702,0.0007880477,0.0,0.0,0.0,0.0,3932210,3932210,3997730,458770,0,0,895,2,1,2,0,3,0,0,0,0,0,0,0
29708001,29607576,6.679506e-05,0.00015231674,0.00086656393,67240471,0,0.06340479,0.14925057,0.0011267314,0.005201907,0.03971561,0.010271693,0.0,0.0,0.0,0.0,3932210,3932210,3997730,458770,0,0,895,2,1,2,0,3,0,0,0,0,0,0,0
29907817,29807396,0.00019272784,0.0027722414,0.0009062382,67240471,0,0.063166074,0.14871383,0.0011836214,0.0071280147,0.042910088,0.019761888,0.0,0.0,0.0,0.0,3932210,3932210,3997730,458770,0,0,895,2,1,2,0,3,0,0,0,0,0,0,0
30107686,30007218,8.487291e-05,0.0011497104,0.0010971245,67240471,0,0.06268286,0.14818293,0.005871587,0.015440278,0.042053267,0.0006775361,0.0,0.0,0.0,0.0,3932210,3932210,3997730,458770,0,0,895,2,1,2,0,3,0,0,0,0,0,0,0
30307459,30207038,0.000119671015,0.0019814484,0.0012380952,67240471,0,0.062453285,0.14765778,0.0038265649,0.014918873,0.03836123,0.010143505,0.0,0.0,0.0,0.0,3932210,3932210,3997730,458770,0,0,895,2,1,2,0,3,0,0,0,0,0,0,0
30507562,30406859,0.00032428862,0.0059824353,0.0014171129,67240471,0,0.061987154,0.14713824,0.0036142292,0.008168148,0.037625708,0.004159353,0.0,0.0,0.0,0.0,3932210,3932210,3997730,458770,0,0,895,2,1,2,0,3,0,0,0,0,0,0,0
30707175,30606680,0.00015605526,0.0019057052,0.0012776445,67240471,0,0.061531786,0.1466242,0.017969254,0.0040615643,0.03734797,0.010028856,0.0,0.0,0.0,0.0,3932210,3932210,3997730,458770,0,0,895,2,1,2,0,3,0,0,0,0,0,0,0
30907053,30806501,0.00019644015,0.0023194186,0.0010409688,67240471,0,0.061315972,0.14611559,0.0033958603,0.008059946,0.037076067,0.000587169,0.0,0.0,0.0,0.0,3932210,3932210,3997730,458770,0,0,895,2,1,2,0,3,0,0,0,0,0,0,0
31106851,31006322,0.00017684787,0.002606493,0.0008030047,67240471,0,0.060875967,0.14561227,0.00041499635,0.011500664,0.036424685,0.0053862617,0.0,0.0,0.0,0.0,3932210,3932210,3997730,458770,0,0,895,2,1,2,0,3,0,0,0,0,0,0,0
31306558,31206143,6.474703e-05,0.0010231272,0.00075442734,67240471,0,0.060704887,0.14524691,0.002478168,0.012190675,0.03618073,0.0041680504,0.0,0.0,0.0,0.0,3932210,3932210,3997730,458770,0,0,895,2,1,2,0,3,0,0,0,0,0,0,0
31506398,31405964,0.000110433866,0.0023753417,0.00062577735,67240471,0,0.060271516,0.14475104,0.0048707672,0.0051294384,0.03557895,0.0039731474,0.0,0.0,0.0,0.0,3932210,3932210,3997730,458770,0,0,895,2,1,2,0,3,0,0,0,0,0,0,0
31706206,31605785,0.00022964159,0.001765984,0.0007100066,67240471,0,0.0598481,0.1442604,0.009459458,0.008549557,0.035011686,0.0012222794,0.0,0.0,0.0,0.0,3932210,3932210,3997730,458770,0,0,895,2,1,2,0,3,0,0,0,0,0,0,0
31906080,31805609,0.00015621453,0.0009510776,0.00053836696,67240471,0,0.059645485,0.14377491,0.0041888272,0.010972541,0.034713097,0.004228998,0.0,0.0,0.0,0.0,3932210,3932210,3997730,458770,0,0,895,2,1,2,0,3,0,0,0,0,0,0,0
32105844,32005427,7.318125e-05,0.0009188384,0.0007112128,67240471,0,0.05923675,0.14329444,0.0028385331,0.022152536,0.034303855,0.004458038,0.0,0.0,0.0,0.0,3932210,3932210,3997730,458770,0,0,895,2,1,2,0,3,0,0,0,0,0,0,0
32305901,32205249,0.00014156204,0.0018489087,0.0012165959,67240471,0,0.059041902,0.14281891,0.00092806504,0.01907357,0.03410862,0.007092477,0.0,0.0,0.0,0.0,3932210,3932210,3997730,458770,0,0,895,2,1,2,0,3,0,0,0,0,0,0,0
32505517,32405070,0.00012312399,0.0014550252,0.0006924684,67240471,0,0.058647055,0.14234824,0.002940318,0.019007383,0.033680346,0.005227147,0.0,0.0,0.0,0.0,3932210,3932210,3997730,458770,0,0,895,2,1,2,0,3,0,0,0,0,0,0,0
32705447,32604891,0.00015033262,0.0016215052,0.00059717684,67240471,0,0.05826076,0.14188235,0.0058139004,0.016732037,0.033190727,0.0057649324,0.0,0.0,0.0,0.0,3932210,3932210,3997730,458770,0,0,895,2,1,2,0,3,0,0,0,0,0,0,0
32905156,32804712,0.00021840369,0.002387071,0.0010689455,67240471,0,0.058077753,0.14142112,0.0070673823,0.011267675,0.032983065,0.0070282305,0.0,0.0,0.0,0.0,3932210,3932210,3997730,458770,0,0,895,2,1,2,0,3,0,0,0,0,0,0,0
33104955,33004534,0.00022454589,0.0017669341,0.00088371465,67240471,0,0.057704076,0.14096451,0.011965317,0.00967837,0.03250197,0.0031170193,0.0,0.0,0.0,0.0,3932210,3932210,3997730,458770,0,0,895,2,1,2,0,3,0,0,0,0,0,0,0
33304791,33204355,0.0001203914,0.0009259529,0.0006495255,67240471,0,0.05752767,0.14051242,0.0023871998,0.020573288,0.03243209,0.0039050612,0.0,0.0,0.0,0.0,3932210,3932210,3997730,458770,0,0,895,2,1,2,0,3,0,0,0,0,0,0,0
33504595,33404176,0.000121648554,0.00093118194,0.0010132518,67240471,0,0.057165846,0.1400648,0.00092460733,0.01224053,0.03189364,0.00035045322,0.0,0.0,0.0,0.0,3932210,3932210,3997730,458770,0,0,895,2,1,2,0,3,0,0,0,0,0,0,0
33704412,33603998,0.0002582798,0.004113914,0.001037122,67240471,0,0.056811426,0.13962154,0.0108002825,0.013042293,0.031511936,0.006529484,0.0,0.0,0.0,0.0,3932210,3932210,3997730,458770,0,0,895,2,1,2,0,3,0,0,0,0,0,0,0
33904242,33803819,0.00025026186,0.0030598799,0.0007958103,67240471,0,0.056645025,0.13918257,0.005176773,0.012813691,0.03102762,0.002396022,0.0,0.0,0.0,0.0,3932210,3932210,3997730,458770,0,0,895,2,1,2,0,3,0,0,0,0,0,0,0
34104091,34003640,0.0002267158,0.0016357708,0.0005892324,67240471,0,0.056301367,0.13874781,0.009417979,0.014671759,0.034146886,0.006380675,0.0,0.0,0.0,0.0,3932210,3932210,3997730,458770,0,0,895,2,1,2,0,3,0,0,0,0,0,0,0
34303993,34203462,0.0002122927,0.0026581215,0.00065495813,67240471,0,0.056140546,0.13831718,0.008574467,0.015625237,0.03390217,0.0069349296,0.0,0.0,0.0,0.0,3932210,3932210,3997730,458770,0,0,895,2,1,2,0,3,0,0,0,0,0,0,0
34504079,34403283,0.00019944904,0.0032567275,0.0010228229,67240471,0,0.055807,0.13789064,0.0034019952,0.008402643,0.03342658,0.00079022726,0.0,0.0,0.0,0.0,3932210,3932210,3997730,458770,0,0,895,2,1,2,0,3,0,0,0,0,0,0,0
34703523,34603105,0.0011159733,0.0037472371,0.00017205882,67240471,0,0.0554798,0.13746807,0.07328529,0.011843311,0.033033766,0.0026420897,0.0,0.0,0.0,0.0,3932210,3932210,3997730,458770,0,0,895,2,1,2,0,3,0,0,0,0,0,0,0
34903371,34802926,0.0022031928,0.008402877,0.0009955292,67240471,0,0.055327337,0.13704944,0.09097232,0.010919083,0.03288837,0.0018811639,0.0,0.0,0.0,0.0,3932210,3932210,3997730,458770,0,0,895,2,1,2,0,3,0,0,0,0,0,0,0
35103254,35002748,0.0024552147,0.01537794,0.0027096798,67240471,0,0.055009305,0.13663466,0.10111326,0.025420252,0.029068744,0.0026641139,0.0,0.0,0.0,0.0,3932210,3932210,3997730,458770,0,0,895,2,1,2,0,3,0,0,0,0,0,0,0
35303107,35202569,0.0022999996,0.03212427,0.005192517,67240471,0,0.05486141,0.13622367,0.101851344,0.018557532,0.02881189,0.0019090616,0.0,0.0,0.0,0.0,3932210,3932210,3997730,458770,0,0,895,2,1,2,0,3,0,0,0,0,0,0,0
35502841,35402391,0.0017590356,0.013984798,0.0059455847,67240471,0,0.05459319,0.13582481,0.096543305,0.019158008,0.025335642,0.0013592963,0.0,0.0,0.0,0.0,3932210,3932210,3997730,458770,0,0,895,2,1,2,0,3,0,0,0,0,0,0,0
35702663,35602212,0.0034289071,0.04179937,0.016541673,67240471,0,0.05428047,0.1354195,0.16530293,0.09791384,0.01401991,0.008346843,0.0,0.0,0.0,0.0,3932210,3932210,3997730,458770,0,0,895,2,1,2,0,3,0,0,0,0,0,0,0
35902504,35802034,0.0036624558,0.028379835,0.015567366,67240471,0,0.054132104,0.13511859,0.14946947,0.118222944,0.0071993116,0.0001530187,0.0,0.0,0.0,0.0,3932210,3932210,3997730,458770,0,0,895,2,1,2,0,3,0,0,0,0,0,0,0
36102377,36001856,0.0037573343,0.036326304,0.017096844,131607,0,0.053829405,0.13471994,0.21873058,0.16445597,0.02647203,0.009696309,0.0,0.0,0.0,0.0,3932210,3932210,3997730,458770,0,0,895,2,1,2,0,3,0,0,0,0,0,0,0
36302515,36201677,0.007001901,0.0064184293,0.008147056,131607,0,0.05405996,0.13439783,0.3905253,0.17662366,0.035939302,0.0047567966,0.0,0.0,0.0,0.0,3932210,3932210,3997730,458770,0,0,895,2,1,2,0,3,0,0,0,0,0,0,0
36501917,36401499,0.009271658,0.0117436,0.0027056749,131607,0,0.0549872,0.13424309,0.37309533,0.24466342,0.06404604,0.028627535,0.0,0.0,0.0,0.0,3932210,3932210,3997730,458770,0,0,895,2,1,2,0,3,0,0,0,0,0,0,0
36701738,36601321,0.008669554,0.024461757,0.012379235,131607,0,0.057281263,0.13436688,0.36054933,0.29982537,0.10180103,0.009544426,0.0,0.0,0.0,0.0,3932210,3932210,3997730,458770,0,0,895,2,1,2,0,3,0,0,0,0,0,0,0
36901558,36801143,0.010204559,0.027813915,0.017094456,131607,0,0.061706875,0.13490383,0.39544404,0.31479663,0.11961915,0.028482292,0.0,0.0,0.0,0.0,3932210,3932210,3997730,458770,0,0,895,2,1,2,0,3,0,0,0,0,0,0,0
37101465,37000964,0.06253022,1.0814534,0.5875323,67240471,0,0.055695664,0.13336419,0.38348064,0.3573178,0.16269669,0.02845345,0.0,0.0,0.0,0.0,3932210,3932210,3997730,458770,0,0,895,2,1,2,0,3,0,0,0,0,0,0,0
37311195,37210777,0.027596466,0.47901332,0.36814278,131607,0,0.05570513,0.13299559,0.48872012,0.97577167,0.39841858,0.0077419467,0.0,0.0,0.0,0.0,3932210,3932210,3997730,458770,0,0,895,2,1,2,0,3,0,1,0,0,0,0,0
37511014,37410602,0.007454314,0.16576973,0.1841884,131607,0,0.055970162,0.13271594,0.48810294,1.1229974,0.5513306,0.0025125141,0.0,0.0,0.0,0.0,3932210,3932210,3997730,458770,0,1,1919,2,1,2,0,3,0,1,0,0,0,0,0
37710841,37610421,0.007465418,0.009071925,0.0446018,131607,0,0.057224557,0.13263455,0.48407826,1.2036905,0.7157031,0.022396352,0.0,0.0,0.0,0.0,3932210,3932210,3997730,458770,0,1,1919,2,1,2,0,3,0,1,0,0,0,0,0
37900796,37800252,0.0071548214,0.057059288,0.029934384,131607,0,0.060072836,0.1328409,0.48309323,1.3028525,0.8091749,0.023180153,0.0,0.0,0.0,0.0,3932210,3932210,3997730,458770,0,1,1919,2,1,2,0,3,0,1,0,0,0,0,0
38101024,38000074,0.008289618,0.093462475,0.089108765,131607,0,0.06494917,0.13352309,0.47675943,1.3941747,0.9974167,0.01454119,0.0,0.0,0.0,0.0,3932210,3932210,3997730,458770,0,1,1919,2,1,2,0,3,0,1,0,0,0,0,0
38300607,38199897,0.00580277,0.09491686,0.089497775,131607,0,0.072927766,0.13482788,0.47510672,1.4599756,1.1000988,0.010684792,0.0,0.0,0.0,0.0,3932210,3932210,3997730,458770,0,3,1919,2,1,2,0,3,0,1,0,0,0,0,0
38500157,38399719,0.0062426124,0.09145438,0.08592329,131607,0,0.08371444,0.13682854,0.47160187,1.5766985,1.3303887,0.030822113,0.0,0.0,0.0,0.0,3932210,3932210,3997730,458770,0,3,1919,2,1,2,0,3,0,1,0,0,0,0,0
38710081,38609533,0.0065295477,0.08615143,0.08052773,131607,0,0.098069154,0.13981523,0.45782855,1.7017083,1.5736777,0.026923563,0.0,0.0,0.0,0.0,3932210,3932210,3997730,458770,0,3,1919,2,1,2,0,3,0,1,0,0,0,0,0
38909796,38809355,0.0053587114,0.07971015,0.07376599,131607,0,0.11452995,0.14369725,0.44750825,1.714205,1.6960924,0.023138331,0.0,0.0,0.0,0.0,3932210,3932210,3997730,458770,0,3,1919,2,1,2,0,3,0,1,0,0,0,0,0
39109595,39009178,0.005799981,0.07416125,0.06768467,537002519,0,0.13355406,0.14825965,0.4369783,1.8165597,1.9551691,0.033785664,0.0,0.0,0.0,0.0,3932210,3932210,3997730,458770,0,3,1919,2,1,2,0,3,0,1,0,0,0,0,0
39309483,39209000,0.006124429,0.06939521,0.06295674,537002519,0,0.15496963,0.15354286,0.42537943,1.9436247,2.2288246,0.044509206,0.0,0.0,0.0,0.0,3932210,3932210,3997730,458770,0,3,1919,2,1,2,0,3,0,1,0,0,0,0,0
39509292,39408823,0.006567049,0.063848674,0.058189016,537002519,0,0.17869094,0.16011982,0.41180256,1.9963437,2.3685997,0.08303546,0.0,0.0,0.0,0.0,3932210,3932210,3997730,458770,0,3,1919,2,1,2,0,3,0,1,0,0,0,0,0
39709063,39608645,0.004901923,0.059167527,0.053602748,537002519,0,0.20475762,0.16667235,0.40244576,2.0743349,2.652682,0.016777925,0.0,0.0,0.0,0.0,3932210,3932210,3997730,458770,0,3,1919,2,1,2,0,3,0,1,0,0,0,0,0
39909413,39808468,0.0055043283,0.053933,0.0490252,537002519,0,0.23297638,0.17469516,0.3924259,2.106502,2.7859094,0.055448897,0.0,0.0,0.0,0.0,3932210,3932210,3997730,458770,0,3,1919,2,1,2,0,3,0,1,0,0,0,0,0
40108729,40008290,0.0056964234,0.05123083,0.04942924,537002519,0,0.26340926,0.18198828,0.38468385,2.1813776,3.063787,0.08371973,0.0,0.0,0.0,0.0,3932210,3932210,3997730,458770,0,3,1919,2,1,2,0,3,0,1,0,0,0,0,0
40308676,40208113,0.0058528795,0.049027264,0.052055553,537002519,0,0.2960165,0.1893074,0.37611026,2.2637815,3.3384676,0.054775372,0.0,0.0,0.0,0.0,3932210,3932210,3997730,458770,0,3,1919,2,1,2,0,3,0,1,0,0,0,0,0
40508410,40407935,0.0044409907,0.042544585,0.04205814,537002519,0,0.33094874,0.19844037,0.3662491,2.332341,3.4661536,0.055084523,0.0,0.0,0.0,0.0,3932210,3932210,3997730,458770,0,3,1919,2,1,2,0,3,0,1,0,0,0,0,0
40708228,40607758,0.004741563,0.04192351,0.048329987,537002519,0,0.3679239,0.20572959,0.35727644,2.4044442,3.7333078,0.07306496,0.0,0.0,0.0,0.0,3932210,3932210,3997730,458770,0,3,1919,2,1,2,0,3,0,1,0,0,0,0,0
40908060,40807580,0.0049282843,0.03643725,0.04005389,537002519,0,0.407198,0.21516296,0.35242712,2.3910737,3.84454,0.054027084,0.0,0.0,0.0,0.0,3932210,3932210,3997730,458770,0,3,1919,2,1,2,0,3,0,1,0,0,0,0,0
41108035,41007403,0.0052563767,0.033957638,0.039751414,537002519,0,0.44869068,0.22251986,0.34541115,2.5111225,4.0725884,0.045966145,0.0,0.0,0.0,0.0,3932210,3932210,3997730,458770,0,3,1919,2,1,2,0,3,0,1,0,0,0,0,0
41307835,41207225,0.0034904531,0.030813418,0.034597,537002519,0,0.49257857,0.22909157,0.28362122,2.5834985,4.283575,0.04963578,0.0,0.0,0.0,0.0,3932210,3932210,3997730,458770,0,3,1919,2,1,2,0,3,0,1,0,0,0,0,0
41507589,41407173,0.0036206255,0.02669021,0.028406568,537002519,0,0.53860134,0.23825754,0.27486363,2.5989766,4.371834,0.062412415,0.0,0.0,0.0,0.0,3932210,3932210,3997730,458770,0,3,1919,2,1,2,0,3,0,1,0,0,0,0,0
41707980,41606996,0.0031390958,0.02526503,0.028686702,537002519,0,0.58692557,0.24416192,0.17166863,2.6249042,4.544247,0.05150651,0.0,0.0,0.0,0.0,3932210,3932210,3997730,458770,0,3,1919,2,1,2,0,3,0,1,0,0,0,0,0
41907252,41806818,0.0013207858,0.022343108,0.019724065,537002519,0,0.63763756,0.25295427,0.05057285,2.622717,4.630734,0.053787544,0.0,0.0,0.0,0.0,3932210,3932210,3997730,458770,0,3,1919,2,1,2,0,3,0,1,0,0,0,0,0
42107111,42006641,0.0014487039,0.019834483,0.011576762,537002519,0,0.69064635,0.2581072,0.13711332,2.6775904,4.747743,0.043810587,0.0,0.0,0.0,0.0,3932210,3932210,3997730,458770,0,3,1919,2,1,2,0,3,0,1,0,0,0,0,0
42306912,42206464,0.001988808,0.01833919,0.010073074,537002519,0,0.74629456,0.266341,0.17068341,2.653404,4.8090158,0.047720425,0.0,0.0,0.0,0.0,3932210,3932210,3997730,458770,0,3,1919,2,1,2,0,3,0,1,0,0,0,0,0
42506703,42406286,0.00045374958,0.01832866,0.016441097,537002519,0,0.80415,0.27074206,0.102105744,2.6262794,4.89942,0.045651715,0.0,0.0,0.0,0.0,3932210,3932210,3997730,458770,0,3,1919,2,1,2,0,3,0,1,0,0,0,0,0
42706532,42606113,0.0017457728,0.021401124,0.03783876,537002519,0,0.8646088,0.27481744,0.14043425,2.7168586,4.979982,0.0363208,0.0,0.0,0.0,0.0,3932210,3932210,3997730,458770,0,3,1919,2,1,2,0,3,0,1,0,0,0,0,0
42906349,42805932,0.0022332135,0.01855611,0.043764856,537002519,0,0.92720336,0.28204232,0.124565676,2.6973782,5.0226674,0.041472767,0.0,0.0,0.0,0.0,3932210,3932210,3997730,458770,0,3,1919,2,1,2,0,3,0,1,0,0,0,0,0
43106230,43005757,0.0026562065,0.019145025,0.053983554,537002519,0,22.112553,0.28543216,0.18551277,2.7537038,5.072666,0.038017564,0.0,0.0,0.0,0.0,3932210,3932210,3997730,458770,0,3,1919,2,1,2,0,3,0,1,0,0,0,0,0
43305987,43205577,0.0010122117,0.015490055,0.036276523,537002519,0,22.812954,0.29202002,0.004173426,2.7351806,5.084433,0.041077536,0.0,0.0,0.0,0.0,3932210,3932210,3997730,458770,0,3,1919,2,1,2,0,3,0,1,0,0,0,0,0
43506206,43405400,0.072235435,2.388028,6.6659126,67240471,0,0.35936767,0.19346373,0.35631165,4.900017,9.983783,0.013037635,0.0,0.0,0.0,0.0,3932210,3932210,3997730,458770,0,3,1919,2,1,2,0,3,0,1,0,0,0,0,0
43705742,43605223,0.07040679,0.7402371,3.2604077,67240471,0,0.3338273,0.19192035,0.17889136,4.789766,11.133439,0.021136014,0.0,0.0,0.0,0.0,3932210,3932210,3997730,458770,0,3,1919,2,1,2,0,3,0,1,0,0,0,0,0
43905535,43805046,0.032436173,0.16903181,1.4402546,67240471,0,0.32146502,0.190373,0.12598726,4.9186044,11.472901,0.033100754,0.0,0.0,0.0,0.0,3932210,3932210,3997730,458770,0,3,1919,2,1,2,0,3,0,1,0,0,0,0,0
44105359,44004869,0.018126747,0.42981112,0.4070338,67240471,0,0.31422672,0.18898451,0.0026149936,4.6604333,12.522398,0.029414445,0.0,0.0,0.0,0.0,3932210,3932210,3997730,458770,0,3,1919,2,1,2,0,3,0,1,0,0,0,0,0
44305180,44204691,0.018991893,0.5326852,0.28410688,67240471,0,0.3086176,0.18764043,0.013256719,4.762162,12.852976,0.041428,0.0,0.0,0.0,0.0,3932210,3932210,3997730,458770,0,3,1919,2,1,2,0,3,0,1,0,0,0,0,0
44505013,44404514,0.019101571,0.5498111,0.51263785,67240471,0,0.30431086,0.18634778,0.041206293,4.6874557,13.641214,0.044351958,0.0,0.0,0.0,0.0,3932210,3932210,3997730,458770,0,3,1919,2,1,2,0,3,0,1,0,0,0,0,0
44704859,44604337,0.013140756,0.484046,0.6758922,67240471,0,0.30192885,0.1851599,0.046245188,4.5911593,14.466238,0.052759357,0.0,0.0,0.0,0.0,3932210,3932210,3997730,458770,0,3,1919,2,1,2,0,3,0,1,0,0,0,0,0
44904681,44804160,0.00999768,0.40977982,0.7389638,67240471,0,0.30014393,0.18403304,0.062267214,4.5968595,14.784328,0.052988056,0.0,0.0,0.0,0.0,3932210,3932210,3997730,458770,0,3,1919,2,1,2,0,3,0,1,0,0,0,0,0
45104502,45003983,0.011130983,0.3724986,0.7159289,67240471,0,0.29835555,0.18290669,0.03488322,4.6150374,15.473526,0.049938317,0.0,0.0,0.0,0.0,3932210,3932210,3997730,458770,0,3,1919,2,1,2,0,3,0,1,0,0,0,0,0
45304752,45203806,0.011150427,0.3428599,0.67765695,67240471,0,0.2969026,0.18181112,0.13134196,4.538081,15.842833,0.056963615,0.0,0.0,0.0,0.0,3932210,3932210,3997730,458770,0,3,1919,2,1,2,0,3,0,1,0,0,0,0,0
45504282,45403629,0.008166084,0.27555567,0.66117525,67240471,0,0.2959739,0.18077004,0.12763035,4.516953,16.522516,0.057361644,0.0,0.0,0.0,0.0,3932210,3932210,3997730,458770,0,3,1919,2,1,2,0,3,0,1,0,0,0,0,0
45703942,45603452,0.0023917772,0.14110947,0.6690234,67240471,0,0.2957532,0.18003027,0.066323705,4.4706373,17.18058,0.061461367,0.0,0.0,0.0,0.0,3932210,3932210,3997730,458770,0,3,1919,2,1,2,0,3,0,1,0,0,0,0,0
45903765,45803275,0.0015680825,0.09973319,0.61956203,67240471,0,0.2950914,0.17904964,0.10536651,4.490594,17.508287,0.06599024,0.0,0.0,0.0,0.0,3932210,3932210,3997730,458770,0,3,1919,2,1,2,0,3,0,1,0,0,0,0,0
46103602,46003098,0.0031675796,0.098944,0.5627662,67240471,0,0.29436216,0.17808917,0.19981602,4.441676,18.148632,0.06058567,0.0,0.0,0.0,0.0,3932210,3932210,3997730,458770,0,3,1919,2,1,2,0,3,0,1,0,0,0,0,0
46303410,46202923,0.0049216915,0.1136141,0.5135883,67240471,0,0.29364917,0.17715332,0.06774805,4.488524,18.47549,0.040921792,0.0,0.0,0.0,0.0,3932210,3932210,3997730,458770,0,3,1919,2,1,2,0,3,0,1,0,0,0,0,0
46503291,46402744,0.0032021422,0.103335306,0.47053868,67240471,0,0.29313055,0.17623459,0.13846673,4.4579506,19.107882,0.069047585,0.0,0.0,0.0,0.0,3932210,3932210,3997730,458770,0,3,1919,2,1,2,0,3,0,1,0,0,0,0,0
46703066,46602567,0.0035140235,0.097396,0.42966,67240471,0,0.29271224,0.17533301,0.18474916,4.514898,19.743416,0.07304997,0.0,0.0,0.0,0.0,3932210,3932210,3997730,458770,0,3,1919,2,1,2,0,3,0,1,0,0,0,0,0
46902876,46802390,0.0034147424,0.08759948,0.39295536,67240471,0,0.2923241,0.17444782,0.110577546,4.5130854,20.06348,0.053284958,0.0,0.0,0.0,0.0,3932210,3932210,3997730,458770,0,3,1919,2,1,2,0,3,0,1,0,0,0,0,0
47102714,47002213,0.0019841406,0.058038224,0.359054,67240471,0,0.29203108,0.1735761,0.1501323,4.480766,20.695852,0.06704811,0.0,0.0,0.0,0.0,3932210,3932210,3997730,458770,0,3,1919,2,1,2,0,3,0,1,0,0,0,0,0
47302671,47202036,0.0026748849,0.037886888,0.32580647,67240471,0,0.29176494,0.17271759,0.25297788,4.5208197,21.009964,0.056760486,0.0,0.0,0.0,0.0,3932210,3932210,3997730,458770,0,3,1919,2,1,2,0,3,0,1,0,0,0,0,0
47502345,47401859,0.0024421352,0.022431903,0.2976291,67240471,0,0.29159218,0.17187542,0.3125423,4.4661207,21.638323,0.075287476,0.0,0.0,0.0,0.0,3932210,3932210,3997730,458770,0,3,1919,2,1,2,0,3,0,1,0,0,0,0,0
47702176,47601683,0.0019147727,0.02835633,0.27177903,67240471,0,0.29140475,0.17104885,0.2379545,4.526274,22.266449,0.06975276,0.0,0.0,0.0,0.0,3932210,3932210,3997730,458770,0,3,1919,2,1,2,0,3,0,1,0,0,0,0,0
47901998,47801507,0.0017393051,0.045587495,0.24515179,67240471,0,0.29122382,0.17023365,0.1613741,4.5411286,22.58319,0.059489246,0.0,0.0,0.0,0.0,3932210,3932210,3997730,458770,0,3,1919,2,1,2,0,3,0,1,0,0,0,0,0
48102016,48001329,0.0020300087,0.039224464,0.21886373,67240471,0,0.2910981,0.1694294,0.21216287,4.5551844,23.217045,0.07321859,0.0,0.0,0.0,0.0,3932210,3932210,3997730,458770,0,3,1919,2,1,2,0,3,0,1,0,0,0,0,0
48301646,48201152,0.0020158482,0.03151787,0.1980354,67240471,0,0.29093784,0.16863634,0.27130604,4.58559,23.533705,0.08206291,0.0,0.0,0.0,0.0,3932210,3932210,3997730,458770,0,3,1919,2,1,2,0,3,0,1,0,0,0,0,0
48511461,48410967,0.0030167457,0.038155917,0.17943358,67240471,0,0.29077026,0.16785328,0.3035327,4.580408,24.167643,0.07187601,0.0,0.0,0.0,0.0,3932210,3932210,3997730,458770,0,3,1919,2,1,2,0,3,0,1,0,0,0,0,0
48711214,48610792,0.0053662355,0.07792195,0.16267101,67240471,0,0.2905575,0.1670815,0.28895754,4.619593,24.803892,0.057124306,0.0,0.0,0.0,0.0,3932210,3932210,3997730,458770,0,3,1919,2,1,2,0,3,0,1,0,0,0,0,0
48911035,48810613,0.008147525,0.13069119,0.14303039,67240471,0,0.2902525,0.16632065,0.19236405,4.631234,25.128199,0.08553428,0.0,0.0,0.0,0.0,3932210,3932210,3997730,458770,0,3,1919,2,1,2,0,3,0,1,0,0,0,0,0
49100935,49000445,0.006894747,0.13441417,0.12466923,67240471,0,0.29008073,0.16557202,0.19837844,4.6603847,25.774946,0.061263274,0.0,0.0,0.0,0.0,3932210,3932210,3997730,458770,0,3,1919,2,1,2,0,3,0,1,0,0,0,0,0
49300951,49200268,0.0056889798,0.12119595,0.11081883,67240471,0,0.28988597,0.16483416,0.09461185,4.6796856,26.101166,0.08464522,0.0,0.0,0.0,0.0,3932210,3932210,3997730,458770,0,3,1919,2,1,2,0,3,0,1,0,0,0,0,0
49500851,49400091,0.007133188,0.14062883,0.10164231,67240471,0,0.2895995,0.16410369,0.0108062895,4.676212,26.755278,0.07946487,0.0,0.0,0.0,0.0,3932210,3932210,3997730,458770,0,3,1919,2,1,2,0,3,0,1,0,0,0,0,0
49701033,49599915,0.00622978,0.12460799,0.10030979,67240471,0,0.2893906,0.16337687,0.16010426,4.663488,27.409138,0.09299565,0.0,0.0,0.0,0.0,3932210,3932210,3997730,458770,0,3,1919,2,1,2,0,3,0,1,0,0,0,0,0
49910378,49809729,0.0034062357,0.073459856,0.102233455,67240471,0,0.289253,0.162665,0.1603235,4.622719,27.732126,0.068552904,0.0,0.0,0.0,0.0,3932210,3932210,3997730,458770,0,3,1919,2,1,2,0,3,0,1,0,0,0,0,0
50110145,50009552,0.0010964996,0.020211179,0.099665515,67240471,0,0.28917152,0.16196783,0.10442829,4.6181245,28.372925,0.0822824,0.0,0.0,0.0,0.0,3932210,3932210,3997730,458770,0,3,1919,2,1,2,0,3,0,1,0,0,0,0,0
50309990,50209376,0.0018003435,0.018076826,0.09306131,67240471,0,0.2890194,0.16127744,0.13078713,4.598226,28.695595,0.07681826,0.0,0.0,0.0,0.0,3932210,3932210,3997730,458770,0,3,1919,2,1,2,0,3,0,1,0,0,0,0,0
50509881,50409199,0.0010341615,0.011156559,0.086448416,67240471,0,0.28889412,0.16059825,0.037419323,4.6076713,29.33668,0.10469221,0.0,0.0,0.0,0.0,3932210,3932210,3997730,458770,0,3,1919,2,1,2,0,3,0,1,0,0,0,0,0
50709850,50609023,0.00063537894,0.025087936,0.081481606,67240471,0,0.28876278,0.15992151,0.03284976,4.580397,29.978704,0.084705405,0.0,0.0,0.0,0.0,3932210,3932210,3997730,458770,0,3,1919,2,1,2,0,3,0,1,0,0,0,0,0
50909665,50808846,0.0019646196,0.05391366,0.08411526,67240471,0,0.2886373,0.15925527,0.027620211,4.5782413,30.304096,0.09355818,0.0,0.0,0.0,0.0,3932210,3932210,3997730,458770,0,3,1919,2,1,2,0,3,0,1,0,0,0,0,0
51099547,50998678,0.0016106402,0.06444665,0.08277022,67240471,0,0.2885021,0.15876253,0.18607633,4.5378423,30.94191,0.09454261,0.0,0.0,0.0,0.0,3932210,3932210,3997730,458770,0,3,1919,2,1,2,0,3,0,1,0,0,0,0,0
51309208,51208493,0.0026969758,0.08465285,0.07871465,67240471,0,0.288328,0.1581155,0.10263119,4.573297,31.257038,0.0809249,0.0,0.0,0.0,0.0,3932210,3932210,3997730,458770,0,3,1919,2,1,2,0,3,0,1,0,0,0,0,0
51509254,51408316,0.0020370034,0.078184456,0.07260781,67240471,0,0.28820068,0.15747657,0.033674046,4.5719056,31.893402,0.082248904,0.0,0.0,0.0,0.0,3932210,3932210,3997730,458770,0,3,1919,2,1,2,0,3,0,1,0,0,0,0,0
51708851,51608140,0.0020551272,0.07315731,0.06522048,67240471,0,0.28811127,0.15684494,0.05152177,4.5746703,32.534153,0.09054082,0.0,0.0,0.0,0.0,3932210,3932210,3997730,458770,0,3,1919,2,1,2,0,3,0,1,0,0,0,0,0
51908690,51807963,0.0005592582,0.03810658,0.052811008,131607,0,0.288059,0.15625711,0.058762882,4.538269,32.854973,0.09457986,0.0,0.0,0.0,0.0,3932210,3932210,3997730,458770,0,3,1919,2,1,2,0,3,0,1,0,0,0,0,0
52108690,52007787,0.0006715251,0.02081719,0.042323526,131607,0,0.2881391,0.1557853,0.062098514,4.5263267,33.488667,0.092767335,0.0,0.0,0.0,0.0,3932210,3932210,3997730,458770,0,3,1919,2,1,2,0,3,0,1,0,0,0,0,0
52308605,52207610,0.00039582522,0.013172386,0.55112886,131607,0,0.3131874,0.16005903,0.008218029,4.530487,33.80313,0.095131576,0.0,0.0,0.0,0.0,3932210,3932210,3997730,458770,0,3,1919,3,2,3,0,3,0,1,0,0,0,0,0
52507851,52407434,0.00038943056,0.02440408,0.22424272,131607,0,0.2708483,0.17038871,0.064973064,0.0464733,0.018114913,0.092494376,0.0,0.0,0.0,0.0,3932210,3932210,3997730,458770,0,0,895,3,2,3,0,3,0,1,0,0,0,0,0
52707678,52607257,0.000488038,0.031978663,0.071066424,131607,0,0.24357262,0.18060678,0.04824076,0.05655614,0.039740995,0.08647437,0.0,0.0,0.0,0.0,3932210,3932210,3997730,458770,0,0,895,3,2,3,0,3,0,1,0,0,0,0,0
52907601,52807081,0.000881538,0.018539162,0.014600081,131607,0,0.23929888,0.19475387,0.09036814,0.022853803,0.0064375177,0.08837368,0.0,0.0,0.0,0.0,3932210,3932210,3997730,458770,0,0,895,3,2,3,0,3,0,1,0,0,0,0,0
53108079,53006904,0.00026771287,0.027442193,0.020724062,131607,0,0.22246304,0.20360218,0.012073594,0.06448939,0.011450324,0.08420773,0.0,0.0,0.0,0.0,3932210,3932210,3997730,458770,0,0,895,3,2,3,0,3,0,1,0,0,0,0,0
53307174,53206728,0.00030554135,0.014722953,0.02202614,131607,0,0.22205327,0.21675901,0.034008663,0.04568148,0.022554645,0.082352385,0.0,0.0,0.0,0.0,3932210,3932210,3997730,458770,0,0,895,3,2,3,0,3,0,1,0,0,0,0,0
53506995,53406551,0.0002882641,0.019308334,0.03302686,131607,0,0.21022645,0.22414324,0.011596005,0.08265525,0.018922526,0.07772442,0.0,0.0,0.0,0.0,3932210,3932210,3997730,458770,0,0,895,3,2,3,0,3,0,1,0,0,0,0,0
53706870,53606375,0.0002706634,0.020389844,0.032146484,131607,0,0.20079921,0.2310715,0.0031706267,0.065117754,0.029632453,0.083026156,0.0,0.0,0.0,0.0,3932210,3932210,3997730,458770,0,0,895,3,2,3,0,3,0,1,0,0,0,0,0
53906619,53806198,0.00027227678,0.013505285,0.030551655,131607,0,0.20289032,0.24208757,0.0039005752,0.096337296,0.018657682,0.074527256,0.0,0.0,0.0,0.0,3932210,3932210,3997730,458770,0,0,895,3,2,3,0,3,0,1,0,0,0,0,0
54106439,54006022,0.00040944724,0.017591614,0.037103135,131607,0,0.19542244,0.24788456,0.010889331,0.09102783,0.023835056,0.07276902,0.0,0.0,0.0,0.0,3932210,3932210,3997730,458770,0,0,895,3,2,3,0,3,0,1,0,0,0,0,0
54306286,54205846,0.0002735045,0.01096857,0.033623658,131607,0,0.19838986,0.25769466,0.0017558002,0.075635664,0.03373328,0.06893072,0.0,0.0,0.0,0.0,3932210,3932210,3997730,458770,0,0,895,3,2,3,0,3,0,1,0,0,0,0,0
54506087,54405670,0.000484492,0.015801698,0.038488846,131607,0,0.19217846,0.26253432,0.012585167,0.09854926,0.037378833,0.06613457,0.0,0.0,0.0,0.0,3932210,3932210,3997730,458770,0,0,895,3,2,3,0,3,0,1,0,0,0,0,0
54706292,54605493,0.00062350725,0.022147248,0.04545329,131607,0,0.18674105,0.2670757,0.011088288,0.10830368,0.038474362,0.06491235,0.0,0.0,0.0,0.0,3932210,3932210,3997730,458770,0,0,895,3,2,3,0,3,0,1,0,0,0,0,0
54905762,54805317,0.0005830045,0.015703944,0.035445113,131607,0,0.1905403,0.27522135,0.008395353,0.12100791,0.033923622,0.07145545,0.0,0.0,0.0,0.0,3932210,3932210,3997730,458770,0,0,895,3,2,3,0,3,0,1,0,0,0,0,0
55105780,55005140,0.0010109139,0.023692966,0.043251466,131607,0,0.185838,0.27898532,0.123874925,0.13042052,0.03882648,0.06627502,0.0,0.0,0.0,0.0,3932210,3932210,3997730,458770,0,0,895,3,2,3,0,3,0,1,0,0,0,0,0
55305413,55204964,0.12506483,3.5453503,4.133968,67240471,0,0.1520103,0.18157873,0.05256313,4.4045877,2.6700406,0.06172282,0.0,0.0,0.0,0.0,3932210,3932210,3997730,458770,0,3,1919,3,2,3,0,3,0,1,0,0,0,0,0
55505203,55404788,0.034868803,1.0855576,2.0463772,67240471,0,0.15109697,0.18018372,0.020637076,4.4380946,3.41069,0.07356746,0.0,0.0,0.0,0.0,3932210,3932210,3997730,458770,0,3,1919,3,2,3,0,3,0,1,0,0,0,0,0
55705035,55604612,0.024762403,0.08569262,0.6723227,131607,0,0.15044346,0.17865981,0.14652213,4.520984,4.1378646,0.052028287,0.0,0.0,0.0,0.0,3932210,3932210,3997730,458770,0,3,1919,3,2,3,0,3,0,1,0,0,0,0,0
55904852,55804435,0.0024517113,0.3721707,0.16627349,131607,0,0.15008034,0.17746721,0.12524515,4.6447477,4.4763317,0.06580917,0.0,0.0,0.0,0.0,3932210,3932210,3997730,458770,0,3,1919,3,2,3,0,3,0,1,0,0,0,0,0
56104679,56004259,0.0018970402,0.4760389,0.5643411,131607,0,0.14968927,0.17616783,0.14375624,4.867348,5.176978,0.0655487,0.0,0.0,0.0,0.0,3932210,3932210,3997730,458770,0,3,1919,3,2,3,0,3,0,1,0,0,0,0,0
56304499,56204083,0.001343738,0.50341225,0.72954977,131607,0,0.149558,0.17485423,0.13621081,5.068822,5.5446725,0.046794858,0.0,0.0,0.0,0.0,3932210,3932210,3997730,458770,0,3,1919,3,2,3,0,3,0,1,0,0,0,0,0
56504339,56403907,0.00027888178,0.4940665,0.77394694,131607,0,0.15004294,0.1736314,0.025774907,5.3150125,6.3133087,0.042969592,0.0,0.0,0.0,0.0,3932210,3932210,3997730,458770,0,3,1919,3,2,3,0,3,0,1,0,0,0,0,0
56704217,56603730,0.00012504622,0.46802554,0.75774586,537002519,0,0.1515939,0.1726064,0.030724032,5.5683823,7.1179,0.058722634,0.0,0.0,0.0,0.0,3932210,3932210,3997730,458770,0,3,1919,3,2,3,0,3,0,1,0,0,0,0,0
56904066,56803554,0.101538815,1.7175192,1.2864532,67240471,0,0.14997572,0.1716568,0.14926596,4.273072,7.2516847,0.07541266,0.0,0.0,0.0,0.0,3932210,3932210,3997730,458770,0,3,1919,3,2,3,0,3,0,1,0,0,0,0,0
57103793,57003378,0.010512367,1.026206,1.0496607,67240471,0,0.14983205,0.17060961,0.22417267,4.287964,7.9051967,0.037566997,0.0,0.0,0.0,0.0,3932210,3932210,3997730,458770,0,3,1919,3,2,3,0,3,0,1,0,0,0,0,0
57303617,57203202,0.0054586087,0.62051475,0.7985098,67240471,0,0.14969556,0.16960482,0.2095488,4.236883,8.230893,0.03264233,0.0,0.0,0.0,0.0,3932210,3932210,3997730,458770,0,3,1919,3,2,3,0,3,0,1,0,0,0,0,0
57503442,57403026,0.0076086405,0.4168792,0.6040047,67240471,0,0.14958501,0.16864966,0.2651804,4.228944,8.868943,0.04187754,0.0,0.0,0.0,0.0,3932210,3932210,3997730,458770,0,3,1919,3,2,3,0,3,0,1,0,0,0,0,0
57703268,57602849,0.007542001,0.30431244,0.46717322,67240471,0,0.14948684,0.16773584,0.1114165,4.219516,9.499401,0.04612189,0.0,0.0,0.0,0.0,3932210,3932210,3997730,458770,0,3,1919,3,2,3,0,3,0,1,0,0,0,0,0
57903097,57802673,0.0075284615,0.22610073,0.3730743,67240471,0,0.14940225,0.16686724,0.20815705,4.2627873,9.807891,0.03129633,0.0,0.0,0.0,0.0,3932210,3932210,3997730,458770,0,3,1919,3,2,3,0,3,0,1,0,0,0,0,0
58102922,58002497,0.0039933813,0.16145858,0.30464193,67240471,0,0.14932372,0.16603696,0.29832113,4.2162924,10.4351845,0.0072088456,0.0,0.0,0.0,0.0,3932210,3932210,3997730,458770,0,3,1919,3,2,3,0,3,0,1,0,0,0,0,0
58302806,58202321,0.012457079,0.17168596,0.25179556,67240471,0,0.14925742,0.16521503,0.33283997,4.213163,10.745634,0.030523622,0.0,0.0,0.0,0.0,3932210,3932210,3997730,458770,0,3,1919,3,2,3,0,3,0,1,0,0,0,0,0
58502615,58402145,0.011474058,0.1748833,0.21845627,67240471,0,0.14920612,0.16441558,0.19798648,4.2212996,11.368233,0.044396404,0.0,0.0,0.0,0.0,3932210,3932210,3997730,458770,0,3,1919,3,2,3,0,3,0,1,0,0,0,0,0
58702688,58601969,0.009652256,0.16840431,0.19358087,67240471,0,0.14916347,0.16363876,0.18086132,4.19835,11.984988,0.039361645,0.0,0.0,0.0,0.0,3932210,3932210,3997730,458770,0,3,1919,3,2,3,0,3,0,1,0,0,0,0,0
58902287,58801793,0.010839493,0.1665511,0.1720558,67240471,0,0.14912875,0.16288163,0.24876577,4.206341,12.295103,0.010313455,0.0,0.0,0.0,0.0,3932210,3932210,3997730,458770,0,3,1919,3,2,3,0,3,0,1,0,0,0,0,0
59102067,59001617,0.011750221,0.17348807,0.15386882,67240471,0,0.14910199,0.16213633,0.30183566,4.23494,12.915049,0.014946923,0.0,0.0,0.0,0.0,3932210,3932210,3997730,458770,0,3,1919,3,2,3,0,3,0,1,0,0,0,0,0
59301892,59201441,0.012705699,0.1843487,0.13931482,67240471,0,0.14908046,0.16140346,0.261891,4.1893573,13.224516,0.024290428,0.0,0.0,0.0,0.0,3932210,3932210,3997730,458770,0,3,1919,3,2,3,0,3,0,1,0,0,0,0,0
59501723,59401265,0.01624641,0.20980035,0.12591776,67240471,0,0.1490571,0.16069059,0.22333187,4.1751504,13.842996,0.029198151,0.0,0.0,0.0,0.0,3932210,3932210,3997730,458770,0,3,1919,3,2,3,0,3,0,1,0,0,0,0,0
59711498,59611080,0.013159413,0.19441037,0.11282691,67240471,0,0.14904206,0.15998828,0.17690842,4.1792994,14.460698,0.024258217,0.0,0.0,0.0,0.0,3932210,3932210,3997730,458770,0,3,1919,3,2,3,0,3,0,1,0,0,0,0,0
59911414,59810904,0.007514514,0.14787564,0.10141375,67240471,0,0.14903283,0.15930238,0.15145832,4.2192307,14.769858,0.04315602,0.0,0.0,0.0,0.0,3932210,3932210,3997730,458770,0,3,1919,3,2,3,0,3,0,1,0,0,0,0,0
60101165,60000737,0.0021703818,0.0698674,0.08790981,67240471,0,0.14902505,0.1587962,0.13793571,4.2069,15.38797,0.035144325,0.0,0.0,0.0,0.0,3932210,3932210,3997730,458770,0,3,1919,3,2,3,0,3,0,1,0,0,0,0,0
60301120,60200565,0.0032393024,0.06556957,0.07452132,67240471,0,0.14901774,0.1581336,0.057864435,4.1893296,15.696771,0.030056339,0.0,0.0,0.0,0.0,3932210,3932210,3997730,458770,0,3,1919,3,2,3,0,3,0,1,0,0,0,0,0
60501142,60400384,0.0018352839,0.05094404,0.060548756,67240471,0,0.14901508,0.15748347,0.030204663,4.24413,16.319166,0.039144445,0.0,0.0,0.0,0.0,3932210,3932210,3997730,458770,0,3,1919,3,2,3,0,3,0,1,0,0,0,0,0
60700638,60600209,0.0019472858,0.031324573,0.047780365,67240471,0,0.14901358,0.15684275,0.048998237,4.2329683,16.94237,0.024862846,0.0,0.0,0.0,0.0,3932210,3932210,3997730,458770,0,3,1919,3,2,3,0,3,0,1,0,0,0,0,0
60900449,60800033,0.0026199033,0.047270257,0.041467033,67240471,0,0.14901204,0.15621124,0.011065831,4.2303724,17.25146,0.031105513,0.0,0.0,0.0,0.0,3932210,3932210,3997730,458770,0,3,1919,3,2,3,0,3,0,1,0,0,0,0,0
61110273,61009848,0.0025912493,0.06125716,0.04006421,67240471,0,0.14901437,0.155587,0.03663007,4.239915,17.874683,0.034168657,0.0,0.0,0.0,0.0,3932210,3932210,3997730,458770,0,3,1919,3,2,3,0,3,0,1,0,0,0,0,0
61310174,61209672,0.005441654,0.0870747,0.047669426,67240471,0,0.14901492,0.15497115,0.110466555,4.1947,18.188246,0.033396933,0.0,0.0,0.0,0.0,3932210,3932210,3997730,458770,0,3,1919,3,2,3,0,3,0,1,0,0,0,0,0
61509912,61409496,0.0048965,0.096987724,0.053382337,67240471,0,0.14901665,0.15436275,0.16827866,4.199042,18.807415,0.024870055,0.0,0.0,0.0,0.0,3932210,3932210,3997730,458770,0,3,1919,3,2,3,0,3,0,1,0,0,0,0,0
61709733,61609320,0.0040536006,0.087068595,0.05367862,67240471,0,0.14901924,0.15376133,0.15553494,4.1573396,19.422468,0.028069973,0.0,0.0,0.0,0.0,3932210,3932210,3997730,458770,0,3,1919,3,2,3,0,3,0,1,0,0,0,0,0
61909565,61809144,0.0036609836,0.07314996,0.04998351,67240471,0,0.14902213,0.15316807,0.18908241,4.1032176,19.727373,0.023972983,0.0,0.0,0.0,0.0,3932210,3932210,3997730,458770,0,3,1919,3,2,3,0,3,0,1,0,0,0,0,0
62109461,62008968,0.0017344203,0.025172606,0.035099242,131607,0,0.14909695,0.15259941,0.21531203,4.0999036,20.33128,0.035762973,0.0,0.0,0.0,0.0,3932210,3932210,3997730,458770,0,3,1919,3,2,3,0,3,0,1,0,0,0,0,0
62299634,62198801,0.0014820194,0.0301712,0.022340817,131607,0,0.14938733,0.15212128,0.18957356,4.1013207,20.634,0.030952936,0.0,0.0,0.0,0.0,3932210,3932210,3997730,458770,0,3,1919,3,2,3,0,3,0,1,0,0,0,0,0
62509037,62408617,0.0013969552,0.03862488,0.016608523,131607,0,0.15017602,0.15185046,0.1698639,4.0639615,21.239836,0.031618588,0.0,0.0,0.0,0.0,3932210,3932210,3997730,458770,0,3,1919,3,2,3,0,3,0,1,0,0,0,0,0
62708875,62608440,0.0010060787,0.040859777,0.016838335,131607,0,0.15164708,0.15185736,0.15247579,4.041504,21.830046,0.032480225,0.0,0.0,0.0,0.0,3932210,3932210,3997730,458770,0,3,1919,3,2,3,0,3,0,1,0,0,0,0,0
62908684,62808265,0.0011126399,0.040089086,0.017395085,537002519,0,0.15411925,0.15226509,0.12548606,4.0252004,22.123907,0.02868369,0.0,0.0,0.0,0.0,3932210,3932210,3997730,458770,0,3,1919,3,2,3,0,3,0,1,0,0,0,0,0
63108520,63008089,0.013442125,0.31789717,0.19540565,67240471,0,0.15060802,0.15044644,0.15899052,3.9640958,22.687181,0.026500313,0.0,0.0,0.0,0.0,3932210,3932210,3997730,458770,0,3,1919,3,2,3,0,3,0,1,0,0,0,0,0
63308379,63207913,0.009758861,0.22925377,0.13101467,67240471,0,0.15060762,0.14989533,0.19783999,4.0898404,23.065752,0.032963153,0.0,0.0,0.0,0.0,3932210,3932210,3997730,458770,0,3,1919,3,2,3,0,3,0,1,0,0,0,0,0
63508242,63407739,0.0054998267,0.18335272,0.085312,67240471,0,0.1506079,0.14934923,0.19449829,4.1012464,23.669363,0.02403444,0.0,0.0,0.0,0.0,3932210,3932210,3997730,458770,0,3,1919,3,2,3,0,3,0,1,0,0,0,0,0
63707986,63607561,0.0020010164,0.080195494,0.050174255,67240471,0,0.15061258,0.14881092,0.13349977,4.116375,24.276892,0.029522253,0.0,0.0,0.0,0.0,3932210,3932210,3997730,458770,0,3,1919,3,2,3,0,3,0,1,0,0,0,0,0
63907894,63807387,0.0024655217,0.06744615,0.031452812,67240471,0,0.15061353,0.14827651,0.1297485,4.1379595,24.581982,0.026896477,0.0,0.0,0.0,0.0,3932210,3932210,3997730,458770,0,3,1919,3,2,3,0,3,0,1,0,0,0,0,0
64108315,64007210,0.0019600268,0.050258007,0.01834563,67240471,0,0.15061605,0.14774856,0.13360727,4.1615095,25.186079,0.0196211,0.0,0.0,0.0,0.0,3932210,3932210,3997730,458770,0,3,1919,3,2,3,0,3,0,1,0,0,0,0,0
64307521,64207034,0.0014483744,0.028192872,0.009784734,67240471,0,0.15061997,0.14722645,0.13579392,4.182189,25.795328,0.024981793,0.0,0.0,0.0,0.0,3932210,3932210,3997730,458770,0,3,1919,3,2,3,0,3,0,1,0,0,0,0,0
64507327,64406858,0.00071024813,0.014760096,0.015030631,67240471,0,0.1506217,0.14670976,0.097342126,4.1808004,26.104107,0.021679254,0.0,0.0,0.0,0.0,3932210,3932210,3997730,458770,0,3,1919,3,2,3,0,3,0,1,0,0,0,0,0
64707214,64606682,0.0011990736,0.018305358,0.0211431,67240471,0,0.15062547,0.14619859,0.13392724,4.1640964,26.713095,0.016036602,0.0,0.0,0.0,0.0,3932210,3932210,3997730,458770,0,3,1919,3,2,3,0,3,0,1,0,0,0,0,0
64906981,64806506,0.0013748935,0.041400272,0.030506877,67240471,0,0.15062939,0.14569257,0.15432853,4.1390214,27.017473,0.027770339,0.0,0.0,0.0,0.0,3932210,3932210,3997730,458770,0,3,1919,3,2,3,0,3,0,1,0,0,0,0,0
65106780,65006331,0.0021958172,0.06079767,0.039174777,67240471,0,0.15063235,0.14519174,0.16105437,4.136778,27.622488,0.023777232,0.0,0.0,0.0,0.0,3932210,3932210,3997730,458770,0,3,1919,3,2,3,0,3,0,1,0,0,0,0,0
65306669,65206155,0.0018818653,0.059770998,0.042070057,67240471,0,0.15063581,0.14482018,0.15493186,4.0901346,28.22751,0.011028211,0.0,0.0,0.0,0.0,3932210,3932210,3997730,458770,0,3,1919,3,2,3,0,3,0,1,0,0,0,0,0
65506398,65405979,0.0014886289,0.053763226,0.040449023,67240471,0,0.15064012,0.1443289,0.15086167,4.104146,28.527542,0.025271127,0.0,0.0,0.0,0.0,3932210,3932210,3997730,458770,0,3,1919,3,2,3,0,3,0,1,0,0,0,0,0
65706302,65605803,0.0019093863,0.05434793,0.038095746,67240471,0,0.15064377,0.14384283,0.1518029,4.0548964,29.12373,0.025166947,0.0,0.0,0.0,0.0,3932210,3932210,3997730,458770,0,3,1919,3,2,3,0,3,0,1,0,0,0,0,0
65906085,65805628,0.0013265559,0.04036697,0.03253332,67240471,0,0.15064791,0.14336194,0.13463418,4.0533643,29.423939,0.01548186,0.0,0.0,0.0,0.0,3932210,3932210,3997730,458770,0,3,1919,3,2,3,0,3,0,1,0,0,0,0,0
66105895,66005452,0.0014872709,0.03656153,0.027067006,67240471,0,0.15065207,0.1428861,0.1680449,4.026556,30.015604,0.024817985,0.0,0.0,0.0,0.0,3932210,3932210,3997730,458770,0,3,1919,3,2,3,0,3,0,1,0,0,0,0,0
66305850,66205276,0.00198471,0.032196548,0.019619778,67240471,0,0.1506567,0.14241508,0.16530585,4.0097246,30.311094,0.01035584,0.0,0.0,0.0,0.0,3932210,3932210,3997730,458770,0,3,1919,3,2,3,0,3,0,1,0,0,0,0,0
66505548,66405101,0.002986041,0.04749961,0.008758484,67240471,0,0.15066129,0.14194916,0.08131424,3.9908693,30.905771,0.0007737464,0.0,0.0,0.0,0.0,3932210,3932210,3997730,458770,0,3,1919,3,2,3,0,3,0,1,0,0,0,0,0
66705524,66604925,0.0053565875,0.097554095,0.0133041795,67240471,0,0.15066485,0.14148696,0.065653145,4.0701222,31.503336,0.010201746,0.0,0.0,0.0,0.0,3932210,3932210,3997730,458770,0,3,1919,3,2,3,0,3,0,1,0,0,0,0,0
66905219,66804749,0.0064438917,0.1336329,0.02781669,67240471,0,0.1506676,0.14103012,0.15772805,4.021693,31.801405,0.019685276,0.0,0.0,0.0,0.0,3932210,3932210,3997730,458770,0,3,1919,3,2,3,0,3,0,1,0,0,0,0,0
67104992,67004573,0.006298149,0.14186405,0.036789652,67240471,0,0.15067178,0.14057796,0.11879921,4.063107,32.4048,0.014905934,0.0,0.0,0.0,0.0,3932210,3932210,3997730,458770,0,3,1919,3,2,3,0,3,0,1,0,0,0,0,0
67304835,67204398,0.0049133757,0.12105861,0.03734524,67240471,0,0.15067615,0.14012924,0.08833165,4.1469526,32.711277,0.009851233,0.0,0.0,0.0,0.0,3932210,3932210,3997730,458770,0,3,1919,3,2,3,0,3,0,1,0,0,0,0,0
67504707,67404222,0.003231826,0.08365996,0.030093256,67240471,0,0.15068054,0.13968562,0.052352604,4.1352873,33.32404,0.0146110635,0.0,0.0,0.0,0.0,3932210,3932210,3997730,458770,0,3,1919,3,2,3,0,3,0,1,0,0,0,0,0
67704573,67604047,0.001876433,0.037334237,0.017018091,67240471,0,0.15068553,0.13924599,0.058238402,4.1840625,33.937134,0.009438148,0.0,0.0,0.0,0.0,3932210,3932210,3997730,458770,0,3,1919,3,2,3,0,3,0,1,0,0,0,0,0
67904356,67803871,0.0009805629,0.01628639,0.0050219805,67240471,0,0.15070668,0.13881889,0.08934001,4.179222,34.246555,0.024001813,0.0,0.0,0.0,0.0,3932210,3932210,3997730,458770,0,3,1919,3,2,3,0,3,0,1,0,0,0,0,0
68104114,68003695,0.0009356071,0.027108738,0.010590003,67240471,0,0.15070839,0.13838598,0.07371908,4.1974325,34.868465,0.0047425353,0.0,0.0,0.0,0.0,3932210,3932210,3997730,458770,0,3,1919,3,2,3,0,3,0,1,0,0,0,0,0
68304151,68203520,0.0007586696,0.02849721,0.0152265765,67240471,0,0.150712,0.13795756,0.0794539,4.223312,35.177685,0.014313492,0.0,0.0,0.0,0.0,3932210,3932210,3997730,458770,0,3,1919,3,2,3,0,3,0,1,0,0,0,0,0
68503824,68403345,0.001313105,0.04240335,0.02167505,67240471,0,0.15071337,0.13753244,0.09479501,4.252693,35.79946,9.56205e-05,0.0,0.0,0.0,0.0,3932210,3932210,3997730,458770,0,3,1919,3,2,3,0,3,0,1,0,0,0,0,0
68703651,68603170,0.0016692881,0.053867,0.027452333,67240471,0,0.1507174,0.13711159,0.08940665,4.235642,36.4263,0.00936824,0.0,0.0,0.0,0.0,3932210,3932210,3997730,458770,0,3,1919,3,2,3,0,3,0,1,0,0,0,0,0
68903504,68802994,0.0029900654,0.07893286,0.03674567,67240471,0,0.15071885,0.13669504,0.08836044,4.2488465,36.73914,0.018875968,0.0,0.0,0.0,0.0,3932210,3932210,3997730,458770,0,3,1919,3,2,3,0,3,0,1,0,0,0,0,0
69103386,69002819,0.0032868653,0.088031195,0.28758007,67240471,0,0.41188532,0.13680463,0.09077976,4.201088,37.361294,0.01889762,0.0,0.0,0.0,0.0,3932210,3932210,3997730,458770,0,3,1919,4,3,4,0,3,0,1,0,0,0,0,0
69303100,69202644,0.0013625345,4.2437263,0.74050224,67240471,0,0.3556858,0.13587384,0.088066556,4.202346,0.27255073,0.023527868,0.0,0.0,0.0,0.0,3932210,3932210,3997730,458770,0,1,1919,4,3,4,0,3,0,1,0,0,0,0,0
69502922,69402469,0.00069348153,1.6158243,0.43415177,131607,0,0.2898705,0.13551798,0.09523019,4.2128754,0.69469064,0.013965263,0.0,0.0,0.0,0.0,3932210,3932210,3997730,458770,0,1,1919,4,3,4,0,3,0,1,0,0,0,0,0
69702791,69602294,0.00081568625,0.38124186,0.13806526,131607,0,0.26837713,0.13530275,0.11334323,4.205862,1.0585724,0.010144193,0.0,0.0,0.0,0.0,3932210,3932210,3997730,458770,0,3,1919,4,3,4,0,3,0,1,0,0,0,0,0
69902547,69802119,0.00090613036,0.18152075,0.06272414,131607,0,0.26882625,0.13543077,0.149048,4.207382,1.3547077,0.002249533,0.0,0.0,0.0,0.0,3932210,3932210,3997730,458770,0,3,1919,4,3,4,0,3,0,1,0,0,0,0,0
70102358,70001943,0.0008528181,0.42222482,0.04771266,131607,0,0.26970762,0.13580354,0.0902667,4.1541357,1.9536728,0.008277341,0.0,0.0,0.0,0.0,3932210,3932210,3997730,458770,0,3,1919,4,3,4,0,3,0,1,0,0,0,0,0
70302194,70201768,0.0007975139,0.51008224,0.12585829,131607,0,0.271205,0.13664769,0.08807641,4.1618896,2.2463727,0.010561413,0.0,0.0,0.0,0.0,3932210,3932210,3997730,458770,0,3,1919,4,3,4,0,3,0,1,0,0,0,0,0
70502065,70401593,0.000978785,0.5264285,0.16625968,131607,0,0.27353293,0.13803916,0.12787187,4.100852,2.8298986,0.0099877585,0.0,0.0,0.0,0.0,3932210,3932210,3997730,458770,0,3,1919,4,3,4,0,3,0,1,0,0,0,0,0
70701839,70601418,0.015668748,0.45900422,0.24849474,67240471,0,0.26948577,0.13448824,0.14977953,4.0557795,3.4092557,0.0067456537,0.0,0.0,0.0,0.0,3932210,3932210,3997730,458770,0,3,1919,4,3,4,0,3,0,1,0,0,0,0,0
70911655,70811234,0.008818637,0.43207002,0.17297766,67240471,0,0.26948813,0.13409682,0.11675031,4.3621497,3.8209362,0.0010784399,0.0,0.0,0.0,0.0,3932210,3932210,3997730,458770,0,3,1919,4,3,4,0,3,0,1,0,0,0,0,0
71101486,71001067,0.0008945257,0.4176094,0.14312485,67240471,0,0.2694922,0.13371357,0.11171305,4.399346,4.439179,0.0038441506,0.0,0.0,0.0,0.0,3932210,3932210,3997730,458770,0,3,1919,4,3,4,0,3,0,1,0,0,0,0,0
71301366,71200898,0.0008623643,0.40435827,0.13227926,67240471,0,0.26949444,0.1333279,0.0822659,4.411257,4.7510486,0.0051599354,0.0,0.0,0.0,0.0,3932210,3932210,3997730,458770,0,3,1919,4,3,4,0,3,0,1,0,0,0,0,0
71501179,71400717,0.00085285,0.38528076,0.12475322,67240471,0,0.2694962,0.13294485,0.09404804,4.431691,5.3746448,0.0023813762,0.0,0.0,0.0,0.0,3932210,3932210,3997730,458770,0,3,1919,4,3,4,0,3,0,1,0,0,0,0,0
71700956,71600543,0.00090686127,0.36209223,0.11731451,67240471,0,0.26949856,0.1325658,0.09249477,4.411868,5.998565,0.0057759914,0.0,0.0,0.0,0.0,3932210,3932210,3997730,458770,0,3,1919,4,3,4,0,3,0,1,0,0,0,0,0
71900803,71800366,0.0016590728,0.34002843,0.10922966,67240471,0,0.26950058,0.13218923,0.09674894,4.44436,6.3101935,0.0030509965,0.0,0.0,0.0,0.0,3932210,3932210,3997730,458770,0,3,1919,4,3,4,0,3,0,1,0,0,0,0,0
72100616,72000191,0.0014534994,0.3137825,0.09889292,67240471,0,0.26950306,0.1318164,0.13991708,4.428154,6.9339657,0.004419949,0.0,0.0,0.0,0.0,3932210,3932210,3997730,458770,0,3,1919,4,3,4,0,3,0,1,0,0,0,0,0
72310485,72210007,0.0016352156,0.2899219,0.0874983,67240471,0,0.26950616,0.13144737,0.11751944,4.428409,7.557781,0.0065300753,0.0,0.0,0.0,0.0,3932210,3932210,3997730,458770,0,3,1919,4,3,4,0,3,0,1,0,0,0,0,0
72510253,72409832,0.0012259154,0.2669217,0.07586125,67240471,0,0.26950872,0.13108088,0.05624791,4.403668,7.8693748,0.0010918718,0.0,0.0,0.0,0.0,3932210,3932210,3997730,458770,0,3,1919,4,3,4,0,3,0,1,0,0,0,0,0
72710073,72609657,0.0019703456,0.24427088,0.06458896,67240471,0,0.26951128,0.13071746,0.16509947,4.4051437,8.48896,0.0015485579,0.0,0.0,0.0,0.0,3932210,3932210,3997730,458770,0,3,1919,4,3,4,0,3,0,1,0,0,0,0,0
