timestamp,timestamp_sample,xyz[0],xyz[1],xyz[2]
16904944,16904709,-0.29097158,0.25687313,-9.806885
16909974,16909761,-0.2890288,0.25905827,-9.802307
16955456,16955228,-0.29003766,0.3031089,-9.801216
17011011,17010799,-0.28076276,0.26347655,-9.797291
17056536,17056267,-0.283751,0.26061356,-9.800196
17106998,17106786,-0.28421965,0.30112875,-9.79062
17157536,17157306,-0.27666387,0.2546378,-9.79999
17208040,17207825,-0.2897634,0.28842366,-9.796976
17258577,17258344,-0.28063533,0.2751316,-9.793554
17309102,17308864,-0.2792274,0.27602983,-9.802522
17359611,17359383,-0.28091896,0.29054126,-9.792238
17410141,17409903,-0.2930047,0.29285738,-9.795821
17455584,17455370,-0.29999548,0.30491304,-9.803188
17506125,17505890,-0.30376992,0.28347686,-9.800609
17556643,17556409,-0.2947398,0.3102695,-9.800237
17607142,17606929,-0.2769888,0.28852898,-9.792406
17657658,17657448,-0.27763516,0.29287478,-9.79999
17708212,17707967,-0.27576047,0.28194317,-9.802094
17758705,17758487,-0.28976136,0.28326654,-9.798368
17809212,17809006,-0.28213495,0.3034322,-9.796716
17854700,17854473,-0.26977348,0.26962408,-9.807207
17910253,17910045,-0.2747225,0.28527558,-9.798437
17955757,17955512,-0.27472788,0.27360797,-9.797834
18006257,18006031,-0.29453105,0.27285925,-9.80769
18056777,18056551,-0.27915087,0.28407902,-9.795798
18107323,18107070,-0.2907576,0.27111718,-9.801799
18157822,18157590,-0.2841154,0.27323672,-9.797449
18208383,18208109,-0.2876445,0.2755871,-9.7967205
18258895,18258628,-0.28739578,0.28433794,-9.792607
18309396,18309148,-0.29325438,0.28621894,-9.795083
18354822,18354615,-0.28943416,0.2826161,-9.79838
18405349,18405135,-0.2921342,0.29221535,-9.794785
18455868,18455654,-0.29214656,0.28557253,-9.788469
18506382,18506173,-0.29745904,0.27947485,-9.806945
18556900,18556693,-0.2873741,0.26396003,-9.803712
18607419,18607212,-0.28605554,0.26016793,-9.796508
18657940,18657732,-0.29372704,0.25562862,-9.799022
18708456,18708251,-0.2838258,0.29848373,-9.791649
18758984,18758770,-0.27945152,0.28139183,-9.7979355
18809498,18809290,-0.2779382,0.2786006,-9.795533
18854981,18854757,-0.27825585,0.277485,-9.795469
18905503,18905276,-0.27805746,0.290198,-9.797392
18961059,18960848,-0.27494243,0.3010449,-9.802471
19006543,19006315,-0.2728813,0.29445165,-9.797213
19057042,19056835,-0.2835775,0.2892762,-9.796974
19107584,19107354,-0.28529546,0.28102952,-9.802642
19158090,19157873,-0.30462798,0.289291,-9.806181
19208620,19208393,-0.28750643,0.28990924,-9.794649
19254067,19253860,-0.283774,0.25421074,-9.802783
19309657,19309431,-0.2898788,0.29294804,-9.801014
19360179,19359951,-0.27887172,0.27461094,-9.795368
19405626,19405418,-0.29039615,0.27864125,-9.796274
19461217,19460990,-0.28800344,0.28669262,-9.804766
19506662,19506457,-0.2918441,0.27979273,-9.802855
19557186,19556976,-0.2885281,0.284228,-9.796454
19607723,19607496,-0.28323355,0.2772393,-9.797217
19658224,19658015,-0.28863022,0.28079805,-9.805617
19708765,19708534,-0.2907622,0.28180677,-9.802317
19754233,19754002,-0.28672263,0.3128256,-9.788963
19809800,19809573,-0.27976438,0.29602507,-9.795442
19860303,19860093,-0.2862177,0.29359016,-9.798294
19905786,19905560,-0.27416447,0.29237792,-9.801407
19956305,19956079,-0.27789104,0.28929856,-9.809126
20006829,20006599,-0.27679247,0.30377412,-9.785565
20057345,20057118,-0.2713273,0.31673765,-9.794979
20107860,20107637,-0.28249738,0.29916215,-9.799974
20158391,20158158,-0.2884595,0.28524816,-9.795979
20208901,20208676,-0.29554334,0.26600495,-9.800921
20259467,20259196,-0.29530957,0.33363125,-9.799689
20304873,20304663,-0.28936243,0.26629815,-9.799091
20360482,20360234,-0.29449025,0.2917573,-9.7968
20405915,20405702,-0.3074737,0.31177223,-9.790564
20456433,20456221,-0.29511395,0.30493924,-9.8011465
20506976,20506740,-0.29262206,0.25715655,-9.80361
20557467,20557260,-0.28875336,0.30440703,-9.785032
20607988,20607779,-0.29645237,0.3112935,-9.802183
20658505,20658299,-0.2976042,0.2936766,-9.79741
20709031,20708818,-0.28774768,0.30941993,-9.792184
20759544,20759337,-0.27780506,0.271849,-9.80262
20805055,20804805,-0.27742198,0.32812414,-9.797018
20855551,20855324,-0.27156526,0.2951546,-9.799914
20906226,20905843,-0.28203854,0.28177646,-9.803329
20956587,20956363,-0.27826408,0.30705252,-9.803006
21007112,21006882,-0.27463767,0.31006745,-9.796882
21057628,21057401,-0.27479616,0.28880346,-9.792426
21108151,21107922,-0.28513986,0.2598486,-9.803708
21158665,21158440,-0.2925467,0.31950137,-9.8067
21209206,21208960,-0.28166133,0.29441455,-9.795064
21259705,21259479,-0.2799732,0.26604667,-9.7948065
21305152,21304947,-0.28885013,0.2862469,-9.797073
21355677,21355466,-0.29289085,0.29321635,-9.801748
21411269,21411037,-0.29874992,0.28949192,-9.798264
21456714,21456504,-0.29753542,0.28570247,-9.789445
21507234,21507024,-0.29269844,0.28028098,-9.801622
21557750,21557543,-0.30302373,0.30403516,-9.79939
21608268,21608062,-0.29297075,0.27873734,-9.794772
21658788,21658582,-0.30097473,0.2809972,-9.808571
21704276,21704049,-0.28241405,0.28779587,-9.79483
21759826,21759621,-0.27932024,0.2986173,-9.797568
21805316,21805088,-0.2749214,0.2706298,-9.8061
21855858,21855607,-0.2796554,0.26249877,-9.797917
21911386,21911179,-0.27253833,0.2866649,-9.806752
21956897,21956646,-0.27997205,0.29583058,-9.8016
22007388,22007165,-0.2648463,0.2869171,-9.807579
22057912,22057685,-0.27818593,0.31832606,-9.799497
22108441,22108204,-0.2878305,0.29903176,-9.79227
22158959,22158724,-0.29785147,0.29652068,-9.805677
22204396,22204191,-0.2875452,0.31834844,-9.791884
22259993,22259762,-0.28823888,0.30285257,-9.800225
22310554,22310281,-0.28262076,0.2937718,-9.810714
22355958,22355749,-0.28941542,0.29802892,-9.795981
22406499,22406268,-0.29344743,0.27697775,-9.805516
22457002,22456788,-0.28196833,0.27771807,-9.801369
22507514,22507307,-0.30040956,0.28016388,-9.80365
22558057,22557826,-0.29738373,0.27873236,-9.796016
22603543,22603294,-0.29225388,0.3084309,-9.789616
22659100,22658865,-0.29440558,0.25432754,-9.804955
22709593,22709384,-0.2950775,0.32093784,-9.791398
22755101,22754852,-0.2870414,0.2956733,-9.802333
22810630,22810423,-0.27666634,0.2716953,-9.804
22856214,22855890,-0.26785278,0.28370932,-9.795045
22906661,22906410,-0.2859216,0.27959186,-9.805173
22957135,22956929,-0.288738,0.28835848,-9.803328
23007676,23007448,-0.2818055,0.26373124,-9.800848
23058193,23057968,-0.26885033,0.30412576,-9.788806
23108738,23108487,-0.26799878,0.2934651,-9.797057
23159236,23159006,-0.28872553,0.3046222,-9.800587
23209752,23209526,-0.29621744,0.29090458,-9.7957325
23255201,23254993,-0.29359543,0.28899243,-9.7870455
23305718,23305513,-0.285738,0.32002512,-9.803186
23356240,23356032,-0.2896636,0.2664536,-9.7972975
23406760,23406551,-0.29122582,0.29370916,-9.802671
23457299,23457071,-0.30016497,0.2538178,-9.800523
23507799,23507590,-0.29796335,0.30103043,-9.813346
23558320,23558112,-0.27933612,0.21509822,-9.849764
23608834,23608629,-0.27161053,0.28824824,-9.586111
23654334,23654096,-0.31035462,0.39079654,-9.546637
23709873,23709667,-0.32280424,0.2718852,-9.384088
23755382,23755135,-0.22270401,0.3343602,-9.871344
23805882,23805656,-0.27823755,0.38562462,-9.74129
23856405,23856173,-0.27641574,0.19999349,-9.688003
23906945,23906693,-0.27163103,0.19367905,-9.93084
23957441,23957212,-0.27954608,0.3073241,-9.850561
24007980,24007731,-0.29775012,0.3356891,-9.768075
24058479,24058251,-0.25047466,0.25048023,-9.695373
24109001,24108770,-0.27484292,0.2731804,-9.780388
24154465,24154237,-0.2955558,0.2841738,-9.789892
24204985,24204757,-0.26105136,0.29425067,-9.722785
24255482,24255276,-0.2803019,0.24929205,-9.803036
24306004,24305796,-0.2770131,0.29668346,-9.804204
24361594,24361367,-0.29388118,0.304987,-9.792778
24407045,24406834,-0.31794977,0.25140554,-9.764521
24457582,24457354,-0.29815686,0.28622076,-9.809348
24508083,24507873,-0.29102677,0.25702137,-9.755264
24558617,24558392,-0.3271123,0.32702133,-9.746836
24609120,24608912,-0.2800879,0.26026618,-9.8142
24654627,24654379,-0.3049714,0.25514385,-9.777136
24710160,24709950,-0.29837513,0.30656397,-9.798061
24760677,24760470,-0.27356848,0.2655198,-9.8196745
24806224,24805937,-0.29754126,0.32326123,-9.78164
24856702,24856456,-0.24982634,0.34885326,-9.79518
24907207,24906976,-0.2816826,0.31081238,-9.834912
24957719,24957495,-0.2764317,0.29849106,-9.809006
25008259,25008014,-0.25562787,0.26127452,-9.799974
25058762,25058534,-0.24297565,0.2708965,-9.769916
25109279,25109053,-0.24711183,0.29459086,-9.791632
25154744,25154520,-0.20565718,0.25091404,-9.7987175
25205246,25205040,-0.2292851,0.27488646,-9.80337
25261057,25260611,-0.20284271,0.23482372,-9.7808075
25306286,25306078,-0.10872819,0.26652798,-9.780305
25356824,25356598,-0.07915112,0.34317157,-9.770495
25407323,25407117,-0.25843143,0.2879544,-9.794163
25457848,25457636,-0.45771906,0.30060342,-9.797689
25508409,25508156,-0.41780496,0.23292397,-9.830811
25553871,25553623,-0.37342462,0.24614704,-9.773008
25609401,25609194,-0.35136613,0.3653161,-9.803284
25659924,25659714,-0.49988776,0.23604244,-9.819685
25705408,25705181,-0.5573052,0.37768358,-9.803954
25760964,25760752,-0.48122028,0.21924768,-9.793827
25806445,25806220,-0.33113742,0.33107182,-9.799684
25856971,25856739,-0.24788259,0.3320831,-9.773255
25907485,25907258,-0.28137362,0.30748764,-9.787161
25958004,25957778,-0.4161043,0.3653935,-9.782806
26008519,26008297,-0.44914085,0.30466118,-9.805196
26059042,26058817,-0.40681085,0.26779142,-9.820277
26109564,26109336,-0.3420846,0.28506428,-9.768057
26160087,26159855,-0.34472156,0.29758513,-9.822434
26205532,26205322,-0.351467,0.30253962,-9.820187
26256051,26255842,-0.3278711,0.26006657,-9.82401
26311677,26311413,-0.27781153,0.3494536,-9.825913
26357091,26356880,-0.21419579,0.26768875,-9.821172
26407611,26407400,-0.15313241,0.2528263,-9.804978
26458129,26457919,-0.18938118,0.35232013,-9.7902565
26508646,26508438,-0.22010697,0.30165327,-9.784996
26559164,26558958,-0.26425508,0.29325184,-9.811839
26604675,26604425,-0.24937518,0.2924385,-9.800122
26660205,26659996,-0.24260217,0.33420897,-9.776019
26705719,26705464,-0.2681579,0.34603298,-9.825814
26756240,26755983,-0.29493105,0.30859578,-9.795422
26806752,26806503,-0.33708277,0.31905526,-9.792645
26857251,26857022,-0.34690058,0.33596987,-9.785588
26907786,26907541,-0.3518606,0.23018019,-9.80285
26958291,26958061,-0.36379033,0.38619608,-9.762808
27008809,27008580,-0.34381172,0.2481217,-9.765505
27059330,27059099,-0.34866917,0.33763936,-9.791022
27104795,27104567,-0.36094153,0.22765875,-9.797923
27155295,27155086,-0.376025,0.33176637,-9.792537
27205813,27205605,-0.32523775,0.26754653,-9.799372
27256333,27256124,-0.317298,0.2695339,-9.812545
27306851,27306644,-0.30045044,0.38804874,-9.804753
27357370,27357163,-0.31860432,0.26137722,-9.820245
27407890,27407682,-0.3108605,0.37323192,-9.800844
27458409,27458202,-0.3061956,0.22450602,-9.789865
27508936,27508721,-0.27431533,0.37258306,-9.767044
27559492,27559240,-0.29264796,0.26152158,-9.809595
27604937,27604708,-0.2994957,0.2879569,-9.818531
27655454,27655227,-0.29238024,0.28688893,-9.82652
27711004,27710798,-0.27155286,0.2459767,-9.821226
27756494,27756266,-0.23280883,0.35133085,-9.802997
27807014,27806785,-0.2718225,0.22995907,-9.797569
27857531,27857304,-0.29695502,0.34658983,-9.780208
27908052,27907824,-0.3208003,0.27132386,-9.767115
27958572,27958345,-0.31184793,0.27790058,-9.769525
28004198,28003811,-0.30330315,0.3027096,-9.804272
28059611,28059382,-0.3374885,0.30957174,-9.797904
28110133,28109901,-0.36091596,0.32036784,-9.807957
28155576,28155369,-0.3471384,0.29331636,-9.817297
28211167,28210940,-0.32005903,0.31794772,-9.822224
28256614,28256407,-0.3205936,0.2548238,-9.779836
28307132,28306926,-0.3068617,0.3244292,-9.773723
28357657,28357446,-0.31487542,0.27546808,-9.767268
28408176,28407965,-0.29652208,0.34423473,-9.762783
28458691,28458484,-0.3113106,0.24190612,-9.800205
28509217,28509004,-0.29394302,0.28666818,-9.808654
28559733,28559523,-0.30204126,0.3230813,-9.794047
28610251,28610042,-0.3000256,0.26018712,-9.837521
28655759,28655510,-0.28352013,0.39044818,-9.793531
28706263,28706029,-0.31071106,0.21250476,-9.793956
28756801,28756548,-0.2961103,0.29808655,-9.772172
28807318,28807068,-0.29451764,0.28641966,-9.767983
28857837,28857587,-0.29511687,0.26944533,-9.796778
28908338,28908106,-0.30892485,0.31292135,-9.795883
28958879,28958626,-0.3032489,0.28859594,-9.799525
29009375,29009145,-0.30689907,0.27923936,-9.797595
29054819,29054612,-0.31803337,0.27025184,-9.813468
29110411,29110184,-0.3369427,0.3225984,-9.819128
29155877,29155651,-0.33871758,0.27367422,-9.802602
29206377,29206170,-0.3165563,0.30948812,-9.770481
29256897,29256690,-0.33737034,0.2757114,-9.775894
29307417,29307209,-0.32549062,0.2857525,-9.803751
29357939,29357728,-0.32186526,0.23962194,-9.78218
29408462,29408248,-0.31095973,0.2442234,-9.803988
29458975,29458767,-0.30264634,0.34044352,-9.788463
29509494,29509286,-0.28292602,0.24418437,-9.8107815
29554984,29554754,-0.2746525,0.3595633,-9.80006
29605515,29605273,-0.29725817,0.20053136,-9.814469
29656040,29655792,-0.29054594,0.34716463,-9.768494
29706540,29706312,-0.30667675,0.107807115,-9.828163
29757057,29756831,-0.28073058,0.45049033,-9.821805
29807574,29807350,-0.29934913,0.25653955,-9.801851
29858102,29857870,-0.3039312,0.18004559,-9.826353
29908617,29908389,-0.33581716,0.3719374,-9.785957
29959133,29958908,-0.28981483,0.17259403,-9.797625
30009673,30009428,-0.2955429,0.35406107,-9.7832775
30055102,30054895,-0.2968461,0.23710923,-9.794195
30105626,30105414,-0.31902716,0.296013,-9.792368
30161216,30160986,-0.34607282,0.24581505,-9.781321
30206663,30206453,-0.34742454,0.24719359,-9.767277
30257179,30256972,-0.3529732,0.3293501,-9.775545
30307728,30307492,-0.31934902,0.19625166,-9.76859
30358219,30358013,-0.32709,0.41527504,-9.819784
30408744,30408530,-0.30860168,0.22165047,-9.816982
30454247,30453998,-0.30164036,0.3320576,-9.803652
30509779,30509569,-0.30805287,0.17648022,-9.78634
30555285,30555036,-0.29245874,0.41743794,-9.823479
30605805,30605556,-0.27068344,0.2334291,-9.803715
30661337,30661129,-0.31055713,0.37118828,-9.792906
30706821,30706594,-0.30637744,0.32901552,-9.7880335
30757390,30757113,-0.30824795,0.11308616,-9.83456
30807882,30807633,-0.3085294,0.4040855,-9.778276
30858398,30858152,-0.29710805,0.29456353,-9.802159
30908944,30908671,-0.29872835,0.28493756,-9.786496
30954345,30954139,-0.29402956,0.27416486,-9.766912
31009959,31009710,-0.32101175,0.27896336,-9.785959
31060452,31060229,-0.30443913,0.22744977,-9.794024
31105904,31105697,-0.27704555,0.28765908,-9.811261
31156423,31156216,-0.30738023,0.31867748,-9.807251
31206948,31206736,-0.31808838,0.26530156,-9.799825
31257476,31257255,-0.32578212,0.40727824,-9.789552
31307983,31307774,-0.34621423,0.25529736,-9.802238
31358500,31358293,-0.31180957,0.34514597,-9.768965
31409019,31408813,-0.3037059,0.2765549,-9.812099
31459539,31459332,-0.30219775,0.38969234,-9.793888
31505036,31504799,-0.30475807,0.26526943,-9.7856245
31560580,31560371,-0.29449272,0.2834324,-9.811244
31606065,31605838,-0.31419024,0.24022602,-9.811423
31656589,31656358,-0.2822732,0.27102503,-9.831818
31707123,31706877,-0.32672516,0.29970497,-9.807679
31757624,31757396,-0.31840494,0.28252017,-9.796815
31808165,31807915,-0.30743796,0.32649344,-9.789258
31858661,31858435,-0.28188697,0.2812994,-9.809716
31909179,31908954,-0.27642873,0.3453918,-9.789418
31959698,31959473,-0.30556732,0.26407778,-9.775445
32005148,32004941,-0.29282862,0.35308608,-9.8108425
32055666,32055460,-0.30978853,0.34614176,-9.819449
32106190,32105979,-0.29209745,0.3184131,-9.805649
32156705,32156499,-0.33655924,0.26852897,-9.814785
32207224,32207018,-0.31320748,0.27968347,-9.791776
32257767,32257537,-0.32088834,0.3161932,-9.798495
32308262,32308057,-0.28853196,0.27982154,-9.767786
32358806,32358576,-0.28292257,0.38278353,-9.786308
32409302,32409095,-0.29948533,0.2578983,-9.774803
32459822,32459614,-0.30512774,0.38168842,-9.761458
32505307,32505082,-0.33461758,0.33077496,-9.795031
32555854,32555602,-0.32744724,0.32874805,-9.815084
32606368,32606121,-0.34804142,0.37578952,-9.775065
32656891,32656640,-0.31176332,0.33328977,-9.800726
32707406,32707159,-0.32758084,0.28104746,-9.807899
32757924,32757678,-0.3268776,0.34646088,-9.751942
32808468,32808198,-0.32029343,0.36639968,-9.786393
32858969,32858717,-0.29465026,0.2900502,-9.769483
32904392,32904184,-0.25066277,0.34534836,-9.823951
32960005,32959760,-0.27730104,0.3538876,-9.798527
33005432,33005223,-0.27975637,0.31488892,-9.800594
33055951,33055742,-0.35376456,0.2703646,-9.810733
33111544,33111314,-0.3264285,0.43984956,-9.797713
33156999,33156781,-0.31321025,0.34971485,-9.812773
33207507,33207300,-0.28683543,0.29848212,-9.78083
33258026,33257820,-0.3019661,0.37169454,-9.779592
33308546,33308339,-0.3188468,0.24117254,-9.78662
33359064,33358858,-0.28340378,0.3385281,-9.782868
33404573,33404326,-0.2849752,0.35428792,-9.797795
33455075,33454845,-0.24041647,0.32792115,-9.812604
33510625,33510416,-0.32980487,0.2970806,-9.837628
33556111,33555884,-0.33973476,0.34053567,-9.773199
33606627,33606403,-0.3472128,0.41483212,-9.794225
33657153,33656922,-0.2926802,0.28573304,-9.776505
33707669,33707442,-0.28323007,0.3357492,-9.769151
33758221,33757961,-0.3338033,0.27238354,-9.79928
33808706,33808480,-0.30533743,0.30971536,-9.807069
33859225,33859000,-0.31554684,0.3557807,-9.80957
33909749,33909519,-0.26035443,0.22015987,-9.849307
33955220,33954986,-0.30659258,0.30253306,-9.811166
34010789,34010558,-0.30833212,0.29086596,-9.815978
34056233,34056025,-0.3267211,0.26236305,-9.789802
34106752,34106544,-0.33478737,0.3544836,-9.746718
34157277,34157064,-0.314982,0.3233512,-9.766718
34207790,34207583,-0.3241106,0.3405293,-9.780809
34258311,34258102,-0.2953785,0.29790008,-9.796006
34303828,34303569,-0.32095867,0.2892833,-9.788193
34359348,34359141,-0.2959189,0.28687918,-9.825757
34409890,34409660,-0.3095844,0.30437452,-9.821991
34455375,34455127,-0.27613464,0.23359832,-9.778178
34510908,34510699,-0.2917956,0.21698342,-9.815195
34556415,34556166,-0.27487767,0.27952597,-9.807345
34606936,34606686,-0.27999803,0.29668868,-9.819117
34657451,34657205,-0.27372262,0.27860212,-9.785466
34707973,34707724,-0.25023267,0.24039005,-9.807088
34758496,34758243,-0.2804179,0.2906428,-9.806306
34809015,34808763,-0.26423278,0.31341437,-9.838758
34859529,34859282,-0.27944893,0.31578285,-9.783397
34910056,34909801,-0.23149379,0.29024115,-9.814146
34955479,34955269,-0.24025418,0.20520572,-9.777644
35005996,35005788,-0.22382,0.30186623,-9.834204
35056517,35056308,-0.25242022,0.23648438,-9.781963
35107035,35106827,-0.18713365,0.32711872,-9.77403
35157555,35157346,-0.15193453,0.11919148,-9.776878
35208076,35207865,-0.12910464,0.374008,-9.764942
35258597,35258385,-0.1037277,0.2473007,-9.779799
35309112,35308904,-0.06649063,0.26738584,-9.825244
35354619,35354371,0.15520652,0.29846966,-9.789628
35410153,35409943,0.45413435,0.28459087,-9.774285
35455638,35455410,-0.18713881,0.3398585,-9.7309065
35506156,35505929,-0.38074046,0.19033203,-10.03074
35561715,35561500,-0.09676349,0.22829278,-9.80504
35607197,35606968,0.0959026,0.3756378,-9.722342
35657716,35657487,0.7079864,0.3477846,-9.698982
35708234,35708007,-0.47144768,0.3302401,-9.924803
35758756,35758526,-0.28058797,0.24746825,-9.952264
35809294,35809045,0.09875745,0.2980017,-9.695904
35854718,35854513,0.44155115,0.4807417,-9.7973585
35905239,35905032,0.3475591,0.29741856,-9.912029
35955756,35955551,0.7612894,0.289012,-9.729725
36006302,36006071,-0.0016244635,0.44119588,-9.212048
36056798,36056590,0.34654188,0.04292469,-10.039703
36107315,36107109,0.07105149,0.21821792,-9.470761
36157836,36157628,1.0943955,0.577465,-9.984884
36208354,36208148,0.54892427,0.39651287,-9.819775
36259070,36258667,1.0646749,0.31552106,-9.18673
36309395,36309187,0.5984605,0.5735039,-9.626461
36354876,36354654,0.42125687,0.5670693,-10.595255
36405421,36405173,0.3545714,0.024923818,-10.0757065
36460972,36460744,0.5712993,0.5351757,-10.275794
36506481,36506212,0.94726145,0.87123024,-9.185061
36556979,36556731,1.0957886,0.4282877,-10.10961
36607498,36607250,1.4053495,0.8428609,-10.651646
36658022,36657770,1.3748442,0.40795383,-10.306325
36708556,36708289,0.3096594,0.58321136,-10.162942
36759060,36758808,1.2992604,0.38352248,-9.708146
36809577,36809328,1.399569,0.42375568,-9.326618
36860096,36859847,1.0361991,0.6889505,-10.115406
36905522,36905314,1.6121562,0.43981507,-9.992528
36961237,36960885,1.709452,0.73220694,-10.058208
37006559,37006353,0.7612379,0.6646843,-7.587864
37057080,37056872,1.7309804,0.30163205,-9.3015585
37107598,37107392,1.9073112,0.8554811,-10.141802
37158144,37157911,1.0779489,0.07279459,-11.141291
37208660,37208430,1.4898281,0.6397727,-9.682419
37259157,37258950,0.8527581,1.5252517,-9.170702
37309675,37309469,1.7290612,0.41326424,-8.956532
37360195,37359988,1.1896018,0.29905483,-10.856774
37405699,37405456,1.2979903,2.0875025,-9.338168
37456202,37455975,2.2264693,0.10304262,-9.488897
37506719,37506494,0.57026833,1.2354482,-7.885454
37557244,37557013,0.92552096,0.6290789,-9.861385
37607757,37607533,1.9492338,0.85625464,-10.2216215
37658304,37658052,0.5319557,1.2711557,-10.760969
37708798,37708571,2.6665447,-0.17924899,-10.802041
37759319,37759091,0.8753089,1.3226837,-8.071596
37804764,37804558,2.3824406,0.6926852,-9.930269
37860360,37860129,0.780044,0.43050623,-11.448689
37905803,37905597,0.8473362,0.88525885,-10.014581
37956324,37956116,0.7733849,0.62241143,-11.688197
38006855,38006635,1.1493392,0.4556087,-8.423927
38057366,38057155,2.4218073,0.6279371,-9.06427
38107899,38107674,0.36049867,-0.025384754,-8.384062
38158401,38158193,1.5892394,0.5807088,-10.414569
38209056,38208714,1.7094114,0.8631505,-11.049767
38259440,38259232,1.7522523,1.0602558,-12.127633
38304931,38304699,1.5638293,0.640885,-10.113816
38360481,38360271,1.7041922,0.58011746,-9.734947
38405968,38405738,1.163551,1.4606371,-10.727473
38456482,38456257,1.5684446,0.18630813,-10.789404
38507031,38506777,0.6994852,1.0389913,-9.970438
38557547,38557296,1.2473922,0.26871026,-9.348843
38608065,38607815,1.9260733,0.7453909,-11.619057
38658583,38658335,1.4232492,0.3439239,-9.565366
38711588,38711380,1.0779337,0.82265234,-9.521448
38757078,38756847,1.9312286,0.7881254,-10.494239
38807574,38807367,1.099908,0.83257955,-8.582664
38858094,38857886,1.8832995,0.864829,-11.060818
38908612,38908405,1.4807681,0.026343906,-10.356035
38959134,38958925,1.4307712,1.0355271,-11.816945
39004609,39004392,1.6444712,0.60542995,-7.897586
39060183,39059963,0.99715143,0.7440557,-9.137383
39110692,39110482,0.9704478,0.47692752,-11.924078
39156160,39155950,1.1494908,0.4865682,-9.222981
39206677,39206469,1.0505462,0.23581651,-9.233651
39257218,39256988,1.2170527,0.21731664,-8.376585
39307716,39307508,0.7101312,0.6704873,-10.626104
39358237,39358027,2.175165,0.47242805,-10.474705
39408757,39408546,1.1125693,1.2534689,-9.774224
39459274,39459066,1.3650308,0.3495471,-9.317246
39504739,39504533,1.7389605,0.32143778,-9.472733
39555260,39555053,1.4712685,0.588801,-9.175739
39610831,39610624,1.4215021,0.50833905,-9.737452
39656298,39656091,0.57646126,0.47379622,-8.941639
39706818,39706610,2.229265,0.4969667,-11.810643
39757338,39757130,1.3615463,0.6203449,-10.854306
39808056,39807649,0.9208456,0.60060817,-9.514548
39858376,39858168,0.45994076,0.36049253,-10.804417
39908902,39908688,1.6644404,0.7876192,-8.481746
39959414,39959207,0.51416856,0.20114774,-9.8590555
40009935,40009726,0.8559665,0.50177276,-10.288353
40055400,40055194,1.2762997,0.42968526,-8.004114
40110973,40110765,0.2944852,0.32325324,-10.652836
40156465,40156232,0.2881032,0.36607626,-9.93844
40206979,40206752,1.6889858,0.5242426,-9.771711
40257482,40257271,0.023726098,-0.20114441,-10.414637
40308018,40307790,0.43432525,0.3660882,-7.639577
40358520,40358310,0.94314677,1.0468065,-9.238818
40409055,40408829,1.2815,-0.26077637,-10.585384
40459556,40459349,0.87725,0.95420444,-11.090441
40510220,40509868,0.80867,0.82194287,-10.039432
40555541,40555335,1.1122818,0.038442798,-10.336252
40606063,40605854,1.5295315,0.12626413,-9.702364
40656584,40656374,0.978048,0.4003121,-10.021243
40707104,40706893,1.039482,-0.31829855,-7.9781275
40757621,40757412,1.1705054,0.48637068,-9.69597
40808163,40807932,1.1792107,0.31785786,-10.72871
40858657,40858451,0.26646656,-0.08570427,-8.374034
40909179,40908970,0.7025629,0.40604398,-9.721834
40954644,40954438,0.93049484,0.5568177,-9.935465
41005165,41004957,0.9792277,0.263951,-9.981881
41055684,41055476,0.847893,-0.10536647,-10.14283
41106205,41105996,0.6088342,0.21554685,-9.467379
41156723,41156515,0.73423225,0.52838373,-9.257453
41207243,41207034,0.37838674,0.58743674,-10.034898
41257761,41257554,0.592022,0.2564219,-10.210703
41308282,41308073,0.4453994,0.18522428,-9.359373
41358800,41358592,0.78389406,0.7225999,-9.977868
41409322,41409112,0.544943,0.140439,-9.824719
41454787,41454579,0.66312546,0.6339761,-10.09953
41510357,41510151,0.52314925,0.4515209,-9.532014
41555829,41555618,0.6186212,0.17532174,-10.076589
41606344,41606137,0.45645347,0.45546958,-9.615731
41656865,41656656,0.5561936,0.47045368,-10.039228
41707383,41707176,0.27153784,0.15071663,-9.943424
41758065,41757695,0.15563689,0.41210654,-10.204877
41808422,41808214,-0.08789015,0.46242058,-10.2339115
41858943,41858734,-0.18634513,0.28695524,-10.573675
41909459,41909253,-0.19530848,0.4573835,-10.110495
41954929,41954720,0.007848433,0.390463,-10.4393215
42005452,42005240,0.11087125,0.2849139,-10.129073
42061019,42060811,0.22935273,0.4531592,-10.154464
42106486,42106278,0.22493905,0.5018554,-10.190594
42157009,42156798,0.20371698,0.2268972,-10.130181
42207544,42207317,0.06340965,0.43164197,-10.298502
42258044,42257836,-0.08671978,0.29201013,-10.622229
42308564,42308356,-0.37881613,0.12083782,-10.885542
42354034,42353823,-0.6472611,0.39568782,-10.929018
42409601,42409394,-0.8805316,0.21982962,-10.916175
42460221,42459914,-1.0062536,0.26090103,-10.841475
42505589,42505381,-0.97944343,0.29725754,-10.527031
42561181,42560952,-0.7225105,0.14179388,-10.158574
42606630,42606420,-0.60290104,0.5946057,-10.016392
42657157,42656939,-0.47925928,0.32535967,-9.73362
42707666,42707458,-0.25493008,-0.049047653,-9.669324
42758184,42757978,-0.5276847,0.4205791,-9.659931
42808706,42808497,-0.63687724,0.2500251,-9.823222
42859247,42859016,-0.6621661,-0.094635755,-9.803607
42909742,42909536,-0.90319276,0.5443489,-10.036175
42960262,42960055,-0.9035249,0.34276468,-9.921453
43005731,43005522,-0.93371975,0.44515434,-9.74795
43056254,43056042,-0.82877916,0.26181024,-9.507517
43106767,43106561,-0.6448913,0.35902673,-9.406387
43157288,43157080,-0.63963085,-0.06794345,-9.40253
43207805,43207600,-0.45902026,0.4282729,-9.376374
43258330,43258119,-0.61947036,0.61010426,-9.468256
43308844,43308638,-0.7265133,0.10762353,-9.473641
43359367,43359158,-0.7809708,0.62719506,-9.477254
43404833,43404625,-0.80956817,0.63184834,-9.401216
43460771,43460351,-0.6177033,0.09566757,-9.241088
43505724,43505312,-0.5283606,0.2804344,-9.291948
43555669,43555267,-0.50755334,-0.06447361,-9.189109
43610622,43610219,-0.5170455,0.39928937,-9.298339
43660573,43660174,-0.7454979,-0.20038582,-9.470795
43705534,43705134,-0.7439621,0.1751389,-9.371282
43755492,43755090,-0.64601463,0.32004872,-9.44435
43810443,43810041,-0.5985932,0.036028683,-9.446332
43855401,43855001,-0.37712067,0.23602915,-9.460879
43905357,43904957,-0.38262042,0.032012947,-9.52093
43960308,43959908,-0.4645553,0.38310438,-9.458183
44010263,44009864,-0.54054475,0.13197783,-9.628564
44055224,44054824,-0.5930047,0.07014968,-9.689436
44105182,44104780,-0.6080277,0.06626634,-9.733274
44160131,44159731,-0.5713983,0.07042573,-9.7796335
44210085,44209687,-0.5521061,0.23242828,-9.740211
44255048,44254647,-0.55914587,0.04876748,-9.847695
44309999,44309598,-0.6469909,0.25027552,-9.851745
44359954,44359554,-0.6218161,0.027485702,-9.846976
44404925,44404514,-0.55756617,0.007540719,-9.664505
44454869,44454470,-0.42364267,0.08841735,-9.683973
44509820,44509421,-0.32386708,0.11251455,-9.59849
44559775,44559377,-0.22880964,0.035999224,-9.505783
44604739,44604337,-0.31202924,0.012994638,-9.6108055
44659701,44659289,-0.3716468,0.384747,-9.50129
44709644,44709244,-0.39626145,-0.00366036,-9.665999
44759601,44759200,-0.41391093,-0.069709465,-9.70742
44804598,44804160,-0.3914193,-0.109311305,-9.785924
44859510,44859111,-0.49429718,0.09219002,-9.836552
44909466,44909067,-0.5296162,0.05562984,-9.930101
44954430,44954027,-0.57908595,-0.010132091,-9.919029
45009377,45008979,-0.6296322,0.11572988,-9.80937
45059362,45058934,-0.5783523,0.08438499,-9.819104
45109290,45108890,-0.46400952,0.10484451,-9.77504
45154251,45153850,-0.50643706,-0.19325675,-9.852329
45209206,45208802,-0.5178733,0.070251316,-9.819874
45259154,45258757,-0.46171647,0.0964017,-9.72283
45309114,45308713,-0.41834512,-0.015018628,-9.753634
45359068,45358669,-0.30920932,-0.22858575,-9.702393
45409024,45408624,-0.22449929,-0.26862335,-9.713627
45458981,45458580,-0.22564343,-0.022411713,-9.7110195
45503944,45503540,-0.25286523,-0.009080934,-9.7130785
45558892,45558492,-0.34937003,0.034877907,-9.7677965
45608848,45608447,-0.44122392,-0.068337746,-9.790121
45658806,45658403,-0.3783369,0.07945403,-9.799855
45708761,45708359,-0.388462,0.2650869,-9.835779
45758714,45758315,-0.33365953,0.37117007,-9.845553
45808682,45808270,-0.37748024,0.19734278,-9.905804
45858627,45858226,-0.37815908,0.11604324,-9.777453
45908582,45908182,-0.3903996,0.43345007,-9.803712
45958563,45958138,-0.378246,0.3221836,-9.759129
46008492,46008093,-0.3387691,0.30027458,-9.872637
46058449,46058049,-0.31890112,0.2339184,-9.806042
46108405,46108005,-0.30971414,0.352945,-9.840751
46158361,46157961,-0.35956845,0.38184077,-9.859801
46208315,46207916,-0.34450588,0.2568544,-9.75097
46258275,46257872,-0.3985744,0.26763672,-9.787891
46308392,46307703,-0.39684653,0.25320932,-9.734309
46358185,46357784,-0.3800564,0.32688832,-9.76081
46408198,46407739,-0.39626086,0.34694308,-9.735562
46458096,46457695,-0.39956394,0.3048429,-9.79098
46508052,46507651,-0.38705444,0.3975927,-9.772307
46558008,46557607,-0.388942,0.35773116,-9.825559
46607966,46607563,-0.36072072,0.4127293,-9.771742
46657918,46657518,-0.34831074,0.37303594,-9.8058815
46707872,46707474,-0.34004965,0.060608733,-9.736731
46757839,46757430,-0.3597478,0.24938859,-9.784741
46807787,46807386,-0.39459267,0.035981916,-9.789757
46857741,46857341,-0.4235396,0.18886808,-9.79216
46907695,46907297,-0.40875736,0.18564995,-9.78816
46957652,46957253,-0.4049317,0.22103155,-9.75376
47007609,47007209,-0.3631762,0.16674978,-9.831072
47057576,47057164,-0.39371523,-0.17451702,-9.767805
47107518,47107120,-0.3213681,0.1579164,-9.823316
47157477,47157076,-0.3887507,0.08037182,-9.820314
47207432,47207032,-0.30346206,0.09447511,-9.896512
47257435,47256988,-0.31653664,0.17582956,-9.768301
47307344,47306943,-0.2440895,0.2990437,-9.828483
47357298,47356899,-0.2124974,0.12923858,-9.830167
47407253,47406855,-0.18082693,0.38306186,-9.808471
47457213,47456811,-0.07134137,0.07647448,-9.812379
47507171,47506766,-0.15886435,0.2360299,-9.808645
47557120,47556722,-0.033141967,0.24121204,-9.85607
47607081,47606678,-0.08617097,-0.02633754,-9.867976
47657034,47656634,-0.13109004,0.19676179,-9.832814
47706990,47706590,-0.126276,0.24768001,-9.824663
47756946,47756545,-0.26326388,0.0792972,-9.775009
47806900,47806501,-0.18970579,-0.0055479426,-9.686234
47856856,47856457,-0.19531313,0.13537472,-9.67469
47907023,47906413,-0.15028355,0.28774852,-9.701226
47956768,47956369,-0.13311957,0.031641454,-9.695965
48006723,48006324,-0.23917373,0.32565528,-9.769413
48056682,48056280,-0.21423814,0.10773906,-9.848069
48106635,48106236,-0.23815867,0.32559296,-9.8947115
48161604,48161187,-0.22343664,0.0017578143,-9.88519
48206554,48206148,-0.25018772,0.45644653,-9.820623
48256505,48256103,-0.17057982,0.08150003,-9.817094
48306460,48306059,-0.14348672,0.020197531,-9.748177
48356418,48356015,-0.1062605,0.42404905,-9.632296
48406373,48405971,-0.07032902,0.109505795,-9.61527
48456328,48455927,-0.025485715,-0.20725068,-9.816634
48511280,48510878,-0.048545137,0.060698807,-9.686877
48556237,48555838,0.08190389,-0.054896362,-9.774656
48606196,48605794,0.072700374,-0.21472888,-9.772912
48656165,48655750,0.127754,0.12029861,-9.56746
48706836,48706629,0.1009939,0.19110328,-9.943752
48757356,48757148,0.024897631,0.04818658,-9.649789
48807875,48807668,-0.021366715,0.41749102,-9.8062105
48858394,48858187,-0.037274953,0.33848715,-9.62001
48908916,48908706,-0.04150614,-0.08662831,-9.868459
48959431,48959226,-0.0472968,0.23918587,-9.714479
49004919,49004693,-0.038147513,0.12563653,-9.699087
49060478,49060264,-0.14917533,0.32932085,-9.872242
49105958,49105732,-0.122362815,0.035848305,-9.800457
49156478,49156251,-0.15021655,0.0690615,-9.777249
49207089,49206770,-0.12443543,0.07947841,-9.916094
49257539,49257290,-0.1368143,-0.37911206,-9.906731
49308015,49307809,-0.2683385,0.103706434,-9.831086
49358577,49358329,-0.35411572,-0.2116198,-9.918913
49409057,49408848,-0.37101564,-0.20820408,-9.734323
49459615,49459367,-0.41089532,0.19714808,-9.768391
49505086,49504835,-0.43675542,0.11523764,-9.73357
49555563,49555356,-0.35733077,-0.025144517,-9.751001
49606085,49605873,-0.4325398,0.03600411,-9.674255
49656612,49656393,-0.38136658,0.5141139,-9.837927
49707124,49706912,-0.36519715,-0.21430054,-9.810152
49757658,49757431,-0.36117443,-0.083709985,-9.837361
49808162,49807951,-0.31880513,0.28502545,-9.849807
49858676,49858470,-0.25318,-0.026972312,-9.8511715
49909205,49908989,-0.26219365,0.0690445,-9.851308
49959736,49959509,-0.30106878,-0.061859142,-9.77922
50010244,50010028,-0.33213946,0.06590316,-9.807875
50055742,50055496,-0.31920493,-0.02940444,-9.767293
50106265,50106015,-0.30743808,0.023602484,-9.752292
50156810,50156534,-0.28818616,0.44382834,-9.861787
50207300,50207054,-0.32998574,0.2134555,-9.901338
50257819,50257573,-0.29243514,-0.078186,-9.914988
50308342,50308092,-0.2926381,0.12899037,-9.9901495
50358860,50358612,-0.39149836,0.14374202,-9.947888
50404290,50404080,-0.33856893,0.49167353,-9.917579
50459909,50459650,-0.42097127,0.3111752,-9.7508135
50505325,50505118,-0.5402995,0.36966443,-10.004347
50555849,50555637,-0.6292377,0.14561197,-9.9266405
50611478,50611208,-0.5807449,0.188572,-9.730921
50656907,50656676,-0.52634573,0.32881868,-9.721676
50707400,50707195,-0.41797382,0.13875969,-9.750618
50757921,50757714,-0.4371214,0.6320287,-9.642366
50808441,50808234,-0.4852771,0.3481153,-9.632487
50858962,50858753,-0.5171374,0.2776327,-9.609578
50909485,50909273,-0.4625413,0.5512779,-9.535777
50960000,50959792,-0.43674952,0.6606971,-9.589868
51010520,51010311,-0.3085825,0.58173394,-9.731308
51056006,51055779,-0.31235904,0.5403525,-9.703642
51106526,51106298,-0.3106218,0.24917383,-9.754981
51157221,51156817,-0.40769783,0.41596627,-9.780194
51207565,51207337,-0.45184407,0.610166,-9.7697315
51258090,51257856,-0.3745558,0.42349702,-9.783195
51308601,51308375,-0.36743027,0.42256397,-9.780174
51359128,51358895,-0.35040042,0.45338207,-9.7955065
51409644,51409414,-0.35660297,0.43110958,-9.800838
51455089,51454881,-0.39987782,0.5774669,-9.705477
51510692,51510453,-0.45515692,0.7671615,-9.8068075
51556147,51555921,-0.4296963,0.4912644,-9.801855
51606646,51606440,-0.38761017,0.6716025,-9.800983
51657168,51656959,-0.3955266,0.6026179,-9.794863
51707685,51707478,-0.35285217,0.81097513,-9.801955
51758204,51757998,-0.34142834,0.41390395,-9.766374
51808734,51808517,-0.356005,0.28962475,-9.825877
51859245,51859036,-0.43198785,0.3469678,-9.839843
51909765,51909556,-0.33599323,0.1073744,-9.835224
51955249,51955023,-0.37313297,0.06694684,-9.9154625
52005767,52005542,-0.34713054,0.18426286,-9.909895
52056290,52056062,-0.30064237,-0.35998166,-9.962947
52108256,52107858,-0.42075804,0.26756385,-9.894193
52158231,52157824,-0.3297193,0.7056403,-9.932402
52208191,52207790,-0.2959524,-0.5203179,-9.831127
52258169,52257756,-0.24306273,-0.25934085,-9.798857
52308119,52307722,-0.293525,0.16259004,-9.895111
52358086,52357688,-0.19085954,-0.13246824,-9.790922
52408055,52407654,-0.21917336,-0.26322302,-9.734784
52458017,52457619,-0.29718226,-0.16737609,-9.703727
52507984,52507585,-0.35983896,0.20733471,-9.618229
52557950,52557551,-0.23240428,0.4104916,-9.635689
52607919,52607517,-0.24534574,-0.45001823,-9.600975
52657883,52657483,-0.2612737,0.08939786,-9.715775
52707846,52707448,-0.30116165,-0.1578713,-9.683627
52757813,52757414,-0.29688743,-0.5507385,-9.893078
52807780,52807380,-0.34953043,0.43463907,-9.8528
52857742,52857346,-0.24677469,0.073858745,-9.799768
52907718,52907312,-0.29381964,0.064461164,-9.656884
52957677,52957278,-0.21875657,0.19816667,-9.823534
53007641,53007243,-0.30683154,0.46599755,-9.83576
53057606,53057209,-0.30210102,0.10225628,-9.771973
53107575,53107175,-0.38136578,-0.54741454,-9.750147
53157591,53157141,-0.33901867,0.61399615,-9.839261
53207505,53207107,-0.3552443,-0.1510957,-9.857419
53257472,53257073,-0.28936836,0.8252661,-9.829228
53307438,53307039,-0.3675362,0.76726156,-9.702023
53357403,53357004,-0.39373767,0.5450697,-9.771301
53407370,53406970,-0.36133328,0.3840407,-9.710884
53457334,53456936,-0.44099656,0.4280823,-9.695061
53507301,53506902,-0.4418228,0.26728562,-9.700371
53557267,53556868,-0.33035293,0.3990798,-9.589008
53607240,53606834,-0.37461725,0.55985606,-9.662183
53657200,53656800,-0.27745807,0.23803748,-9.722619
53707164,53706765,-0.3865876,0.8867862,-9.613951
53757133,53756731,-0.3686452,0.85805345,-9.849582
53807101,53806697,-0.43941176,0.5425723,-9.747156
53857063,53856663,-0.36204588,0.75988495,-9.759622
53907028,53906629,-0.39999115,0.60722566,-9.473977
53956995,53956594,-0.32740676,0.4718037,-9.588025
54006958,54006560,-0.31268844,-0.087453865,-9.644563
54056932,54056526,-0.34435123,0.9535524,-9.776874
54106898,54106492,-0.3399579,0.7249783,-9.713198
54156857,54156458,-0.3853352,0.8563915,-9.76872
54206822,54206424,-0.3626069,0.8677808,-9.626407
54256789,54256390,-0.38706204,0.71303326,-9.613461
54306765,54306355,-0.35184908,0.34717607,-9.628807
54356724,54356321,-0.29062295,0.32756516,-9.766723
54406688,54406287,-0.37929335,0.640882,-9.824336
54461646,54461249,-0.35204908,0.7588361,-9.852834
54506620,54506219,-0.33328485,0.6897355,-9.755617
54556584,54556184,-0.3778676,1.2217513,-9.567629
54606548,54606150,-0.27774936,0.55872226,-9.634165
54656515,54656116,-0.4062052,0.83860815,-9.648134
54706482,54706082,-0.30499396,0.7121941,-9.811662
54756446,54756048,-0.34493017,0.7586724,-9.782744
54811407,54811010,-0.30683827,0.8980085,-9.84327
54856376,54855980,-0.27291673,0.92502064,-9.733071
54906356,54905945,-0.3207802,0.9912412,-9.689248
54956307,54955911,-0.29680902,0.8424069,-9.707788
55006275,55005877,-0.28388882,0.841055,-9.685168
55056243,55055843,-0.24465217,0.86282194,-9.877663
55106207,55105809,-0.24004525,1.0176538,-9.876363
55161170,55160771,-0.23041792,0.7180434,-9.86895
55206169,55205740,-0.27274215,0.65312934,-9.799137
55256103,55255706,-0.29631838,0.96869004,-9.814321
55306072,55305672,-0.24259958,0.6104033,-9.800169
55361032,55360634,-0.3011318,0.49249834,-9.799671
55405999,55405604,-0.26578364,0.63926864,-9.791596
55455967,55455570,-0.26498118,0.79001826,-9.735311
55510930,55510535,-0.29136622,0.5616873,-9.780212
55555897,55555501,-0.45088997,0.5122233,-9.866168
55605867,55605467,-0.4942442,0.8844394,-9.821871
55655832,55655433,-0.4534007,0.067997225,-9.80892
55710791,55710395,-0.5626815,0.4441901,-9.879378
55755761,55755365,-0.4108871,0.29441512,-9.809856
55805727,55805330,-0.4007263,-0.001832077,-9.863683
55855692,55855296,-0.48352793,0.30944297,-9.826188
55910656,55910259,-0.45815188,0.39885157,-9.792191
55955626,55955228,-0.44292337,0.16896851,-9.758532
56005590,56005194,-0.485726,-0.017315311,-9.633711
56060557,56060156,-0.44083354,0.39988655,-9.706411
56105522,56105125,-0.3818436,0.1743818,-9.726714
56155487,56155091,-0.32093978,-0.02829698,-9.709704
56210449,56210054,-0.4236083,0.5102565,-9.701775
56260416,56260020,-0.43283737,0.41553658,-9.577559
56305402,56304989,-0.49066988,0.36088064,-9.767269
56355352,56354955,-0.4972958,0.05278933,-9.792578
56410314,56409917,-0.52918833,-0.100937165,-9.803926
56455284,56454886,-0.5597695,0.14660938,-9.856141
56505250,56504852,-0.46844652,-0.35275355,-9.973464
56560216,56559815,-0.59109133,0.28967065,-9.793914
56610183,56609780,-0.46857327,0.06497867,-9.818802
56655148,56654750,-0.51197165,0.13588679,-9.8589525
56705112,56704716,-0.44218227,0.14539994,-9.73079
56760074,56759678,-0.41885749,-0.23859571,-9.809942
56810040,56809644,-0.5742775,0.13256985,-9.784344
56855013,56854613,-0.58476716,-0.30381247,-9.698844
56909974,56909576,-0.60518575,0.2869272,-9.740222
56959939,56959541,-0.6113532,0.47939536,-9.7007265
57004910,57004511,-0.55746406,0.59109706,-9.649309
57054874,57054477,-0.56478614,0.6594088,-9.602197
57109834,57109439,-0.5609609,0.5604234,-9.640755
57159803,57159405,-0.5651764,0.34556264,-9.66443
57204770,57204374,-0.5700059,0.11349466,-9.626579
57259780,57259337,-0.5844015,0.48914054,-9.6551485
57309700,57309302,-0.58920115,0.20766549,-9.672912
57359663,57359268,-0.5368106,0.18376641,-9.672287
57404634,57404238,-0.54218084,0.529971,-9.763277
57459598,57459200,-0.5485655,0.3240315,-9.6860695
57509562,57509166,-0.5031536,0.34840566,-9.796559
57554533,57554135,-0.5072375,0.30690685,-9.719575
57609494,57609098,-0.45944425,0.26487717,-9.728605
57659459,57659063,-0.43155962,0.3585841,-9.750331
57709429,57709034,-0.37338588,0.101997174,-9.741479
57754396,57753999,-0.3963426,0.34439123,-9.74916
57809358,57808961,-0.31102464,0.22844596,-9.656528
57859322,57858927,-0.29806393,0.52698225,-9.581002
57904296,57903896,-0.35900152,0.6664963,-9.783081
57959268,57958859,-0.45390284,0.57807475,-9.854848
58009220,58008824,-0.53401613,0.60513556,-9.834496
58059188,58058790,-0.5433928,0.060702477,-9.85345
58104155,58103760,-0.57257545,0.40562084,-9.9370985
58159120,58158722,-0.53654605,0.5543989,-9.785436
58209085,58208688,-0.45542434,0.47693264,-9.782368
58259051,58258654,-0.52841586,0.65419286,-9.7962885
58304021,58303623,-0.55270195,0.52843904,-9.888646
58359049,58358586,-0.5140792,0.63919455,-9.763481
58408948,58408551,-0.5340807,0.65803987,-9.765028
58453922,58453521,-0.4992684,0.28766555,-9.895921
58508879,58508483,-0.50690424,0.37075686,-9.925058
58558845,58558449,-0.48873547,0.32390776,-9.867717
58608812,58608415,-0.5183604,0.20930737,-9.898477
58658777,58658381,-0.48126838,0.45868668,-9.79825
58709668,58709462,-0.44278917,0.5165332,-9.902129
58755180,58754931,-0.5221521,0.49289265,-9.833157
58805698,58805449,-0.49682626,0.49094138,-9.796848
58861246,58861020,-0.5671975,0.7183774,-9.781134
58906758,58906488,-0.5320542,0.61454767,-9.790945
58957254,58957007,-0.5260062,0.5399786,-9.708091
59007776,59007527,-0.54484767,0.58982944,-9.764147
59058299,59058046,-0.65716684,0.29674944,-9.773517
59108812,59108565,-0.675977,0.7328511,-9.812054
59154243,59154034,-0.6906735,0.48102623,-9.641512
59209854,59209604,-0.5910837,0.7493612,-9.687587
59255278,59255072,-0.572704,1.0311406,-9.651987
59305823,59305591,-0.4201102,0.6844093,-9.584233
59361402,59361162,-0.5068366,0.68931675,-9.622775
59406842,59406630,-0.65202326,0.8835557,-9.613441
59457357,59457149,-0.60376513,0.6156006,-9.585391
59507882,59507669,-0.65543324,0.46872738,-9.613371
59558396,59558188,-0.6135021,0.48974043,-9.664789
59608919,59608708,-0.52344716,0.50533307,-9.719355
59654400,59654175,-0.5538858,0.27320078,-9.707934
59709958,59709746,-0.56916267,0.7222034,-9.684872
59760491,59760266,-0.61357176,0.51703763,-9.5960245
59805982,59805733,-0.5617521,0.53599006,-9.637887
59856480,59856253,-0.56451017,0.8211486,-9.686244
59907003,59906772,-0.5276636,0.568669,-9.637577
59957536,59957291,-0.49890044,0.47535288,-9.6465025
60008053,60007811,-0.50841475,0.71086097,-9.6638365
60058581,60058330,-0.49114698,0.7465961,-9.706635
60109080,60108849,-0.479479,0.5768596,-9.728997
60159593,60159369,-0.46769947,0.650634,-9.689738
60205233,60204836,-0.3920033,0.4524107,-9.790506
60260641,60260407,-0.41527617,0.3351755,-9.70786
60306082,60305875,-0.34605643,0.35267237,-9.752686
60356601,60356394,-0.38481364,0.3004231,-9.747132
60407120,60406914,-0.36300445,0.43537638,-9.751238
60457641,60457433,-0.3153786,0.26859754,-9.820708
60508179,60507953,-0.39511222,0.37282607,-9.890881
60558681,60558472,-0.34628287,0.2898548,-9.846546
60609197,60608991,-0.34426406,0.22011863,-9.771144
60659740,60659511,-0.31659964,0.35427752,-9.796624
60705221,60704978,-0.26455486,0.23331736,-9.764525
60755746,60755498,-0.27080312,0.29548526,-9.86082
60806260,60806017,-0.36196944,0.2706918,-9.882091
60856787,60856536,-0.30804473,0.16215526,-9.840129
60907312,60907056,-0.36579847,-0.019395716,-9.831485
60957833,60957575,-0.3768138,0.5035471,-9.779035
61008344,61008095,-0.29039124,-0.17311113,-9.794424
61058863,61058614,-0.33433247,0.010642129,-9.75497
61109374,61109133,-0.2963216,0.0058425595,-9.841087
61159881,61159653,-0.32659122,-0.08845244,-9.901435
61205327,61205120,-0.37448448,-0.2368676,-9.797408
61255846,61255639,-0.41698053,0.19147956,-9.8874
61306367,61306159,-0.44368878,0.047787026,-9.728594
61356908,61356678,-0.38593504,-0.3570393,-9.852494
61407423,61407198,-0.5111333,0.27434576,-9.781183
61457926,61457717,-0.4449924,-0.116319574,-9.755263
61508443,61508236,-0.50590724,-0.042848527,-9.724868
61558982,61558756,-0.47653052,-0.20205672,-9.7965
61604458,61604224,-0.4860259,-0.049382657,-9.833721
61660011,61659796,-0.50896484,0.05712107,-9.776725
61705492,61705262,-0.5132257,-0.314449,-9.826503
61756009,61755782,-0.5142736,0.32768804,-9.835011
61811561,61811353,-0.56162,-0.24747507,-9.790994
61857047,61856820,-0.51446205,-0.1590839,-9.902329
61907567,61907340,-0.5691511,0.103037216,-9.763521
61958088,61957859,-0.5597517,0.21232894,-9.769354
62008632,62008378,-0.5424579,0.29341277,-9.760055
62059141,62058898,-0.5925352,0.43590695,-9.70374
62104584,62104365,-0.5924964,0.71850693,-9.675557
62160179,62159937,-0.5888408,0.15469183,-9.634185
62210691,62210456,-0.5841883,0.4569151,-9.736304
62256154,62255927,-0.5877365,0.36971864,-9.82032
62306649,62306443,-0.59868246,0.43761593,-9.8983135
62357170,62356962,-0.613229,0.73918873,-9.787292
62407694,62407482,-0.58812493,0.50254583,-9.697821
62458208,62458001,-0.59728986,0.4992165,-9.695372
62508728,62508521,-0.5707562,0.6706917,-9.790618
62559252,62559040,-0.5858252,0.67247856,-9.766164
62604758,62604507,-0.5584101,0.6483103,-9.74384
62655288,62655027,-0.5769646,0.5807313,-9.712719
62710830,62710603,-0.5486868,0.31877777,-9.813639
62756314,62756066,-0.5632632,0.25760663,-9.731012
62806833,62806585,-0.5408045,0.40655008,-9.8053465
62857351,62857104,-0.5193636,0.48575652,-9.8066435
62907873,62907624,-0.48696858,0.43789685,-9.902081
62958387,62958143,-0.4925636,0.5752157,-9.84372
63003818,63003611,-0.5159517,0.5340589,-9.812801
63059433,63059182,-0.50824744,0.5012884,-9.843513
63109949,63109701,-0.53995496,0.52797663,-9.829398
63155392,63155169,-0.57410437,0.4907938,-9.778761
63210970,63210740,-0.5844495,0.44734183,-9.715514
63256414,63256208,-0.58548915,0.43332943,-9.742437
63306933,63306727,-0.6088625,0.5954058,-9.799944
63357454,63357246,-0.61005,0.4904142,-9.805639
63407973,63407766,-0.6416646,0.6687643,-9.741599
63458501,63458286,-0.61660695,0.6093114,-9.790329
63509013,63508805,-0.59794813,0.5911293,-9.809895
63554495,63554272,-0.5823912,0.50666445,-9.898329
63610100,63609843,-0.62797934,0.45982057,-9.84168
63655560,63655314,-0.6309023,0.53796303,-9.854333
63706057,63705830,-0.6302503,0.47024024,-9.80957
63756574,63756350,-0.6096968,0.555772,-9.801144
63807096,63806869,-0.6189993,0.47745767,-9.770215
63857616,63857389,-0.6067693,0.4377571,-9.7469
63908139,63907908,-0.62376696,0.52267957,-9.755316
63958651,63958427,-0.6167842,0.35675323,-9.814088
64009174,64008947,-0.6110093,0.4223928,-9.885761
64054624,64054414,-0.60609716,0.20272742,-9.843237
64105197,64104934,-0.6045018,0.24032745,-9.793441
64155664,64155453,-0.64257777,0.46314606,-9.706454
64206179,64205972,-0.63219315,0.34328547,-9.682101
64261774,64261544,-0.62683797,0.59910387,-9.723324
64307222,64307011,-0.6193169,0.5813104,-9.739587
64357745,64357531,-0.57935625,0.48659042,-9.702762
64408259,64408050,-0.58587354,0.18580158,-9.708318
64458792,64458569,-0.6125936,0.26755413,-9.736098
64509333,64509089,-0.59558713,0.24515067,-9.755898
64554819,64554556,-0.6060284,0.102079414,-9.814493
64610336,64610128,-0.59861565,0.23263375,-9.792434
64655844,64655595,-0.59457713,0.09192134,-9.722076
64706368,64706115,-0.6249294,0.13282233,-9.665826
64756861,64756634,-0.6117255,0.22854365,-9.66008
64807403,64807153,-0.5981802,0.2477146,-9.637961
64857923,64857673,-0.63311976,0.24001853,-9.700896
64908444,64908192,-0.653292,0.19839351,-9.721579
64958966,64958712,-0.6506929,0.208927,-9.675119
65009500,65009231,-0.64236313,0.06920817,-9.678492
65054909,65054698,-0.6482779,0.18257026,-9.72766
65105425,65105218,-0.64415264,0.16709219,-9.783664
65161040,65160789,-0.6288722,0.18455246,-9.751122
65206487,65206257,-0.6383061,0.15231438,-9.686254
65256989,65256776,-0.63732886,0.10421463,-9.6628065
65307503,65307296,-0.6464804,0.22138065,-9.72747
65358024,65357815,-0.63243705,0.16460863,-9.751164
65408563,65408334,-0.6235403,0.14967147,-9.750375
65454008,65453802,-0.61343485,0.12686597,-9.819539
65509583,65509373,-0.6436708,0.17265257,-9.810859
65560100,65559893,-0.65463233,0.21138674,-9.733879
65605587,65605360,-0.6578284,0.30897096,-9.693924
65661184,65660932,-0.64968616,0.22279325,-9.674934
65706649,65706399,-0.6367614,0.16071865,-9.69583
65757147,65756919,-0.64183867,0.20480427,-9.743049
65807667,65807438,-0.6290853,0.23706387,-9.7596245
65858186,65857957,-0.61606705,0.21781671,-9.754359
65908703,65908477,-0.6167028,0.19700508,-9.754958
65959228,65958996,-0.61106175,0.13527222,-9.759683
66009744,66009515,-0.6208467,0.24183168,-9.729793
66060260,66060035,-0.533726,0.37624106,-9.674842
66105731,66105502,-0.51228595,0.335738,-9.683594
66156230,66156022,-0.53574795,0.33777863,-9.756242
66206749,66206541,-0.55814785,0.3441552,-9.798887
66257271,66257061,-0.64459956,0.47265,-9.868608
66307786,66307580,-0.60376805,0.46426246,-9.79779
66358310,66358099,-0.61912495,0.45111856,-9.87054
66408832,66408619,-0.6644182,0.7647338,-9.8227
66459347,66459138,-0.5407791,0.6771939,-9.744622
66504829,66504606,-0.5151288,0.54400146,-9.758452
66560394,66560177,-0.44836915,0.6634291,-9.727551
66605894,66605645,-0.44753715,0.6347667,-9.718304
66656392,66656164,-0.44968697,0.59836745,-9.85879
66706930,66706683,-0.51038784,0.661597,-9.812025
66757432,66757203,-0.45323777,0.4065115,-9.968252
66807971,66807722,-0.5235695,0.6550436,-9.972907
66858499,66858242,-0.55372953,0.5051267,-9.991545
66909014,66908761,-0.5930689,0.89854324,-9.936734
66959529,66959280,-0.62125653,0.6610745,-9.911719
67004979,67004748,-0.59589654,0.6134825,-9.917087
67055476,67055267,-0.65122056,0.6726021,-9.8767805
67105993,67105787,-0.5466376,0.4666392,-9.836949
67156513,67156306,-0.5189355,0.658601,-9.807047
67207033,67206825,-0.55353826,0.46160042,-9.8783655
67257571,67257345,-0.518107,0.6316119,-9.767172
67308075,67307864,-0.5705359,0.5066218,-9.768208
67358592,67358384,-0.57734746,0.36684993,-9.693325
67409112,67408903,-0.50422245,0.5404156,-9.786879
67459629,67459423,-0.5393757,0.4282341,-9.747639
67505098,67504890,-0.4398222,0.24621592,-9.84003
67555634,67555409,-0.49097446,0.32695496,-9.7933445
67611192,67610981,-0.49469063,0.5061861,-9.889443
67656679,67656448,-0.5270492,0.59160966,-9.824026
67707194,67706968,-0.42553756,0.37264323,-9.947082
67757715,67757487,-0.51916933,0.29811713,-9.790765
67808233,67808007,-0.48975834,0.64053535,-9.795658
67858752,67858526,-0.5085118,0.32804894,-9.828565
67904215,67903993,-0.52358216,0.35282367,-9.655391
67959788,67959565,-0.5282047,0.44343483,-9.792925
68005240,68005032,-0.57159024,0.315702,-9.681128
68055759,68055552,-0.5031713,0.34456474,-9.684922
68111350,68111125,-0.52576953,0.29335544,-9.80404
68156812,68156591,-0.5269739,0.29240897,-9.688128
68207320,68207110,-0.49961728,0.3285318,-9.64208
68257837,68257629,-0.5366697,0.56198144,-9.647947
68308357,68308149,-0.518998,0.49068794,-9.632727
68358874,68358668,-0.52941066,0.28118443,-9.67907
68404361,68404136,-0.51719815,0.26334184,-9.688771
68461190,68460794,-0.5065057,-0.19328044,-9.657587
68506156,68505755,-0.5136106,0.005980087,-9.704287
68556125,68555711,-0.52567905,-0.043659326,-9.741569
68606063,68605667,-0.5233856,0.048696805,-9.738699
68661015,68660619,-0.5105517,-0.0034371275,-9.737751
68705976,68705580,-0.4991963,-0.011383839,-9.769507
68755936,68755536,-0.5005362,-0.029703643,-9.821638
68811052,68810488,-0.48564777,-0.014730902,-9.797229
68855844,68855448,-0.5039071,0.07186388,-9.778414
68905799,68905405,-0.5012433,-0.008496637,-9.801059
68955755,68955361,-0.51546174,-0.036315102,-9.811891
69010714,69010313,-0.5195269,-0.016343415,-9.876086
69055669,69055273,-0.5241959,0.03376077,-9.783874
69105638,69105229,-0.51193935,0.08895209,-9.78186
69155582,69155186,-0.50596255,0.048638288,-9.746622
69206574,69206179,-0.537334,-0.034978572,-9.759659
69256546,69256145,-0.5469692,-0.103617206,-9.708348
69306508,69306111,-0.52901703,-0.29989913,-9.722904
69356483,69356076,-0.56052643,-0.21256952,-9.723855
69406439,69406042,-0.5593736,-0.07832407,-9.801302
69456404,69456008,-0.5486669,-0.0403536,-9.768447
69506369,69505974,-0.5239418,0.027488017,-9.804045
69556336,69555940,-0.537629,0.2521944,-9.775387
69606307,69605910,-0.519104,0.3170045,-9.801075
69656270,69655872,-0.5216201,0.34325644,-9.727831
69711231,69710834,-0.5972465,0.2574565,-9.762774
69756205,69755804,-0.6030843,0.23920383,-9.834168
69806166,69805770,-0.54383934,0.28212538,-9.823178
69861130,69860732,-0.5363871,0.51277953,-9.79311
69906099,69905702,-0.5827748,0.6411117,-9.82865
69956064,69955667,-0.5423743,0.6979205,-9.777691
70006028,70005633,-0.55744165,0.81972694,-9.676607
70060991,70060596,-0.5482136,0.7303881,-9.737591
70105963,70105565,-0.5428843,0.7641424,-9.735806
70155930,70155531,-0.5321087,0.6703344,-9.72409
70210901,70210494,-0.5619809,0.4098566,-9.743346
70255889,70255463,-0.61702156,0.41867393,-9.828715
70306027,70305434,-0.5762357,0.45748806,-9.832183
70355793,70355395,-0.62272865,0.59186053,-9.835319
70410757,70410357,-0.61849684,0.60115904,-9.774757
70455722,70455327,-0.6157945,0.59032136,-9.8018
70505692,70505293,-0.66105825,0.618647,-9.8476515
70555656,70555258,-0.67477244,0.44131282,-9.828952
70610619,70610221,-0.6645017,0.3804407,-9.891539
70655588,70655190,-0.6796745,0.3674462,-9.805724
70705556,70705156,-0.65865344,0.34487203,-9.797107
70760517,70760119,-0.6659942,0.6452763,-9.808478
70805483,70805088,-0.6504216,0.6647729,-9.856072
70855450,70855054,-0.64299405,0.68218887,-9.873264
70910414,70910016,-0.70087665,0.50897,-9.8395195
70960380,70959982,-0.67908216,0.33379737,-9.858484
71005348,71004952,-0.68784505,0.26439077,-9.864464
71055316,71054919,-0.6872772,0.23195444,-9.827073
71110281,71109880,-0.6434538,0.3048624,-9.78734
71160244,71159846,-0.6582408,0.37762117,-9.759556
71205209,71204815,-0.6430595,0.44316232,-9.745537
71260172,71259778,-0.6537642,0.36020622,-9.782148
71310142,71309744,-0.6867988,0.33797497,-9.7936125
71355108,71354713,-0.6729343,0.38402978,-9.810558
71405075,71404679,-0.68535244,0.3153683,-9.783908
71460048,71459642,-0.66656065,0.21876791,-9.73568
71510003,71509607,-0.66920125,0.22246614,-9.772526
71554976,71554577,-0.6456447,0.22248593,-9.814922
71609939,71609539,-0.6538413,0.37727755,-9.790018
71659901,71659505,-0.64366424,0.32165736,-9.801452
71704871,71704475,-0.63112074,0.24143879,-9.812186
71754836,71754441,-0.6656358,0.30532905,-9.794888
71809800,71809403,-0.6420572,0.13893282,-9.830918
71859766,71859369,-0.6576431,0.19778208,-9.75078
71904736,71904338,-0.66178334,0.2556782,-9.758041
71959699,71959301,-0.6732199,0.15953289,-9.769348
72009667,72009267,-0.6897757,0.20603362,-9.77465
72059631,72059233,-0.68802273,0.18384492,-9.771727
72104596,72104202,-0.67115146,0.2152261,-9.773012
72159565,72159165,-0.6749647,0.38003027,-9.754978
72209531,72209131,-0.6771796,0.27990422,-9.756496
72254497,72254100,-0.69301844,0.3341777,-9.706675
72309487,72309062,-0.70106953,0.10521147,-9.748818
72359427,72359028,-0.66373855,0.1447284,-9.742338
72409392,72408994,-0.6701052,0.16818589,-9.837103
72454360,72453963,-0.64871776,0.24286959,-9.846351
72509321,72508926,-0.6263133,0.23075359,-9.857716
72559287,72558892,-0.6685242,0.24722485,-9.846148
72604256,72603861,-0.6733971,0.37818262,-9.798469
72659222,72658824,-0.7087965,0.32966563,-9.7866745
72709186,72708790,-0.6813935,0.102030866,-9.720738
72759178,72758756,-0.7450725,0.32703143,-9.729331
72804122,72803725,-0.7316602,0.14381324,-9.747584
72859084,72858688,-0.7483157,0.3563942,-9.782313
72909053,72908654,-0.72501767,0.28625244,-9.789456
72959018,72958619,-0.73128796,0.52081555,-9.721763
73008996,73008585,-0.7346942,0.31017232,-9.788329
73058952,73058551,-0.7405942,0.33359495,-9.792649
73108911,73108517,-0.7539271,0.30427915,-9.823479
73153881,73153487,-0.7605902,0.29537413,-9.737075
73208854,73208449,-0.75181115,0.34658518,-9.742194
73258810,73258415,-0.75646776,0.3906948,-9.736504
73308778,73308381,-0.7543914,0.32097414,-9.716819
73358748,73358347,-0.72953856,0.25077668,-9.813108
73408711,73408313,-0.7215073,0.2267922,-9.841295
73458677,73458279,-0.7147078,0.21777631,-9.770845
73508644,73508245,-0.70681506,0.22861381,-9.750698
73558607,73558211,-0.6775095,0.32692564,-9.783119
73608574,73608177,-0.7102539,0.32399073,-9.790243
73658543,73658143,-0.6848284,0.2843166,-9.769922
73708506,73708109,-0.7366047,0.4281655,-9.683962
73758474,73758075,-0.73554045,0.5552097,-9.756428
73808438,73808040,-0.7050062,0.47603652,-9.663785
73858409,73858007,-0.6988537,0.58064926,-9.775755
73908372,73907972,-0.73558354,0.54253626,-9.856213
73958334,73957938,-0.74314857,0.40197846,-9.804984
74008299,74007904,-0.7139648,0.38230288,-9.71096
74058268,74057870,-0.72601503,0.3380265,-9.770973
74108232,74107836,-0.7153091,0.41402274,-9.799254
74158200,74157802,-0.692507,0.42439112,-9.747105
74208180,74207768,-0.68427813,0.4501818,-9.762891
74258137,74257735,-0.68526095,0.42705384,-9.842398
74308101,74307700,-0.69577825,0.31552237,-9.826955
74358113,74357666,-0.6654999,0.31990424,-9.829821
74408030,74407631,-0.67914814,0.21250066,-9.784302
74457993,74457597,-0.64827085,0.12023807,-9.771456
74507963,74507563,-0.6290321,-0.033528768,-9.755004
74557925,74557529,-0.6398933,0.00032075442,-9.817118
74607892,74607495,-0.61957276,0.03404806,-9.804981
74657862,74657461,-0.60805,0.046179492,-9.737928
74707825,74707427,-0.57935774,0.1424808,-9.715196
74757793,74757393,-0.5853251,0.066647455,-9.702309
74807757,74807359,-0.579912,0.09311107,-9.694234
74857723,74857325,-0.594307,-0.0064370413,-9.687127
74907689,74907291,-0.64414257,0.22494027,-9.671232
74957652,74957257,-0.64405966,-0.00760796,-9.64551
75007618,75007223,-0.675342,0.16935878,-9.693677
75057597,75057189,-0.68903947,0.21476176,-9.761955
75107550,75107155,-0.7229464,0.25796646,-9.787007
75157516,75157121,-0.7007724,0.28739008,-9.763175
75207482,75207087,-0.7188255,0.36177385,-9.716517
75257448,75257052,-0.7190282,0.20179716,-9.708751
75307416,75307018,-0.7343071,0.21419002,-9.676441
75357404,75356984,-0.7266124,0.22768831,-9.686333
75407367,75406950,-0.7169379,0.3764121,-9.737045
75457332,75456916,-0.71553457,0.45597413,-9.799292
75507302,75506882,-0.67005295,0.51551306,-9.739514
75557266,75556848,-0.6890979,0.7352084,-9.720913
75607232,75606814,-0.6655784,0.6335407,-9.761852
75657189,75656780,-0.6453171,0.4413379,-9.7193
75707156,75706746,-0.6873314,0.60727096,-9.705239
75757107,75756712,-0.6637462,0.52983737,-9.734272
75807075,75806678,-0.66507775,0.4201578,-9.796503
75857065,75856644,-0.6658488,0.61562276,-9.761418
75907007,75906610,-0.70207065,0.5362555,-9.732103
75957000,75956576,-0.7065149,0.4897925,-9.741357
76006939,76006542,-0.72864145,0.6017038,-9.727529
76056906,76056508,-0.7475147,0.64771146,-9.707622
76106871,76106474,-0.7450906,0.40367803,-9.7438545
76161833,76161436,-0.72721374,0.48849666,-9.797278
76206803,76206405,-0.7386969,0.4546857,-9.745005
76256767,76256371,-0.76399595,0.44698605,-9.702162
76306735,76306337,-0.75913095,0.61098826,-9.614644
76356698,76356303,-0.75314325,0.56675994,-9.719131
76406671,76406269,-0.71448815,0.55949795,-9.824091
76456631,76456235,-0.69858736,0.5424419,-9.803537
