timestamp,indicated_airspeed_m_s,calibrated_airspeed_m_s,true_airspeed_m_s,calibrated_ground_minus_wind_m_s,true_ground_minus_wind_m_s,airspeed_sensor_measurement_valid,selected_airspeed_index
16817027,-1.6736058,-1.6736058,-1.67316,0.0031308946,0.003190977,1,1
16917028,-3.5404606,-3.5404606,-3.5395525,0.002406793,0.002453004,1,1
17017029,3.3931708,3.3931708,3.3923006,0.002634567,0.0026851513,1,1
17217028,-1.0407747,-1.0407747,-1.0403987,0.0014415543,0.0014691788,1,1
17417027,-2.3189616,-2.3189616,-2.3183324,0.0012400345,0.0012638036,1,1
17617027,-2.2244427,-2.2244427,-2.2237952,0.0030737899,0.0031326464,1,1
17817027,-0.8085627,-0.8085627,-0.8083393,0.0024225274,0.0024689503,1,1
18017028,3.3931708,3.3931708,3.3922503,0.0015717627,0.0016018635,1,1
18217027,-1.6736066,-1.6736066,-1.6731691,0.0014643222,0.0014923803,1,1
18417027,-1.6736066,-1.6736066,-1.6731608,0.0011053056,0.0011264789,1,1
18617026,2.8422015,2.8422015,2.8414586,0.0022825815,0.0023263183,1,1
18817094,-3.5404606,-3.5404606,-3.5394824,0.0013466993,0.0013724831,1,1
19017027,-1.0407747,-1.0407747,-1.0405027,0.001912436,0.0019490804,1,1
19217027,-1.0407733,-1.0407733,-1.0405012,0.0022209932,0.00226355,1,1
19417028,1.5337162,1.5337162,1.5332773,0.0005610261,0.0005717522,1,1
19617031,-1.6736066,-1.6736066,-1.6731608,0.0009201455,0.0009377561,1,1
19817027,1.9080334,1.9080334,1.9075534,0.0008037973,0.0008191932,1,1
20017028,-3.4378972,-3.4378972,-3.4368691,0.0015421327,0.001571663,1,1
20217027,-2.3189616,-2.3189616,-2.3183782,0.0013999358,0.0014267501,1,1
20417027,-1.0407733,-1.0407733,-1.0404857,0.0021081364,0.0021484627,1,1
20617041,-3.109976,-3.109976,-3.109086,0.0032444198,0.0033064492,1,1
20817027,1.5337162,1.5337162,1.533285,0.001794933,0.0018292282,1,1
21017027,-3.5404606,-3.5404606,-3.5394475,0.0018539175,0.0018893305,1,1
21217027,1.5337162,1.5337162,1.5333381,0.0018522666,0.0018877226,1,1
21417027,-3.109976,-3.109976,-3.1091323,0.00072304945,0.00073687185,1,1
21617027,-3.109976,-3.109976,-3.1091323,0.002439096,0.0024857237,1,1
21817027,4.220429,4.220429,4.2193046,0.0016171429,0.0016480382,1,1
22017027,-1.9864856,-1.9864856,-1.985945,0.0022166474,0.0022590018,1,1
22217028,-1.9864856,-1.9864856,-1.985945,0.0011681064,0.001190416,1,1
22417027,1.2220523,1.2220523,1.2217238,0.0014759611,0.0015041553,1,1
22617027,2.4057798,2.4057798,2.4051292,0.0015172794,0.0015462603,1,1
22817027,2.941206,2.941206,2.940403,0.0015935287,0.001623962,1,1
23017027,-2.3189616,-2.3189616,-2.3183172,0.0012936515,0.0013183512,1,1
23217027,-0.7145843,-0.7145843,-0.7143922,0.0012688081,0.0012930452,1,1
23417027,-1.0407733,-1.0407733,-1.0404986,0.0013514888,0.0013773121,1,1
23617055,1.2220523,1.2220523,1.2217278,0.0011591972,0.0011813246,1,1
23817027,2.8921273,2.8921273,2.891333,0.0014089511,0.001435857,1,1
24017026,-1.9864856,-1.9864856,-1.9859271,0.0030271679,0.0030849555,1,1
24217027,2.8422015,2.8422015,2.8409607,0.0044853925,0.004571008,1,1
24417028,2.941206,2.941206,2.9404516,0.0025628777,0.002611823,1,1
24617032,-2.7431312,-2.7431312,-2.7424004,0.0024702388,0.00251739,1,1
24817027,-1.8367201,-1.8367201,-1.8362309,0.0019613798,0.001998818,1,1
25017027,-1.0407733,-1.0407733,-1.0405064,0.0046882033,0.0047777374,1,1
25217026,-1.9864856,-1.9864856,-1.9859564,0.014460669,0.01473669,1,1
25417026,-3.109976,-3.109976,-3.109163,0.03497414,0.035641894,1,1
25617030,-3.5404606,-3.5404606,-3.5394824,0.0035696244,0.0036377243,1,1
25817027,-3.109976,-3.109976,-3.1091018,0.038706437,0.039444666,1,1
26017028,2.0174315,2.0174315,2.016894,0.034298774,0.034953456,1,1
26217027,-1.6736066,-1.6736066,-1.6731774,0.029834734,0.03040451,1,1
26417027,-2.3189616,-2.3189616,-2.3183668,0.0058261417,0.005937308,1,1
26617027,-2.2244427,-2.2244427,-2.2238393,0.020100512,0.020484082,1,1
26817027,-1.0407747,-1.0407747,-1.0404923,0.017783226,0.018122274,1,1
27017028,-3.109976,-3.109976,-3.1091323,0.0021749793,0.0022164464,1,1
27217027,2.8921273,2.8921273,2.8913713,0.010932273,0.011140813,1,1
27417038,2.8921273,2.8921273,2.891314,0.007496521,0.007639371,1,1
27617027,-3.109976,-3.109976,-3.1096616,0.0018678966,0.0019035091,1,1
27817145,3.7916381,3.7916381,3.7906468,0.008411957,0.00857242,1,1
28017037,-3.109976,-3.109976,-3.1091018,0.007930402,0.008081519,1,1
28217027,-1.0407733,-1.0407733,-1.0404857,0.0034083028,0.0034732667,1,1
28417027,-1.0407733,-1.0407733,-1.040496,0.0034848887,0.0035513476,1,1
28617027,-0.7145843,-0.7145843,-0.714401,0.0010038451,0.0010229992,1,1
28817028,-2.6094134,-2.6094134,-2.6087053,0.002920818,0.002976505,1,1
29017050,-1.0407747,-1.0407747,-1.0406694,0.0036826648,0.003752877,1,1
29217027,2.8921273,2.8921273,2.8913283,0.0017857081,0.0018197446,1,1
29417027,-3.5404606,-3.5404606,-3.5395,0.0052079367,0.0053072292,1,1
29617027,1.5337162,1.5337162,1.5333153,0.0020547474,0.002093943,1,1
29817027,-3.4378972,-3.4378972,-3.4370325,0.0046555027,0.004744277,1,1
30017027,-1.0407747,-1.0407747,-1.0404923,0.0024266099,0.0024728745,1,1
30217028,-3.109976,-3.109976,-3.108634,0.0034524314,0.0035182887,1,1
30417027,-3.5404606,-3.5404606,-3.5394824,0.006533922,0.006658462,1,1
30617043,3.7916381,3.7916381,3.7912922,0.0012195929,0.0012428573,1,1
30817027,1.5337162,1.5337162,1.5335611,0.004067847,0.004145403,1,1
31017029,-1.7973299,-1.7973299,-1.7968512,0.0021212266,0.0021616798,1,1
31217071,1.2220523,1.2220523,1.2217389,0.004807966,0.004899705,1,1
31417027,2.0174322,2.0174322,2.0168948,0.0036147914,0.0036837277,1,1
31617028,-3.109976,-3.109976,-3.1091323,0.0019893139,0.0020272413,1,1
31817029,4.220428,4.220428,4.219741,0.0022893758,0.0023330015,1,1
32017026,2.0174322,2.0174322,2.0172367,0.0021436808,0.0021845396,1,1
32217027,2.0174315,2.0174315,2.0172117,0.002078591,0.0021182038,1,1
32417027,-3.109976,-3.109976,-3.1091475,0.0018883498,0.0019243617,1,1
32617027,1.5337162,1.5337162,1.5335513,0.003021747,0.0030792872,1,1
32817027,-3.5404606,-3.5404606,-3.5395525,0.0057419087,0.0058513703,1,1
33017050,-2.6094134,-2.6094134,-2.6087313,0.0023366949,0.0023812288,1,1
33217027,-1.0407747,-1.0407747,-1.0403544,0.0015659824,0.0015958041,1,1
33417035,2.4934344,2.4934344,2.4930959,0.0021045676,0.002144618,1,1
33617027,4.220429,4.220429,4.2200437,0.0028779458,0.0029327953,1,1
33817027,-3.109976,-3.109976,-3.1093242,0.0013811138,0.0014074289,1,1
34017027,-1.0407747,-1.0407747,-1.0406355,0.0015440037,0.0015734303,1,1
34217027,-3.0165157,-3.0165157,-3.0161958,0.00441181,0.0044959015,1,1
34417027,-3.109976,-3.109976,-3.1096766,0.004108217,0.0041864933,1,1
34617042,2.9654408,2.9654408,2.964636,0.0035996023,0.0036682307,1,1
34817027,-3.109976,-3.109976,-3.1091018,0.009524504,0.009705835,1,1
35017027,2.9412072,2.9412072,2.9404237,0.017476691,0.017809981,1,1
35217027,-1.7973299,-1.7973299,-1.7968779,0.035115756,0.035785966,1,1
35417027,2.8422015,2.8422015,2.8419278,0.094997995,0.09680966,1,1
35617027,-1.0407747,-1.0407747,-1.0405912,0.08605507,0.08769516,1,1
35817058,2.8921273,2.8921273,2.8913426,0.09063633,0.09236436,1,1
36017027,-1.0407747,-1.0407747,-1.0406592,0.1845713,0.18808524,1,1
36217035,-2.6094134,-2.6094134,-2.609162,0.26557642,0.2706366,1,1
36417027,2.0174322,2.0174322,2.0172882,0.42087045,0.42890733,1,1
36617027,2.2836802,2.2836802,2.2834718,0.66709125,0.67980504,1,1
36817027,-3.109976,-3.109976,-3.109569,0.915111,0.9325304,1,1
37017027,2.4057813,2.4057813,2.4054663,1.2113948,1.234454,1,1
37217026,1.7102251,1.7102251,1.709778,1.1120616,1.1332749,1,1
37417028,-3.109976,-3.109976,-3.1096616,0.89519835,0.91226584,1,1
37617028,3.6766355,3.6766355,3.6755652,0.8997991,0.9169361,1,1
37817028,4.515378,4.515378,4.51464,1.0794876,1.1000468,1,1
38017028,4.910237,4.910237,4.909135,1.2795469,1.3039292,1,1
38217062,2.941206,2.941206,2.9403934,1.5258608,1.5549445,1,1
38417027,5.1935863,5.1935863,5.1920485,1.8116088,1.8460715,1,1
38617053,3.9578817,3.9578817,3.9567294,2.0607696,2.1000175,1,1
38817027,3.866407,3.866407,3.8653004,2.2993393,2.3431425,1,1
39017053,4.220429,4.220429,4.2191796,2.528451,2.5765934,1,1
39217050,5.5789394,5.5789394,5.5772324,2.7316997,2.783638,1,1
39417028,3.4765203,3.4765203,3.4753191,2.9380882,2.9938822,1,1
39617028,5.7183185,5.7183185,5.7167387,3.1479926,3.207995,1,1
39817028,5.5789394,5.5789394,5.5771775,3.3409467,3.404492,1,1
40017027,6.2333317,6.2333317,6.231178,3.5323281,3.5994067,1,1
40217061,6.2448034,6.2448034,6.242831,3.6831563,3.7532105,1,1
40417028,6.730229,6.730229,6.7269588,3.825859,3.8986275,1,1
40617027,6.730229,6.730229,6.726825,3.9881551,4.06393,1,1
40817027,7.1429553,7.1429553,7.1394844,4.179014,4.2584996,1,1
41017027,7.5710115,7.5710115,7.56737,4.269616,4.3508463,1,1
41217027,8.153621,8.153621,8.14986,4.3727994,4.456081,1,1
41417058,8.153621,8.153621,8.149699,4.4768057,4.561978,1,1
41617026,7.958162,7.958162,7.954295,4.576525,4.6635714,1,1
41817028,7.042042,7.042042,7.0373983,4.606748,4.6943536,1,1
42017027,7.7945952,7.7945952,7.789545,4.562083,4.6489315,1,1
42217029,7.6836166,7.6836166,7.678619,4.5512652,4.637858,1,1
42417027,8.361641,8.361641,8.356251,4.3950696,4.4787164,1,1
42617030,7.6836166,7.6836166,7.678784,4.154827,4.2339673,1,1
42817027,8.188658,8.188658,8.183514,3.969258,4.0448675,1,1
43017027,7.757779,7.757779,7.751669,3.717025,3.7879019,1,1
43217028,7.8220944,7.8220944,7.8159533,3.4794705,3.5458264,1,1
43417027,7.757779,7.757779,7.7518673,3.1074572,3.1668181,1,1
43617027,7.7945952,7.7945952,7.7884626,0.9320302,0.9497952,1,1
43817027,7.757779,7.757779,7.7519445,0.29850334,0.3042086,1,1
44017026,7.3406215,7.3406215,7.334955,0.56996953,0.58085185,1,1
44217027,6.919003,6.919003,6.9137645,0.6938995,0.7071584,1,1
44417052,7.3406215,7.3406215,7.3351727,0.7013614,0.71477354,1,1
44617027,7.5140767,7.5140767,7.5079937,0.60749775,0.61909956,1,1
44817043,7.3406215,7.3406215,7.3338137,0.5273617,0.5374384,1,1
45017027,7.3406215,7.3406215,7.3339596,0.4772958,0.48642552,1,1
45217027,7.6556206,7.6556206,7.6487107,0.438354,0.44674104,1,1
45417027,7.6556206,7.6556206,7.648483,0.36010754,0.3669866,1,1
45617027,7.3406215,7.3406215,7.3339596,0.30340505,0.3092086,1,1
45817027,7.1829233,7.1829233,7.1764402,0.33701912,0.34346732,1,1
46017051,6.730229,6.730229,6.724121,0.40507728,0.4128256,1,1
46217027,7.369814,7.369814,7.3629794,0.4223976,0.4304687,1,1
46417026,6.939661,6.939661,6.933431,0.41559497,0.42354867,1,1
46617027,7.3988914,7.3988914,7.392286,0.4015688,0.40926296,1,1
46817027,6.2904816,6.2904816,6.2847414,0.3653629,0.37234974,1,1
47017027,7.5710115,7.5710115,7.563356,0.3244301,0.33064464,1,1
47217053,6.568774,6.568774,6.561694,0.28130278,0.28668836,1,1
47417027,6.980794,6.980794,6.973408,0.2835848,0.28901497,1,1
47617068,6.730229,6.730229,6.723075,0.28784424,0.29335448,1,1
47817045,6.980794,6.980794,6.9733043,0.15817383,0.16120018,1,1
48017028,6.939661,6.939661,6.932319,0.14077766,0.14347571,1,1
48217027,7.192881,7.192881,7.185342,0.12846133,0.13092463,1,1
48417027,7.192881,7.192881,7.1852713,0.15116784,0.15406503,1,1
48617027,6.2904816,6.2904816,6.2837324,0.2185307,0.22271559,1,1
48817027,7.1429553,7.1429553,7.134287,0.27418947,0.27944857,1,1
49017030,6.730229,6.730229,6.723041,0.27389964,0.27914625,1,1
49217101,6.7620573,6.7620573,6.755003,0.2490485,0.25382537,1,1
49417028,6.4032507,6.4032507,6.3954487,0.21223024,0.21629983,1,1
49617028,7.1429553,7.1429553,7.1343575,0.15382355,0.15677552,1,1
49817027,7.7945952,7.7945952,7.7850204,0.13649149,0.1391074,1,1
50017027,7.3406215,7.3406215,7.3323383,0.14668693,0.14950046,1,1
50217027,6.2904816,6.2904816,6.2824597,0.13774326,0.1403869,1,1
50417028,6.4032507,6.4032507,6.3956385,0.13181032,0.13434407,1,1
50617027,7.1429553,7.1429553,7.134322,0.11450599,0.11670479,1,1
50817027,7.5710115,7.5710115,7.5619354,0.1313617,0.13388549,1,1
51017026,7.5710115,7.5710115,7.561898,0.18088406,0.18435842,1,1
51217027,6.514067,6.514067,6.506181,0.21007395,0.2141059,1,1
51417027,6.919003,6.919003,6.9106407,0.20849726,0.21250093,1,1
51617027,6.730229,6.730229,6.7221565,0.22522661,0.22955365,1,1
51817027,6.730229,6.730229,6.72219,0.22549786,0.22983125,1,1
52017027,7.6836166,7.6836166,7.6744337,0.17360012,0.17693608,1,1
52217028,7.042042,7.042042,7.0336,7.5455146,7.6904836,1,1
52417028,7.757779,7.757779,7.7473116,7.508731,7.653145,1,1
52617027,7.379519,7.379519,7.3697987,7.4861016,7.629892,1,1
52817027,6.8879004,6.8879004,6.8785725,7.451003,7.5942693,1,1
53017027,7.042042,7.042042,7.0325055,7.4346924,7.577645,1,1
53217027,7.958162,7.958162,7.9471483,7.4053087,7.547472,1,1
53417028,6.568774,6.568774,6.559748,7.387964,7.5298686,1,1
53617029,5.8052726,5.8052726,5.797267,7.3646507,7.5060706,1,1
53817027,6.730229,6.730229,6.7210813,7.3569407,7.498361,1,1
54017070,7.379519,7.379519,7.3694525,7.3456926,7.486985,1,1
54217028,6.730229,6.730229,6.7210145,7.3433266,7.4844112,1,1
54417028,6.730229,6.730229,6.720981,7.337849,7.478917,1,1
54617027,6.730229,6.730229,6.720981,7.3469367,7.488179,1,1
54817027,6.514067,6.514067,6.504409,7.350534,7.4918823,1,1
55017027,6.05865,6.05865,6.0503855,7.3651485,7.5068154,1,1
55217027,6.730229,6.730229,6.720981,4.5917134,4.679988,1,1
55417028,5.1381664,5.1381664,5.1311827,1.4382198,1.4658909,1,1
55617041,7.246414,7.246414,7.236421,0.43128356,0.43957266,1,1
55817027,6.730229,6.730229,6.721048,1.0138289,1.0333296,1,1
56017027,7.1269054,7.1269054,7.1171837,1.5037062,1.5326297,1,1
56217027,6.469968,6.469968,6.4610143,1.7909129,1.8253245,1,1
56417026,6.023106,6.023106,6.014741,2.1278727,2.1687481,1,1
56617027,7.2226706,7.2226706,7.212746,2.4764636,2.524073,1,1
56817027,6.514067,6.514067,6.5053096,2.2808535,2.3247712,1,1
57017079,7.379519,7.379519,7.3693423,1.4596823,1.4877619,1,1
57217028,6.939661,6.939661,6.930057,0.9744673,0.99319124,1,1
57417027,6.023106,6.023106,6.013804,0.7197162,0.7335648,1,1
57617027,7.1269054,7.1269054,7.1159344,0.5820002,0.5932018,1,1
57817028,6.730229,6.730229,6.7197685,0.48053506,0.48977655,1,1
58017027,6.2904816,6.2904816,6.2805495,0.3723746,0.3795266,1,1
58217027,6.514067,6.514067,6.5039425,0.3302182,0.33656883,1,1
58417027,7.0724664,7.0724664,7.0615788,0.13748777,0.14013396,1,1
58617027,6.011211,6.011211,6.001927,0.11661754,0.11886147,1,1
58817027,7.379519,7.379519,7.367065,0.123894356,0.12627456,1,1
59017027,6.7726336,6.7726336,6.7620068,0.12609863,0.12852181,1,1
59217027,6.939661,6.939661,6.9288406,0.13526532,0.13786602,1,1
59417028,6.2448034,6.2448034,6.2350974,0.17731088,0.18072087,1,1
59617027,6.6013813,6.6013813,6.5910883,0.16061753,0.16370568,1,1
59817028,6.2448034,6.2448034,6.23519,0.11660763,0.11885195,1,1
60017026,6.568774,6.568774,6.5586295,0.10861897,0.110710844,1,1
60217027,6.980794,6.980794,6.9688926,0.098046996,0.099934585,1,1
60417040,6.730229,6.730229,6.7196684,0.10724704,0.10930979,1,1
60617026,6.7726336,6.7726336,6.7620068,0.15328519,0.15623343,1,1
60817027,6.730229,6.730229,6.7199016,0.19246759,0.19617625,1,1
61017027,6.2448034,6.2448034,6.2351384,0.23236799,0.23684236,1,1
61217027,6.730229,6.730229,6.719807,0.2805089,0.28591,1,1
61417026,7.2226706,7.2226706,7.211421,0.27975276,0.28513673,1,1
61617058,7.3795195,7.3795195,7.366792,0.19923615,0.20307122,1,1
61817027,7.379519,7.379519,7.366761,0.16748424,0.1707074,1,1
62017026,7.6836166,7.6836166,7.6717377,0.15696831,0.15999109,1,1
62217027,6.568774,6.568774,6.557467,0.17076047,0.17404798,1,1
62417026,6.730229,6.730229,6.7186494,0.22664648,0.23101203,1,1
62617027,6.730229,6.730229,6.7186546,0.31224057,0.31825775,1,1
62817028,6.939661,6.939661,6.9276977,0.3805392,0.38787094,1,1
63017027,7.0724664,7.0724664,7.0602336,0.4710731,0.48014632,1,1
63217027,6.514067,6.514067,6.5029616,0.43159378,0.4399175,1,1
63417026,7.379519,7.379519,7.366864,0.37305143,0.38024235,1,1
63617026,7.1829233,7.1829233,7.1704993,0.34429762,0.35092905,1,1
63817026,6.514067,6.514067,6.5028324,0.31315508,0.3191883,1,1
64017028,6.4032507,6.4032507,6.392207,0.276611,0.28194016,1,1
64217051,6.568774,6.568774,6.55738,0.22999953,0.23442835,1,1
64417041,6.730229,6.730229,6.7185216,0.11839302,0.12067217,1,1
64617045,7.379519,7.379519,7.366864,0.14336586,0.14612937,1,1
64817053,6.730229,6.730229,6.718588,0.16150662,0.16461737,1,1
65017026,7.5710115,7.5710115,7.557804,0.17196319,0.17527273,1,1
65217028,5.842142,5.842142,5.8319798,0.16585666,0.16904952,1,1
65417027,6.730229,6.730229,6.7186217,0.16655357,0.16976522,1,1
65617027,6.0586505,6.0586505,6.0482016,0.16490401,0.16808385,1,1
65817027,6.4032507,6.4032507,6.3921437,0.16779059,0.1710244,1,1
66017027,6.244804,6.244804,6.2340336,0.17677514,0.18018389,1,1
66217028,7.2226706,7.2226706,7.210107,0.20116267,0.20503864,1,1
66417027,7.2226706,7.2226706,7.2100353,0.22013003,0.22436924,1,1
66617026,6.514067,6.514067,6.502736,0.26967177,0.27486777,1,1
66817027,6.730229,6.730229,6.718206,0.30328804,0.3091348,1,1
67017027,6.730229,6.730229,6.717408,0.29690397,0.30262616,1,1
67217027,6.730229,6.730229,6.717375,0.26909623,0.27428114,1,1
67417027,6.568774,6.568774,6.556261,0.23638256,0.24093832,1,1
67617028,6.730229,6.730229,6.717242,0.16282226,0.16595899,1,1
67817027,6.762058,6.762058,6.7492433,0.17689626,0.18030734,1,1
68017027,6.919003,6.919003,6.905754,0.17855008,0.18198943,1,1
68217027,6.2904816,6.2904816,6.2784986,0.18570544,0.18928769,1,1
68417026,6.05865,6.05865,6.0470185,0.19137429,0.19505973,1,1
68617028,7.0724664,7.0724664,7.0589585,0.20363034,0.20755734,1,1
68817027,6.469968,6.469968,6.457675,0.20991945,0.21396986,1,1
69017027,6.730229,6.730229,6.7174416,0.21013577,0.21419035,1,1
69217031,6.514067,6.514067,6.5017223,6.0466337,6.1633334,1,1
69417027,7.0724664,7.0724664,7.0589933,2.5830946,2.6329224,1,1
69617052,6.730229,6.730229,6.717242,0.9482376,0.96650517,1,1
69817027,6.762057,6.762057,6.7493086,0.20103902,0.20492111,1,1
70017027,5.617295,5.617295,5.6065106,0.14203814,0.1447759,1,1
70217027,6.4032497,6.4032497,6.3910203,0.29591918,0.30162597,1,1
70417036,7.072468,7.072468,7.05889,0.40708566,0.41493213,1,1
70617081,6.730229,6.730229,6.7173557,0.4591721,0.46802583,1,1
70817029,6.939661,6.939661,6.926348,0.4054102,0.41322696,1,1
71017027,6.568774,6.568774,6.5561914,0.3386956,0.345227,1,1
71217027,7.958162,7.958162,7.942929,0.28600466,0.29152247,1,1
71417027,6.05865,6.05865,6.0470057,0.2603739,0.2653945,1,1
71617028,6.6013813,6.6013813,6.5886426,0.20028736,0.20414925,1,1
71817029,7.514076,7.514076,7.49869,0.16710101,0.1703247,1,1
72017027,6.6013813,6.6013813,6.5887733,0.13724716,0.1398963,1,1
72217040,7.1829233,7.1829233,7.1690626,0.11235367,0.11452004,1,1
72417027,7.2226706,7.2226706,7.208698,0.090086065,0.091822624,1,1
72617028,6.514067,6.514067,6.501433,0.06392878,0.065160796,1,1
72817027,6.2904816,6.2904816,6.2782807,0.056618445,0.05770958,1,1
73017028,6.514067,6.514067,6.501626,0.06470769,0.065956675,1,1
73217027,6.980794,6.980794,6.9669957,0.070980676,0.07235002,1,1
73417027,6.05865,6.05865,6.0464497,0.06437179,0.06561604,1,1
73617028,6.1987896,6.1987896,6.1869197,0.057225842,0.058330122,1,1
73817027,6.4032507,6.4032507,6.3909893,0.08016827,0.08171527,1,1
74017028,7.0724664,7.0724664,7.0589933,0.11270534,0.11488327,1,1
74217027,6.568774,6.568774,6.556131,0.11154446,0.1136977,1,1
74417027,6.0586505,6.0586505,6.047049,0.091671325,0.09344187,1,1
74617027,6.730229,6.730229,6.7173414,0.079855636,0.081397966,1,1
74817027,6.0586505,6.0586505,6.047049,0.11383981,0.116038516,1,1
75017028,7.1829233,7.1829233,7.169098,0.12222703,0.124586485,1,1
75217027,7.0724664,7.0724664,7.0589933,0.12598176,0.12841624,1,1
75417027,6.730229,6.730229,6.7171755,0.15237169,0.15531337,1,1
75617027,6.1987896,6.1987896,6.1868277,0.22134112,0.22561653,1,1
75817065,5.6172943,5.6172943,5.6064825,0.26465255,0.26976138,1,1
76017027,7.1829233,7.1829233,7.1690626,0.27665058,0.28198963,1,1
76217027,7.1829233,7.1829233,7.1690273,0.26331633,0.2683967,1,1
76417028,6.730229,6.730229,6.717308,0.2555081,0.26044607,1,1
76617028,7.379519,7.379519,7.3652787,0.24242328,0.24710177,1,1
76817027,6.30866,6.30866,6.2964864,0.22287706,0.22718213,1,1
77017027,6.233333,6.233333,6.221397,0.13589704,0.13852176,1,1
77217027,6.514067,6.514067,6.5014653,0.14353572,0.14630751,1,1
77417026,6.198789,6.198789,6.186919,0.14322878,0.14599755,1,1
77617027,7.379519,7.379519,7.3653884,0.16272719,0.16587289,1,1
77817027,6.730229,6.730229,6.7172747,0.17581469,0.1792116,1,1
78017027,6.469968,6.469968,6.4568534,0.17357014,0.17692369,1,1
78217027,7.102762,7.102762,7.089021,0.16687605,0.17009857,1,1
78417027,6.023106,6.023106,6.0103674,0.1621783,0.16530848,1,1
78617046,6.469968,6.469968,6.456444,0.17306904,0.17641379,1,1
78817027,5.987351,5.987351,5.9740114,0.21989457,0.22414204,1,1
79017039,7.1829233,7.1829233,7.1689916,0.24752472,0.25230762,1,1
79217027,6.730229,6.730229,6.715995,0.23906328,0.24367741,1,1
79417027,6.730229,6.730229,6.716793,0.22081642,0.22508323,1,1
79617027,7.1829233,7.1829233,7.1677675,0.20283772,0.20675369,1,1
79817027,6.05865,6.05865,6.0458364,0.16789891,0.1711395,1,1
80017027,6.730229,6.730229,6.716028,0.14712283,0.14996567,1,1
80217027,7.379519,7.379519,7.3631096,0.1206875,0.12301953,1,1
80417028,7.0724664,7.0724664,7.0575433,0.10801525,0.110102415,1,1
80617028,6.980794,6.980794,6.9660473,0.11594221,0.118182264,1,1
80817028,6.2904816,6.2904816,6.277188,0.150012,0.15291017,1,1
81017027,7.0724664,7.0724664,7.05759,0.1660245,0.1692337,1,1
81217027,6.514067,6.514067,6.5003653,0.18001294,0.18349253,1,1
81417028,7.0724664,7.0724664,7.0575547,0.19218831,0.19590226,1,1
81617027,6.4032507,6.4032507,6.389776,0.23332238,0.23783422,1,1
81817027,5.987351,5.987351,5.9741874,0.25972432,0.2647443,1,1
82017027,6.496464,6.496464,6.482708,0.24665861,0.2514229,1,1
82217027,6.0586505,6.0586505,6.0458317,0.21983033,0.22408056,1,1
82417027,6.8879004,6.8879004,6.873333,0.21399121,0.21812873,1,1
82617027,6.730229,6.730229,6.715995,0.22557665,0.22993818,1,1
82817026,6.7302294,6.7302294,6.7148485,0.2816594,0.28710526,1,1
83017026,7.222671,7.222671,7.2074313,0.3224796,0.32871637,1,1
83217052,7.1429553,7.1429553,7.1279187,0.30303484,0.30889708,1,1
83417028,7.0724664,7.0724664,7.0575433,0.2550281,0.25996035,1,1
83617027,7.379519,7.379519,7.363875,7.636295,7.7839036,1,1
83817281,6.8566556,6.8566556,6.8420525,7.6004806,7.7474504,1,1
84017027,7.1429553,7.1429553,7.128095,3.3928218,3.4585416,1,1
84217027,6.730229,6.730229,6.7161274,1.2402135,1.2642393,1,1
84417032,6.2333317,6.2333317,6.220302,0.2653272,0.27046397,1,1
84617027,6.6013813,6.6013813,6.587334,0.24713518,0.251921,1,1
84817027,5.842142,5.842142,5.8298435,0.41163728,0.41960746,1,1
85017027,7.222671,7.222671,7.207645,0.4206145,0.42876914,1,1
85217030,6.568774,6.568774,6.554979,0.38106346,0.38844362,1,1
85417058,7.5710115,7.5710115,7.5552235,0.34639406,0.353108,1,1
85617027,6.568774,6.568774,6.5550113,0.31793016,0.3240892,1,1
85817026,6.730229,6.730229,6.7162275,0.28673106,0.29229003,1,1
86017027,6.730229,6.730229,6.716194,0.24338485,0.24810222,1,1
86217074,7.958162,7.958162,7.941331,0.21061063,0.21468638,1,1
86417057,6.730229,6.730229,6.716061,0.19224721,0.19596954,1,1
86617027,6.919003,6.919003,6.9045405,0.18017855,0.183673,1,1
86817048,6.730229,6.730229,6.7162275,0.16272315,0.16587794,1,1
87017026,6.0586505,6.0586505,6.0460763,0.12627181,0.12872054,1,1
87217026,5.768167,5.768167,5.75611,0.12405105,0.12645693,1,1
87417028,5.768167,5.768167,5.75611,0.0981485,0.10005202,1,1
87617027,6.730229,6.730229,6.716161,0.0595277,0.060682196,1,1
87817027,6.2904816,6.2904816,6.277457,0.03884985,0.0396041,1,1
88017027,7.1829233,7.1829233,7.1670575,0.0506146,0.051595982,1,1
88217027,5.768167,5.768167,5.756167,0.0828667,0.084473275,1,1
88417027,6.939661,6.939661,6.925155,0.08826505,0.0899784,1,1
88617027,5.1381664,5.1381664,5.1275024,0.10270953,0.10470307,1,1
88817027,6.4032497,6.4032497,6.3898654,0.1072408,0.10932066,1,1
89017028,6.730229,6.730229,6.7162943,0.11944482,0.12176379,1,1
89217027,7.0724664,7.0724664,7.0564423,0.09573708,0.09759499,1,1
89417028,6.4032507,6.4032507,6.3892255,0.11939267,0.121708445,1,1
89617028,6.4032507,6.4032507,6.3899612,0.13873558,0.14142837,1,1
89817049,6.730229,6.730229,6.7162275,0.14076118,0.14349256,1,1
90017032,6.568774,6.568774,6.5550113,0.121798076,0.124161735,1,1
90217027,6.980794,6.980794,6.965756,0.10859835,0.110705614,1,1
90417028,6.05865,6.05865,6.0448933,0.11096117,0.11311397,1,1
90617027,6.568774,6.568774,6.5538826,0.12849617,0.13098963,1,1
90817027,5.768167,5.768167,5.7560406,0.15171485,0.15465799,1,1
91017028,6.980794,6.980794,6.9661183,0.16627418,0.16949975,1,1
91217027,7.379519,7.379519,7.362654,0.17967552,0.18315876,1,1
91417026,7.3988914,7.3988914,7.383389,0.19336043,0.19711286,1,1
91617027,6.05865,6.05865,6.0447736,0.19439326,0.19816083,1,1
91817027,7.1829233,7.1829233,7.166543,0.17197302,0.17530778,1,1
92017038,5.768167,5.768167,5.754985,0.13649173,0.13914011,1,1
92217027,7.0724664,7.0724664,7.057648,0.102503896,0.10449488,1,1
92417028,7.379519,7.379519,7.3639116,0.07949486,0.081035964,1,1
92617026,6.3696294,6.3696294,6.3561893,0.10553338,0.10758161,1,1
92817027,6.0586505,6.0586505,6.044774,0.13179484,0.13435143,1,1
93017027,6.939661,6.939661,6.9238353,0.13617866,0.13882166,1,1
93217048,7.379519,7.379519,7.3638387,0.14565897,0.14848377,1,1
93417027,6.730229,6.730229,6.7149143,0.17494853,0.17834488,1,1
93617027,6.0586505,6.0586505,6.044804,0.1810518,0.1845648,1,1
93817027,7.1829233,7.1829233,7.166543,0.15932025,0.16241239,1,1
94017027,6.023106,6.023106,6.009192,0.14674352,0.14958712,1,1
94217027,6.233333,6.233333,6.218995,0.111641034,0.11380554,1,1
94417027,6.514067,6.514067,6.4991474,0.10451762,0.106545076,1,1
94617027,7.5710115,7.5710115,7.553709,0.0922688,0.09405912,1,1
94817027,6.730229,6.730229,6.7147145,0.08962847,0.09136728,1,1
95017027,5.462257,5.462257,5.4495845,0.099783376,0.10171598,1,1
95217027,6.2904816,6.2904816,6.2761364,0.13001463,0.13254021,1,1
95417027,5.842142,5.842142,5.828704,0.1485093,0.15139115,1,1
95617027,6.05865,6.05865,6.0447435,0.17075852,0.17407298,1,1
95817027,6.730229,6.730229,6.7146482,0.2255819,0.22995596,1,1
96017026,5.768167,5.768167,5.754842,0.31330064,0.31937715,1,1
96217027,7.1829233,7.1829233,7.1663656,0.4051847,0.41304535,1,1
96417027,6.4032507,6.4032507,6.388427,0.35465658,0.3615334,1,1
96617028,6.2904816,6.2904816,6.2757635,0.3291878,0.33556247,1,1
96817027,5.7183185,5.7183185,5.705137,0.327798,0.33415735,1,1
97017027,6.0586505,6.0586505,6.0446844,0.29556382,0.3012978,1,1
97217027,6.730229,6.730229,6.714582,0.26467162,0.26980096,1,1
97417027,6.7302294,6.7302294,6.7146153,0.22978777,0.23424613,1,1
97617028,5.462257,5.462257,5.4494767,0.2031641,0.20709834,1,1
97817028,7.6836166,7.6836166,7.665488,0.21321534,0.21734355,1,1
98017028,6.514067,6.514067,6.498826,0.23293777,0.23745255,1,1
98217031,6.514067,6.514067,6.4990187,5.0759325,5.1744676,1,1
98417027,6.5687747,6.5687747,6.553406,5.0771513,5.175556,1,1
98617054,7.0724664,7.0724664,7.0559187,2.1463978,2.1879992,1,1
98817071,6.244804,6.244804,6.230131,0.75947666,0.7741891,1,1
99017075,6.762058,6.762058,6.7462697,0.14246069,0.14522257,1,1
99217088,6.568774,6.568774,6.5534053,0.23566642,0.24023409,1,1
99417033,5.7183185,5.7183185,5.7049394,0.35885638,0.3658117,1,1
99617030,6.05865,6.05865,6.044504,0.32999563,0.33639327,1,1
99817028,6.730229,6.730229,6.7145205,0.28364453,0.28914377,1,1
100017028,6.023106,6.023106,6.008999,0.23994105,0.24459301,1,1
100217027,6.919003,6.919003,6.9027405,0.22781181,0.23222476,1,1
100417038,6.730229,6.730229,6.713694,0.21911374,0.22335985,1,1
100617027,7.1829233,7.1829233,7.166058,0.1879957,0.19164106,1,1
100817027,6.730229,6.730229,6.7143435,0.17486642,0.17825349,1,1
101017027,6.730229,6.730229,6.7144156,0.1701684,0.17346779,1,1
101217027,6.730229,6.730229,6.71436,0.16640165,0.16962661,1,1
101417026,6.568774,6.568774,6.5532155,0.1416527,0.14439645,1,1
101617027,6.2448034,6.2448034,6.2300377,0.11581765,0.11806148,1,1
101817027,6.568774,6.568774,6.5532107,0.06676333,0.06805645,1,1
102017027,5.8052726,5.8052726,5.7915177,0.048561905,0.04950249,1,1
102217027,6.730229,6.730229,6.7143493,0.022338511,0.022771407,1,1
102417027,6.2904816,6.2904816,6.275546,0.029542336,0.030114386,1,1
102617026,5.842142,5.842142,5.8283,0.051365994,0.05236089,1,1
102817027,6.730229,6.730229,6.7142496,0.07024928,0.07161076,1,1
103017027,7.379519,7.379519,7.3621073,0.092142366,0.093929544,1,1
103217027,6.4032507,6.4032507,6.3880157,0.10583007,0.1078788,1,1
103417027,6.0586505,6.0586505,6.0442057,0.082529515,0.08412817,1,1
103617027,6.3696294,6.3696294,6.3543487,0.08063037,0.08219101,1,1
103817027,6.730229,6.730229,6.7141495,0.09839095,0.100296356,1,1
104017027,6.2333317,6.2333317,6.2184086,0.121779494,0.12413722,1,1
104217027,6.171017,6.171017,6.1563654,0.12316735,0.12555443,1,1
104417027,7.1829233,7.1829233,7.1657977,0.11255052,0.1147307,1,1
104617027,6.233333,6.233333,6.2185025,0.10396748,0.105981916,1,1
104817037,7.0724664,7.0724664,7.0554996,0.101078786,0.10303522,1,1
105017028,7.6836166,7.6836166,7.665221,0.11650538,0.118760996,1,1
105217052,7.0724664,7.0724664,7.0553946,0.14815083,0.15101612,1,1
105417027,6.6013813,6.6013813,6.5854793,0.09601508,0.09787418,1,1
105617025,6.730229,6.730229,6.71395,0.084248535,0.08587895,1,1
105817028,6.7726336,6.7726336,6.7552314,0.07435336,0.07579378,1,1
106017027,6.514067,6.514067,6.498376,0.07329288,0.074712016,1,1
106217027,7.6836166,7.6836166,7.665032,0.07199855,0.0733919,1,1
106417026,6.730229,6.730229,6.7139835,0.082028784,0.08361666,1,1
106617027,6.881663,6.881663,6.865018,0.08600187,0.08766622,1,1
106817028,7.1829233,7.1829233,7.165621,0.10425991,0.10627864,1,1
107017027,6.369629,6.369629,6.354254,0.1408148,0.14354062,1,1
107217027,6.730229,6.730229,6.7139835,0.1777622,0.18120323,1,1
107417027,6.7620573,6.7620573,6.7454677,0.21615748,0.2203367,1,1
107617070,6.730229,6.730229,6.713817,0.16688684,0.17011313,1,1
107817027,7.379519,7.379519,7.361634,0.16686219,0.17009053,1,1
108017027,6.2904816,6.2904816,6.275142,0.16705239,0.17028475,1,1
108217027,6.2448034,6.2448034,6.229668,0.17757788,0.18101354,1,1
108417037,6.514067,6.514067,6.498247,0.19483535,0.19860393,1,1
108617026,7.0724664,7.0724664,7.05529,0.19675058,0.2005562,1,1
108817027,6.7302294,6.7302294,6.7127037,0.20508541,0.20905472,1,1
109017027,7.369814,7.369814,7.3515882,0.23316984,0.2376733,1,1
109217027,6.730229,6.730229,6.713784,0.24114458,0.24580936,1,1
109417026,7.3988914,7.3988914,7.380959,0.23180075,0.23628946,1,1
109617055,6.568774,6.568774,6.5526314,0.22727835,0.23167162,1,1
109817027,6.730229,6.730229,6.713708,0.17616364,0.17957066,1,1
110017027,6.4032497,6.4032497,6.3874955,0.12868112,0.13116814,1,1
110217027,6.568774,6.568774,6.552622,0.16269873,0.16584463,1,1
110417027,6.730229,6.730229,6.7136655,0.19812264,0.20195305,1,1
110617036,6.8879004,6.8879004,6.8707643,0.23973323,0.24436392,1,1
110817058,6.730229,6.730229,6.713751,0.18796544,0.19160375,1,1
111017025,6.730229,6.730229,6.7137175,0.18413848,0.18769865,1,1
111217027,6.919003,6.919003,6.9019604,0.1784514,0.18190286,1,1
111417027,7.379519,7.379519,7.3608866,0.17374606,0.17710565,1,1
111617028,5.6172943,5.6172943,5.6032915,0.17331262,0.17665648,1,1
111817028,6.6013813,6.6013813,6.5850563,0.15796317,0.16101676,1,1
112017027,6.4032507,6.4032507,6.38626,0.16840076,0.17165443,1,1
112217027,7.042042,7.042042,7.024661,0.17488901,0.1782707,1,1
112417027,7.6836166,7.6836166,7.664615,0.17774512,0.18118112,1,1
112617039,6.568774,6.568774,6.55253,0.17676736,0.18018447,1,1
112817037,7.2226706,7.2226706,7.2041574,3.056385,3.1154528,1,1
113017027,6.730229,6.730229,6.713419,3.0366318,3.0952566,1,1
113217027,6.2448034,6.2448034,6.229298,1.1318225,1.1536903,1,1
113417027,6.514067,6.514067,6.4969273,0.2524556,0.2573287,1,1
113617028,6.730229,6.730229,6.713069,0.1482914,0.15115757,1,1
113817027,6.2448034,6.2448034,6.229206,0.26860192,0.27379212,1,1
114017028,7.379519,7.379519,7.3607764,0.31780466,0.32395038,1,1
114217027,6.8879004,6.8879004,6.8699393,0.32149115,0.3276952,1,1
114417027,6.730229,6.730229,6.713352,0.30282256,0.30867094,1,1
114617058,7.042042,7.042042,7.0242786,0.26416406,0.2692618,1,1
114817027,6.568774,6.568774,6.5513124,0.23078531,0.23524708,1,1
115017027,6.568774,6.568774,6.5511823,0.2067881,0.21078177,1,1
115217026,7.005357,7.005357,6.9866304,0.19071448,0.19439867,1,1
115417027,7.2226706,7.2226706,7.203292,0.1822249,0.18574326,1,1
115617027,7.379519,7.379519,7.359865,0.17553079,0.17892346,1,1
115817027,6.8879004,6.8879004,6.8695555,0.16805586,0.17130405,1,1
116017027,6.4032507,6.4032507,6.386039,0.15484376,0.15783268,1,1
116217027,6.730229,6.730229,6.712039,0.13702221,0.13966505,1,1
116417064,7.2226706,7.2226706,7.20315,0.120832,0.12316463,1,1
116617028,7.757779,7.757779,7.7367353,0.08404276,0.08566433,1,1
116817029,6.4032497,6.4032497,6.385975,0.086208396,0.08787306,1,1
117017027,6.730229,6.730229,6.712005,0.1452622,0.14806572,1,1
117217055,6.730229,6.730229,6.712005,0.21053971,0.21460308,1,1
117417027,7.0724664,7.0724664,7.053421,0.25671595,0.26167437,1,1
117617031,6.730229,6.730229,6.712072,0.2785254,0.2839037,1,1
117817026,6.514067,6.514067,6.4964614,0.26027608,0.26530063,1,1
118017036,7.1829233,7.1829233,7.163651,0.24947868,0.25430408,1,1
118217027,6.023106,6.023106,6.006916,0.18798935,0.19162448,1,1
118417028,6.2448034,6.2448034,6.2281103,0.13546018,0.13807932,1,1
118617027,6.980794,6.980794,6.961858,0.120809175,0.123142205,1,1
118817027,6.469968,6.469968,6.4524174,0.13239115,0.13494785,1,1
119017026,6.514067,6.514067,6.496429,0.14621183,0.14903617,1,1
119217027,6.244804,6.244804,6.2278643,0.10361381,0.10561477,1,1
119417027,6.143118,6.143118,6.126413,0.09154913,0.09331647,1,1
119617027,7.0724664,7.0724664,7.053252,0.07307912,0.074490085,1,1
119817027,6.730229,6.730229,6.7119055,0.069340356,0.07067873,1,1
120017027,6.7726336,6.7726336,6.754223,0.09953303,0.10145459,1,1
120217026,6.980794,6.980794,6.961777,0.09057347,0.09232152,1,1
120417028,6.568774,6.568774,6.549766,0.092465624,0.094250284,1,1
120617026,6.469968,6.469968,6.452348,0.07994094,0.08148386,1,1
120817027,7.2226706,7.2226706,7.2029834,0.1034128,0.10540848,1,1
121017027,6.3696294,6.3696294,6.3522673,0.08720176,0.0888846,1,1
121217026,5.9633956,5.9633956,5.947101,0.10699318,0.10905724,1,1
121417027,6.514067,6.514067,6.4963,0.14340489,0.1461721,1,1
121617027,6.233333,6.233333,6.2163625,0.22622143,0.23058785,1,1
121817027,5.5789394,5.5789394,5.5635853,0.28293017,0.28838262,1,1
122017039,5.578939,5.578939,5.56375,0.3058833,0.3117873,1,1
122217028,6.05865,6.05865,6.041976,0.29742458,0.30316144,1,1
122417029,6.980794,6.980794,6.961617,0.20708029,0.21107559,1,1
122617027,6.514067,6.514067,6.4962363,0.18182361,0.18533345,1,1
122817027,5.8052726,5.8052726,5.7892957,0.15512143,0.15811348,1,1
123017027,6.2904816,6.2904816,6.2732625,0.16977477,0.17305201,1,1
123217027,5.768167,5.768167,5.752463,0.1870688,0.19068272,1,1
123417027,6.0586505,6.0586505,6.042066,0.21057923,0.21464415,1,1
123617028,6.4032507,6.4032507,6.385786,0.23311852,0.23762088,1,1
123817027,5.9633956,5.9633956,5.947072,0.24420208,0.24891603,1,1
124017028,6.514067,6.514067,6.496204,0.14720781,0.15004872,1,1
124217027,6.514067,6.514067,6.496204,0.10786322,0.10994482,1,1
124417027,5.768167,5.768167,5.751694,0.12277904,0.12515059,1,1
124617070,5.768167,5.768167,5.7522354,0.1460196,0.1488371,1,1
124817027,6.05865,6.05865,6.042335,0.20726517,0.21127908,1,1
125017027,6.3696294,6.3696294,6.3521314,0.13881929,0.14149997,1,1
125217027,7.102762,7.102762,7.0832148,0.16091576,0.16402233,1,1
125417026,4.9681997,4.9681997,4.954453,0.1672657,0.17049232,1,1
125617027,6.6013813,6.6013813,6.5833116,0.110518314,0.1126536,1,1
125817027,5.3830643,5.3830643,5.367385,0.13001467,0.13252598,1,1
126017027,5.768167,5.768167,5.7523494,0.15113647,0.15405576,1,1
126217026,5.768167,5.768167,5.752378,0.1547584,0.15774842,1,1
126417028,5.3830643,5.3830643,5.36809,0.13059136,0.13310854,1,1
126617027,6.1987896,6.1987896,6.1814547,0.14634809,0.14916676,1,1
126817027,5.768167,5.768167,5.75215,0.11193802,0.11409622,1,1
127017073,5.617295,5.617295,5.6018353,0.13325346,0.13582826,1,1
127217027,6.2448034,6.2448034,6.227617,5.992557,6.108247,1,1
127417042,4.9247913,4.9247913,4.9102526,5.978658,6.094001,1,1
127617058,5.7183185,5.7183185,5.7028913,5.981829,6.097745,1,1
127817028,5.1381664,5.1381664,5.123975,5.9812665,6.09678,1,1
128017028,4.220428,4.220428,4.2090216,5.997474,6.1136637,1,1
128217027,4.609503,4.609503,4.596885,6.0209713,6.1374035,1,1
128417027,5.9633956,5.9633956,5.9470134,5.9951453,6.111017,1,1
128617032,4.220428,4.220428,4.2087917,5.9354362,6.050094,1,1
128817027,5.1714892,5.1714892,5.1564493,5.884129,5.997707,1,1
129017027,4.220428,4.220428,4.20884,5.8581014,5.971333,1,1
129217028,5.1381664,5.1381664,5.1240616,5.8044367,5.916706,1,1
129417027,5.9633956,5.9633956,5.947038,5.750676,5.8618484,1,1
129617027,5.5789394,5.5789394,5.5636683,5.6831093,5.793049,1,1
129817028,4.54697,4.54697,4.5345073,5.613561,5.7221355,1,1
130017027,5.1381664,5.1381664,5.1230993,5.5638666,5.671414,1,1
130217028,5.5789394,5.5789394,5.562945,5.5116997,5.6181273,1,1
130417027,4.220428,4.220428,4.2080517,5.419814,5.5245767,1,1
130617026,5.9633956,5.9633956,5.947101,5.352543,5.456167,1,1
130817027,4.851581,4.851581,4.8375454,5.2981415,5.4007654,1,1
131017027,4.747191,4.747191,4.7334576,5.268787,5.3708425,1,1
131217027,6.244804,6.244804,6.226584,5.212927,5.3137693,1,1
131417027,5.3830643,5.3830643,5.367332,5.154185,5.2538652,1,1
131617027,5.1381664,5.1381664,5.1233654,5.0846634,5.182922,1,1
131817027,3.4765203,3.4765203,3.466377,5.026161,5.1233907,1,1
132017026,4.9247913,4.9247913,4.9103985,4.9733434,5.069611,1,1
132217028,5.1381664,5.1381664,5.1232514,4.9111676,5.006247,1,1
132417027,2.4057798,2.4057798,2.3987725,4.8431773,4.936974,1,1
132617027,4.851581,4.851581,4.8374023,4.791185,4.8839264,1,1
132817027,5.179787,5.179787,5.164598,4.7160053,4.8072443,1,1
133017027,5.1381664,5.1381664,5.123124,4.662472,4.7526984,1,1
133217027,4.851581,4.851581,4.8376174,4.607313,4.696705,1,1
133417026,5.7183185,5.7183185,5.7016063,4.563928,4.652271,1,1
133617027,3.9578824,3.9578824,3.9463346,4.4796524,4.566386,1,1
133817085,5.1797867,5.1797867,5.1648016,4.450032,4.536305,1,1
134017027,4.5469685,4.5469685,4.533837,4.4085364,4.4940267,1,1
134217027,5.179787,5.179787,5.164828,4.366618,4.4513702,1,1
134417027,5.462257,5.462257,5.4462934,4.322824,4.4065,1,1
134617026,5.1935863,5.1935863,5.178382,4.266552,4.3491898,1,1
134817049,4.220428,4.220428,4.208114,4.21728,4.2989335,1,1
135017062,5.179787,5.179787,5.1646743,4.177726,4.2586856,1,1
135217028,3.6766355,3.6766355,3.6659083,4.1691813,4.249975,1,1
135417028,4.747191,4.747191,4.733411,4.1117263,4.191469,1,1
135617028,4.220428,4.220428,4.20801,4.0326233,4.110669,1,1
135817027,2.9654408,2.9654408,2.956424,4.0180063,4.095891,1,1
136017040,4.747191,4.747191,4.733247,3.9988227,4.0762343,1,1
136217027,5.179787,5.179787,5.164649,3.9283793,4.004487,1,1
136417027,5.1935863,5.1935863,5.178587,3.8884223,3.9638932,1,1
136617027,5.6172943,5.6172943,5.6009607,3.867321,3.9423041,1,1
136817028,4.6466174,4.6466174,4.6330605,3.8392496,3.91365,1,1
137017027,4.220428,4.220428,4.208239,3.7412193,3.813833,1,1
137217028,3.6766355,3.6766355,3.6659265,3.6774747,3.7487586,1,1
137417026,4.220428,4.220428,4.208177,3.6982503,3.770037,1,1
137617026,4.220429,4.220429,4.208136,3.6754858,3.7467937,1,1
137817027,4.220428,4.220428,4.2083015,3.5919797,3.6617513,1,1
138017027,4.792208,4.792208,4.778203,3.5404432,3.6090953,1,1
138217027,4.011766,4.011766,4.00014,3.53084,3.5993948,1,1
138417029,3.036985,3.036985,3.0281093,3.484504,3.5520713,1,1
138617027,2.4057798,2.4057798,2.3987963,3.423076,3.489521,1,1
138817027,3.036985,3.036985,3.0281665,3.3703022,3.4357204,1,1
139017027,2.4057798,2.4057798,2.3988101,3.319933,3.3843956,1,1
139217026,3.9578817,3.9578817,3.9464219,3.3075924,3.371821,1,1
139417027,3.6766355,3.6766355,3.6659567,3.2518802,3.314997,1,1
139617052,0.9889819,0.9889819,0.9861038,3.1938505,3.2558224,1,1
139817027,2.941206,2.941206,2.93269,3.1285293,3.1892807,1,1
140017026,4.5469685,4.5469685,4.5337434,3.0739238,3.1335735,1,1
140217028,3.036985,3.036985,3.028174,3.026744,3.0855012,1,1
140417027,3.6766355,3.6766355,3.665948,2.975257,3.0329971,1,1
140617028,1.2220523,1.2220523,1.2184868,2.90531,2.9616609,1,1
140817027,3.9578817,3.9578817,3.9463537,2.8656766,2.9212735,1,1
141017027,3.9578817,3.9578817,3.9463732,2.809799,2.864374,1,1
141217027,4.609502,4.609502,4.5961437,2.7833598,2.8374493,1,1
141417027,2.4934344,2.4934344,2.4857712,2.7712708,2.8251114,1,1
141617029,2.0174315,2.0174315,2.0115852,2.7291424,2.7821782,1,1
141817028,-1.0407733,-1.0407733,-1.0377624,2.722055,2.7749667,1,1
142017037,1.3866676,1.3866676,1.3826424,2.7281349,2.7811375,1,1
142217049,-2.6094134,-2.6094134,-2.6018515,2.697484,2.7499046,1,1
142417060,3.6766355,3.6766355,3.6657763,2.6861794,2.7384617,1,1
142617028,4.609502,4.609502,4.5961666,2.6629224,2.7146847,1,1
142817028,2.0174322,2.0174322,2.0116258,2.6414552,2.6928403,1,1
143017028,-1.8367201,-1.8367201,-1.8314338,2.6179934,2.6689222,1,1
143217027,3.036985,3.036985,3.028139,2.5859542,2.6362126,1,1
143417027,2.4057798,2.4057798,2.3988557,2.562779,2.6126773,1,1
143617027,-1.6736066,-1.6736066,-1.668798,2.5604734,2.6103396,1,1
143817028,2.0174322,2.0174322,2.0115561,2.547953,2.5974727,1,1
144017028,1.149624,1.149624,1.1462528,2.513403,2.5622005,1,1
144217027,3.036985,3.036985,3.0281541,2.4944558,2.5429485,1,1
144417027,1.5337162,1.5337162,1.5291617,2.4578078,2.5055757,1,1
144617027,-1.7973307,-1.7973307,-1.7921134,2.4466298,2.4942048,1,1
144817027,1.5337162,1.5337162,1.529302,2.4647286,2.512718,1,1
145017027,-1.0407747,-1.0407747,-1.0377381,2.4308803,2.4781125,1,1
145217027,3.3931708,3.3931708,3.3830023,2.3569326,2.4028113,1,1
145417027,-0.4736405,-0.4736405,-0.47227028,2.3284574,2.373758,1,1
145617027,-2.3189616,-2.3189616,-2.3121958,2.3641524,2.4101284,1,1
145817029,3.307722,3.307722,3.2975075,2.303098,2.3478866,1,1
146017027,1.9080334,1.9080334,1.9025512,2.2540178,2.2979157,1,1
146217027,1.5337162,1.5337162,1.5292716,2.221152,2.2643917,1,1
146417027,3.6766355,3.6766355,3.6659083,2.1736271,2.2158978,1,1
146617027,2.2836802,2.2836802,2.2770848,2.1551135,2.1970894,1,1
146817027,3.307722,3.307722,3.298153,2.1488721,2.1907156,1,1
147017026,2.4057813,2.4057813,2.3987978,2.1193345,2.1605814,1,1
147217026,-1.0407747,-1.0407747,-1.0375863,2.0474215,2.0872893,1,1
147417030,-1.0407747,-1.0407747,-1.0377843,2.0272608,2.0667772,1,1
147617027,3.9578817,3.9578817,3.9464707,2.0309987,2.0705674,1,1
147817027,2.4057798,2.4057798,2.398808,1.9967602,2.0356317,1,1
148017028,1.5337162,1.5337162,1.5292413,1.9478781,1.9857919,1,1
148217027,-2.6094134,-2.6094134,-2.601826,1.912026,1.9492613,1,1
148417026,2.4057798,2.4057798,2.3987947,1.9223211,1.9597324,1,1
148617028,-1.0407733,-1.0407733,-1.0377506,1.8920506,1.9288852,1,1
148817028,-1.9864856,-1.9864856,-1.9807205,1.8353962,1.8711498,1,1
149017027,1.2220523,1.2220523,1.2185075,1.8176537,1.853042,1,1
149217027,-2.7431307,-2.7431307,-2.7351813,1.8114082,1.846689,1,1
149417027,4.011766,4.011766,4.00014,1.785075,1.819856,1,1
149617064,-1.0407733,-1.0407733,-1.0377264,1.7514675,1.7855407,1,1
149817055,2.4934344,2.4934344,2.4861841,1.728591,1.7622539,1,1
150017030,2.8921273,2.8921273,2.8832672,1.7164652,1.7499181,1,1
150217026,2.2836802,2.2836802,2.2770286,1.7018539,1.7349876,1,1
150417027,2.0174315,2.0174315,2.0112114,1.6813904,1.7141258,1,1
150617028,-1.9864856,-1.9864856,-1.9806995,1.6447648,1.676787,1,1
150817067,-2.6094134,-2.6094134,-2.6018388,1.6244322,1.656075,1,1
151017027,3.3931708,3.3931708,3.3833544,1.606593,1.6379045,1,1
151217028,1.2220523,1.2220523,1.2183366,1.5815268,1.6123178,1,1
151417027,3.3931708,3.3931708,3.3833044,1.5585864,1.5889653,1,1
151617027,3.307722,3.307722,3.2981856,1.5572039,1.5875952,1,1
151817027,-3.109976,-3.109976,-3.100887,1.5283788,1.558146,1,1
152017027,2.941206,2.941206,2.9326825,1.5122528,1.5417439,1,1
152217027,2.8921273,2.8921273,2.8836892,1.4978547,1.5270349,1,1
152417027,1.5337162,1.5337162,1.529249,1.4809207,1.5097784,1,1
152617027,-2.6094134,-2.6094134,-2.6018388,1.4677827,1.4963992,1,1
152817038,-1.7973307,-1.7973307,-1.791848,1.4304928,1.4583534,1,1
153017027,2.941206,2.941206,2.9327261,1.4007233,1.4280607,1,1
153217026,-1.5676136,-1.5676136,-1.5630708,1.3933738,1.4205467,1,1
153417027,2.8422015,2.8422015,2.8339791,1.3334601,1.3594711,1,1
153617027,-1.9864856,-1.9864856,-1.9806898,1.2778176,1.3027111,1,1
153817045,-1.0407747,-1.0407747,-1.0377536,1.225733,1.2496303,1,1
154017027,-3.109976,-3.109976,-3.1009023,1.1663442,1.189066,1,1
154217040,3.866407,3.866407,3.8550017,1.1145144,1.1362545,1,1
154417027,3.3931708,3.3931708,3.3833044,1.0694414,1.0903045,1,1
154617027,-1.0407733,-1.0407733,-1.0377624,1.0303267,1.0504422,1,1
154817028,1.222051,1.222051,1.2185278,0.96129996,0.98007756,1,1
155017027,-2.3189616,-2.3189616,-2.312253,0.8966991,0.91420573,1,1
155217027,-2.3189616,-2.3189616,-2.3122416,0.8781047,0.89524394,1,1
155417056,-0.71457994,-0.71457994,-0.7123803,0.83671427,0.85303724,1,1
155617027,-1.0407733,-1.0407733,-1.0377418,0.45714042,0.46605617,1,1
155817027,2.4057798,2.4057798,2.3988438,0.38437837,0.39188665,1,1
156017026,-1.0407747,-1.0407747,-1.0377536,0.43279743,0.44124278,1,1
156217027,-1.0407733,-1.0407733,-1.0377469,0.4210776,0.42929932,1,1
156417027,-3.7371538,-3.7371538,-3.7263422,0.44925618,0.4580349,1,1
156617027,-1.7973299,-1.7973299,-1.7921392,0.4445807,0.45327032,1,1
156817026,-2.3189616,-2.3189616,-2.31223,0.42722678,0.43557072,1,1
157017074,-2.3189616,-2.3189616,-2.3122416,0.42351246,0.431786,1,1
157217035,-1.0407747,-1.0407747,-1.037769,0.4121339,0.42018932,1,1
157417028,1.2220523,1.2220523,1.218523,0.4178714,0.42603895,1,1
157617027,-1.0407733,-1.0407733,-1.0377624,0.42901856,0.43740183,1,1
157817028,1.9080334,1.9080334,1.9024664,0.42579946,0.43410912,1,1
158017027,1.9080341,1.9080341,1.9024954,0.41097903,0.41900563,1,1
158217027,2.2836802,2.2836802,2.2770753,0.41811967,0.42629033,1,1
158417027,-1.8367201,-1.8367201,-1.8314006,0.40931317,0.41731,1,1
158617027,1.5337162,1.5337162,1.5292754,0.41704836,0.4251967,1,1
158817027,-2.7431312,-2.7431312,-2.7347162,0.42429695,0.43258616,1,1
159017027,2.9412072,2.9412072,2.932667,0.40137786,0.40921664,1,1
159217059,-1.9864856,-1.9864856,-1.9807323,0.40374082,0.4116288,1,1
159417027,-1.0407747,-1.0407747,-1.0377561,0.41269594,0.42076418,1,1
159617027,-0.8085627,-0.8085627,-0.8062189,0.42050084,0.42871523,1,1
159817027,-3.109976,-3.109976,-3.100979,0.42084587,0.42906943,1,1
160017027,-2.4972892,-2.4972892,-2.4900503,0.42959055,0.43798617,1,1
160217027,-1.6736066,-1.6736066,-1.6687815,0.4390674,0.44765148,1,1
160417027,-1.9864856,-1.9864856,-1.9807584,0.44018695,0.4488004,1,1
160617027,2.5445778,2.5445778,2.5371914,0.42841744,0.43679196,1,1
160817027,-1.0407733,-1.0407733,-1.0377675,0.41915786,0.4273577,1,1
161017028,-1.0407733,-1.0407733,-1.0377675,0.4141759,0.42227829,1,1
161217027,-3.109976,-3.109976,-3.100933,0.40768468,0.4156519,1,1
161417027,-1.9864856,-1.9864856,-1.9807388,0.40396774,0.4118684,1,1
161617028,-1.7973307,-1.7973307,-1.7921311,0.41451526,0.4226222,1,1
161817027,-1.0407747,-1.0407747,-1.0377483,0.40872726,0.41671482,1,1
162017027,-3.7371538,-3.7371538,-3.7263422,0.4034102,0.41129994,1,1
162217029,2.2836802,2.2836802,2.2770061,0.40846038,0.41644353,1,1
162417027,-2.7431307,-2.7431307,-2.735168,0.40844208,0.41642612,1,1
162617055,1.9080349,1.9080349,1.9024962,0.4023878,0.41026035,1,1
162817027,2.4934344,2.4934344,2.4857712,0.39923143,0.40704224,1,1
163017028,-2.3189616,-2.3189616,-2.3122072,0.40269408,0.41056857,1,1
163217026,-1.0407733,-1.0407733,-1.0377572,0.40374434,0.41164547,1,1
163417027,1.5337142,1.5337142,1.5292621,0.39868113,0.40648118,1,1
163617027,-1.0407733,-1.0407733,-1.0378318,0.4080158,0.41600668,1,1
163817027,2.4934344,2.4934344,2.4861717,0.405795,0.4137301,1,1
164017027,-1.836721,-1.836721,-1.8314435,0.396075,0.40383607,1,1
164217027,1.6418982,1.6418982,1.6371481,0.40115735,0.40900987,1,1
164417027,-3.3748627,-3.3748627,-3.3651993,0.40077457,0.40863174,1,1
164617028,-1.9864856,-1.9864856,-1.981048,0.39306313,0.4007513,1,1
164817069,-1.6736076,-1.6736076,-1.6687825,0.39645985,0.40422443,1,1
165017027,-1.9864856,-1.9864856,-1.9810578,0.4049394,0.41286188,1,1
165217027,-0.7145843,-0.7145843,-0.7126213,0.4073757,0.41533968,1,1
165417027,-1.0407747,-1.0407747,-1.0377483,0.4035462,0.41144627,1,1
165617027,2.4934344,2.4934344,2.4865522,0.40282425,0.41071147,1,1
165817026,-2.318961,-2.318961,-2.3126173,0.39562237,0.40338528,1,1
166017027,2.2836802,2.2836802,2.2773557,0.40204683,0.40992084,1,1
166217027,1.5337162,1.5337162,1.5295405,0.39959246,0.40742117,1,1
166417027,-1.0407733,-1.0407733,-1.0378267,0.40033525,0.40818056,1,1
166617027,-1.0407747,-1.0407747,-1.037769,0.4034849,0.41139194,1,1
166817026,-2.2244427,-2.2244427,-2.2182918,0.39788106,0.40567625,1,1
167017027,-1.0407733,-1.0407733,-1.0379347,0.39433458,0.4020583,1,1
167217027,1.6419,1.6419,1.6374379,0.40176207,0.40963534,1,1
167417026,2.2836802,2.2836802,2.2774627,0.40580678,0.41375723,1,1
167617027,2.8422015,2.8422015,2.8343794,0.40432286,0.41223896,1,1
167817027,-2.3189616,-2.3189616,-2.3126254,0.40801612,0.41600576,1,1
168017027,-1.0407733,-1.0407733,-1.0379375,0.40276176,0.41065466,1,1
168217070,-1.0407733,-1.0407733,-1.0379294,0.3957829,0.40353492,1,1
168417055,1.3866688,1.3866688,1.3827065,0.40636748,0.41433296,1,1
168617028,2.8921273,2.8921273,2.8842614,0.4047055,0.4126395,1,1
168817042,-1.0407733,-1.0407733,-1.0379449,0.40563256,0.4135886,1,1
169017029,2.4057798,2.4057798,2.3991587,0.40090623,0.40875542,1,1
169217027,-1.7973307,-1.7973307,-1.7924464,0.39868206,0.40650177,1,1
169417026,2.2836802,2.2836802,2.2774515,0.39674816,0.40452594,1,1
169617027,-1.0407747,-1.0407747,-1.0379361,0.40272233,0.41061723,1,1
169817028,-2.2244427,-2.2244427,-2.2179747,0.41022325,0.41826105,1,1
170017056,-3.5404606,-3.5404606,-3.5308042,0.4086081,0.4166184,1,1
170217027,1.2220523,1.2220523,1.2187252,0.3954293,0.40318325,1,1
170417027,-1.7973299,-1.7973299,-1.7924278,0.3946994,0.402437,1,1
170617026,-3.7371538,-3.7371538,-3.7269423,0.3989351,0.40675375,1,1
170817027,2.8422015,2.8422015,2.8344355,0.40545055,0.41340378,1,1
171017027,2.8422015,2.8422015,2.8344216,0.4062451,0.4142119,1,1
171217027,-3.109976,-3.109976,-3.1014783,0.40404475,0.4119704,1,1
171417035,-3.9240003,-3.9240003,-3.9132977,0.40033215,0.408187,1,1
171617027,-2.6094134,-2.6094134,-2.602245,0.39955044,0.4073819,1,1
171817027,2.4057798,2.4057798,2.399218,0.4059465,0.4139115,1,1
172017058,1.9080341,1.9080341,1.9028865,0.4080115,0.41602242,1,1
172217035,3.3931708,3.3931708,3.3838995,0.40495548,0.412899,1,1
172417029,1.222051,1.222051,1.218736,0.4034653,0.41138774,1,1
172617028,1.9080349,1.9080349,1.9028401,0.3968163,0.4046042,1,1
172817027,-3.109976,-3.109976,-3.1010945,0.39300087,0.40070593,1,1
173017027,-3.9240003,-3.9240003,-3.9132783,0.39743066,0.4052266,1,1
173217070,-2.3189616,-2.3189616,-2.3126025,0.40353864,0.41145033,1,1
173417048,-1.5399743,-1.5399743,-1.5357894,0.4055164,0.41347703,1,1
173617027,-1.9864856,-1.9864856,-1.9810578,0.40525,0.41320625,1,1
173817027,-1.6736076,-1.6736076,-1.6690346,0.4069162,0.4148982,1,1
174017070,2.283681,2.283681,2.277396,0.40449458,0.41242093,1,1
174217027,3.3931708,3.3931708,3.3839328,0.401222,0.40910318,1,1
174417027,1.9080334,1.9080334,1.9028293,0.40629423,0.414273,1,1
174617027,-1.7973299,-1.7973299,-1.7924366,0.40809456,0.41611075,1,1
174817027,-0.7145843,-0.7145843,-0.71262825,0.40699306,0.41498148,1,1
175017027,-1.7973307,-1.7973307,-1.7924374,0.40354845,0.41147536,1,1
175217027,1.9080341,1.9080341,1.9028019,0.4035526,0.41147143,1,1
175417026,-1.7973307,-1.7973307,-1.792411,0.40310344,0.4110155,1,1
175617027,3.3931708,3.3931708,3.3840168,0.39783576,0.40566048,1,1
175817029,1.7433816,1.7433816,1.7386352,0.39729282,0.40509683,1,1
176017027,-3.540461,-3.540461,-3.530822,0.39957878,0.4074277,1,1
176217027,-0.4736405,-0.4736405,-0.47234866,0.40211183,0.41000846,1,1
176417027,-1.7973307,-1.7973307,-1.7924286,0.40973192,0.4177782,1,1
176617027,2.283681,2.283681,2.2774634,0.40412912,0.4120743,1,1
176817040,-1.8367201,-1.8367201,-1.8317106,0.40352362,0.41145486,1,1
177017027,2.8921273,2.8921273,2.8841963,0.4015285,0.40941447,1,1
177217027,-1.9864856,-1.9864856,-1.9811068,0.40663952,0.41464025,1,1
177417027,-1.0407733,-1.0407733,-1.0379552,0.40625364,0.41424677,1,1
177617028,-2.6094134,-2.6094134,-2.602309,0.40470615,0.41266268,1,1
177817027,-3.7371538,-3.7371538,-3.7269764,0.4032585,0.41118628,1,1
178017027,-2.6637056,-2.6637056,-2.656449,0.40361562,0.41155007,1,1
178217027,-2.3189616,-2.3189616,-2.3126369,0.4047628,0.4127184,1,1
178417027,2.1810846,2.1810846,2.1748493,0.40066797,0.4085451,1,1
178617027,3.3931708,3.3931708,3.3839328,0.40393528,0.41187668,1,1
178817027,-3.5404606,-3.5404606,-3.5308127,0.4001511,0.40801707,1,1
179017027,-3.109976,-3.109976,-3.1015089,0.39956474,0.4074202,1,1
179217027,1.5337162,1.5337162,1.5295419,0.4039101,0.41185132,1,1
179417031,2.8921273,2.8921273,2.884246,0.40194145,0.40984946,1,1
179617031,-1.0407747,-1.0407747,-1.0379566,0.40276045,0.4106917,1,1
179817027,2.283681,2.283681,2.2774522,0.40453738,0.41249546,1,1
180017027,-0.8085627,-0.8085627,-0.80637336,0.39979556,0.40766844,1,1
180217032,-0.8085627,-0.8085627,-0.80636936,0.40372333,0.4116715,1,1
180417028,2.2836802,2.2836802,2.2774742,0.4093657,0.41742292,1,1
180617029,-2.7431307,-2.7431307,-2.7356625,0.4058451,0.41383094,1,1
180817027,3.3931708,3.3931708,3.3839161,0.40336037,0.4112953,1,1
181017027,-3.540461,-3.540461,-3.5307698,0.40582526,0.41380456,1,1
181217027,2.1810846,2.1810846,2.1751359,0.40578243,0.413765,1,1
181417090,-1.0407747,-1.0407747,-1.0379207,0.3954595,0.4032398,1,1
181617027,-1.0407747,-1.0407747,-1.0379411,0.39872342,0.40656912,1,1
181817043,3.5579166,3.5579166,3.5482655,0.40272218,0.41065064,1,1
182017027,2.0174322,2.0174322,2.0119395,0.400837,0.40873113,1,1
182217027,-2.7431307,-2.7431307,-2.7356896,0.40773883,0.41577303,1,1
182417027,1.6418982,1.6418982,1.6374118,0.4045128,0.41247526,1,1
182617027,2.283681,2.283681,2.277441,0.39820486,0.40604317,1,1
182817051,2.4057798,2.4057798,2.399147,0.40166077,0.40955696,1,1
183017027,3.5579166,3.5579166,3.5482478,0.4054115,0.41339782,1,1
183217047,-1.0407733,-1.0407733,-1.0379552,0.40283117,0.41077068,1,1
183417028,-1.0407733,-1.0407733,-1.0379294,0.4008354,0.4087323,1,1
183617027,-2.6094134,-2.6094134,-2.6022706,0.40329525,0.4112317,1,1
183817027,2.1810846,2.1810846,2.1751359,0.40438047,0.41234237,1,1
184017027,2.1008513,2.1008513,2.0951629,0.4035745,0.41152868,1,1
184217027,-1.0407733,-1.0407733,-1.0379449,0.40919998,0.41726092,1,1
184417027,2.8422015,2.8422015,2.8344634,0.407729,0.41576585,1,1
184617027,-1.9864856,-1.9864856,-1.9810578,0.40403053,0.41199037,1,1
184817027,3.4765203,3.4765203,3.4671586,0.40057543,0.40847656,1,1
185017026,-2.82032,-2.82032,-2.8126414,0.40875435,0.4168114,1,1
185217027,2.8422015,2.8422015,2.8345056,0.41081804,0.418922,1,1
185417028,-3.7371538,-3.7371538,-3.7270346,0.40523365,0.41322052,1,1
185617027,-1.0407733,-1.0407733,-1.0379449,0.4009626,0.4088681,1,1
185817027,2.2836802,2.2836802,2.2774627,0.39779407,0.4056351,1,1
186017027,1.222051,1.222051,1.2187239,0.40312463,0.4110707,1,1
186217027,-1.9864856,-1.9864856,-1.981048,0.40669367,0.41470394,1,1
186417027,-1.6736066,-1.6736066,-1.6690336,0.40611804,0.414119,1,1
186617026,2.5445778,2.5445778,2.537625,0.4030655,0.41100633,1,1
186817073,-1.0407747,-1.0407747,-1.0379566,0.39823034,0.406086,1,1
187017197,-1.0407733,-1.0407733,-1.0379294,0.40301144,0.41095123,1,1
187217028,-0.7145843,-0.7145843,-0.7126424,0.404561,0.41253746,1,1
187417035,3.3931708,3.3931708,3.383909,0.4053463,0.4133382,1,1
187617027,-0.71457994,-0.71457994,-0.7127172,0.40712687,0.41515967,1,1
187817027,-3.9240003,-3.9240003,-3.9133089,0.40430537,0.41228077,1,1
188017027,-3.109976,-3.109976,-3.1015005,0.40351683,0.41147345,1,1
188217028,3.307722,3.307722,3.2988343,0.40393132,0.41189727,1,1
188417028,2.8422015,2.8422015,2.834906,0.40532646,0.41331673,1,1
188617027,-1.9864856,-1.9864856,-1.981426,0.40582317,0.4138314,1,1
188817027,0.2489052,0.2489052,0.24827123,0.40405327,0.41202658,1,1
189017026,1.5337162,1.5337162,1.5297073,0.40305448,0.411004,1,1
189217027,2.4057813,2.4057813,2.399493,0.401604,0.40952492,1,1
189417027,-0.7145843,-0.7145843,-0.7127536,0.4052013,0.4131911,1,1
189617028,-1.9864856,-1.9864856,-1.9812099,0.40538955,0.4133913,1,1
189817027,2.8921273,2.8921273,2.8842678,0.40440032,0.4123805,1,1
190017028,-2.318961,-2.318961,-2.3126247,0.40596244,0.41397423,1,1
190217028,-1.9864856,-1.9864856,-1.9810872,0.40263933,0.41058475,1,1
