timestamp,timestamp_sample,baro_device_id,bias,bias_var,innov,innov_var,innov_test_ratio
17179210,17061576,3997730,0.010272511,0.08368823,-0.2701087,12.896738,0.0006285716
17688739,17566776,3997730,0.008759007,0.08155802,-0.3546425,12.894581,0.0010837569
17928656,17819370,3997730,0.0076350644,0.08053308,-0.1491729,12.893542,0.00019176313
19057477,18930848,3997730,0.0060797576,0.076222666,-0.15144329,12.889179,0.00019771168
19427148,19284429,3997730,0.0049932254,0.07488661,-0.23050353,12.887827,0.00045807118
19926686,19789622,3997730,0.0070867436,0.073176466,0.27874216,12.886097,0.0006699485
20316452,20193779,3997730,0.00813321,0.07194431,0.2696182,12.8848505,0.0006268687
20436412,20294817,3997730,0.009184031,0.07154272,0.18819019,12.884444,0.00030541178
21315553,21204184,3997730,0.010352275,0.068852685,0.32418022,12.881724,0.0009064764
21685217,21557798,3997730,0.009986711,0.06776074,-0.1916069,12.880621,0.00031669627
22314774,22164034,3997730,0.0086410465,0.06601587,-0.08800148,12.878858,6.681287e-05
22804422,22669229,3997730,0.0073887026,0.064683415,-0.07000561,12.877512,4.228548e-05
23433791,23325979,3997730,0.010442307,0.06309171,0.459163,12.875904,0.0018193388
23553801,23427014,3997730,0.009420122,0.06278269,-0.20860438,12.875592,0.0003755235
24313036,24184810,3997730,0.007849782,0.060990483,-0.18166721,12.873782,0.00028484227
24683434,24538447,3997730,0.008967514,0.06013219,0.059167918,12.872915,3.0217125e-05
25052342,24942595,3997730,0.010800504,0.0592978,0.22757651,12.872073,0.000447058
25681804,25548848,3997730,0.007893119,0.05795738,-0.093923606,12.870721,7.6156e-05
26181303,26054019,3997730,0.0054803304,0.056927957,-0.42053205,12.869682,0.0015268201
26810748,26660257,3997730,0.0067759035,0.055691484,0.1667183,12.868435,0.00023999285
27310604,27165450,3997730,0.0077939415,0.05474037,0.16869852,12.8674755,0.00024574614
28179634,28074800,3997730,0.006761229,0.053151894,-0.314694,12.865873,0.00085525395
28679204,28529475,3997730,0.0054654884,0.05228486,-0.09401825,12.864999,7.63435e-05
29179564,29034675,3997730,0.0065251435,0.051445737,0.09142381,12.864153,7.2192975e-05
29558296,29438817,3997730,0.005491008,0.050833907,-0.023982536,12.863537,4.9680657e-06
29937959,29792454,3997730,0.007435502,0.050236404,0.36824542,12.862934,0.0011713648
30437485,30297643,3997730,0.008547337,0.049461305,0.118767,12.862153,0.00012185277
31316801,31207093,3997730,0.010114956,0.048161,0.28026426,12.860843,0.00067861506
32185909,32065820,3997730,0.01163387,0.046927307,0.15944228,12.8596,0.00021965292
33055133,32924649,3997730,0.012904782,0.04575529,0.20861007,12.858419,0.00037604556
33434993,33328800,3997730,0.01170121,0.04527079,-0.53323483,12.857931,0.0024571035
33934348,33783482,3997730,0.0128406435,0.04464044,0.10181004,12.857297,8.957546e-05
34184138,34036075,3997730,0.014224464,0.04433184,0.16118944,12.856986,0.00022453885
34433894,34288671,3997730,0.015432,0.04402748,0.15273927,12.856679,0.00020161839
35433823,35299114,3997730,0.016793577,0.042850763,0.18045568,12.8554945,0.00028145555
35682959,35551653,3997730,0.018667161,0.042566355,0.2820383,12.855208,0.0006875346
36432119,36309442,3997730,0.020054461,0.041735366,0.130676,12.854372,0.00014760405
36811769,36663081,3997730,0.021652255,0.041331906,0.21891256,12.853966,0.00041424923
37321292,37218815,3997730,0.0228973,0.040806055,0.13727655,12.853436,0.00016290369
38680040,38532302,3997730,0.021067696,0.03942645,-0.37565726,12.852048,0.001220025
39309446,39189073,3997730,0.019069305,0.038829837,-0.3678327,12.851448,0.001169785
39429435,39290116,3997730,0.016696831,0.03871264,-0.7852036,12.85133,0.005330574
39809050,39694262,3997730,0.013871688,0.038365383,-0.67748135,12.850981,0.003968404
40308662,40199428,3997730,0.0089295665,0.037911925,-0.48347417,12.850525,0.0020210785
40678280,40553070,3997730,0.007227969,0.037578784,-0.4534623,12.850189,0.0017779943
41307821,41159306,3997730,0.0025342677,0.037036408,-0.38226512,12.849644,0.0012635598
41807345,41664489,3997730,-0.0021291215,0.03661369,-0.40937436,12.849218,0.0014491791
42187219,42068643,3997730,-0.0057389867,0.036302973,-0.389568,12.8489065,0.0013123748
42806519,42674878,3997730,-0.011041285,0.035796598,-0.33752936,12.848397,0.0009852165
42936395,42826434,3997730,-0.012196366,0.035697054,-0.41458547,12.848297,0.0014864149
43805660,43685238,3997730,-0.015388448,0.035015233,-0.22411947,12.847611,0.00043440447
44055490,43937832,3997730,-0.017105281,0.0348252,-0.40422237,12.84742,0.0014131304
44674892,44544064,3997730,-0.020340178,0.034359004,-0.4535514,12.8469515,0.0017791413
44934644,44796661,3997730,-0.021506382,0.03417602,-0.14376739,12.846767,0.00017876578
45684181,45554452,3997730,-0.02399083,0.033638604,-0.11257908,12.846227,0.000109621884
46183930,46059648,3997730,-0.025161035,0.033289637,-0.095807806,12.845877,7.939543e-05
46433395,46312243,3997730,-0.026422983,0.033117857,-0.2458399,12.845704,0.00052276236
46932944,46817438,3997730,-0.027530855,0.032779574,-0.1754288,12.845364,0.00026620293
47682267,47575227,3997730,-0.028548673,0.032284934,-0.11198849,12.844867,0.00010848625
50559989,50454860,3997730,-0.026999565,0.030519754,0.27468985,12.843093,0.00065278943
52059067,51919917,3997730,-0.025781173,0.029673392,0.28424627,12.842242,0.00069904665
52439265,52324045,3997730,-0.023965545,0.02946915,0.42120507,12.842037,0.0015350083
52558707,52425085,3997730,-0.022614611,0.02940165,0.58870286,12.8419695,0.0029985972
52938820,52829240,3997730,-0.021361925,0.029201128,0.39152458,12.841768,0.0013263273
54566177,54445855,3997730,-0.022430124,0.028362807,-0.67378646,12.840926,0.0039283093
55055767,54951054,3997730,-0.021086667,0.028114494,0.20979661,12.840676,0.00038086102
55815083,55708841,3997730,-0.02002648,0.02775009,0.0546526,12.84031,2.5846613e-05
56184625,56062476,3997730,-0.018724393,0.027571386,0.27556777,12.840131,0.0006571203
56554310,56416113,3997730,-0.01710853,0.027394975,0.3075859,12.839953,0.00081870396
56934443,56820276,3997730,-0.016001761,0.027220873,0.17450698,12.839779,0.00026352724
57683544,57578057,3997730,-0.01478152,0.026879184,0.26904047,12.839436,0.00062639284
58182867,58032732,3997730,-0.013598902,0.026656067,0.17754059,12.839211,0.0002727812
58812312,58689754,3997730,-0.012458615,0.026382452,0.42012876,12.838937,0.0015275424
60430899,60306137,3997730,-0.011064602,0.025696613,0.23824033,12.838248,0.0004912271
61559929,61417557,3997730,-0.009926843,0.025242368,0.136982,12.837792,0.00016240303
64937174,64802362,3997730,-0.008810077,0.023971474,0.15104519,12.836516,0.00019748043
66055976,65913792,3997730,-0.0073564337,0.023575883,0.24969822,12.83612,0.0005397027
67314857,67176772,3997730,-0.0062851,0.02315146,0.0707115,12.835693,4.328309e-05
68064169,67934568,3997730,-0.005066537,0.02290409,0.22545171,12.835445,0.0004400009
68564264,68439739,3997730,-0.0037926985,0.022742106,0.26423717,12.835282,0.0006044215
69063354,68944922,3997730,-0.002654197,0.022582402,0.13955024,12.835122,0.0001685849
69562926,69450140,3997730,-0.0014757053,0.022424936,0.24016967,12.834964,0.00049934327
69932708,69803753,3997730,-0.00023967348,0.022308245,0.5610004,12.834847,0.0027245397
70811851,70662586,3997730,0.0009303587,0.02204069,0.14934906,12.8345785,0.00019309937
72181075,72077136,3997730,0.0021845235,0.0216331,0.20588481,12.834169,0.0003669766
72929981,72784404,3997730,0.0011695466,0.021417018,-0.05821074,12.833953,2.9336165e-05
74059039,73946345,3997730,0.0023932832,0.021101026,0.29394156,12.833636,0.00074804854
76317102,76169203,3997730,0.0012806014,0.020496212,-0.22482866,12.833029,0.0004376548
77316415,77179592,3997730,0.00020285326,0.020238472,-0.1866874,12.83277,0.00030176374
81932192,81827386,3997730,0.0014271125,0.019126458,0.38998604,12.8316555,0.0013169609
83680698,83545050,3997730,3.9419683e-05,0.018737024,-0.32171884,12.8312645,0.0008962744
85189359,85060658,3997730,-0.001140256,0.018415747,-0.18440273,12.830942,0.000294465
88317256,88192865,3997730,-0.00013057014,0.01778075,0.24877636,12.830305,0.0005359678
88806178,88698064,3997730,0.0009860317,0.017683221,0.13402942,12.830208,0.00015556936
89685353,89556929,3997730,0.0022170371,0.017515082,0.2191347,12.830039,0.00041586446
90055224,89910534,3997730,0.0032677057,0.017443985,0.20228802,12.8299675,0.00035438247
90684505,90567290,3997730,0.00434859,0.017326856,0.23746768,12.82985,0.0004883654
91184241,91072481,3997730,0.0054354174,0.017234262,0.18711898,12.829758,0.00030323176
91813498,91678747,3997730,0.00669103,0.01711988,0.2511557,12.829643,0.00054629723
92432990,92284949,3997730,0.007738223,0.017007018,0.21535838,12.82953,0.00040167084
92803279,92689105,3997730,0.008948119,0.016940067,0.2806571,12.829462,0.0006821834
93182312,93042742,3997730,0.009975109,0.016873581,0.22658084,12.829396,0.00044462885
93682443,93547935,3997730,0.011232547,0.016785787,0.22941492,12.829308,0.00045582443
94561702,94457289,3997730,0.012449512,0.016634377,0.26468474,12.829156,0.0006067604
94930823,94810929,3997730,0.013565288,0.01657028,0.26644048,12.829092,0.00061483984
95430540,95316126,3997730,0.014844057,0.016485628,0.26824835,12.829007,0.0006232159
95810028,95669758,3997730,0.016066484,0.016422676,0.22899517,12.828944,0.00045417083
96179715,96073917,3997730,0.01738624,0.016360272,0.46244085,12.828881,0.001852171
96679264,96528590,3997730,0.018673167,0.0162777,0.2560242,12.828798,0.0005677192
97069004,96932752,3997730,0.019801533,0.0162164,0.23410156,12.828737,0.00047465955
97558479,97437948,3997730,0.021071775,0.016135344,0.3400972,12.828655,0.0010018032
98187950,98044182,3997730,0.022138437,0.016035132,0.41033807,12.828555,0.0014583555
98687673,98549349,3997730,0.023261866,0.015955888,0.35995695,12.828476,0.0011222344
99436962,99307142,3997730,0.024530098,0.015838493,0.25159687,12.828358,0.00054827303
99806696,99660797,3997730,0.025777362,0.015780414,0.38685808,12.8282995,0.0012962589
100056371,99913377,3997730,0.02704981,0.015741954,0.77720976,12.828261,0.005231981
100436086,100317554,3997730,0.02824477,0.015684647,0.5247715,12.828204,0.0023852403
100816304,100671172,3997730,0.02938011,0.015627697,0.29377025,12.828147,0.00074749655
101185479,101075329,3997730,0.03038567,0.01557123,0.4048865,12.82809,0.0014199143
101685266,101580528,3997730,0.031495884,0.01549654,0.2851809,12.828015,0.0007044317
102554511,102439359,3997730,0.03416756,0.015367519,0.5553848,12.827886,0.0026717165
102934199,102792992,3997730,0.0355163,0.015312869,0.4018288,12.827831,0.0013985769
103313987,103197149,3997730,0.0368425,0.015258674,0.38250303,12.827777,0.0012672896
103813584,103702365,3997730,0.038280465,0.015186968,0.3934546,12.827705,0.0013409043
104562918,104460138,3997730,0.040814146,0.0150806755,0.30701083,12.827599,0.0008164311
105062028,104914816,3997730,0.042830035,0.015010581,0.42235214,12.827528,0.001545126
105431705,105318973,3997730,0.04420323,0.01495852,0.51508343,12.827476,0.0022981134
106061183,105925228,3997730,0.046801727,0.014872471,0.6083787,12.82739,0.003206027
106430852,106329365,3997730,0.048337355,0.014821368,0.554876,12.827338,0.0026669377
107060304,106935605,3997730,0.05149536,0.014736901,0.5558086,12.827254,0.0026759275
107310061,107188220,3997730,0.052924298,0.014703398,0.6928736,12.82722,0.0041584643
107929558,107794436,3997730,0.055818535,0.014620273,0.63679886,12.827137,0.0035126293
108429084,108299638,3997730,0.058601633,0.014554481,0.62453234,12.827071,0.0033786239
108929279,108804828,3997730,0.061128344,0.014489284,0.75715077,12.827005,0.0049658883
109558161,109411064,3997730,0.065132804,0.014408581,1.0949922,12.826925,0.010386206
110057753,109916258,3997730,0.06804373,0.014344692,0.7182562,12.82686,0.004468851
110427390,110320415,3997730,0.070889205,0.014297183,1.0397853,12.826813,0.009365394
110936920,110825613,3997730,0.074477755,0.014234288,1.0406387,12.82675,0.00938082
111436475,111330805,3997730,0.077793695,0.014171952,0.69244814,12.826688,0.004153531
111936021,111785509,3997730,0.081074186,0.0141101,0.73585826,12.826626,0.004690654
112555497,112442240,3997730,0.08490392,0.014033654,0.95716965,12.826549,0.007936437
113055069,112947461,3997730,0.08786009,0.013973076,0.4620766,12.8264885,0.0018495993
113554572,113452655,3997730,0.09105432,0.013913022,0.7972664,12.826428,0.005506285
114054133,113907380,3997730,0.0941064,0.013853425,0.75075865,12.826368,0.0048826374
114563744,114463025,3997730,0.09694628,0.013794467,0.7212646,12.826309,0.004506558
115053301,114917701,3997730,0.099571824,0.01373589,0.70649487,12.826251,0.004323901
115562900,115422901,3997730,0.10254328,0.013677876,0.7870355,12.826193,0.005365972
115932560,115827085,3997730,0.10481976,0.013634722,0.53212386,12.826149,0.0024529386
116432121,116281732,3997730,0.108581185,0.0135775,1.0349506,12.826092,0.009279026
116931678,116786930,3997730,0.11140405,0.013520828,0.6112755,12.8260355,0.0032369727
117431403,117292135,3997730,0.11436818,0.013464633,0.82699925,12.825979,0.005924848
117930827,117797325,3997730,0.117593706,0.013408908,0.6432017,12.825923,0.003583961
118560332,118454077,3997730,0.12107279,0.013339933,0.8458418,12.825854,0.0061979704
119059862,118959274,3997730,0.12420287,0.013285244,0.86102676,12.825799,0.0064225337
119559438,119413953,3997730,0.12709668,0.013230943,0.9229802,12.825745,0.0073800557
120058958,119919197,3997730,0.12969236,0.013177154,0.65252817,12.82569,0.0036887166
120558750,120424345,3997730,0.13290353,0.013123801,0.7699886,12.825637,0.0051362617
121058270,120929540,3997730,0.13558431,0.013070888,0.48507923,12.825584,0.0020384763
121557656,121434744,3997730,0.13880605,0.013018406,0.70955014,12.825532,0.004361625
122057208,121939934,3997730,0.14194928,0.012966346,0.84445333,12.8254795,0.0061778193
122556781,122445134,3997730,0.14517361,0.012914705,1.0298777,12.825428,0.00918876
123056463,122950328,3997730,0.14761727,0.012863482,0.633187,12.8253765,0.0034733724
123555905,123405007,3997730,0.15011793,0.012812604,0.6105329,12.825325,0.0032292914
124055478,123910217,3997730,0.1524951,0.012762197,0.500937,12.825274,0.0021739872
124555309,124415402,3997730,0.15476875,0.012712185,0.630983,12.825225,0.003449275
124934741,124819558,3997730,0.15606941,0.0126749715,0.6388379,12.825188,0.0035356972
125554173,125425797,3997730,0.15891331,0.012613351,0.73084426,12.825126,0.0046274904
126053721,125931004,3997730,0.16148344,0.012564516,0.5229646,12.825077,0.0023694204
126313500,126183589,3997730,0.16301847,0.01254024,0.7869228,12.825052,0.005364912
126683230,126537227,3997730,0.16474248,0.012503972,0.79920846,12.825016,0.0055337525
127432666,127295022,3997730,0.16755778,0.012432138,1.0590196,12.8249445,0.009716502
128052288,127901259,3997730,0.17063504,0.012372879,1.399841,12.824884,0.016977018
128561758,128456981,3997730,0.17331761,0.012325969,0.45328957,12.824838,0.0017801519
128811573,128709575,3997730,0.17431995,0.012302618,0.48574194,12.824815,0.0020441727
129431155,129315811,3997730,0.17644866,0.0122446,0.4736011,12.824757,0.0019432728
129930787,129821011,3997730,0.17892608,0.012198608,0.31049955,12.82471,0.00083527964
130431105,130326210,3997730,0.18131793,0.012152965,0.40775293,12.824664,0.0014404749
131059749,130932442,3997730,0.18520983,0.012096363,1.0763559,12.824608,0.010037493
131559147,131437639,3997730,0.18843313,0.012051493,1.4190246,12.824563,0.017445955
132058702,131942839,3997730,0.19093235,0.012006959,0.5897679,12.824518,0.003013552
132558428,132448074,3997730,0.193628,0.011962755,0.494429,12.824474,0.0021179991
133058045,132953238,3997730,0.19616993,0.011918882,0.4758693,12.8244295,0.001961981
133557546,133407911,3997730,0.19952929,0.01187527,0.8893783,12.824387,0.0068532084
133937163,133812069,3997730,0.20122899,0.011842852,0.8192674,12.824354,0.005815316
134426776,134317291,3997730,0.2042938,0.0117998645,0.77852654,12.82431,0.0052513424
134927442,134822471,3997730,0.20727494,0.011757192,0.82021683,12.824268,0.0058288416
135425889,135277145,3997730,0.21063589,0.01171477,1.4887615,12.824225,0.019203333
136055367,135933904,3997730,0.2138295,0.011662288,0.91508764,12.824173,0.0072552687
136435001,136287534,3997730,0.21619762,0.011630974,1.167965,12.8241415,0.011819222
136934559,136792733,3997730,0.21925987,0.011589529,0.66340125,12.8241005,0.0038131436
137434143,137297929,3997730,0.22229989,0.011548383,0.8296163,12.824059,0.005963299
137933689,137803127,3997730,0.22581975,0.011507534,1.415575,12.824018,0.017361976
138433261,138308329,3997730,0.22882065,0.011466977,0.58485126,12.823977,0.0029636412
138933039,138813524,3997730,0.23144354,0.011426709,0.8244618,12.823936,0.0058894837
139433104,139318724,3997730,0.23484541,0.011386727,0.9030402,12.823896,0.0070656417
139931992,139823923,3997730,0.23781222,0.011347031,0.72144103,12.823857,0.0045096255
140431582,140329228,3997730,0.24132934,0.011307615,1.127769,12.823817,0.011019971
140931129,140783796,3997730,0.24395667,0.011268408,0.8678887,12.823778,0.006526338
141430713,141288992,3997730,0.24682544,0.011229544,0.77759683,12.823739,0.0052390406
141930237,141794191,3997730,0.24995771,0.011190951,0.8739536,12.823701,0.0066179098
142429793,142299406,3997730,0.25266573,0.011152624,0.838146,12.823663,0.0060867397
143059294,142956144,3997730,0.25669962,0.011105122,1.2489529,12.823615,0.013515717
143558939,143410824,3997730,0.25975093,0.011067329,0.9221045,12.823577,0.0073673036
143939283,143814983,3997730,0.26249623,0.011039233,0.82657576,12.823548,0.005919903
144428278,144320200,3997730,0.2654786,0.011001957,0.79584897,12.823511,0.0054879715
144927853,144825387,3997730,0.2685926,0.010964934,0.8097352,12.823474,0.0056811706
145437509,145330577,3997730,0.27141047,0.010928165,0.5868362,12.823438,0.0029839177
146057131,145936816,3997730,0.27406606,0.010891776,0.64577913,12.823401,0.0036134517
146556568,146442031,3997730,0.2764707,0.010855502,0.57588875,12.823364,0.0028736421
146936212,146795650,3997730,0.27806708,0.010828424,0.7320979,12.823338,0.0046440274
147555644,147452408,3997730,0.28061816,0.010783688,0.51147264,12.823293,0.0022667453
147935344,147806045,3997730,0.28198785,0.010756978,0.60015166,12.823266,0.0031209073
148314968,148210208,3997730,0.2832658,0.010730463,0.41825446,12.823239,0.0015157965
149054301,148917482,3997730,0.28582403,0.0106777,0.72888637,12.823187,0.004603426
149433957,149321639,3997730,0.2872617,0.010651582,0.54782856,12.82316,0.0026004694
149803640,149675280,3997730,0.28848454,0.01062553,0.6881871,12.823134,0.004103707
150553046,150433170,3997730,0.29093564,0.010573874,0.5730837,12.823083,0.0028457788
151052801,150938277,3997730,0.29229075,0.01053972,0.55871856,12.823049,0.0027049072
151432235,151291914,3997730,0.29356605,0.010514222,0.55143565,12.823023,0.0026348552
151811917,151696074,3997730,0.29462698,0.010488913,0.37075946,12.822997,0.0011911115
152311524,152201270,3997730,0.29593226,0.010455318,0.44506776,12.822964,0.0017164112
152811800,152706470,3997730,0.29728934,0.01042194,0.5064616,12.82293,0.0022226102
153560558,153413746,3997730,0.29970828,0.010372214,0.37002677,12.822881,0.0011864192
154180252,154070504,3997730,0.3009856,0.010331228,0.47894734,12.82284,0.0019876908
154680593,154575709,3997730,0.30225423,0.01029865,0.44264847,12.822807,0.0016978226
155189552,155080903,3997730,0.30364305,0.010266279,0.48585072,12.822775,0.0020454137
155928876,155788183,3997730,0.30504146,0.010218051,0.51238185,12.822726,0.002274912
156808586,156697539,3997730,0.30615523,0.010162469,0.37024012,12.822671,0.0011878072
157807687,157657413,3997730,0.3073359,0.010099601,0.26041812,12.822608,0.00058765645
159055623,158920431,3997730,0.30858272,0.010022201,0.3267742,12.82253,0.0009252931
160056375,159930809,3997730,0.30967116,0.009961146,0.31667748,12.822469,0.00086900085
161433580,161294845,3997730,0.31077194,0.009878393,0.18813905,12.822386,0.00030672314
162802376,162658882,3997730,0.31187695,0.009797034,0.25441867,12.822305,0.0005609051
164560869,164427078,3997730,0.3129685,0.009695482,0.19100219,12.822203,0.00031613422
165929723,165791115,3997730,0.31399077,0.009617156,0.6290721,12.8221245,0.003429244
168807449,168670749,3997730,0.31507692,0.009457532,0.16144264,12.821964,0.00022586006
170186038,170085311,3997730,0.31615806,0.009383135,0.18437943,12.82189,0.0002945984
172314388,172207143,3997730,0.31718257,0.009270407,0.07472864,12.821777,4.8393096e-05
173932910,173823781,3997730,0.31818533,0.009186048,0.18470895,12.821692,0.0002956569
176181367,176046664,3997730,0.3192869,0.009071794,0.19217691,12.821578,0.00032005043
177429821,177309657,3997730,0.32040426,0.009009602,0.2969081,12.821516,0.0007639452
178059283,177915897,3997730,0.32158807,0.008978801,0.32774287,12.8214855,0.0009308628
178938518,178825256,3997730,0.322627,0.0089361165,0.2811171,12.821443,0.00068484957
179677892,179532537,3997730,0.3238968,0.008899767,0.5410458,12.821406,0.0025368212
180557122,180441892,3997730,0.3250312,0.008857851,0.2087492,12.821364,0.00037763556
181316523,181199720,3997730,0.32605493,0.008822218,0.36129713,12.821328,0.0011312368
182175725,182058533,3997730,0.32719332,0.0087809805,0.26653907,12.821287,0.0006156695
183434870,183321577,3997730,0.32824853,0.0087228,0.23210922,12.821229,0.0004668879
184184230,184079340,3997730,0.32929805,0.008688269,0.12286696,12.821194,0.00013082755
184933667,184786610,3997730,0.33073586,0.008653954,0.817405,12.821159,0.005790349
185552865,185443380,3997730,0.3319311,0.0086256545,0.31668335,12.821132,0.00086912373
186192325,186049614,3997730,0.3329964,0.008597482,0.33805642,12.821103,0.0009903996
187061543,186958970,3997730,0.3340371,0.008564155,0.3067147,12.82107,0.00081527187
187680985,187565229,3997730,0.33515382,0.008536392,0.34061405,12.821042,0.0010054472
188310559,188171461,3997730,0.33617437,0.0085088145,0.19560036,12.821014,0.00033156938
189429682,189282918,3997730,0.33735576,0.008459661,0.38593486,12.820965,0.0012908174
189929153,189788103,3997730,0.33836272,0.008438013,0.36220655,12.820944,0.0011369728
