timestamp,accel_device_id_primary,accel_device_ids[0],accel_device_ids[1],accel_device_ids[2],accel_device_ids[3],accel_inconsistency_m_s_s[0],accel_inconsistency_m_s_s[1],accel_inconsistency_m_s_s[2],accel_inconsistency_m_s_s[3],gyro_device_id_primary,gyro_device_ids[0],gyro_device_ids[1],gyro_device_ids[2],gyro_device_ids[3],gyro_inconsistency_rad_s[0],gyro_inconsistency_rad_s[1],gyro_inconsistency_rad_s[2],gyro_inconsistency_rad_s[3],accel_healthy[0],accel_healthy[1],accel_healthy[2],accel_healthy[3],accel_priority[0],accel_priority[1],accel_priority[2],accel_priority[3],gyro_healthy[0],gyro_healthy[1],gyro_healthy[2],gyro_healthy[3],gyro_priority[0],gyro_priority[1],gyro_priority[2],gyro_priority[3]
539373838,2490378,4259850,2490378,0,0,0.1495892,0.14958918,0.0,0.0,2490378,4325386,2490378,0,0,0.012109354,0.012109354,0.0,0.0,1,1,0,0,50,50,0,0,1,1,0,0,50,50,0,0
539378819,2490378,4259850,2490378,0,0,0.14792842,0.14792839,0.0,0.0,2490378,4325386,2490378,0,0,0.012082505,0.012082505,0.0,0.0,1,1,0,0,50,50,0,0,1,1,0,0,50,50,0,0
539572922,2490378,4259850,2490378,0,0,0.15531164,0.15531161,0.0,0.0,2490378,4325386,2490378,0,0,0.012127815,0.012127815,0.0,0.0,1,1,0,0,50,50,0,0,1,1,0,0,50,50,0,0
539772019,2490378,4259850,2490378,0,0,0.14949393,0.14949393,0.0,0.0,2490378,4325386,2490378,0,0,0.011722225,0.011722227,0.0,0.0,1,1,0,0,50,50,0,0,1,1,0,0,50,50,0,0
539971109,2490378,4259850,2490378,0,0,0.15092453,0.15092452,0.0,0.0,2490378,4325386,2490378,0,0,0.0116936155,0.011693617,0.0,0.0,1,1,0,0,50,50,0,0,1,1,0,0,50,50,0,0
540175178,2490378,4259850,2490378,0,0,0.14685394,0.14685394,0.0,0.0,2490378,4325386,2490378,0,0,0.012034915,0.012034917,0.0,0.0,1,1,0,0,50,50,0,0,1,1,0,0,50,50,0,0
540374264,2490378,4259850,2490378,0,0,0.14772332,0.14772333,0.0,0.0,2490378,4325386,2490378,0,0,0.011554196,0.011554196,0.0,0.0,1,1,0,0,50,50,0,0,1,1,0,0,50,50,0,0
540573355,2490378,4259850,2490378,0,0,0.14739579,0.1473958,0.0,0.0,2490378,4325386,2490378,0,0,0.011685875,0.011685875,0.0,0.0,1,1,0,0,50,50,0,0,1,1,0,0,50,50,0,0
540777429,2490378,4259850,2490378,0,0,0.14535476,0.14535473,0.0,0.0,2490378,4325386,2490378,0,0,0.011574953,0.011574953,0.0,0.0,1,1,0,0,50,50,0,0,1,1,0,0,50,50,0,0
540976516,2490378,4259850,2490378,0,0,0.14397638,0.14397638,0.0,0.0,2490378,4325386,2490378,0,0,0.011466191,0.011466191,0.0,0.0,1,1,0,0,50,50,0,0,1,1,0,0,50,50,0,0
541175640,2490378,4259850,2490378,0,0,0.15050519,0.15050519,0.0,0.0,2490378,4325386,2490378,0,0,0.011645036,0.011645036,0.0,0.0,1,1,0,0,50,50,0,0,1,1,0,0,50,50,0,0
541374706,2490378,4259850,2490378,0,0,0.14998269,0.14998269,0.0,0.0,2490378,4325386,2490378,0,0,0.011828067,0.011828067,0.0,0.0,1,1,0,0,50,50,0,0,1,1,0,0,50,50,0,0
541578775,2490378,4259850,2490378,0,0,0.15126412,0.15126413,0.0,0.0,2490378,4325386,2490378,0,0,0.011567866,0.011567866,0.0,0.0,1,1,0,0,50,50,0,0,1,1,0,0,50,50,0,0
541777868,2490378,4259850,2490378,0,0,0.15166265,0.15166265,0.0,0.0,2490378,4325386,2490378,0,0,0.011600261,0.011600261,0.0,0.0,1,1,0,0,50,50,0,0,1,1,0,0,50,50,0,0
541976964,2490378,4259850,2490378,0,0,0.15184589,0.15184586,0.0,0.0,2490378,4325386,2490378,0,0,0.0121256905,0.0121256905,0.0,0.0,1,1,0,0,50,50,0,0,1,1,0,0,50,50,0,0
542176047,2490378,4259850,2490378,0,0,0.15059511,0.15059513,0.0,0.0,2490378,4325386,2490378,0,0,0.011835397,0.011835397,0.0,0.0,1,1,0,0,50,50,0,0,1,1,0,0,50,50,0,0
542375141,2490378,4259850,2490378,0,0,0.14928672,0.14928673,0.0,0.0,2490378,4325386,2490378,0,0,0.012106311,0.012106311,0.0,0.0,1,1,0,0,50,50,0,0,1,1,0,0,50,50,0,0
542574238,2490378,4259850,2490378,0,0,0.14991112,0.14991112,0.0,0.0,2490378,4325386,2490378,0,0,0.011815862,0.011815862,0.0,0.0,1,1,0,0,50,50,0,0,1,1,0,0,50,50,0,0
542773322,2490378,4259850,2490378,0,0,0.15003133,0.15003136,0.0,0.0,2490378,4325386,2490378,0,0,0.0122222705,0.012222271,0.0,0.0,1,1,0,0,50,50,0,0,1,1,0,0,50,50,0,0
542977395,2490378,4259850,2490378,0,0,0.14968337,0.14968334,0.0,0.0,2490378,4325386,2490378,0,0,0.012142957,0.012142957,0.0,0.0,1,1,0,0,50,50,0,0,1,1,0,0,50,50,0,0
543176488,2490378,4259850,2490378,0,0,0.14972158,0.1497216,0.0,0.0,2490378,4325386,2490378,0,0,0.012138366,0.012138366,0.0,0.0,1,1,0,0,50,50,0,0,1,1,0,0,50,50,0,0
543375577,2490378,4259850,2490378,0,0,0.1481567,0.14815672,0.0,0.0,2490378,4325386,2490378,0,0,0.011438778,0.011438778,0.0,0.0,1,1,0,0,50,50,0,0,1,1,0,0,50,50,0,0
543574680,2490378,4259850,2490378,0,0,0.14687312,0.14687312,0.0,0.0,2490378,4325386,2490378,0,0,0.0122789,0.0122789,0.0,0.0,1,1,0,0,50,50,0,0,1,1,0,0,50,50,0,0
543773766,2490378,4259850,2490378,0,0,0.15004766,0.15004766,0.0,0.0,2490378,4325386,2490378,0,0,0.01205812,0.01205812,0.0,0.0,1,1,0,0,50,50,0,0,1,1,0,0,50,50,0,0
543972887,2490378,4259850,2490378,0,0,0.14934456,0.14934453,0.0,0.0,2490378,4325386,2490378,0,0,0.012042571,0.012042571,0.0,0.0,1,1,0,0,50,50,0,0,1,1,0,0,50,50,0,0
544171947,2490378,4259850,2490378,0,0,0.14950398,0.14950399,0.0,0.0,2490378,4325386,2490378,0,0,0.011709139,0.011709139,0.0,0.0,1,1,0,0,50,50,0,0,1,1,0,0,50,50,0,0
544376015,2490378,4259850,2490378,0,0,0.15053646,0.15053648,0.0,0.0,2490378,4325386,2490378,0,0,0.011480613,0.011480613,0.0,0.0,1,1,0,0,50,50,0,0,1,1,0,0,50,50,0,0
544575135,2490378,4259850,2490378,0,0,0.14968678,0.14968681,0.0,0.0,2490378,4325386,2490378,0,0,0.011373896,0.011373896,0.0,0.0,1,1,0,0,50,50,0,0,1,1,0,0,50,50,0,0
544774203,2490378,4259850,2490378,0,0,0.15105718,0.15105721,0.0,0.0,2490378,4325386,2490378,0,0,0.011842721,0.011842721,0.0,0.0,1,1,0,0,50,50,0,0,1,1,0,0,50,50,0,0
544973292,2490378,4259850,2490378,0,0,0.15158339,0.15158339,0.0,0.0,2490378,4325386,2490378,0,0,0.011400223,0.011400223,0.0,0.0,1,1,0,0,50,50,0,0,1,1,0,0,50,50,0,0
545172386,2490378,4259850,2490378,0,0,0.14959879,0.14959878,0.0,0.0,2490378,4325386,2490378,0,0,0.011643107,0.011643107,0.0,0.0,1,1,0,0,50,50,0,0,1,1,0,0,50,50,0,0
545376475,2490378,4259850,2490378,0,0,0.15111183,0.15111184,0.0,0.0,2490378,4325386,2490378,0,0,0.012275298,0.012275297,0.0,0.0,1,1,0,0,50,50,0,0,1,1,0,0,50,50,0,0
545575546,2490378,4259850,2490378,0,0,0.14815821,0.14815821,0.0,0.0,2490378,4325386,2490378,0,0,0.01167933,0.01167933,0.0,0.0,1,1,0,0,50,50,0,0,1,1,0,0,50,50,0,0
545774660,2490378,4259850,2490378,0,0,0.15021762,0.15021764,0.0,0.0,2490378,4325386,2490378,0,0,0.0118448865,0.0118448865,0.0,0.0,1,1,0,0,50,50,0,0,1,1,0,0,50,50,0,0
545973732,2490378,4259850,2490378,0,0,0.1481526,0.14815263,0.0,0.0,2490378,4325386,2490378,0,0,0.011926348,0.011926349,0.0,0.0,1,1,0,0,50,50,0,0,1,1,0,0,50,50,0,0
546177925,2490378,4259850,2490378,0,0,0.1505239,0.15052389,0.0,0.0,2490378,4325386,2490378,0,0,0.011941712,0.011941712,0.0,0.0,1,1,0,0,50,50,0,0,1,1,0,0,50,50,0,0
546376893,2490378,4259850,2490378,0,0,0.15051663,0.15051661,0.0,0.0,2490378,4325386,2490378,0,0,0.012176146,0.012176148,0.0,0.0,1,1,0,0,50,50,0,0,1,1,0,0,50,50,0,0
546575965,2490378,4259850,2490378,0,0,0.14982462,0.14982462,0.0,0.0,2490378,4325386,2490378,0,0,0.011455562,0.011455562,0.0,0.0,1,1,0,0,50,50,0,0,1,1,0,0,50,50,0,0
546775216,2490378,4259850,2490378,0,0,0.1495409,0.14954092,0.0,0.0,2490378,4325386,2490378,0,0,0.011377167,0.011377167,0.0,0.0,1,1,0,0,50,50,0,0,1,1,0,0,50,50,0,0
546974173,2490378,4259850,2490378,0,0,0.15163119,0.15163119,0.0,0.0,2490378,4325386,2490378,0,0,0.0113934,0.011393399,0.0,0.0,1,1,0,0,50,50,0,0,1,1,0,0,50,50,0,0
547178241,2490378,4259850,2490378,0,0,0.1481795,0.1481795,0.0,0.0,2490378,4325386,2490378,0,0,0.011534309,0.011534309,0.0,0.0,1,1,0,0,50,50,0,0,1,1,0,0,50,50,0,0
547377364,2490378,4259850,2490378,0,0,0.14952514,0.14952514,0.0,0.0,2490378,4325386,2490378,0,0,0.011504381,0.011504381,0.0,0.0,1,1,0,0,50,50,0,0,1,1,0,0,50,50,0,0
547576425,2490378,4259850,2490378,0,0,0.1483686,0.1483686,0.0,0.0,2490378,4325386,2490378,0,0,0.0117565235,0.0117565235,0.0,0.0,1,1,0,0,50,50,0,0,1,1,0,0,50,50,0,0
547775565,2490378,4259850,2490378,0,0,0.1462425,0.14624248,0.0,0.0,2490378,4325386,2490378,0,0,0.011656862,0.011656862,0.0,0.0,1,1,0,0,50,50,0,0,1,1,0,0,50,50,0,0
547974609,2490378,4259850,2490378,0,0,0.14589442,0.14589441,0.0,0.0,2490378,4325386,2490378,0,0,0.012091141,0.012091141,0.0,0.0,1,1,0,0,50,50,0,0,1,1,0,0,50,50,0,0
548173712,2490378,4259850,2490378,0,0,0.14735821,0.14735825,0.0,0.0,2490378,4325386,2490378,0,0,0.011579272,0.011579272,0.0,0.0,1,1,0,0,50,50,0,0,1,1,0,0,50,50,0,0
548372809,2490378,4259850,2490378,0,0,0.14965354,0.14965355,0.0,0.0,2490378,4325386,2490378,0,0,0.011348613,0.011348613,0.0,0.0,1,1,0,0,50,50,0,0,1,1,0,0,50,50,0,0
548576871,2490378,4259850,2490378,0,0,0.14984865,0.14984865,0.0,0.0,2490378,4325386,2490378,0,0,0.011170752,0.011170752,0.0,0.0,1,1,0,0,50,50,0,0,1,1,0,0,50,50,0,0
548775956,2490378,4259850,2490378,0,0,0.1501453,0.1501453,0.0,0.0,2490378,4325386,2490378,0,0,0.012067507,0.012067507,0.0,0.0,1,1,0,0,50,50,0,0,1,1,0,0,50,50,0,0
548975049,2490378,4259850,2490378,0,0,0.14836462,0.1483646,0.0,0.0,2490378,4325386,2490378,0,0,0.011589825,0.011589825,0.0,0.0,1,1,0,0,50,50,0,0,1,1,0,0,50,50,0,0
549174172,2490378,4259850,2490378,0,0,0.14908464,0.14908466,0.0,0.0,2490378,4325386,2490378,0,0,0.01177459,0.011774588,0.0,0.0,1,1,0,0,50,50,0,0,1,1,0,0,50,50,0,0
549373233,2490378,4259850,2490378,0,0,0.14838144,0.14838144,0.0,0.0,2490378,4325386,2490378,0,0,0.011820514,0.011820514,0.0,0.0,1,1,0,0,50,50,0,0,1,1,0,0,50,50,0,0
549572327,2490378,4259850,2490378,0,0,0.1479797,0.1479797,0.0,0.0,2490378,4325386,2490378,0,0,0.011759698,0.011759698,0.0,0.0,1,1,0,0,50,50,0,0,1,1,0,0,50,50,0,0
549771422,2490378,4259850,2490378,0,0,0.14936559,0.14936557,0.0,0.0,2490378,4325386,2490378,0,0,0.011547163,0.011547164,0.0,0.0,1,1,0,0,50,50,0,0,1,1,0,0,50,50,0,0
549975489,2490378,4259850,2490378,0,0,0.14882815,0.14882815,0.0,0.0,2490378,4325386,2490378,0,0,0.011843671,0.011843673,0.0,0.0,1,1,0,0,50,50,0,0,1,1,0,0,50,50,0,0
550174610,2490378,4259850,2490378,0,0,0.15176469,0.15176469,0.0,0.0,2490378,4325386,2490378,0,0,0.01179638,0.01179638,0.0,0.0,1,1,0,0,50,50,0,0,1,1,0,0,50,50,0,0
550373711,2490378,4259850,2490378,0,0,0.15029685,0.15029688,0.0,0.0,2490378,4325386,2490378,0,0,0.012183314,0.012183313,0.0,0.0,1,1,0,0,50,50,0,0,1,1,0,0,50,50,0,0
550572764,2490378,4259850,2490378,0,0,0.14843255,0.14843255,0.0,0.0,2490378,4325386,2490378,0,0,0.011673805,0.011673805,0.0,0.0,1,1,0,0,50,50,0,0,1,1,0,0,50,50,0,0
550776835,2490378,4259850,2490378,0,0,0.14859964,0.14859962,0.0,0.0,2490378,4325386,2490378,0,0,0.011381201,0.011381201,0.0,0.0,1,1,0,0,50,50,0,0,1,1,0,0,50,50,0,0
550975926,2490378,4259850,2490378,0,0,0.14911935,0.14911936,0.0,0.0,2490378,4325386,2490378,0,0,0.011438094,0.011438093,0.0,0.0,1,1,0,0,50,50,0,0,1,1,0,0,50,50,0,0
551175020,2490378,4259850,2490378,0,0,0.1503758,0.1503758,0.0,0.0,2490378,4325386,2490378,0,0,0.011856767,0.011856767,0.0,0.0,1,1,0,0,50,50,0,0,1,1,0,0,50,50,0,0
551374116,2490378,4259850,2490378,0,0,0.14921919,0.14921919,0.0,0.0,2490378,4325386,2490378,0,0,0.0117113525,0.0117113525,0.0,0.0,1,1,0,0,50,50,0,0,1,1,0,0,50,50,0,0
551578216,2490378,4259850,2490378,0,0,0.14765792,0.14765793,0.0,0.0,2490378,4325386,2490378,0,0,0.011740117,0.011740117,0.0,0.0,1,1,0,0,50,50,0,0,1,1,0,0,50,50,0,0
551777278,2490378,4259850,2490378,0,0,0.14964442,0.1496444,0.0,0.0,2490378,4325386,2490378,0,0,0.011384996,0.011384996,0.0,0.0,1,1,0,0,50,50,0,0,1,1,0,0,50,50,0,0
551976369,2490378,4259850,2490378,0,0,0.15244341,0.15244341,0.0,0.0,2490378,4325386,2490378,0,0,0.011521317,0.011521317,0.0,0.0,1,1,0,0,50,50,0,0,1,1,0,0,50,50,0,0
552175461,2490378,4259850,2490378,0,0,0.15090261,0.1509026,0.0,0.0,2490378,4325386,2490378,0,0,0.011756962,0.011756962,0.0,0.0,1,1,0,0,50,50,0,0,1,1,0,0,50,50,0,0
552374552,2490378,4259850,2490378,0,0,0.15107809,0.1510781,0.0,0.0,2490378,4325386,2490378,0,0,0.012007901,0.012007901,0.0,0.0,1,1,0,0,50,50,0,0,1,1,0,0,50,50,0,0
552573655,2490378,4259850,2490378,0,0,0.15049846,0.15049848,0.0,0.0,2490378,4325386,2490378,0,0,0.011472291,0.01147229,0.0,0.0,1,1,0,0,50,50,0,0,1,1,0,0,50,50,0,0
552777749,2490378,4259850,2490378,0,0,0.14930817,0.14930819,0.0,0.0,2490378,4325386,2490378,0,0,0.011371051,0.011371051,0.0,0.0,1,1,0,0,50,50,0,0,1,1,0,0,50,50,0,0
552976837,2490378,4259850,2490378,0,0,0.15010859,0.15010859,0.0,0.0,2490378,4325386,2490378,0,0,0.011864349,0.011864349,0.0,0.0,1,1,0,0,50,50,0,0,1,1,0,0,50,50,0,0
553175903,2490378,4259850,2490378,0,0,0.14880131,0.14880131,0.0,0.0,2490378,4325386,2490378,0,0,0.011523543,0.011523543,0.0,0.0,1,1,0,0,50,50,0,0,1,1,0,0,50,50,0,0
553374992,2490378,4259850,2490378,0,0,0.15138292,0.15138294,0.0,0.0,2490378,4325386,2490378,0,0,0.012152536,0.012152536,0.0,0.0,1,1,0,0,50,50,0,0,1,1,0,0,50,50,0,0
553574109,2490378,4259850,2490378,0,0,0.14923064,0.14923063,0.0,0.0,2490378,4325386,2490378,0,0,0.01174469,0.011744691,0.0,0.0,1,1,0,0,50,50,0,0,1,1,0,0,50,50,0,0
553773183,2490378,4259850,2490378,0,0,0.14996214,0.14996216,0.0,0.0,2490378,4325386,2490378,0,0,0.012004377,0.012004377,0.0,0.0,1,1,0,0,50,50,0,0,1,1,0,0,50,50,0,0
553972318,2490378,4259850,2490378,0,0,0.15243812,0.15243812,0.0,0.0,2490378,4325386,2490378,0,0,0.011948131,0.011948132,0.0,0.0,1,1,0,0,50,50,0,0,1,1,0,0,50,50,0,0
554176354,2490378,4259850,2490378,0,0,0.1499823,0.1499823,0.0,0.0,2490378,4325386,2490378,0,0,0.011944637,0.011944637,0.0,0.0,1,1,0,0,50,50,0,0,1,1,0,0,50,50,0,0
554375437,2490378,4259850,2490378,0,0,0.15106669,0.1510667,0.0,0.0,2490378,4325386,2490378,0,0,0.0113901915,0.0113901915,0.0,0.0,1,1,0,0,50,50,0,0,1,1,0,0,50,50,0,0
554574526,2490378,4259850,2490378,0,0,0.1481099,0.14810988,0.0,0.0,2490378,4325386,2490378,0,0,0.012247247,0.012247247,0.0,0.0,1,1,0,0,50,50,0,0,1,1,0,0,50,50,0,0
554773625,2490378,4259850,2490378,0,0,0.14905706,0.14905706,0.0,0.0,2490378,4325386,2490378,0,0,0.01182154,0.01182154,0.0,0.0,1,1,0,0,50,50,0,0,1,1,0,0,50,50,0,0
554972715,2490378,4259850,2490378,0,0,0.14939095,0.14939095,0.0,0.0,2490378,4325386,2490378,0,0,0.01182205,0.011822051,0.0,0.0,1,1,0,0,50,50,0,0,1,1,0,0,50,50,0,0
555176896,2490378,4259850,2490378,0,0,0.14836188,0.14836189,0.0,0.0,2490378,4325386,2490378,0,0,0.011806259,0.01180626,0.0,0.0,1,1,0,0,50,50,0,0,1,1,0,0,50,50,0,0
555375872,2490378,4259850,2490378,0,0,0.14955595,0.14955597,0.0,0.0,2490378,4325386,2490378,0,0,0.011390657,0.011390656,0.0,0.0,1,1,0,0,50,50,0,0,1,1,0,0,50,50,0,0
555574983,2490378,4259850,2490378,0,0,0.1492286,0.14922863,0.0,0.0,2490378,4325386,2490378,0,0,0.011783064,0.011783064,0.0,0.0,1,1,0,0,50,50,0,0,1,1,0,0,50,50,0,0
555774117,2490378,4259850,2490378,0,0,0.14828934,0.14828934,0.0,0.0,2490378,4325386,2490378,0,0,0.0116991075,0.0116991075,0.0,0.0,1,1,0,0,50,50,0,0,1,1,0,0,50,50,0,0
555973151,2490378,4259850,2490378,0,0,0.14862505,0.14862505,0.0,0.0,2490378,4325386,2490378,0,0,0.011236777,0.011236777,0.0,0.0,1,1,0,0,50,50,0,0,1,1,0,0,50,50,0,0
556177224,2490378,4259850,2490378,0,0,0.15101622,0.15101624,0.0,0.0,2490378,4325386,2490378,0,0,0.011431833,0.011431833,0.0,0.0,1,1,0,0,50,50,0,0,1,1,0,0,50,50,0,0
556376349,2490378,4259850,2490378,0,0,0.14604251,0.1460425,0.0,0.0,2490378,4325386,2490378,0,0,0.011927278,0.011927277,0.0,0.0,1,1,0,0,50,50,0,0,1,1,0,0,50,50,0,0
556575408,2490378,4259850,2490378,0,0,0.15015861,0.15015857,0.0,0.0,2490378,4325386,2490378,0,0,0.011855172,0.011855172,0.0,0.0,1,1,0,0,50,50,0,0,1,1,0,0,50,50,0,0
556774499,2490378,4259850,2490378,0,0,0.14694312,0.14694312,0.0,0.0,2490378,4325386,2490378,0,0,0.011962971,0.011962971,0.0,0.0,1,1,0,0,50,50,0,0,1,1,0,0,50,50,0,0
556978571,2490378,4259850,2490378,0,0,0.14635384,0.14635387,0.0,0.0,2490378,4325386,2490378,0,0,0.011618519,0.011618519,0.0,0.0,1,1,0,0,50,50,0,0,1,1,0,0,50,50,0,0
557177667,2490378,4259850,2490378,0,0,0.14974496,0.14974496,0.0,0.0,2490378,4325386,2490378,0,0,0.01185152,0.01185152,0.0,0.0,1,1,0,0,50,50,0,0,1,1,0,0,50,50,0,0
557376757,2490378,4259850,2490378,0,0,0.14762913,0.14762911,0.0,0.0,2490378,4325386,2490378,0,0,0.01185976,0.01185976,0.0,0.0,1,1,0,0,50,50,0,0,1,1,0,0,50,50,0,0
557575848,2490378,4259850,2490378,0,0,0.14789477,0.14789476,0.0,0.0,2490378,4325386,2490378,0,0,0.011549708,0.0115497075,0.0,0.0,1,1,0,0,50,50,0,0,1,1,0,0,50,50,0,0
557774971,2490378,4259850,2490378,0,0,0.15000917,0.15000916,0.0,0.0,2490378,4325386,2490378,0,0,0.011650111,0.011650111,0.0,0.0,1,1,0,0,50,50,0,0,1,1,0,0,50,50,0,0
557974033,2490378,4259850,2490378,0,0,0.14918101,0.14918101,0.0,0.0,2490378,4325386,2490378,0,0,0.011804427,0.011804427,0.0,0.0,1,1,0,0,50,50,0,0,1,1,0,0,50,50,0,0
558173128,2490378,4259850,2490378,0,0,0.14899185,0.14899185,0.0,0.0,2490378,4325386,2490378,0,0,0.01190377,0.01190377,0.0,0.0,1,1,0,0,50,50,0,0,1,1,0,0,50,50,0,0
558377199,2490378,4259850,2490378,0,0,0.15017638,0.15017636,0.0,0.0,2490378,4325386,2490378,0,0,0.011386398,0.011386398,0.0,0.0,1,1,0,0,50,50,0,0,1,1,0,0,50,50,0,0
558576525,2490378,4259850,2490378,0,0,0.1497845,0.14978455,0.0,0.0,2490378,4325386,2490378,0,0,0.011635688,0.011635688,0.0,0.0,1,1,0,0,50,50,0,0,1,1,0,0,50,50,0,0
558775381,2490378,4259850,2490378,0,0,0.14880764,0.14880766,0.0,0.0,2490378,4325386,2490378,0,0,0.011545109,0.011545109,0.0,0.0,1,1,0,0,50,50,0,0,1,1,0,0,50,50,0,0
558974477,2490378,4259850,2490378,0,0,0.14991066,0.14991066,0.0,0.0,2490378,4325386,2490378,0,0,0.0118251685,0.0118251685,0.0,0.0,1,1,0,0,50,50,0,0,1,1,0,0,50,50,0,0
559173600,2490378,4259850,2490378,0,0,0.14833866,0.14833866,0.0,0.0,2490378,4325386,2490378,0,0,0.011599719,0.011599719,0.0,0.0,1,1,0,0,50,50,0,0,1,1,0,0,50,50,0,0
559372666,2490378,4259850,2490378,0,0,0.14680474,0.14680472,0.0,0.0,2490378,4325386,2490378,0,0,0.011259753,0.011259753,0.0,0.0,1,1,0,0,50,50,0,0,1,1,0,0,50,50,0,0
559571770,2490378,4259850,2490378,0,0,0.14874265,0.14874266,0.0,0.0,2490378,4325386,2490378,0,0,0.011800022,0.011800022,0.0,0.0,1,1,0,0,50,50,0,0,1,1,0,0,50,50,0,0
559775854,2490378,4259850,2490378,0,0,0.14993717,0.14993721,0.0,0.0,2490378,4325386,2490378,0,0,0.011784779,0.011784779,0.0,0.0,1,1,0,0,50,50,0,0,1,1,0,0,50,50,0,0
559974915,2490378,4259850,2490378,0,0,0.14898549,0.14898549,0.0,0.0,2490378,4325386,2490378,0,0,0.011534154,0.011534154,0.0,0.0,1,1,0,0,50,50,0,0,1,1,0,0,50,50,0,0
560174009,2490378,4259850,2490378,0,0,0.1502246,0.15022458,0.0,0.0,2490378,4325386,2490378,0,0,0.012220363,0.012220363,0.0,0.0,1,1,0,0,50,50,0,0,1,1,0,0,50,50,0,0
560373123,2490378,4259850,2490378,0,0,0.14818566,0.14818566,0.0,0.0,2490378,4325386,2490378,0,0,0.012022135,0.012022135,0.0,0.0,1,1,0,0,50,50,0,0,1,1,0,0,50,50,0,0
560572194,2490378,4259850,2490378,0,0,0.14761959,0.14761962,0.0,0.0,2490378,4325386,2490378,0,0,0.012016925,0.012016925,0.0,0.0,1,1,0,0,50,50,0,0,1,1,0,0,50,50,0,0
560776268,2490378,4259850,2490378,0,0,0.14822008,0.14822008,0.0,0.0,2490378,4325386,2490378,0,0,0.011887519,0.011887519,0.0,0.0,1,1,0,0,50,50,0,0,1,1,0,0,50,50,0,0
560975389,2490378,4259850,2490378,0,0,0.14828086,0.14828086,0.0,0.0,2490378,4325386,2490378,0,0,0.012001525,0.012001525,0.0,0.0,1,1,0,0,50,50,0,0,1,1,0,0,50,50,0,0
561174449,2490378,4259850,2490378,0,0,0.14915346,0.14915343,0.0,0.0,2490378,4325386,2490378,0,0,0.011718995,0.011718995,0.0,0.0,1,1,0,0,50,50,0,0,1,1,0,0,50,50,0,0
561378533,2490378,4259850,2490378,0,0,0.14688852,0.14688852,0.0,0.0,2490378,4325386,2490378,0,0,0.012078006,0.012078006,0.0,0.0,1,1,0,0,50,50,0,0,1,1,0,0,50,50,0,0
561577615,2490378,4259850,2490378,0,0,0.14966871,0.1496687,0.0,0.0,2490378,4325386,2490378,0,0,0.011620984,0.011620984,0.0,0.0,1,1,0,0,50,50,0,0,1,1,0,0,50,50,0,0
561776711,2490378,4259850,2490378,0,0,0.14986467,0.14986467,0.0,0.0,2490378,4325386,2490378,0,0,0.01164632,0.01164632,0.0,0.0,1,1,0,0,50,50,0,0,1,1,0,0,50,50,0,0
561975832,2490378,4259850,2490378,0,0,0.14854757,0.14854755,0.0,0.0,2490378,4325386,2490378,0,0,0.011705877,0.011705877,0.0,0.0,1,1,0,0,50,50,0,0,1,1,0,0,50,50,0,0
562174895,2490378,4259850,2490378,0,0,0.14529362,0.14529364,0.0,0.0,2490378,4325386,2490378,0,0,0.011637989,0.011637989,0.0,0.0,1,1,0,0,50,50,0,0,1,1,0,0,50,50,0,0
562373988,2490378,4259850,2490378,0,0,0.14922385,0.14922386,0.0,0.0,2490378,4325386,2490378,0,0,0.011631975,0.011631975,0.0,0.0,1,1,0,0,50,50,0,0,1,1,0,0,50,50,0,0
562578077,2490378,4259850,2490378,0,0,0.14994241,0.1499424,0.0,0.0,2490378,4325386,2490378,0,0,0.011354592,0.011354591,0.0,0.0,1,1,0,0,50,50,0,0,1,1,0,0,50,50,0,0
562777157,2490378,4259850,2490378,0,0,0.106861725,0.10686174,0.0,0.0,2490378,4325386,2490378,0,0,0.011924875,0.011924875,0.0,0.0,1,1,0,0,50,50,0,0,1,1,0,0,50,50,0,0
562976244,2490378,4259850,2490378,0,0,0.1241293,0.124129295,0.0,0.0,2490378,4325386,2490378,0,0,0.01151086,0.011510861,0.0,0.0,1,1,0,0,50,50,0,0,1,1,0,0,50,50,0,0
563175337,2490378,4259850,2490378,0,0,0.14440353,0.14440356,0.0,0.0,2490378,4325386,2490378,0,0,0.011864636,0.011864638,0.0,0.0,1,1,0,0,50,50,0,0,1,1,0,0,50,50,0,0
563374427,2490378,4259850,2490378,0,0,0.14734444,0.14734446,0.0,0.0,2490378,4325386,2490378,0,0,0.011622595,0.011622595,0.0,0.0,1,1,0,0,50,50,0,0,1,1,0,0,50,50,0,0
563573524,2490378,4259850,2490378,0,0,0.15152138,0.15152137,0.0,0.0,2490378,4325386,2490378,0,0,0.011880897,0.011880899,0.0,0.0,1,1,0,0,50,50,0,0,1,1,0,0,50,50,0,0
563772618,2490378,4259850,2490378,0,0,0.15164116,0.15164116,0.0,0.0,2490378,4325386,2490378,0,0,0.0114603,0.011460299,0.0,0.0,1,1,0,0,50,50,0,0,1,1,0,0,50,50,0,0
563976695,2490378,4259850,2490378,0,0,0.14262377,0.14262378,0.0,0.0,2490378,4325386,2490378,0,0,0.012172037,0.012172037,0.0,0.0,1,1,0,0,50,50,0,0,1,1,0,0,50,50,0,0
564175822,2490378,4259850,2490378,0,0,0.15024473,0.1502447,0.0,0.0,2490378,4325386,2490378,0,0,0.011876801,0.011876803,0.0,0.0,1,1,0,0,50,50,0,0,1,1,0,0,50,50,0,0
564374902,2490378,4259850,2490378,0,0,0.14562389,0.14562389,0.0,0.0,2490378,4325386,2490378,0,0,0.011788232,0.011788232,0.0,0.0,1,1,0,0,50,50,0,0,1,1,0,0,50,50,0,0
564573965,2490378,4259850,2490378,0,0,0.14867008,0.14867006,0.0,0.0,2490378,4325386,2490378,0,0,0.011775128,0.011775128,0.0,0.0,1,1,0,0,50,50,0,0,1,1,0,0,50,50,0,0
564773112,2490378,4259850,2490378,0,0,0.1501677,0.15016772,0.0,0.0,2490378,4325386,2490378,0,0,0.011990279,0.011990279,0.0,0.0,1,1,0,0,50,50,0,0,1,1,0,0,50,50,0,0
564972149,2490378,4259850,2490378,0,0,0.14937215,0.14937212,0.0,0.0,2490378,4325386,2490378,0,0,0.011990951,0.011990951,0.0,0.0,1,1,0,0,50,50,0,0,1,1,0,0,50,50,0,0
565171242,2490378,4259850,2490378,0,0,0.1463139,0.1463139,0.0,0.0,2490378,4325386,2490378,0,0,0.011652721,0.011652719,0.0,0.0,1,1,0,0,50,50,0,0,1,1,0,0,50,50,0,0
565375423,2490378,4259850,2490378,0,0,0.15123025,0.15123028,0.0,0.0,2490378,4325386,2490378,0,0,0.011875347,0.011875347,0.0,0.0,1,1,0,0,50,50,0,0,1,1,0,0,50,50,0,0
565574436,2490378,4259850,2490378,0,0,0.15043989,0.15043989,0.0,0.0,2490378,4325386,2490378,0,0,0.011914969,0.011914969,0.0,0.0,1,1,0,0,50,50,0,0,1,1,0,0,50,50,0,0
565773502,2490378,4259850,2490378,0,0,0.14643885,0.14643884,0.0,0.0,2490378,4325386,2490378,0,0,0.011895368,0.011895368,0.0,0.0,1,1,0,0,50,50,0,0,1,1,0,0,50,50,0,0
565972592,2490378,4259850,2490378,0,0,0.14893706,0.14893708,0.0,0.0,2490378,4325386,2490378,0,0,0.011474953,0.011474953,0.0,0.0,1,1,0,0,50,50,0,0,1,1,0,0,50,50,0,0
566176665,2490378,4259850,2490378,0,0,0.14417486,0.14417486,0.0,0.0,2490378,4325386,2490378,0,0,0.011575198,0.011575198,0.0,0.0,1,1,0,0,50,50,0,0,1,1,0,0,50,50,0,0
566375773,2490378,4259850,2490378,0,0,0.14802542,0.14802542,0.0,0.0,2490378,4325386,2490378,0,0,0.011732188,0.011732188,0.0,0.0,1,1,0,0,50,50,0,0,1,1,0,0,50,50,0,0
566574852,2490378,4259850,2490378,0,0,0.15025301,0.15025301,0.0,0.0,2490378,4325386,2490378,0,0,0.01125472,0.01125472,0.0,0.0,1,1,0,0,50,50,0,0,1,1,0,0,50,50,0,0
566778992,2490378,4259850,2490378,0,0,0.14735027,0.14735025,0.0,0.0,2490378,4325386,2490378,0,0,0.0117368605,0.0117368605,0.0,0.0,1,1,0,0,50,50,0,0,1,1,0,0,50,50,0,0
566978011,2490378,4259850,2490378,0,0,0.14790745,0.14790744,0.0,0.0,2490378,4325386,2490378,0,0,0.011382534,0.011382534,0.0,0.0,1,1,0,0,50,50,0,0,1,1,0,0,50,50,0,0
567177106,2490378,4259850,2490378,0,0,0.14760695,0.14760695,0.0,0.0,2490378,4325386,2490378,0,0,0.011190571,0.011190571,0.0,0.0,1,1,0,0,50,50,0,0,1,1,0,0,50,50,0,0
567376202,2490378,4259850,2490378,0,0,0.14484473,0.14484474,0.0,0.0,2490378,4325386,2490378,0,0,0.0118740415,0.011874042,0.0,0.0,1,1,0,0,50,50,0,0,1,1,0,0,50,50,0,0
567575439,2490378,4259850,2490378,0,0,0.151247,0.15124701,0.0,0.0,2490378,4325386,2490378,0,0,0.011603727,0.011603727,0.0,0.0,1,1,0,0,50,50,0,0,1,1,0,0,50,50,0,0
567774418,2490378,4259850,2490378,0,0,0.14895909,0.14895909,0.0,0.0,2490378,4325386,2490378,0,0,0.012105511,0.012105511,0.0,0.0,1,1,0,0,50,50,0,0,1,1,0,0,50,50,0,0
567973501,2490378,4259850,2490378,0,0,0.15155669,0.15155667,0.0,0.0,2490378,4325386,2490378,0,0,0.011912603,0.011912603,0.0,0.0,1,1,0,0,50,50,0,0,1,1,0,0,50,50,0,0
568177590,2490378,4259850,2490378,0,0,0.1465433,0.1465433,0.0,0.0,2490378,4325386,2490378,0,0,0.012037177,0.012037177,0.0,0.0,1,1,0,0,50,50,0,0,1,1,0,0,50,50,0,0
568376644,2490378,4259850,2490378,0,0,0.14382535,0.14382535,0.0,0.0,2490378,4325386,2490378,0,0,0.012091918,0.012091918,0.0,0.0,1,1,0,0,50,50,0,0,1,1,0,0,50,50,0,0
568575730,2490378,4259850,2490378,0,0,0.14099802,0.14099802,0.0,0.0,2490378,4325386,2490378,0,0,0.011982526,0.011982527,0.0,0.0,1,1,0,0,50,50,0,0,1,1,0,0,50,50,0,0
568774836,2490378,4259850,2490378,0,0,0.14814545,0.14814544,0.0,0.0,2490378,4325386,2490378,0,0,0.011667692,0.011667692,0.0,0.0,1,1,0,0,50,50,0,0,1,1,0,0,50,50,0,0
568973922,2490378,4259850,2490378,0,0,0.14692259,0.14692254,0.0,0.0,2490378,4325386,2490378,0,0,0.011855774,0.011855774,0.0,0.0,1,1,0,0,50,50,0,0,1,1,0,0,50,50,0,0
569173015,2490378,4259850,2490378,0,0,0.15015408,0.15015408,0.0,0.0,2490378,4325386,2490378,0,0,0.01234437,0.01234437,0.0,0.0,1,1,0,0,50,50,0,0,1,1,0,0,50,50,0,0
569372104,2490378,4259850,2490378,0,0,0.15159981,0.15159978,0.0,0.0,2490378,4325386,2490378,0,0,0.011488217,0.011488217,0.0,0.0,1,1,0,0,50,50,0,0,1,1,0,0,50,50,0,0
569576177,2490378,4259850,2490378,0,0,0.14973794,0.14973794,0.0,0.0,2490378,4325386,2490378,0,0,0.011621601,0.0116216,0.0,0.0,1,1,0,0,50,50,0,0,1,1,0,0,50,50,0,0
569775272,2490378,4259850,2490378,0,0,0.14956725,0.14956722,0.0,0.0,2490378,4325386,2490378,0,0,0.011800323,0.011800323,0.0,0.0,1,1,0,0,50,50,0,0,1,1,0,0,50,50,0,0
569974364,2490378,4259850,2490378,0,0,0.14780387,0.14780389,0.0,0.0,2490378,4325386,2490378,0,0,0.011964343,0.011964343,0.0,0.0,1,1,0,0,50,50,0,0,1,1,0,0,50,50,0,0
570173458,2490378,4259850,2490378,0,0,0.14962909,0.1496291,0.0,0.0,2490378,4325386,2490378,0,0,0.0119211655,0.0119211655,0.0,0.0,1,1,0,0,50,50,0,0,1,1,0,0,50,50,0,0
570372589,2490378,4259850,2490378,0,0,0.14465363,0.1446536,0.0,0.0,2490378,4325386,2490378,0,0,0.011330435,0.011330435,0.0,0.0,1,1,0,0,50,50,0,0,1,1,0,0,50,50,0,0
570571644,2490378,4259850,2490378,0,0,0.14502916,0.14502916,0.0,0.0,2490378,4325386,2490378,0,0,0.011432583,0.011432583,0.0,0.0,1,1,0,0,50,50,0,0,1,1,0,0,50,50,0,0
570775715,2490378,4259850,2490378,0,0,0.14636049,0.14636049,0.0,0.0,2490378,4325386,2490378,0,0,0.011853957,0.011853957,0.0,0.0,1,1,0,0,50,50,0,0,1,1,0,0,50,50,0,0
570974858,2490378,4259850,2490378,0,0,0.14686394,0.14686397,0.0,0.0,2490378,4325386,2490378,0,0,0.011411332,0.011411333,0.0,0.0,1,1,0,0,50,50,0,0,1,1,0,0,50,50,0,0
571173902,2490378,4259850,2490378,0,0,0.1473937,0.14739367,0.0,0.0,2490378,4325386,2490378,0,0,0.011832163,0.011832163,0.0,0.0,1,1,0,0,50,50,0,0,1,1,0,0,50,50,0,0
571377972,2490378,4259850,2490378,0,0,0.14690636,0.14690635,0.0,0.0,2490378,4325386,2490378,0,0,0.011980718,0.011980718,0.0,0.0,1,1,0,0,50,50,0,0,1,1,0,0,50,50,0,0
571577144,2490378,4259850,2490378,0,0,0.14556146,0.14556147,0.0,0.0,2490378,4325386,2490378,0,0,0.011614229,0.011614229,0.0,0.0,1,1,0,0,50,50,0,0,1,1,0,0,50,50,0,0
571776153,2490378,4259850,2490378,0,0,0.14758128,0.14758128,0.0,0.0,2490378,4325386,2490378,0,0,0.011725901,0.011725901,0.0,0.0,1,1,0,0,50,50,0,0,1,1,0,0,50,50,0,0
571975249,2490378,4259850,2490378,0,0,0.1472442,0.1472442,0.0,0.0,2490378,4325386,2490378,0,0,0.011750236,0.011750236,0.0,0.0,1,1,0,0,50,50,0,0,1,1,0,0,50,50,0,0
572174344,2490378,4259850,2490378,0,0,0.14946415,0.14946413,0.0,0.0,2490378,4325386,2490378,0,0,0.011839172,0.011839172,0.0,0.0,1,1,0,0,50,50,0,0,1,1,0,0,50,50,0,0
572378414,2490378,4259850,2490378,0,0,0.1460972,0.14609721,0.0,0.0,2490378,4325386,2490378,0,0,0.011644187,0.011644187,0.0,0.0,1,1,0,0,50,50,0,0,1,1,0,0,50,50,0,0
572577503,2490378,4259850,2490378,0,0,0.14838791,0.14838791,0.0,0.0,2490378,4325386,2490378,0,0,0.011741691,0.011741691,0.0,0.0,1,1,0,0,50,50,0,0,1,1,0,0,50,50,0,0
572776600,2490378,4259850,2490378,0,0,0.14437152,0.14437151,0.0,0.0,2490378,4325386,2490378,0,0,0.011114429,0.01111443,0.0,0.0,1,1,0,0,50,50,0,0,1,1,0,0,50,50,0,0
572975697,2490378,4259850,2490378,0,0,0.13648476,0.13648476,0.0,0.0,2490378,4325386,2490378,0,0,0.011728584,0.011728584,0.0,0.0,1,1,0,0,50,50,0,0,1,1,0,0,50,50,0,0
573174877,2490378,4259850,2490378,0,0,0.14480509,0.14480506,0.0,0.0,2490378,4325386,2490378,0,0,0.011562966,0.011562965,0.0,0.0,1,1,0,0,50,50,0,0,1,1,0,0,50,50,0,0
573373878,2490378,4259850,2490378,0,0,0.14533992,0.14533992,0.0,0.0,2490378,4325386,2490378,0,0,0.011480891,0.011480891,0.0,0.0,1,1,0,0,50,50,0,0,1,1,0,0,50,50,0,0
573572987,2490378,4259850,2490378,0,0,0.14480764,0.14480764,0.0,0.0,2490378,4325386,2490378,0,0,0.011381147,0.011381147,0.0,0.0,1,1,0,0,50,50,0,0,1,1,0,0,50,50,0,0
573777085,2490378,4259850,2490378,0,0,0.14688736,0.14688732,0.0,0.0,2490378,4325386,2490378,0,0,0.011711181,0.011711181,0.0,0.0,1,1,0,0,50,50,0,0,1,1,0,0,50,50,0,0
573976135,2490378,4259850,2490378,0,0,0.14372158,0.14372152,0.0,0.0,2490378,4325386,2490378,0,0,0.011243999,0.011244001,0.0,0.0,1,1,0,0,50,50,0,0,1,1,0,0,50,50,0,0
574175228,2490378,4259850,2490378,0,0,0.13830848,0.1383085,0.0,0.0,2490378,4325386,2490378,0,0,0.011529933,0.011529933,0.0,0.0,1,1,0,0,50,50,0,0,1,1,0,0,50,50,0,0
574374354,2490378,4259850,2490378,0,0,0.1242523,0.124252275,0.0,0.0,2490378,4325386,2490378,0,0,0.011500554,0.011500551,0.0,0.0,1,1,0,0,50,50,0,0,1,1,0,0,50,50,0,0
574573411,2490378,4259850,2490378,0,0,0.10578684,0.105786875,0.0,0.0,2490378,4325386,2490378,0,0,0.0116522815,0.0116522815,0.0,0.0,1,1,0,0,50,50,0,0,1,1,0,0,50,50,0,0
574772505,2490378,4259850,2490378,0,0,0.11102889,0.111028925,0.0,0.0,2490378,4325386,2490378,0,0,0.011554116,0.011554116,0.0,0.0,1,1,0,0,50,50,0,0,1,1,0,0,50,50,0,0
574971632,2490378,4259850,2490378,0,0,0.10437687,0.10437684,0.0,0.0,2490378,4325386,2490378,0,0,0.0116348,0.0116348,0.0,0.0,1,1,0,0,50,50,0,0,1,1,0,0,50,50,0,0
575175674,2490378,4259850,2490378,0,0,0.09898961,0.09898959,0.0,0.0,2490378,4325386,2490378,0,0,0.011436863,0.011436863,0.0,0.0,1,1,0,0,50,50,0,0,1,1,0,0,50,50,0,0
575374766,2490378,4259850,2490378,0,0,0.10229914,0.10229915,0.0,0.0,2490378,4325386,2490378,0,0,0.011791718,0.011791718,0.0,0.0,1,1,0,0,50,50,0,0,1,1,0,0,50,50,0,0
575573857,2490378,4259850,2490378,0,0,0.10205964,0.102059655,0.0,0.0,2490378,4325386,2490378,0,0,0.0118877785,0.011887778,0.0,0.0,1,1,0,0,50,50,0,0,1,1,0,0,50,50,0,0
575772947,2490378,4259850,2490378,0,0,0.10180246,0.101802476,0.0,0.0,2490378,4325386,2490378,0,0,0.012052195,0.012052195,0.0,0.0,1,1,0,0,50,50,0,0,1,1,0,0,50,50,0,0
575977021,2490378,4259850,2490378,0,0,0.08984153,0.089841545,0.0,0.0,2490378,4325386,2490378,0,0,0.011757941,0.011757941,0.0,0.0,1,1,0,0,50,50,0,0,1,1,0,0,50,50,0,0
576176155,2490378,4259850,2490378,0,0,0.093850985,0.09385096,0.0,0.0,2490378,4325386,2490378,0,0,0.0115019465,0.0115019465,0.0,0.0,1,1,0,0,50,50,0,0,1,1,0,0,50,50,0,0
576375205,2490378,4259850,2490378,0,0,0.10275985,0.102759875,0.0,0.0,2490378,4325386,2490378,0,0,0.01204323,0.012043229,0.0,0.0,1,1,0,0,50,50,0,0,1,1,0,0,50,50,0,0
576574516,2490378,4259850,2490378,0,0,0.10923902,0.10923903,0.0,0.0,2490378,4325386,2490378,0,0,0.012064689,0.012064689,0.0,0.0,1,1,0,0,50,50,0,0,1,1,0,0,50,50,0,0
576778365,2490378,4259850,2490378,0,0,0.084810376,0.084810376,0.0,0.0,2490378,4325386,2490378,0,0,0.011360084,0.011360084,0.0,0.0,1,1,0,0,50,50,0,0,1,1,0,0,50,50,0,0
576977461,2490378,4259850,2490378,0,0,0.09502015,0.09502013,0.0,0.0,2490378,4325386,2490378,0,0,0.011405216,0.011405216,0.0,0.0,1,1,0,0,50,50,0,0,1,1,0,0,50,50,0,0
577176592,2490378,4259850,2490378,0,0,0.10346653,0.103466555,0.0,0.0,2490378,4325386,2490378,0,0,0.0116879465,0.011687947,0.0,0.0,1,1,0,0,50,50,0,0,1,1,0,0,50,50,0,0
577375680,2490378,4259850,2490378,0,0,0.106611304,0.106611334,0.0,0.0,2490378,4325386,2490378,0,0,0.011547492,0.011547492,0.0,0.0,1,1,0,0,50,50,0,0,1,1,0,0,50,50,0,0
577574763,2490378,4259850,2490378,0,0,0.10865059,0.108650565,0.0,0.0,2490378,4325386,2490378,0,0,0.012014615,0.012014615,0.0,0.0,1,1,0,0,50,50,0,0,1,1,0,0,50,50,0,0
577773853,2490378,4259850,2490378,0,0,0.108597,0.108596995,0.0,0.0,2490378,4325386,2490378,0,0,0.01176278,0.011762781,0.0,0.0,1,1,0,0,50,50,0,0,1,1,0,0,50,50,0,0
577977922,2490378,4259850,2490378,0,0,0.11714633,0.11714634,0.0,0.0,2490378,4325386,2490378,0,0,0.01171506,0.01171506,0.0,0.0,1,1,0,0,50,50,0,0,1,1,0,0,50,50,0,0
578177010,2490378,4259850,2490378,0,0,0.10685028,0.10685029,0.0,0.0,2490378,4325386,2490378,0,0,0.011891042,0.011891042,0.0,0.0,1,1,0,0,50,50,0,0,1,1,0,0,50,50,0,0
578376094,2490378,4259850,2490378,0,0,0.11133278,0.11133281,0.0,0.0,2490378,4325386,2490378,0,0,0.012439452,0.012439452,0.0,0.0,1,1,0,0,50,50,0,0,1,1,0,0,50,50,0,0
578575214,2490378,4259850,2490378,0,0,0.104294986,0.10429496,0.0,0.0,2490378,4325386,2490378,0,0,0.011783283,0.011783283,0.0,0.0,1,1,0,0,50,50,0,0,1,1,0,0,50,50,0,0
578774279,2490378,4259850,2490378,0,0,0.10895075,0.10895072,0.0,0.0,2490378,4325386,2490378,0,0,0.011953415,0.011953415,0.0,0.0,1,1,0,0,50,50,0,0,1,1,0,0,50,50,0,0
578973370,2490378,4259850,2490378,0,0,0.11231602,0.11231603,0.0,0.0,2490378,4325386,2490378,0,0,0.011671436,0.011671436,0.0,0.0,1,1,0,0,50,50,0,0,1,1,0,0,50,50,0,0
579172463,2490378,4259850,2490378,0,0,0.11145513,0.11145513,0.0,0.0,2490378,4325386,2490378,0,0,0.011874229,0.01187423,0.0,0.0,1,1,0,0,50,50,0,0,1,1,0,0,50,50,0,0
579376545,2490378,4259850,2490378,0,0,0.11790912,0.11790916,0.0,0.0,2490378,4325386,2490378,0,0,0.011845943,0.011845941,0.0,0.0,1,1,0,0,50,50,0,0,1,1,0,0,50,50,0,0
579575630,2490378,4259850,2490378,0,0,0.11680215,0.11680215,0.0,0.0,2490378,4325386,2490378,0,0,0.011496047,0.011496047,0.0,0.0,1,1,0,0,50,50,0,0,1,1,0,0,50,50,0,0
579774765,2490378,4259850,2490378,0,0,0.11451642,0.114516445,0.0,0.0,2490378,4325386,2490378,0,0,0.011475499,0.0114755,0.0,0.0,1,1,0,0,50,50,0,0,1,1,0,0,50,50,0,0
579973838,2490378,4259850,2490378,0,0,0.111800864,0.111800835,0.0,0.0,2490378,4325386,2490378,0,0,0.011652634,0.011652634,0.0,0.0,1,1,0,0,50,50,0,0,1,1,0,0,50,50,0,0
580172904,2490378,4259850,2490378,0,0,0.11647298,0.116472974,0.0,0.0,2490378,4325386,2490378,0,0,0.011954972,0.011954972,0.0,0.0,1,1,0,0,50,50,0,0,1,1,0,0,50,50,0,0
580371997,2490378,4259850,2490378,0,0,0.10464321,0.10464323,0.0,0.0,2490378,4325386,2490378,0,0,0.011720982,0.011720982,0.0,0.0,1,1,0,0,50,50,0,0,1,1,0,0,50,50,0,0
580571122,2490378,4259850,2490378,0,0,0.10252266,0.10252266,0.0,0.0,2490378,4325386,2490378,0,0,0.01166275,0.01166275,0.0,0.0,1,1,0,0,50,50,0,0,1,1,0,0,50,50,0,0
580775160,2490378,4259850,2490378,0,0,0.11677256,0.11677253,0.0,0.0,2490378,4325386,2490378,0,0,0.012013247,0.012013247,0.0,0.0,1,1,0,0,50,50,0,0,1,1,0,0,50,50,0,0
580974257,2490378,4259850,2490378,0,0,0.11101451,0.1110145,0.0,0.0,2490378,4325386,2490378,0,0,0.011906151,0.01190615,0.0,0.0,1,1,0,0,50,50,0,0,1,1,0,0,50,50,0,0
581173372,2490378,4259850,2490378,0,0,0.11462656,0.11462658,0.0,0.0,2490378,4325386,2490378,0,0,0.011892071,0.011892071,0.0,0.0,1,1,0,0,50,50,0,0,1,1,0,0,50,50,0,0
581377413,2490378,4259850,2490378,0,0,0.10751355,0.107513525,0.0,0.0,2490378,4325386,2490378,0,0,0.011404111,0.01140411,0.0,0.0,1,1,0,0,50,50,0,0,1,1,0,0,50,50,0,0
581576507,2490378,4259850,2490378,0,0,0.11464747,0.11464748,0.0,0.0,2490378,4325386,2490378,0,0,0.01136421,0.01136421,0.0,0.0,1,1,0,0,50,50,0,0,1,1,0,0,50,50,0,0
581775603,2490378,4259850,2490378,0,0,0.12073562,0.120735645,0.0,0.0,2490378,4325386,2490378,0,0,0.01173106,0.01173106,0.0,0.0,1,1,0,0,50,50,0,0,1,1,0,0,50,50,0,0
581974701,2490378,4259850,2490378,0,0,0.09405527,0.09405527,0.0,0.0,2490378,4325386,2490378,0,0,0.011777908,0.011777908,0.0,0.0,1,1,0,0,50,50,0,0,1,1,0,0,50,50,0,0
582178764,2490378,4259850,2490378,0,0,0.09972232,0.09972228,0.0,0.0,2490378,4325386,2490378,0,0,0.012231865,0.012231865,0.0,0.0,1,1,0,0,50,50,0,0,1,1,0,0,50,50,0,0
582377891,2490378,4259850,2490378,0,0,0.105499215,0.10549923,0.0,0.0,2490378,4325386,2490378,0,0,0.012059201,0.012059201,0.0,0.0,1,1,0,0,50,50,0,0,1,1,0,0,50,50,0,0
582576976,2490378,4259850,2490378,0,0,0.1156129,0.11561291,0.0,0.0,2490378,4325386,2490378,0,0,0.012315977,0.012315976,0.0,0.0,1,1,0,0,50,50,0,0,1,1,0,0,50,50,0,0
582776074,2490378,4259850,2490378,0,0,0.11355962,0.11355961,0.0,0.0,2490378,4325386,2490378,0,0,0.011984053,0.011984052,0.0,0.0,1,1,0,0,50,50,0,0,1,1,0,0,50,50,0,0
582975136,2490378,4259850,2490378,0,0,0.11336495,0.11336497,0.0,0.0,2490378,4325386,2490378,0,0,0.0116316285,0.0116316285,0.0,0.0,1,1,0,0,50,50,0,0,1,1,0,0,50,50,0,0
583174233,2490378,4259850,2490378,0,0,0.11793683,0.11793683,0.0,0.0,2490378,4325386,2490378,0,0,0.011517719,0.011517719,0.0,0.0,1,1,0,0,50,50,0,0,1,1,0,0,50,50,0,0
583373375,2490378,4259850,2490378,0,0,0.11613962,0.11613961,0.0,0.0,2490378,4325386,2490378,0,0,0.012131577,0.012131576,0.0,0.0,1,1,0,0,50,50,0,0,1,1,0,0,50,50,0,0
583577426,2490378,4259850,2490378,0,0,0.12071931,0.120719336,0.0,0.0,2490378,4325386,2490378,0,0,0.011716196,0.011716195,0.0,0.0,1,1,0,0,50,50,0,0,1,1,0,0,50,50,0,0
583776513,2490378,4259850,2490378,0,0,0.115757614,0.115757614,0.0,0.0,2490378,4325386,2490378,0,0,0.011688103,0.011688102,0.0,0.0,1,1,0,0,50,50,0,0,1,1,0,0,50,50,0,0
583975658,2490378,4259850,2490378,0,0,0.11786118,0.117861226,0.0,0.0,2490378,4325386,2490378,0,0,0.012033779,0.012033779,0.0,0.0,1,1,0,0,50,50,0,0,1,1,0,0,50,50,0,0
584174682,2490378,4259850,2490378,0,0,0.12285481,0.1228548,0.0,0.0,2490378,4325386,2490378,0,0,0.011501507,0.011501506,0.0,0.0,1,1,0,0,50,50,0,0,1,1,0,0,50,50,0,0
584373766,2490378,4259850,2490378,0,0,0.119453356,0.11945332,0.0,0.0,2490378,4325386,2490378,0,0,0.0116889365,0.0116889365,0.0,0.0,1,1,0,0,50,50,0,0,1,1,0,0,50,50,0,0
584572858,2490378,4259850,2490378,0,0,0.122493014,0.122493,0.0,0.0,2490378,4325386,2490378,0,0,0.0120870285,0.0120870285,0.0,0.0,1,1,0,0,50,50,0,0,1,1,0,0,50,50,0,0
584771980,2490378,4259850,2490378,0,0,0.12393479,0.123934776,0.0,0.0,2490378,4325386,2490378,0,0,0.012128735,0.012128734,0.0,0.0,1,1,0,0,50,50,0,0,1,1,0,0,50,50,0,0
584976046,2490378,4259850,2490378,0,0,0.1297779,0.1297779,0.0,0.0,2490378,4325386,2490378,0,0,0.011656482,0.011656482,0.0,0.0,1,1,0,0,50,50,0,0,1,1,0,0,50,50,0,0
585175112,2490378,4259850,2490378,0,0,0.12503949,0.12503947,0.0,0.0,2490378,4325386,2490378,0,0,0.012172926,0.012172927,0.0,0.0,1,1,0,0,50,50,0,0,1,1,0,0,50,50,0,0
585374205,2490378,4259850,2490378,0,0,0.1310093,0.13100931,0.0,0.0,2490378,4325386,2490378,0,0,0.011664756,0.011664756,0.0,0.0,1,1,0,0,50,50,0,0,1,1,0,0,50,50,0,0
585573491,2490378,4259850,2490378,0,0,0.13316265,0.13316263,0.0,0.0,2490378,4325386,2490378,0,0,0.011836675,0.011836675,0.0,0.0,1,1,0,0,50,50,0,0,1,1,0,0,50,50,0,0
585772388,2490378,4259850,2490378,0,0,0.13591504,0.13591506,0.0,0.0,2490378,4325386,2490378,0,0,0.01182282,0.01182282,0.0,0.0,1,1,0,0,50,50,0,0,1,1,0,0,50,50,0,0
585976491,2490378,4259850,2490378,0,0,0.13192537,0.13192534,0.0,0.0,2490378,4325386,2490378,0,0,0.011545828,0.011545827,0.0,0.0,1,1,0,0,50,50,0,0,1,1,0,0,50,50,0,0
586175594,2490378,4259850,2490378,0,0,0.12999819,0.12999816,0.0,0.0,2490378,4325386,2490378,0,0,0.012025618,0.012025618,0.0,0.0,1,1,0,0,50,50,0,0,1,1,0,0,50,50,0,0
586374649,2490378,4259850,2490378,0,0,0.13780038,0.13780037,0.0,0.0,2490378,4325386,2490378,0,0,0.012093841,0.012093841,0.0,0.0,1,1,0,0,50,50,0,0,1,1,0,0,50,50,0,0
586573736,2490378,4259850,2490378,0,0,0.135227,0.13522698,0.0,0.0,2490378,4325386,2490378,0,0,0.0118383765,0.0118383765,0.0,0.0,1,1,0,0,50,50,0,0,1,1,0,0,50,50,0,0
586777805,2490378,4259850,2490378,0,0,0.1317372,0.13173719,0.0,0.0,2490378,4325386,2490378,0,0,0.011904777,0.011904777,0.0,0.0,1,1,0,0,50,50,0,0,1,1,0,0,50,50,0,0
586976899,2490378,4259850,2490378,0,0,0.13088971,0.1308897,0.0,0.0,2490378,4325386,2490378,0,0,0.011845643,0.011845643,0.0,0.0,1,1,0,0,50,50,0,0,1,1,0,0,50,50,0,0
587176026,2490378,4259850,2490378,0,0,0.12617125,0.1261712,0.0,0.0,2490378,4325386,2490378,0,0,0.011975897,0.011975897,0.0,0.0,1,1,0,0,50,50,0,0,1,1,0,0,50,50,0,0
587375115,2490378,4259850,2490378,0,0,0.12696095,0.12696095,0.0,0.0,2490378,4325386,2490378,0,0,0.011867874,0.011867874,0.0,0.0,1,1,0,0,50,50,0,0,1,1,0,0,50,50,0,0
587574177,2490378,4259850,2490378,0,0,0.12822236,0.12822236,0.0,0.0,2490378,4325386,2490378,0,0,0.012062706,0.012062706,0.0,0.0,1,1,0,0,50,50,0,0,1,1,0,0,50,50,0,0
587778246,2490378,4259850,2490378,0,0,0.12638775,0.12638775,0.0,0.0,2490378,4325386,2490378,0,0,0.011789517,0.011789517,0.0,0.0,1,1,0,0,50,50,0,0,1,1,0,0,50,50,0,0
587977359,2490378,4259850,2490378,0,0,0.12803477,0.1280348,0.0,0.0,2490378,4325386,2490378,0,0,0.011286635,0.011286635,0.0,0.0,1,1,0,0,50,50,0,0,1,1,0,0,50,50,0,0
588176434,2490378,4259850,2490378,0,0,0.12676209,0.12676206,0.0,0.0,2490378,4325386,2490378,0,0,0.011769847,0.011769847,0.0,0.0,1,1,0,0,50,50,0,0,1,1,0,0,50,50,0,0
588375545,2490378,4259850,2490378,0,0,0.11257958,0.11257956,0.0,0.0,2490378,4325386,2490378,0,0,0.011821974,0.011821974,0.0,0.0,1,1,0,0,50,50,0,0,1,1,0,0,50,50,0,0
588574652,2490378,4259850,2490378,0,0,0.114570655,0.114570655,0.0,0.0,2490378,4325386,2490378,0,0,0.011887992,0.011887992,0.0,0.0,1,1,0,0,50,50,0,0,1,1,0,0,50,50,0,0
588773713,2490378,4259850,2490378,0,0,0.12421532,0.12421532,0.0,0.0,2490378,4325386,2490378,0,0,0.011900522,0.011900522,0.0,0.0,1,1,0,0,50,50,0,0,1,1,0,0,50,50,0,0
588972829,2490378,4259850,2490378,0,0,0.12068022,0.12068021,0.0,0.0,2490378,4325386,2490378,0,0,0.011981649,0.011981649,0.0,0.0,1,1,0,0,50,50,0,0,1,1,0,0,50,50,0,0
589176871,2490378,4259850,2490378,0,0,0.11989169,0.11989169,0.0,0.0,2490378,4325386,2490378,0,0,0.01144886,0.01144886,0.0,0.0,1,1,0,0,50,50,0,0,1,1,0,0,50,50,0,0
589375976,2490378,4259850,2490378,0,0,0.12240089,0.12240091,0.0,0.0,2490378,4325386,2490378,0,0,0.011701182,0.011701182,0.0,0.0,1,1,0,0,50,50,0,0,1,1,0,0,50,50,0,0
589575079,2490378,4259850,2490378,0,0,0.12813544,0.12813543,0.0,0.0,2490378,4325386,2490378,0,0,0.0115212295,0.0115212295,0.0,0.0,1,1,0,0,50,50,0,0,1,1,0,0,50,50,0,0
589774173,2490378,4259850,2490378,0,0,0.12646729,0.1264673,0.0,0.0,2490378,4325386,2490378,0,0,0.011600893,0.011600894,0.0,0.0,1,1,0,0,50,50,0,0,1,1,0,0,50,50,0,0
589973241,2490378,4259850,2490378,0,0,0.12286848,0.12286849,0.0,0.0,2490378,4325386,2490378,0,0,0.011944316,0.011944316,0.0,0.0,1,1,0,0,50,50,0,0,1,1,0,0,50,50,0,0
590172333,2490378,4259850,2490378,0,0,0.124687485,0.1246875,0.0,0.0,2490378,4325386,2490378,0,0,0.012094332,0.012094333,0.0,0.0,1,1,0,0,50,50,0,0,1,1,0,0,50,50,0,0
590371426,2490378,4259850,2490378,0,0,0.12939012,0.12939015,0.0,0.0,2490378,4325386,2490378,0,0,0.011923164,0.011923166,0.0,0.0,1,1,0,0,50,50,0,0,1,1,0,0,50,50,0,0
590575496,2490378,4259850,2490378,0,0,0.12844439,0.1284444,0.0,0.0,2490378,4325386,2490378,0,0,0.01164789,0.01164789,0.0,0.0,1,1,0,0,50,50,0,0,1,1,0,0,50,50,0,0
590774587,2490378,4259850,2490378,0,0,0.12853304,0.12853305,0.0,0.0,2490378,4325386,2490378,0,0,0.011721402,0.011721402,0.0,0.0,1,1,0,0,50,50,0,0,1,1,0,0,50,50,0,0
590973688,2490378,4259850,2490378,0,0,0.12854765,0.12854764,0.0,0.0,2490378,4325386,2490378,0,0,0.012272615,0.012272615,0.0,0.0,1,1,0,0,50,50,0,0,1,1,0,0,50,50,0,0
591172858,2490378,4259850,2490378,0,0,0.12547909,0.12547907,0.0,0.0,2490378,4325386,2490378,0,0,0.011870222,0.011870222,0.0,0.0,1,1,0,0,50,50,0,0,1,1,0,0,50,50,0,0
591376842,2490378,4259850,2490378,0,0,0.12397022,0.12397021,0.0,0.0,2490378,4325386,2490378,0,0,0.01137928,0.01137928,0.0,0.0,1,1,0,0,50,50,0,0,1,1,0,0,50,50,0,0
591575933,2490378,4259850,2490378,0,0,0.12286418,0.12286417,0.0,0.0,2490378,4325386,2490378,0,0,0.011917492,0.011917492,0.0,0.0,1,1,0,0,50,50,0,0,1,1,0,0,50,50,0,0
591775069,2490378,4259850,2490378,0,0,0.12469492,0.12469493,0.0,0.0,2490378,4325386,2490378,0,0,0.011982866,0.011982866,0.0,0.0,1,1,0,0,50,50,0,0,1,1,0,0,50,50,0,0
591974118,2490378,4259850,2490378,0,0,0.11357275,0.11357274,0.0,0.0,2490378,4325386,2490378,0,0,0.011984077,0.011984077,0.0,0.0,1,1,0,0,50,50,0,0,1,1,0,0,50,50,0,0
592178187,2490378,4259850,2490378,0,0,0.111941166,0.11194116,0.0,0.0,2490378,4325386,2490378,0,0,0.011459806,0.011459807,0.0,0.0,1,1,0,0,50,50,0,0,1,1,0,0,50,50,0,0
592377321,2490378,4259850,2490378,0,0,0.04637132,0.04637132,0.0,0.0,2490378,4325386,2490378,0,0,0.018380035,0.018380038,0.0,0.0,1,1,0,0,50,50,0,0,1,1,0,0,50,50,0,0
592576372,2490378,4259850,2490378,0,0,0.03974132,0.039741315,0.0,0.0,2490378,4325386,2490378,0,0,0.0125028305,0.01250283,0.0,0.0,1,1,0,0,50,50,0,0,1,1,0,0,50,50,0,0
592775468,2490378,4259850,2490378,0,0,0.052214023,0.052214015,0.0,0.0,2490378,4325386,2490378,0,0,0.011267177,0.011267177,0.0,0.0,1,1,0,0,50,50,0,0,1,1,0,0,50,50,0,0
592974566,2490378,4259850,2490378,0,0,0.065534115,0.06553414,0.0,0.0,2490378,4325386,2490378,0,0,0.0042597866,0.0042597847,0.0,0.0,1,1,0,0,50,50,0,0,1,1,0,0,50,50,0,0
593173654,2490378,4259850,2490378,0,0,0.048589308,0.0485893,0.0,0.0,2490378,4325386,2490378,0,0,0.014252586,0.014252584,0.0,0.0,1,1,0,0,50,50,0,0,1,1,0,0,50,50,0,0
593377718,2490378,4259850,2490378,0,0,0.043293934,0.0432939,0.0,0.0,2490378,4325386,2490378,0,0,0.012214074,0.012214073,0.0,0.0,1,1,0,0,50,50,0,0,1,1,0,0,50,50,0,0
593576833,2490378,4259850,2490378,0,0,0.04584549,0.045845486,0.0,0.0,2490378,4325386,2490378,0,0,0.011722423,0.011722422,0.0,0.0,1,1,0,0,50,50,0,0,1,1,0,0,50,50,0,0
593775901,2490378,4259850,2490378,0,0,0.043768685,0.043768678,0.0,0.0,2490378,4325386,2490378,0,0,0.011962062,0.011962063,0.0,0.0,1,1,0,0,50,50,0,0,1,1,0,0,50,50,0,0
593974994,2490378,4259850,2490378,0,0,0.054871023,0.054871038,0.0,0.0,2490378,4325386,2490378,0,0,0.011837974,0.011837974,0.0,0.0,1,1,0,0,50,50,0,0,1,1,0,0,50,50,0,0
594174088,2490378,4259850,2490378,0,0,0.05848724,0.058487248,0.0,0.0,2490378,4325386,2490378,0,0,0.011532229,0.011532231,0.0,0.0,1,1,0,0,50,50,0,0,1,1,0,0,50,50,0,0
594373184,2490378,4259850,2490378,0,0,0.055736043,0.055736024,0.0,0.0,2490378,4325386,2490378,0,0,0.01184034,0.01184034,0.0,0.0,1,1,0,0,50,50,0,0,1,1,0,0,50,50,0,0
594572440,2490378,4259850,2490378,0,0,0.06381545,0.06381541,0.0,0.0,2490378,4325386,2490378,0,0,0.011721452,0.011721451,0.0,0.0,1,1,0,0,50,50,0,0,1,1,0,0,50,50,0,0
594776348,2490378,4259850,2490378,0,0,0.06281955,0.06281953,0.0,0.0,2490378,4325386,2490378,0,0,0.011565764,0.011565765,0.0,0.0,1,1,0,0,50,50,0,0,1,1,0,0,50,50,0,0
594975431,2490378,4259850,2490378,0,0,0.06315866,0.06315863,0.0,0.0,2490378,4325386,2490378,0,0,0.011882665,0.011882665,0.0,0.0,1,1,0,0,50,50,0,0,1,1,0,0,50,50,0,0
595174553,2490378,4259850,2490378,0,0,0.067303784,0.06730378,0.0,0.0,2490378,4325386,2490378,0,0,0.011697336,0.011697336,0.0,0.0,1,1,0,0,50,50,0,0,1,1,0,0,50,50,0,0
595373620,2490378,4259850,2490378,0,0,0.06533021,0.06533019,0.0,0.0,2490378,4325386,2490378,0,0,0.011828243,0.011828242,0.0,0.0,1,1,0,0,50,50,0,0,1,1,0,0,50,50,0,0
595572712,2490378,4259850,2490378,0,0,0.064180076,0.06418004,0.0,0.0,2490378,4325386,2490378,0,0,0.01211058,0.01211058,0.0,0.0,1,1,0,0,50,50,0,0,1,1,0,0,50,50,0,0
595771802,2490378,4259850,2490378,0,0,0.06729112,0.06729112,0.0,0.0,2490378,4325386,2490378,0,0,0.011658669,0.0116586685,0.0,0.0,1,1,0,0,50,50,0,0,1,1,0,0,50,50,0,0
595975869,2490378,4259850,2490378,0,0,0.06500365,0.06500361,0.0,0.0,2490378,4325386,2490378,0,0,0.011655105,0.011655104,0.0,0.0,1,1,0,0,50,50,0,0,1,1,0,0,50,50,0,0
596174987,2490378,4259850,2490378,0,0,0.066667445,0.06666744,0.0,0.0,2490378,4325386,2490378,0,0,0.012031013,0.012031013,0.0,0.0,1,1,0,0,50,50,0,0,1,1,0,0,50,50,0,0
596374052,2490378,4259850,2490378,0,0,0.065408245,0.06540822,0.0,0.0,2490378,4325386,2490378,0,0,0.011585683,0.011585683,0.0,0.0,1,1,0,0,50,50,0,0,1,1,0,0,50,50,0,0
596573147,2490378,4259850,2490378,0,0,0.066514425,0.0665144,0.0,0.0,2490378,4325386,2490378,0,0,0.011934348,0.011934348,0.0,0.0,1,1,0,0,50,50,0,0,1,1,0,0,50,50,0,0
596777212,2490378,4259850,2490378,0,0,0.06990897,0.06990896,0.0,0.0,2490378,4325386,2490378,0,0,0.012093072,0.012093073,0.0,0.0,1,1,0,0,50,50,0,0,1,1,0,0,50,50,0,0
596976315,2490378,4259850,2490378,0,0,0.07501324,0.07501321,0.0,0.0,2490378,4325386,2490378,0,0,0.011908268,0.011908268,0.0,0.0,1,1,0,0,50,50,0,0,1,1,0,0,50,50,0,0
597175398,2490378,4259850,2490378,0,0,0.07412276,0.07412277,0.0,0.0,2490378,4325386,2490378,0,0,0.011956224,0.011956224,0.0,0.0,1,1,0,0,50,50,0,0,1,1,0,0,50,50,0,0
597374489,2490378,4259850,2490378,0,0,0.07566405,0.075664066,0.0,0.0,2490378,4325386,2490378,0,0,0.011832279,0.01183228,0.0,0.0,1,1,0,0,50,50,0,0,1,1,0,0,50,50,0,0
597578560,2490378,4259850,2490378,0,0,0.07457811,0.074578084,0.0,0.0,2490378,4325386,2490378,0,0,0.011807884,0.011807884,0.0,0.0,1,1,0,0,50,50,0,0,1,1,0,0,50,50,0,0
597777653,2490378,4259850,2490378,0,0,0.07861859,0.07861858,0.0,0.0,2490378,4325386,2490378,0,0,0.012123147,0.012123147,0.0,0.0,1,1,0,0,50,50,0,0,1,1,0,0,50,50,0,0
597976792,2490378,4259850,2490378,0,0,0.07784782,0.07784783,0.0,0.0,2490378,4325386,2490378,0,0,0.0119531555,0.0119531555,0.0,0.0,1,1,0,0,50,50,0,0,1,1,0,0,50,50,0,0
598175834,2490378,4259850,2490378,0,0,0.08140434,0.08140434,0.0,0.0,2490378,4325386,2490378,0,0,0.0119391745,0.0119391745,0.0,0.0,1,1,0,0,50,50,0,0,1,1,0,0,50,50,0,0
598374925,2490378,4259850,2490378,0,0,0.08296591,0.08296592,0.0,0.0,2490378,4325386,2490378,0,0,0.0115981605,0.0115981605,0.0,0.0,1,1,0,0,50,50,0,0,1,1,0,0,50,50,0,0
598574038,2490378,4259850,2490378,0,0,0.082165904,0.08216588,0.0,0.0,2490378,4325386,2490378,0,0,0.011853708,0.011853708,0.0,0.0,1,1,0,0,50,50,0,0,1,1,0,0,50,50,0,0
598773138,2490378,4259850,2490378,0,0,0.080708,0.08070798,0.0,0.0,2490378,4325386,2490378,0,0,0.012118398,0.012118398,0.0,0.0,1,1,0,0,50,50,0,0,1,1,0,0,50,50,0,0
598977207,2490378,4259850,2490378,0,0,0.083719306,0.08371928,0.0,0.0,2490378,4325386,2490378,0,0,0.01170851,0.01170851,0.0,0.0,1,1,0,0,50,50,0,0,1,1,0,0,50,50,0,0
599176267,2490378,4259850,2490378,0,0,0.085485004,0.085485,0.0,0.0,2490378,4325386,2490378,0,0,0.01160207,0.01160207,0.0,0.0,1,1,0,0,50,50,0,0,1,1,0,0,50,50,0,0
599375368,2490378,4259850,2490378,0,0,0.08368549,0.08368548,0.0,0.0,2490378,4325386,2490378,0,0,0.011493747,0.011493747,0.0,0.0,1,1,0,0,50,50,0,0,1,1,0,0,50,50,0,0
599574453,2490378,4259850,2490378,0,0,0.08516577,0.085165754,0.0,0.0,2490378,4325386,2490378,0,0,0.011628174,0.011628174,0.0,0.0,1,1,0,0,50,50,0,0,1,1,0,0,50,50,0,0
599773550,2490378,4259850,2490378,0,0,0.08607262,0.08607261,0.0,0.0,2490378,4325386,2490378,0,0,0.011171195,0.011171196,0.0,0.0,1,1,0,0,50,50,0,0,1,1,0,0,50,50,0,0
599972642,2490378,4259850,2490378,0,0,0.08639533,0.08639533,0.0,0.0,2490378,4325386,2490378,0,0,0.011596164,0.011596164,0.0,0.0,1,1,0,0,50,50,0,0,1,1,0,0,50,50,0,0
600171779,2490378,4259850,2490378,0,0,0.086958416,0.08695843,0.0,0.0,2490378,4325386,2490378,0,0,0.011668693,0.011668693,0.0,0.0,1,1,0,0,50,50,0,0,1,1,0,0,50,50,0,0
600375796,2490378,4259850,2490378,0,0,0.082360454,0.08236045,0.0,0.0,2490378,4325386,2490378,0,0,0.011655664,0.011655664,0.0,0.0,1,1,0,0,50,50,0,0,1,1,0,0,50,50,0,0
600574886,2490378,4259850,2490378,0,0,0.08689621,0.08689623,0.0,0.0,2490378,4325386,2490378,0,0,0.011431415,0.011431415,0.0,0.0,1,1,0,0,50,50,0,0,1,1,0,0,50,50,0,0
600774019,2490378,4259850,2490378,0,0,0.08229781,0.08229782,0.0,0.0,2490378,4325386,2490378,0,0,0.011962067,0.011962067,0.0,0.0,1,1,0,0,50,50,0,0,1,1,0,0,50,50,0,0
600973068,2490378,4259850,2490378,0,0,0.08243285,0.08243288,0.0,0.0,2490378,4325386,2490378,0,0,0.011824187,0.011824187,0.0,0.0,1,1,0,0,50,50,0,0,1,1,0,0,50,50,0,0
601172163,2490378,4259850,2490378,0,0,0.08240388,0.08240387,0.0,0.0,2490378,4325386,2490378,0,0,0.01213088,0.01213088,0.0,0.0,1,1,0,0,50,50,0,0,1,1,0,0,50,50,0,0
601376263,2490378,4259850,2490378,0,0,0.07817869,0.0781787,0.0,0.0,2490378,4325386,2490378,0,0,0.011239903,0.011239903,0.0,0.0,1,1,0,0,50,50,0,0,1,1,0,0,50,50,0,0
601575321,2490378,4259850,2490378,0,0,0.05939056,0.05939056,0.0,0.0,2490378,4325386,2490378,0,0,0.011611049,0.011611049,0.0,0.0,1,1,0,0,50,50,0,0,1,1,0,0,50,50,0,0
601774440,2490378,4259850,2490378,0,0,0.04776791,0.047767904,0.0,0.0,2490378,4325386,2490378,0,0,0.01170269,0.011702688,0.0,0.0,1,1,0,0,50,50,0,0,1,1,0,0,50,50,0,0
601978483,2490378,4259850,2490378,0,0,0.059147086,0.05914711,0.0,0.0,2490378,4325386,2490378,0,0,0.011850269,0.011850269,0.0,0.0,1,1,0,0,50,50,0,0,1,1,0,0,50,50,0,0
602177571,2490378,4259850,2490378,0,0,0.07262135,0.072621375,0.0,0.0,2490378,4325386,2490378,0,0,0.012187207,0.012187207,0.0,0.0,1,1,0,0,50,50,0,0,1,1,0,0,50,50,0,0
602376664,2490378,4259850,2490378,0,0,0.074687794,0.0746878,0.0,0.0,2490378,4325386,2490378,0,0,0.01178741,0.01178741,0.0,0.0,1,1,0,0,50,50,0,0,1,1,0,0,50,50,0,0
602575855,2490378,4259850,2490378,0,0,0.07391306,0.07391313,0.0,0.0,2490378,4325386,2490378,0,0,0.012117182,0.012117183,0.0,0.0,1,1,0,0,50,50,0,0,1,1,0,0,50,50,0,0
602774856,2490378,4259850,2490378,0,0,0.06982878,0.06982882,0.0,0.0,2490378,4325386,2490378,0,0,0.011984181,0.011984181,0.0,0.0,1,1,0,0,50,50,0,0,1,1,0,0,50,50,0,0
602973935,2490378,4259850,2490378,0,0,0.071428604,0.071428604,0.0,0.0,2490378,4325386,2490378,0,0,0.0118498765,0.0118498765,0.0,0.0,1,1,0,0,50,50,0,0,1,1,0,0,50,50,0,0
603178013,2490378,4259850,2490378,0,0,0.07450737,0.07450738,0.0,0.0,2490378,4325386,2490378,0,0,0.011504602,0.011504602,0.0,0.0,1,1,0,0,50,50,0,0,1,1,0,0,50,50,0,0
603377095,2490378,4259850,2490378,0,0,0.07267434,0.07267438,0.0,0.0,2490378,4325386,2490378,0,0,0.011487651,0.011487651,0.0,0.0,1,1,0,0,50,50,0,0,1,1,0,0,50,50,0,0
603576237,2490378,4259850,2490378,0,0,0.071586326,0.07158635,0.0,0.0,2490378,4325386,2490378,0,0,0.011635687,0.011635687,0.0,0.0,1,1,0,0,50,50,0,0,1,1,0,0,50,50,0,0
603775278,2490378,4259850,2490378,0,0,0.06327923,0.06327924,0.0,0.0,2490378,4325386,2490378,0,0,0.012146159,0.012146157,0.0,0.0,1,1,0,0,50,50,0,0,1,1,0,0,50,50,0,0
603974375,2490378,4259850,2490378,0,0,0.06439403,0.06439404,0.0,0.0,2490378,4325386,2490378,0,0,0.010090156,0.010090155,0.0,0.0,1,1,0,0,50,50,0,0,1,1,0,0,50,50,0,0
604173496,2490378,4259850,2490378,0,0,0.046081748,0.046081737,0.0,0.0,2490378,4325386,2490378,0,0,0.013313125,0.013313126,0.0,0.0,1,1,0,0,50,50,0,0,1,1,0,0,50,50,0,0
604372583,2490378,4259850,2490378,0,0,0.055646658,0.05564669,0.0,0.0,2490378,4325386,2490378,0,0,0.01225582,0.0122558195,0.0,0.0,1,1,0,0,50,50,0,0,1,1,0,0,50,50,0,0
604576622,2490378,4259850,2490378,0,0,0.054720182,0.054720182,0.0,0.0,2490378,4325386,2490378,0,0,0.0119632315,0.0119632315,0.0,0.0,1,1,0,0,50,50,0,0,1,1,0,0,50,50,0,0
604775715,2490378,4259850,2490378,0,0,0.05348312,0.05348313,0.0,0.0,2490378,4325386,2490378,0,0,0.009313176,0.009313178,0.0,0.0,1,1,0,0,50,50,0,0,1,1,0,0,50,50,0,0
604974806,2490378,4259850,2490378,0,0,0.046585336,0.046585288,0.0,0.0,2490378,4325386,2490378,0,0,0.013144332,0.013144332,0.0,0.0,1,1,0,0,50,50,0,0,1,1,0,0,50,50,0,0
605173891,2490378,4259850,2490378,0,0,0.05193041,0.0519304,0.0,0.0,2490378,4325386,2490378,0,0,0.012071279,0.012071278,0.0,0.0,1,1,0,0,50,50,0,0,1,1,0,0,50,50,0,0
605372984,2490378,4259850,2490378,0,0,0.034612354,0.034612346,0.0,0.0,2490378,4325386,2490378,0,0,0.011854024,0.011854024,0.0,0.0,1,1,0,0,50,50,0,0,1,1,0,0,50,50,0,0
605572077,2490378,4259850,2490378,0,0,0.048412472,0.048412487,0.0,0.0,2490378,4325386,2490378,0,0,0.011645471,0.01164547,0.0,0.0,1,1,0,0,50,50,0,0,1,1,0,0,50,50,0,0
605771204,2490378,4259850,2490378,0,0,0.0545435,0.054543532,0.0,0.0,2490378,4325386,2490378,0,0,0.011919648,0.01191965,0.0,0.0,1,1,0,0,50,50,0,0,1,1,0,0,50,50,0,0
605975235,2490378,4259850,2490378,0,0,0.047268774,0.04726879,0.0,0.0,2490378,4325386,2490378,0,0,0.012351648,0.012351648,0.0,0.0,1,1,0,0,50,50,0,0,1,1,0,0,50,50,0,0
606174324,2490378,4259850,2490378,0,0,0.05591733,0.055917334,0.0,0.0,2490378,4325386,2490378,0,0,0.011896014,0.011896014,0.0,0.0,1,1,0,0,50,50,0,0,1,1,0,0,50,50,0,0
606373416,2490378,4259850,2490378,0,0,0.055962335,0.055962257,0.0,0.0,2490378,4325386,2490378,0,0,0.011915269,0.01191527,0.0,0.0,1,1,0,0,50,50,0,0,1,1,0,0,50,50,0,0
606577487,2490378,4259850,2490378,0,0,0.065222256,0.065222256,0.0,0.0,2490378,4325386,2490378,0,0,0.011654269,0.011654269,0.0,0.0,1,1,0,0,50,50,0,0,1,1,0,0,50,50,0,0
606776577,2490378,4259850,2490378,0,0,0.06305915,0.063059166,0.0,0.0,2490378,4325386,2490378,0,0,0.011785177,0.011785175,0.0,0.0,1,1,0,0,50,50,0,0,1,1,0,0,50,50,0,0
606975714,2490378,4259850,2490378,0,0,0.061391715,0.061391726,0.0,0.0,2490378,4325386,2490378,0,0,0.011445161,0.011445161,0.0,0.0,1,1,0,0,50,50,0,0,1,1,0,0,50,50,0,0
607174778,2490378,4259850,2490378,0,0,0.068770245,0.06877025,0.0,0.0,2490378,4325386,2490378,0,0,0.012152826,0.0121528255,0.0,0.0,1,1,0,0,50,50,0,0,1,1,0,0,50,50,0,0
607378822,2490378,4259850,2490378,0,0,0.06559686,0.06559686,0.0,0.0,2490378,4325386,2490378,0,0,0.011296956,0.011296956,0.0,0.0,1,1,0,0,50,50,0,0,1,1,0,0,50,50,0,0
607577918,2490378,4259850,2490378,0,0,0.06990156,0.06990156,0.0,0.0,2490378,4325386,2490378,0,0,0.012053564,0.012053564,0.0,0.0,1,1,0,0,50,50,0,0,1,1,0,0,50,50,0,0
607777018,2490378,4259850,2490378,0,0,0.06906919,0.069069155,0.0,0.0,2490378,4325386,2490378,0,0,0.012199215,0.012199213,0.0,0.0,1,1,0,0,50,50,0,0,1,1,0,0,50,50,0,0
607976117,2490378,4259850,2490378,0,0,0.06863312,0.06863311,0.0,0.0,2490378,4325386,2490378,0,0,0.01233364,0.01233364,0.0,0.0,1,1,0,0,50,50,0,0,1,1,0,0,50,50,0,0
608175188,2490378,4259850,2490378,0,0,0.073338926,0.073338896,0.0,0.0,2490378,4325386,2490378,0,0,0.011940247,0.011940247,0.0,0.0,1,1,0,0,50,50,0,0,1,1,0,0,50,50,0,0
608374280,2490378,4259850,2490378,0,0,0.07238861,0.072388574,0.0,0.0,2490378,4325386,2490378,0,0,0.01171866,0.011718658,0.0,0.0,1,1,0,0,50,50,0,0,1,1,0,0,50,50,0,0
608573399,2490378,4259850,2490378,0,0,0.075979725,0.07597973,0.0,0.0,2490378,4325386,2490378,0,0,0.01187749,0.01187749,0.0,0.0,1,1,0,0,50,50,0,0,1,1,0,0,50,50,0,0
608777440,2490378,4259850,2490378,0,0,0.06835709,0.06835707,0.0,0.0,2490378,4325386,2490378,0,0,0.011971508,0.011971508,0.0,0.0,1,1,0,0,50,50,0,0,1,1,0,0,50,50,0,0
608976526,2490378,4259850,2490378,0,0,0.07372037,0.07372039,0.0,0.0,2490378,4325386,2490378,0,0,0.012111325,0.012111325,0.0,0.0,1,1,0,0,50,50,0,0,1,1,0,0,50,50,0,0
609175635,2490378,4259850,2490378,0,0,0.08127213,0.081272155,0.0,0.0,2490378,4325386,2490378,0,0,0.011815863,0.011815864,0.0,0.0,1,1,0,0,50,50,0,0,1,1,0,0,50,50,0,0
609374711,2490378,4259850,2490378,0,0,0.08069476,0.08069472,0.0,0.0,2490378,4325386,2490378,0,0,0.011955386,0.011955386,0.0,0.0,1,1,0,0,50,50,0,0,1,1,0,0,50,50,0,0
609573804,2490378,4259850,2490378,0,0,0.07627964,0.076279685,0.0,0.0,2490378,4325386,2490378,0,0,0.011752643,0.011752643,0.0,0.0,1,1,0,0,50,50,0,0,1,1,0,0,50,50,0,0
609772916,2490378,4259850,2490378,0,0,0.07611467,0.0761147,0.0,0.0,2490378,4325386,2490378,0,0,0.011896672,0.011896672,0.0,0.0,1,1,0,0,50,50,0,0,1,1,0,0,50,50,0,0
609972008,2490378,4259850,2490378,0,0,0.07951867,0.07951866,0.0,0.0,2490378,4325386,2490378,0,0,0.011854948,0.011854948,0.0,0.0,1,1,0,0,50,50,0,0,1,1,0,0,50,50,0,0
610176047,2490378,4259850,2490378,0,0,0.082077764,0.08207777,0.0,0.0,2490378,4325386,2490378,0,0,0.011954768,0.011954767,0.0,0.0,1,1,0,0,50,50,0,0,1,1,0,0,50,50,0,0
610375160,2490378,4259850,2490378,0,0,0.07307201,0.073071994,0.0,0.0,2490378,4325386,2490378,0,0,0.011805327,0.011805326,0.0,0.0,1,1,0,0,50,50,0,0,1,1,0,0,50,50,0,0
610574238,2490378,4259850,2490378,0,0,0.07535079,0.0753508,0.0,0.0,2490378,4325386,2490378,0,0,0.012388493,0.012388493,0.0,0.0,1,1,0,0,50,50,0,0,1,1,0,0,50,50,0,0
610773319,2490378,4259850,2490378,0,0,0.07463084,0.074630864,0.0,0.0,2490378,4325386,2490378,0,0,0.011824613,0.011824613,0.0,0.0,1,1,0,0,50,50,0,0,1,1,0,0,50,50,0,0
610972410,2490378,4259850,2490378,0,0,0.07790474,0.0779047,0.0,0.0,2490378,4325386,2490378,0,0,0.012087464,0.012087464,0.0,0.0,1,1,0,0,50,50,0,0,1,1,0,0,50,50,0,0
611176479,2490378,4259850,2490378,0,0,0.0740959,0.07409588,0.0,0.0,2490378,4325386,2490378,0,0,0.012014261,0.012014263,0.0,0.0,1,1,0,0,50,50,0,0,1,1,0,0,50,50,0,0
