timestamp,timestamp_sample,lat,lon,alt,alt_ellipsoid,delta_alt,eph,epv,terrain_alt,lat_lon_reset_counter,alt_reset_counter,terrain_alt_valid,dead_reckoning
540318262,540318067,42.35858175809347,-71.08728612855424,0.48253584,-29.323345,-0.004210472,2.6504636,2.6205065,0.38967037,8,0,1,0
541308294,541307953,42.358582123960005,-71.08728757835605,0.50618553,-29.199495,-0.004210472,2.645354,2.6191692,0.41875792,8,0,1,0
542308091,542307838,42.35858240954743,-71.08728894852509,0.5453963,-29.060984,-0.004210472,2.645717,2.6193562,0.4544611,8,0,1,0
543317946,543317722,42.35858268189035,-71.0872905257846,0.6088948,-28.916187,-0.004210472,2.6499043,2.6197336,0.50506735,8,0,1,0
544317807,544317608,42.35858300966216,-71.08729074812634,0.6448078,-28.760572,-0.004210472,2.6441486,2.6193795,0.5376215,8,0,1,0
545307925,545307494,42.358583519073555,-71.08729075855229,0.6601076,-28.645473,-0.004210472,2.644868,2.6200638,0.55009604,8,0,1,0
546317586,546317379,42.3585834652917,-71.08729115426422,0.68186855,-28.523712,-0.004210472,2.6475286,2.6207418,0.58159924,8,0,1,0
547317628,547317265,42.35858394924585,-71.08729048651163,0.6803236,-28.425259,-0.004210472,2.649342,2.6209853,0.57536316,8,0,1,0
548307494,548307152,42.35858446356755,-71.08728990111068,0.6666498,-28.339031,-0.004210472,2.650174,2.6214771,0.54810715,8,0,1,0
549317260,549317037,42.35858531289133,-71.08728898629184,0.6332922,-28.27209,-0.004210472,2.6527164,2.621835,0.5290766,8,0,1,0
550317118,550316923,42.35858592734455,-71.08728920737154,0.62700176,-28.178482,-0.004210472,2.6508546,2.6216033,0.53684044,8,0,1,0
551317020,551316810,42.358586107281624,-71.08728913916266,0.6522517,-28.053732,-0.004210472,2.6481323,2.6204143,0.5629587,8,0,1,0
552316892,552316697,42.3585867392225,-71.08728943610883,0.68819237,-27.935862,-0.004210472,2.646829,2.6203673,0.5887294,8,0,1,0
553311986,553306585,42.35858701202254,-71.08728985563191,0.69648695,-27.889097,-0.004210472,2.6429458,2.618677,0.58968925,8,0,1,0
554316680,554316471,42.358587310264824,-71.0872908846661,0.68629503,-27.88089,-0.004210472,2.6413512,2.6186326,0.5902982,8,0,1,0
555316631,555316358,42.358586666329714,-71.08729019056871,0.7165427,-27.843235,-0.004210472,2.6404438,2.6182601,0.6256952,8,0,1,0
556316487,556316246,42.35858621565099,-71.0872898804724,0.75755596,-27.81046,-0.004210472,2.6432834,2.6188674,0.66154623,8,0,1,0
557316344,557316133,42.358586691888114,-71.08728983576414,0.7875929,-27.799347,-0.004210472,2.6399157,2.6186025,0.69151783,8,0,1,0
558316362,558316021,42.358587033211045,-71.08728980455425,0.81616735,-27.785791,-0.004210472,2.6411676,2.6195428,0.69902706,8,0,1,0
559316102,559315909,42.358587441615725,-71.0872901184749,0.81933117,-27.797073,-0.004210472,2.6410773,2.619383,0.72390175,8,0,1,0
560316011,560315797,42.35858759355451,-71.08728998300295,0.80683804,-27.830574,-0.004210472,2.6418025,2.6200764,0.70302534,8,0,1,0
561315897,561315686,42.35858794239484,-71.08728991757974,0.8018017,-27.84495,-0.004210472,2.643306,2.6203175,0.7006149,8,0,1,0
562315772,562315574,42.35858755788459,-71.08728953767277,0.77226305,-27.880314,-0.004210472,2.6425967,2.6204128,0.679862,8,0,1,0
563315716,563315463,42.358587344074515,-71.08728879437241,0.77913475,-27.881145,-0.004210472,2.648393,2.6208913,0.68802977,8,0,1,0
564315717,564315352,42.358586800451306,-71.08728807645838,0.76556206,-27.9064,-0.004210472,2.643835,2.6207967,0.66265106,8,0,1,0
565315704,565315240,42.3585860304057,-71.08728792207292,0.75795794,-27.914152,-0.004210472,2.646426,2.6212187,0.6642947,8,0,1,0
566315475,566315129,42.35858465158675,-71.08728741652408,0.7462411,-27.917482,-0.004210472,2.6460826,2.6213248,0.6467099,8,0,1,0
567315210,567315019,42.358583658734524,-71.08728546730502,0.7360506,-27.93026,-0.004210472,2.648456,2.6215026,0.6357546,8,0,1,0
568315160,568314908,42.358583455124844,-71.087282354744,0.6989436,-27.976545,-0.004210472,2.6512837,2.6224182,0.6014695,8,0,1,0
569315224,569314797,42.35858187837297,-71.08728185213457,0.6711936,-28.025324,-0.004210472,2.6547787,2.6227193,0.57195616,8,0,1,0
570315047,570314686,42.35858144211372,-71.08728117269654,0.64025307,-28.080563,-0.004210472,2.6577652,2.6228418,0.5553274,8,0,1,0
571314905,571314576,42.35858129686501,-71.08728014878686,0.66470623,-28.088776,-0.004210472,2.664693,2.6244957,0.56670094,8,0,1,0
572314893,572314465,42.358581655154666,-71.08727980765211,0.6657505,-28.1236,-0.004210472,2.669028,2.6247702,0.5728941,8,0,1,0
573314738,573314354,42.358580932458395,-71.08727927444531,0.6835432,-28.14952,-0.004210472,2.6676471,2.6246958,0.57421875,8,0,1,0
574314691,574314243,42.3585802399131,-71.08727897426681,0.7108402,-28.166136,-0.004210472,2.6675906,2.6241126,0.62912226,8,0,1,0
575314324,575314133,42.35857965340032,-71.08727857829923,0.7984052,-28.133171,-0.004210472,2.6655354,2.6239042,0.68708086,8,0,1,0
576314437,576314022,42.358579136266094,-71.08727698256207,0.8124471,-28.188145,-0.004210472,2.6649966,2.6232896,0.6913233,8,0,1,0
577314107,577313911,42.358577991311606,-71.08727670107001,0.8455043,-28.19528,-0.004210472,2.6733973,2.6244469,0.74662876,8,0,1,0
578314160,578313800,42.35857790301798,-71.08727530754588,0.91524935,-28.190517,-0.004210472,2.6694577,2.6240318,0.81254053,8,0,1,0
579314050,579313689,42.35857756301822,-71.08727430192526,1.0117087,-28.158064,-0.004210472,2.6701267,2.6244187,0.8958068,8,0,1,0
580313789,580313578,42.35857655236256,-71.08727404479843,1.0514426,-28.19017,-0.004210472,2.6744652,2.6246562,0.92440844,8,0,1,0
581313755,581313473,42.358576552617954,-71.08727286833776,1.0154457,-28.317225,-0.004210472,2.678411,2.6255174,0.8917699,8,0,1,0
582313747,582313356,42.3585752809576,-71.08726976254344,0.94480467,-28.489536,-0.004210472,2.6751673,2.6242619,0.8173351,8,0,1,0
583313461,583313244,42.35857446850059,-71.08727006958952,0.9165144,-28.597519,-0.004210472,2.6869726,2.625718,0.8270688,8,0,1,0
584313324,584313132,42.35857342045081,-71.08727054435062,0.96156645,-28.64237,-0.004210472,2.6864169,2.6250935,0.8676572,8,0,1,0
585313213,585313020,42.35857246529622,-71.08727151723869,0.99067163,-28.700802,-0.004210472,2.6772833,2.6246183,0.89374256,8,0,1,0
586313282,586312908,42.358570672169435,-71.08727171264067,0.97994804,-28.77494,-0.004210472,2.679855,2.624709,0.8675871,8,0,1,0
587313053,587312796,42.35857054514164,-71.08727057895469,0.938499,-28.881268,-0.004210472,2.6802833,2.6251876,0.8298907,8,0,1,0
588312878,588312683,42.35857085015769,-71.08727044639893,0.8702035,-29.008099,-0.004210472,2.674872,2.623588,0.7617531,8,0,1,0
589312838,589312570,42.35857081751099,-71.08726980119772,0.828372,-29.107025,-0.004210472,2.6737447,2.623602,0.7292919,8,0,1,0
590312656,590312457,42.358570703999874,-71.08726876371,0.79529524,-29.20753,-0.004210472,2.6760168,2.6236086,0.71032906,8,0,1,0
591312713,591312344,42.35857089509108,-71.08726696011833,0.75715685,-29.328735,-0.004210472,2.6816823,2.6250243,0.67243624,8,0,1,0
592312670,592312230,42.35857040670966,-71.08726589972927,0.776989,-29.408781,-0.004210472,2.6819506,2.6246822,0.6969743,8,0,1,0
593312455,593312116,42.35856906514062,-71.08726749651453,0.81483936,-29.467766,-0.004210472,2.6886635,2.6261704,0.71671057,8,0,1,0
594307189,594302003,42.358567876226445,-71.08726915265294,0.83683777,-29.539291,-0.004210472,2.6932187,2.626169,0.7455878,8,0,1,0
595312081,595311887,42.35856521795087,-71.08727181094794,0.8439598,-29.63279,-0.004210472,2.6958737,2.626944,0.7285938,8,0,1,0
596312139,596311772,42.35856520790518,-71.08727349145028,0.8231492,-29.749733,-0.004210472,2.6976898,2.6265473,0.7178116,8,0,1,0
597312101,597311657,42.35856528934637,-71.08727371756972,0.8163357,-29.835428,-0.004210472,2.6966693,2.6257274,0.7169647,8,0,1,0
598311741,598311541,42.35856495638566,-71.08727359154388,0.843729,-29.874615,-0.004210472,2.7003732,2.6264396,0.7474241,8,0,1,0
599311911,599311426,42.358564869577705,-71.0872732114791,0.87303543,-29.902143,-0.004210472,2.701533,2.625918,0.77159166,8,0,1,0
600311704,600311309,42.35856421479426,-71.08727201433551,0.91137457,-29.895132,-0.004210472,2.7031147,2.6263647,0.8180642,8,0,1,0
601311415,601311192,42.35856255992585,-71.08727016509329,0.97095585,-29.851479,-0.004210472,2.7056053,2.6270628,0.8827524,8,0,1,0
602311320,602311075,42.35855923172141,-71.0872663431485,1.0435839,-29.783958,-0.004210472,2.7107494,2.6271987,0.92577267,8,0,1,0
603311351,603310958,42.358557405891965,-71.08726324329905,1.0517502,-29.78188,-0.004210472,2.7148805,2.6271105,0.9378581,8,0,1,0
604311034,604310840,42.35855619606954,-71.08726191612129,1.0456171,-29.795929,-0.004210472,2.7169085,2.6276362,0.9286804,8,0,1,0
605311005,605310722,42.35855641594745,-71.08726020498003,0.99355507,-29.87959,-0.004210472,2.7120485,2.6264567,0.89700603,8,0,1,0
606310813,606310603,42.35855587012429,-71.08725780806974,0.9812894,-29.933092,-0.004210472,2.7061644,2.626002,0.8679333,8,0,1,0
607310713,607310485,42.35855542849924,-71.08725603508276,0.94819784,-29.992182,-0.004210472,2.7029362,2.625131,0.85264826,8,0,1,0
608310719,608310366,42.358555345203776,-71.087256974977,0.94799185,-29.982735,-0.004210472,2.6994739,2.6251025,0.8578429,8,0,1,0
609310471,609310246,42.35855534989894,-71.08725686603184,0.9525628,-29.949503,-0.004210472,2.693365,2.6237814,0.86538696,8,0,1,0
610310456,610310126,42.35855513146788,-71.08725800884605,0.9455652,-29.912125,-0.004210472,2.6919131,2.6241872,0.85435677,8,0,1,0
611310202,611310005,42.3585549607961,-71.08725976677775,0.92554665,-29.873257,-0.004210472,2.6877432,2.6232328,0.8276777,8,0,1,0
612310221,612309884,42.358554963879286,-71.08726090468966,0.91052246,-29.824736,-0.004210472,2.6835148,2.622991,0.8124614,8,0,1,0
613309956,613309763,42.3585555214202,-71.08726286589186,0.9246168,-29.754341,-0.004210472,2.6845467,2.6231797,0.83647203,8,0,1,0
614309842,614309642,42.35855572535272,-71.08726483474929,0.94415,-29.672836,-0.004210472,2.6886163,2.6246173,0.84877205,8,0,1,0
615309950,615309519,42.358555454261214,-71.08726640237586,0.946507,-29.62323,-0.004210472,2.686916,2.624179,0.8335948,8,0,1,0
616309591,616309397,42.35855599077177,-71.08726784674224,0.91236067,-29.60507,-0.004210472,2.6845675,2.624361,0.8003454,8,0,1,0
617309472,617309274,42.35855620659684,-71.08726920552597,0.88475704,-29.574013,-0.004210472,2.6871376,2.6246486,0.7989335,8,0,1,0
618309503,618309151,42.358555477286046,-71.08727046464952,0.8637576,-29.532793,-0.004210472,2.6852617,2.6248553,0.7743583,8,0,1,0
619309230,619309027,42.35855514931095,-71.08727066088039,0.89600945,-29.441738,-0.004210472,2.6808274,2.6237493,0.81318855,8,0,1,0
620309156,620308903,42.35855521586957,-71.08727110441276,0.898201,-29.390913,-0.004210472,2.6807034,2.624361,0.79052067,8,0,1,0
621318971,621318777,42.358554048444844,-71.0872697816454,0.88269424,-29.360498,-0.004210472,2.6808903,2.6242676,0.79317284,8,0,1,0
622308846,622308654,42.35855328684522,-71.08726833112026,0.92490244,-29.261608,-0.004210472,2.6818838,2.6248846,0.82842064,8,0,1,0
623308916,623308528,42.358553232082926,-71.08726773722611,0.9636998,-29.150204,-0.004210472,2.6834874,2.6248317,0.8636422,8,0,1,0
624318695,624318403,42.35855290460547,-71.08726854472906,0.99431944,-29.02032,-0.004210472,2.68131,2.6241367,0.90064573,8,0,1,0
625308607,625308276,42.35855244831327,-71.08726831274824,1.0214982,-28.905485,-0.004210472,2.6810777,2.6244144,0.91221285,8,0,1,0
626308526,626308149,42.35855229817387,-71.08726746999163,1.0195646,-28.836369,-0.004210472,2.6847706,2.625538,0.92036057,8,0,1,0
627318293,627318021,42.358552375444994,-71.08726756855762,1.0039163,-28.790516,-0.004210472,2.6890466,2.6259532,0.9016495,8,0,1,0
628318303,628317893,42.35855287931918,-71.0872672197496,0.9972162,-28.742104,-0.004210472,2.694005,2.6262474,0.89622736,8,0,1,0
629307961,629307767,42.35855357947633,-71.0872686026548,0.9835439,-28.70805,-0.004210472,2.69359,2.6264815,0.89042616,8,0,1,0
630317834,630317637,42.358553238816924,-71.0872692352611,0.98633766,-28.634096,-0.004210472,2.6943078,2.6262221,0.8830242,8,0,1,0
631317722,631317508,42.35855183485734,-71.08726873215902,1.0065699,-28.517494,-0.004210472,2.698806,2.6272008,0.91911125,8,0,1,0
632307612,632307380,42.35854982104416,-71.0872677799649,1.023601,-28.399763,-0.004210472,2.7019827,2.6269245,0.9351783,8,0,1,0
633317564,633317249,42.358548776641776,-71.08726850855011,1.0839367,-28.247108,-0.004210472,2.701772,2.6273172,0.9808364,8,0,1,0
634317311,634317119,42.35854802891734,-71.0872695639476,1.0913143,-28.15381,-0.004210472,2.7053642,2.6271875,0.981832,8,0,1,0
635307186,635306990,42.3585472986124,-71.08727040889605,1.1075625,-28.044327,-0.004210472,2.7045407,2.6272614,1.0090618,8,0,1,0
636317100,636316857,42.35854575947593,-71.08727079611128,1.1448236,-27.90699,-0.004210472,2.7096193,2.6274295,1.0444508,8,0,1,0
637316983,637316726,42.35854472532078,-71.08727129011007,1.1799297,-27.771662,-0.004210472,2.7163527,2.628538,1.075654,8,0,1,0
638316788,638316594,42.35854457235648,-71.0872718539111,1.1779656,-27.673025,-0.004210472,2.71818,2.6281593,1.0569615,8,0,1,0
639306801,639306463,42.358543628360245,-71.0872717998923,1.1420479,-27.609043,-0.004210472,2.7198737,2.6286063,1.0292625,8,0,1,0
640316521,640316329,42.3585434585365,-71.08727233742184,1.103231,-27.54806,-0.004210472,2.707635,2.626702,1.0045991,8,0,1,0
641316439,641316196,42.358542254977586,-71.08727200508883,1.0924678,-27.458622,-0.004210472,2.703991,2.62658,0.9901204,8,0,1,0
642316271,642316062,42.35854162403366,-71.08727182360383,1.0929136,-27.357674,-0.004210472,2.6974287,2.6251724,1.0034881,8,0,1,0
643316161,643315928,42.35854082620367,-71.08727130787258,1.1255789,-27.225307,-0.004210472,2.6942844,2.6252267,1.0381064,8,0,1,0
644316016,644315793,42.35854072948212,-71.08727142110051,1.1508255,-27.099762,-0.004210472,2.6934154,2.624877,1.0614829,8,0,1,0
645315853,645315658,42.35854131517208,-71.08727189931052,1.1698194,-26.98418,-0.004210472,2.692595,2.6253588,1.0646291,8,0,1,0
646315762,646315522,42.35854221777553,-71.08727192040288,1.1671653,-26.914097,-0.004210472,2.6913064,2.624975,1.0584712,8,0,1,0
647315580,647315386,42.35854349019228,-71.08727190891862,1.1389475,-26.890842,-0.004210472,2.6843882,2.6243017,1.0349207,8,0,1,0
648315445,648315250,42.35854447818881,-71.08727096930129,1.1481471,-26.843966,-0.004210472,2.6815343,2.6236067,1.0495048,8,0,1,0
649315333,649315113,42.35854528529406,-71.0872704160436,1.1577611,-26.823711,-0.004210472,2.6767988,2.622488,1.0513349,8,0,1,0
650315188,650314976,42.35854668769252,-71.08726968121569,1.1622114,-26.856953,-0.004210472,2.6752353,2.622909,1.0506854,8,0,1,0
651315137,651314838,42.35854832601143,-71.08726938974021,1.1537104,-26.924568,-0.004210472,2.6743639,2.6227329,1.0607896,8,0,1,0
652315032,652314700,42.35854940795785,-71.08726907173339,1.17729,-26.97519,-0.004210472,2.668592,2.6220474,1.083313,8,0,1,0
653314789,653314561,42.3585496239173,-71.08726783002837,1.1941261,-27.046007,-0.004210472,2.666152,2.6214786,1.0856233,8,0,1,0
654314808,654314421,42.358550690531175,-71.08726693828076,1.1913681,-27.14696,-0.004210472,2.6660075,2.6222024,1.1049738,8,0,1,0
655314681,655314282,42.35855072798519,-71.08726599351837,1.2483411,-27.168375,-0.004210472,2.6693742,2.622946,1.1562304,8,0,1,0
656314501,656314141,42.35855148835474,-71.08726577550206,1.26337,-27.219795,-0.004210472,2.6700108,2.6236858,1.1520805,8,0,1,0
657314379,657314001,42.35855189776601,-71.08726528915317,1.2769351,-27.274035,-0.004210472,2.6689725,2.6231663,1.1822262,8,0,1,0
658314056,658313860,42.35855174434573,-71.08726369304838,1.2845736,-27.337181,-0.004210472,2.6718233,2.6242085,1.1822257,8,0,1,0
659313913,659313718,42.35855133854773,-71.08726225094254,1.2953482,-27.391605,-0.004210472,2.6705437,2.6235988,1.1827226,8,0,1,0
660313873,660313576,42.35855146236473,-71.08726107797742,1.2825952,-27.469692,-0.004210472,2.6681159,2.62349,1.1865187,8,0,1,0
661313781,661313434,42.35855153661886,-71.08726018881633,1.2796454,-27.536457,-0.004210472,2.6720045,2.6240377,1.1882043,8,0,1,0
662313697,662313291,42.35855069157353,-71.08725839137071,1.2902102,-27.585451,-0.004210472,2.6773086,2.6254597,1.193593,8,0,1,0
663313373,663313147,42.35854989424097,-71.08725697108451,1.2999368,-27.627312,-0.004210472,2.6878166,2.6265826,1.2082491,8,0,1,0
664313249,664313005,42.35854922046973,-71.08725541398331,1.3219695,-27.657413,-0.004210472,2.7001705,2.62852,1.228723,8,0,1,0
665313262,665312859,42.35854834402528,-71.08725291355353,1.3249235,-27.707909,-0.004210472,2.6951005,2.6273053,1.2182136,8,0,1,0
666313064,666312714,42.35854976174257,-71.08725274082342,1.3147535,-27.759148,-0.004210472,2.69715,2.627769,1.2088976,8,0,1,0
667312964,667312568,42.35854939453288,-71.08725186681744,1.3108807,-27.7873,-0.004210472,2.6989002,2.6273463,1.2026911,8,0,1,0
668312625,668312422,42.358549741042694,-71.0872516503916,1.3030972,-27.819578,-0.004210472,2.6965146,2.6273034,1.208643,8,0,1,0
669312608,669312275,42.358550148525026,-71.08725193762739,1.2966428,-27.851997,-0.004210472,2.6972647,2.6268091,1.1916633,8,0,1,0
670312382,670312128,42.35855086423324,-71.08725230086633,1.2878156,-27.874796,-0.004210472,2.699512,2.6274633,1.1840816,8,0,1,0
671312384,671311981,42.35855126844449,-71.08725131717439,1.2716947,-27.886171,-0.004210472,2.691094,2.625642,1.1740928,8,0,1,0
672312194,672311832,42.35855139957895,-71.08725139943692,1.257473,-27.871094,-0.004210472,2.685034,2.624997,1.1597066,8,0,1,0
673312091,673311684,42.35855113980541,-71.08725184513786,1.2631474,-27.812376,-0.004210472,2.6820443,2.6241996,1.1749926,8,0,1,0
674311946,674311536,42.358551414052464,-71.08725291612781,1.2931828,-27.738432,-0.004210472,2.689636,2.6253636,1.1914597,8,0,1,0
675311633,675311385,42.35855167051058,-71.08725358734277,1.2914534,-27.68777,-0.004210472,2.6858106,2.6245856,1.1813169,8,0,1,0
676311429,676311234,42.358552634419375,-71.08725457585808,1.2855673,-27.662727,-0.004210472,2.6779833,2.6236439,1.1820517,8,0,1,0
677311294,677311083,42.3585539359306,-71.0872553237571,1.2733059,-27.658676,-0.004210472,2.678928,2.6237347,1.183023,8,0,1,0
678311153,678310932,42.35855618352451,-71.08725735241798,1.2753944,-27.645926,-0.004210472,2.6785698,2.6235752,1.1720252,8,0,1,0
679310999,679310780,42.35855807842806,-71.08725863125362,1.2851024,-27.620533,-0.004210472,2.6748884,2.6234717,1.1838722,8,0,1,0
680310824,680310627,42.35855958224672,-71.08725979176964,1.2793703,-27.61977,-0.004210472,2.674522,2.6239495,1.1755342,8,0,1,0
681310681,681310475,42.35856139576214,-71.08726023472853,1.2529664,-27.63808,-0.004210472,2.6743956,2.623731,1.155158,8,0,1,0
682310528,682310323,42.35856334037402,-71.08726151966728,1.2449188,-27.629526,-0.004210472,2.6766596,2.62476,1.1529832,8,0,1,0
683310408,683310167,42.35856482832921,-71.08726215971174,1.256886,-27.585724,-0.004210472,2.677275,2.6246393,1.166287,8,0,1,0
684310235,684310012,42.358565830733134,-71.08726248590038,1.2800479,-27.533283,-0.004210472,2.6774027,2.624406,1.1791897,8,0,1,0
685310054,685309858,42.35856656098653,-71.08726306340048,1.3079233,-27.49076,-0.004210472,2.6688828,2.6230705,1.2011619,8,0,1,0
686309995,686309706,42.35856770985193,-71.08726375304929,1.312427,-27.475645,-0.004210472,2.6713095,2.6232505,1.2121501,8,0,1,0
687309742,687309546,42.35856876671836,-71.08726386467582,1.329463,-27.427464,-0.004210472,2.6768913,2.6247456,1.2173505,8,0,1,0
688309742,688309390,42.358569567753385,-71.0872642057978,1.3022237,-27.414276,-0.004210472,2.679461,2.6248481,1.20156,8,0,1,0
689309432,689309233,42.35856999359008,-71.08726438467127,1.2928529,-27.372313,-0.004210472,2.6738238,2.624279,1.1909533,8,0,1,0
690309301,690309076,42.35857021885021,-71.08726411996291,1.2551627,-27.362934,-0.004210472,2.6730332,2.6237106,1.1476297,8,0,1,0
691319129,691318916,42.358571673625654,-71.0872654871838,1.233788,-27.343506,-0.004210472,2.6721241,2.6240647,1.1514115,8,0,1,0
692309016,692308759,42.3585728882263,-71.08726666115653,1.2541447,-27.308025,-0.004210472,2.6734369,2.6239865,1.159142,8,0,1,0
693308799,693308600,42.3585745105755,-71.087268604199,1.2762408,-27.256502,-0.004210472,2.6749933,2.624789,1.1837368,8,0,1,0
694318636,694318439,42.35857564508128,-71.08727052253968,1.3191042,-27.172356,-0.004210472,2.6759937,2.6247594,1.2236223,8,0,1,0
695308477,695308281,42.3585775940744,-71.08727282977674,1.3603334,-27.106071,-0.004210472,2.6780245,2.6254587,1.2507596,8,0,1,0
696308373,696308120,42.35857915766307,-71.08727471947563,1.3882194,-27.052593,-0.004210472,2.6817899,2.625699,1.2776146,8,0,1,0
697318195,697317958,42.35858076329212,-71.08727639561785,1.391293,-27.026012,-0.004210472,2.6744263,2.6241014,1.2857184,8,0,1,0
698308008,698307798,42.35858250898338,-71.0872782929759,1.4174194,-26.962013,-0.004210472,2.67583,2.6246097,1.3111072,8,0,1,0
699307829,699307636,42.35858428021143,-71.08728018634142,1.4611244,-26.862856,-0.004210472,2.675325,2.624888,1.3535881,8,0,1,0
700317672,700317472,42.35858520612562,-71.08728184675954,1.4781108,-26.771675,-0.004210472,2.6750875,2.6245446,1.3728919,8,0,1,0
701317510,701317309,42.358585469338976,-71.08728302137214,1.4789896,-26.67556,-0.004210472,2.6809874,2.6259983,1.3658447,8,0,1,0
702307347,702307148,42.358585972364665,-71.0872844251395,1.4774699,-26.580736,-0.004210472,2.6847644,2.626068,1.3737435,8,0,1,0
703317221,703316982,42.35858666487319,-71.08728571978477,1.5044184,-26.462364,-0.004210472,2.687754,2.6262407,1.4009562,8,0,1,0
704317009,704316818,42.35858629984874,-71.08728604637355,1.5194612,-26.365698,-0.004210472,2.6919465,2.6272814,1.4185214,8,0,1,0
705316876,705316653,42.358585947942125,-71.08728659443628,1.5136633,-26.295559,-0.004210472,2.6920273,2.6268513,1.4053755,8,0,1,0
706316736,706316488,42.358586481393296,-71.08728790594296,1.4650307,-26.278717,-0.004210472,2.6930845,2.6273758,1.3639388,8,0,1,0
707316562,707316322,42.358587393278576,-71.08728849892972,1.4668946,-26.211437,-0.004210472,2.687306,2.6260111,1.3793411,8,0,1,0
708316351,708316156,42.358588065949654,-71.08728897468697,1.4795518,-26.144554,-0.004210472,2.6866407,2.626244,1.376492,8,0,1,0
709316214,709315990,42.35858905181664,-71.08728965419512,1.4750624,-26.106667,-0.004210472,2.6860468,2.6256385,1.388031,8,0,1,0
710316018,710315823,42.35859029453541,-71.08729085133686,1.485518,-26.055145,-0.004210472,2.688821,2.626443,1.3873224,8,0,1,0
711315899,711315656,42.35859130750441,-71.08729159665734,1.5227132,-25.980827,-0.004210472,2.6955583,2.6269002,1.4226007,8,0,1,0
712315686,712315488,42.35859128195051,-71.08729137416778,1.5650587,-25.906868,-0.004210472,2.7024102,2.6281714,1.463788,8,0,1,0
713315539,713315319,42.3585905731207,-71.0872903085928,1.602663,-25.830023,-0.004210472,2.709007,2.6283474,1.493609,8,0,1,0
714315396,714315151,42.35859076660894,-71.08728983836372,1.607543,-25.80402,-0.004210472,2.716752,2.6294367,1.4971642,8,0,1,0
715315175,715314982,42.35859174844076,-71.08729012603646,1.6079016,-25.78637,-0.004210472,2.72375,2.629415,1.4975777,8,0,1,0
716315184,716314813,42.358592536308464,-71.08729051758804,1.6067786,-25.77858,-0.004210472,2.722886,2.6296601,1.5005512,8,0,1,0
717314872,717314643,42.35859290287646,-71.08729092597764,1.5996246,-25.79203,-0.004210472,2.7210515,2.6287882,1.4975152,8,0,1,0
718314678,718314473,42.3585930060144,-71.08729076722281,1.558878,-25.842712,-0.004210472,2.713287,2.6282413,1.4498305,8,0,1,0
719314545,719314302,42.35859370134938,-71.08729059452598,1.5385976,-25.871344,-0.004210472,2.7150314,2.6278133,1.4428401,8,0,1,0
720314355,720314134,42.358594010716146,-71.08728986391769,1.5277052,-25.905426,-0.004210472,2.720387,2.6287532,1.4394927,8,0,1,0
721314169,721313960,42.35859470002604,-71.08728976759798,1.5502734,-25.908472,-0.004210472,2.7249982,2.6286294,1.4490209,8,0,1,0
722313981,722313788,42.358595969126696,-71.08729020692259,1.5483804,-25.936682,-0.004210472,2.7299986,2.629446,1.4460874,8,0,1,0
723313861,723313616,42.35859561638857,-71.08728951251771,1.5341492,-25.97131,-0.004210472,2.7427537,2.6298757,1.4362788,8,0,1,0
724313654,724313443,42.35859581934101,-71.08728926879984,1.5256128,-26.002487,-0.004210472,2.7494798,2.6308296,1.4325609,8,0,1,0
725313470,725313270,42.35859493143591,-71.08728872284577,1.5556211,-26.004684,-0.004210472,2.7406762,2.629587,1.4551549,8,0,1,0
726313289,726313097,42.35859512919939,-71.08728882229983,1.581131,-26.019485,-0.004210472,2.732251,2.6292713,1.4693666,8,0,1,0
727313166,727312923,42.35859548376049,-71.08728822004008,1.5588403,-26.100822,-0.004210472,2.725753,2.628116,1.4606271,8,0,1,0
728312942,728312749,42.35859599756315,-71.08728809103899,1.5495224,-26.174025,-0.004210472,2.7206428,2.6280792,1.4495101,8,0,1,0
729312769,729312575,42.358596702452296,-71.08728834899,1.543181,-26.233042,-0.004210472,2.7197673,2.6276197,1.4384289,8,0,1,0
730312730,730312400,42.35859777247712,-71.08728914462799,1.5667868,-26.26247,-0.004210472,2.7200174,2.6282563,1.4654465,8,0,1,0
731312423,731312225,42.35859990357704,-71.08729081198523,1.5667439,-26.31775,-0.004210472,2.7093773,2.626651,1.4605479,8,0,1,0
732312274,732312050,42.35860152333161,-71.08729219266533,1.5524707,-26.386099,-0.004210472,2.6989543,2.6248271,1.4426785,8,0,1,0
733312076,733311874,42.35860381172185,-71.08729429164578,1.542809,-26.442556,-0.004210472,2.6994462,2.6252778,1.444922,8,0,1,0
734311943,734311698,42.35860604225013,-71.0872961534631,1.5549321,-26.479435,-0.004210472,2.705607,2.625477,1.4631796,8,0,1,0
735311854,735311522,42.35860884189146,-71.0872980388714,1.5502467,-26.555988,-0.004210472,2.7136424,2.6268072,1.4531074,8,0,1,0
736311539,736311345,42.35861087831022,-71.0872989106468,1.5853229,-26.60125,-0.004210472,2.721196,2.628081,1.4836588,8,0,1,0
737311363,737311168,42.358612286012864,-71.08729965838502,1.6260567,-26.624891,-0.004210472,2.7301116,2.6284895,1.527061,8,0,1,0
738311219,738310991,42.35861291386222,-71.08730098346923,1.6626697,-26.638863,-0.004210472,2.719459,2.626992,1.5583668,8,0,1,0
739311037,739310817,42.358613833243446,-71.08730140694222,1.6763234,-26.689043,-0.004210472,2.7239404,2.6278963,1.5651054,8,0,1,0
740310966,740310636,42.35861583978965,-71.08730279224265,1.6802721,-26.744888,-0.004210472,2.723401,2.6273859,1.5772176,8,0,1,0
741310655,741310458,42.3586156591146,-71.08730367177249,1.7035432,-26.797255,-0.004210472,2.701786,2.624855,1.5907192,8,0,1,0
742310506,742310279,42.35861585976801,-71.0873045711093,1.6966562,-26.871174,-0.004210472,2.6912277,2.6226354,1.5831223,8,0,1,0
743310300,743310100,42.35861656681409,-71.0873049183733,1.6704707,-26.965544,-0.004210472,2.681778,2.621237,1.5720258,8,0,1,0
744310199,744309922,42.358616350992605,-71.08730479729316,1.704853,-26.96997,-0.004210472,2.6802824,2.621264,1.6050181,8,0,1,0
745309985,745309742,42.3586163322699,-71.0873047804868,1.7100506,-26.98439,-0.004210472,2.6790926,2.6219878,1.6004887,8,0,1,0
746309763,746309563,42.35861610352354,-71.08730454387465,1.6897707,-27.020096,-0.004210472,2.678881,2.6221597,1.584981,8,0,1,0
747319793,747319380,42.358615825405785,-71.08730471474082,1.6667328,-27.049168,-0.004210472,2.6769128,2.6236129,1.569541,8,0,1,0
748309462,748309203,42.35861494219184,-71.08730481248494,1.6500607,-27.076399,-0.004210472,2.6863732,2.624402,1.5571523,8,0,1,0
749309418,749309021,42.35861303263356,-71.08730463475736,1.693883,-27.01281,-0.004210472,2.6901925,2.6257482,1.5880933,8,0,1,0
750319036,750318838,42.358611034881875,-71.08730495986778,1.7253885,-26.93295,-0.004210472,2.6847267,2.6256964,1.6302195,8,0,1,0
751308865,751308658,42.358609019771464,-71.08730461373432,1.7465763,-26.87359,-0.004210472,2.6937423,2.6266909,1.6519065,8,0,1,0
752308681,752308477,42.358607795341655,-71.08730504088473,1.8079743,-26.761126,-0.004210472,2.6947286,2.6264567,1.6922913,8,0,1,0
753318543,753318293,42.358607293863216,-71.0873058725718,1.8032727,-26.713701,-0.004210472,2.6806314,2.624624,1.6890616,8,0,1,0
754308352,754308112,42.358607123566564,-71.08730525201378,1.7985296,-26.626015,-0.004210472,2.6716838,2.6222432,1.6963868,8,0,1,0
755308123,755307929,42.358605910890795,-71.0873060558444,1.8077922,-26.517141,-0.004210472,2.6652594,2.621095,1.6929059,8,0,1,0
756317960,756317745,42.35860465918787,-71.0873055122255,1.8042889,-26.420456,-0.004210472,2.6622014,2.6202645,1.6968741,8,0,1,0
757317839,757317561,42.35860340093265,-71.08730447380619,1.7799368,-26.345108,-0.004210472,2.6620243,2.620175,1.6768332,8,0,1,0
758307576,758307379,42.35860164044892,-71.08730349165519,1.7466793,-26.278263,-0.004210472,2.6627865,2.6208732,1.652842,8,0,1,0
759317643,759317193,42.35860042863596,-71.08730246925309,1.7242503,-26.205109,-0.004210472,2.6583483,2.6206386,1.6400642,8,0,1,0
760317388,760317009,42.358599561632346,-71.08730135363881,1.7062755,-26.184397,-0.004210472,2.6592216,2.6214292,1.6010456,8,0,1,0
761317047,761316825,42.35859840594945,-71.08729912751768,1.693481,-26.172586,-0.004210472,2.6714628,2.6230705,1.6054153,8,0,1,0
762316835,762316639,42.358596218047055,-71.08729694492636,1.6950336,-26.134848,-0.004210472,2.681661,2.6252763,1.5991158,8,0,1,0
763316850,763316455,42.35859413784526,-71.08729474939395,1.6462803,-26.164623,-0.004210472,2.6868596,2.6264749,1.5531788,8,0,1,0
764316467,764316268,42.35859213067318,-71.08729254743747,1.6337452,-26.17196,-0.004210472,2.7002752,2.6279712,1.5465665,8,0,1,0
765316303,765316083,42.358591465399826,-71.08729093415933,1.6675467,-26.150488,-0.004210472,2.702377,2.6278126,1.5710859,8,0,1,0
766316153,766315897,42.35859067423499,-71.08728895486746,1.6888194,-26.167269,-0.004210472,2.6952326,2.627377,1.5938892,8,0,1,0
767316077,767315710,42.35859057549327,-71.08728693734977,1.6945467,-26.231682,-0.004210472,2.6856897,2.6263618,1.5929928,8,0,1,0
768315889,768315523,42.358591249279996,-71.08728529663162,1.6905193,-26.290466,-0.004210472,2.699549,2.627839,1.589818,8,0,1,0
769315529,769315336,42.358591956163544,-71.08728451567418,1.6783357,-26.376617,-0.004210472,2.6936948,2.626461,1.5713863,8,0,1,0
770315495,770315149,42.35859226705705,-71.0872833228278,1.6483889,-26.51669,-0.004210472,2.6837988,2.6260817,1.5448537,8,0,1,0
771315418,771314961,42.358592959176036,-71.08728225646149,1.6929488,-26.5454,-0.004210472,2.6824145,2.625316,1.6318932,8,0,1,0
772315105,772314773,42.35859373299115,-71.08728217062539,1.7768846,-26.532824,-0.004210472,2.682258,2.6256454,1.6674318,8,0,1,0
773314795,773314585,42.3585954137173,-71.0872820526598,1.7670164,-26.622677,-0.004210472,2.689085,2.6254609,1.6483092,8,0,1,0
774314808,774314396,42.358596152685806,-71.08728154785203,1.7573643,-26.752726,-0.004210472,2.6767137,2.6245565,1.6679583,8,0,1,0
775314398,775314207,42.358595584361844,-71.08728118818973,1.8115053,-26.778584,-0.004210472,2.6848993,2.624877,1.7075691,8,0,1,0
776314374,776314018,42.35859583753925,-71.08727940355531,1.8241119,-26.885376,-0.004210472,2.6768227,2.6248856,1.7189903,8,0,1,0
777309075,777303830,42.35859591228459,-71.08727829370163,1.8358455,-26.95474,-0.004210472,2.680008,2.6241927,1.7327933,8,0,1,0
778314071,778313639,42.35859645608853,-71.08727673819294,1.8116755,-27.098228,-0.004210472,2.6708763,2.623901,1.7019753,8,0,1,0
779313852,779313451,42.35859682714691,-71.0872750153723,1.8065314,-27.203356,-0.004210472,2.6697843,2.623438,1.6817966,8,0,1,0
780313640,780313258,42.35859795415965,-71.08727293932724,1.7389064,-27.370785,-0.004210472,2.669782,2.6239748,1.6424313,8,0,1,0
781313264,781313068,42.35859905253924,-71.08727161425873,1.7274499,-27.463345,-0.004210472,2.678722,2.6245673,1.6395903,8,0,1,0
782313096,782312877,42.35859962383958,-71.08727051064803,1.7162614,-27.57433,-0.004210472,2.6761928,2.6246207,1.6269116,8,0,1,0
783312879,783312686,42.358599622578886,-71.08727013886002,1.7077894,-27.682999,-0.004210472,2.66977,2.6230023,1.6109686,8,0,1,0
784312704,784312495,42.35859911016987,-71.0872706491304,1.7245202,-27.765684,-0.004210472,2.6612823,2.6212018,1.6335378,8,0,1,0
785312526,785312304,42.358598552352184,-71.08727048808736,1.7270594,-27.864033,-0.004210472,2.66173,2.6212163,1.626584,8,0,1,0
786312333,786312112,42.35859770255277,-71.0872701749051,1.7535377,-27.937475,-0.004210472,2.6614478,2.6210213,1.6607051,8,0,1,0
787312316,787311920,42.3585961724661,-71.0872698393959,1.8148808,-27.97621,-0.004210472,2.664197,2.6222467,1.7183847,8,0,1,0
788311986,788311727,42.358594488708334,-71.08726878835513,1.8463407,-28.04535,-0.004210472,2.6670403,2.6227434,1.7357655,8,0,1,0
789311736,789311535,42.358594043492744,-71.0872689783229,1.8297787,-28.16171,-0.004210472,2.663724,2.622696,1.7107015,8,0,1,0
790311537,790311342,42.35859282161478,-71.08726842451428,1.8046284,-28.28646,-0.004210472,2.6609924,2.622547,1.7004895,8,0,1,0
791311491,791311148,42.35859207784776,-71.08726862914976,1.8055983,-28.404095,-0.004210472,2.6543658,2.6214426,1.7133198,8,0,1,0
792311259,792310955,42.35859106381933,-71.08726842749809,1.8253679,-28.46537,-0.004210472,2.6650667,2.6228497,1.71701,8,0,1,0
793310955,793310761,42.35859054948503,-71.0872680375602,1.8108158,-28.57988,-0.004210472,2.6629426,2.6228044,1.7102742,8,0,1,0
794310795,794310568,42.35858945662063,-71.08726691490564,1.800035,-28.690962,-0.004210472,2.6641536,2.6227207,1.6863432,8,0,1,0
795310624,795310373,42.3585881295551,-71.08726522005514,1.7599268,-28.830368,-0.004210472,2.657926,2.6215072,1.6563759,8,0,1,0
796310408,796310179,42.35858747268215,-71.08726369294179,1.743433,-28.94796,-0.004210472,2.6609797,2.6219394,1.6445999,8,0,1,0
797310212,797309984,42.35858702915633,-71.08726232761123,1.718461,-29.0681,-0.004210472,2.6619906,2.622577,1.6290779,8,0,1,0
798310048,798309789,42.35858613098925,-71.08726135396874,1.6959176,-29.18408,-0.004210472,2.662419,2.6223836,1.599916,8,0,1,0
799309817,799309594,42.35858529440854,-71.08726066458027,1.6822033,-29.265018,-0.004210472,2.6626446,2.6229074,1.5866961,8,0,1,0
800309689,800309399,42.35858414770874,-71.08725970274314,1.69456,-29.299397,-0.004210472,2.661817,2.6224525,1.595891,8,0,1,0
801309403,801309203,42.3585835184994,-71.08725976965356,1.7093987,-29.307734,-0.004210472,2.6570516,2.621672,1.6102738,8,0,1,0
802309200,802309007,42.358582705836604,-71.08725987014466,1.7398705,-29.280634,-0.004210472,2.656708,2.6212385,1.6354256,8,0,1,0
803319037,803318808,42.35858177838241,-71.08726050597205,1.7642627,-29.222372,-0.004210472,2.65944,2.6224115,1.6650252,8,0,1,0
804308823,804308613,42.358581166907186,-71.08726190173111,1.8015218,-29.105715,-0.004210472,2.658379,2.6218345,1.696095,8,0,1,0
805318696,805318414,42.35857895058967,-71.08726125387221,1.7872667,-29.033245,-0.004210472,2.6605053,2.6222453,1.6746426,8,0,1,0
806318514,806318218,42.358576619013476,-71.08725954129073,1.7400088,-29.013477,-0.004210472,2.6620972,2.6232097,1.6382232,8,0,1,0
807308218,807308021,42.35857569729064,-71.08725958272682,1.7165837,-29.001196,-0.004210472,2.6601899,2.6232572,1.6257071,8,0,1,0
808308067,808307823,42.358575352935866,-71.08725993085098,1.7182097,-28.979034,-0.004210472,2.6590054,2.6227658,1.6252384,8,0,1,0
809317817,809317623,42.35857528427588,-71.08726017479304,1.7112298,-28.98509,-0.004210472,2.6559494,2.6225367,1.6169505,8,0,1,0
810317676,810317424,42.35857461006087,-71.08725985147271,1.6878138,-29.025486,-0.004210472,2.653138,2.6214514,1.5853066,8,0,1,0
811307437,811307228,42.35857364104247,-71.08725896991055,1.6741571,-29.064457,-0.004210472,2.6503835,2.6209989,1.5879712,8,0,1,0
812317224,812317026,42.358573052987985,-71.08725845092431,1.67625,-29.089087,-0.004210472,2.6516516,2.6212854,1.5795207,8,0,1,0
813317054,813316827,42.35857280767583,-71.08725816754739,1.6686211,-29.13339,-0.004210472,2.6531932,2.6215627,1.5770712,8,0,1,0
814306827,814306629,42.35857288268459,-71.08725854940685,1.6764946,-29.150923,-0.004210472,2.660428,2.6236749,1.5792155,8,0,1,0
815316681,815316427,42.3585720257944,-71.08725879180513,1.6883726,-29.164711,-0.004210472,2.6591384,2.6233838,1.5905128,8,0,1,0
816316428,816316227,42.358571734985546,-71.08725829303398,1.6623588,-29.222557,-0.004210472,2.6577802,2.6236086,1.5631328,8,0,1,0
817316249,817316027,42.358571273159235,-71.0872586219485,1.6554079,-29.250904,-0.004210472,2.65608,2.6229022,1.5532937,8,0,1,0
818316099,818315826,42.35857084725391,-71.08725856157317,1.629106,-29.285347,-0.004210472,2.6537945,2.6227305,1.5216436,8,0,1,0
819315874,819315625,42.35857021764786,-71.08725919200923,1.6336989,-29.278362,-0.004210472,2.6524618,2.6220555,1.537633,8,0,1,0
820315674,820315424,42.358569712423964,-71.08725940998511,1.6546588,-29.255636,-0.004210472,2.6486075,2.6212723,1.5632792,8,0,1,0
821315662,821315222,42.35856935657013,-71.0872595528454,1.6546497,-29.251953,-0.004210472,2.6460862,2.6211765,1.5485635,8,0,1,0
822315366,822315021,42.35856848821522,-71.08725939284854,1.6484613,-29.250813,-0.004210472,2.646484,2.6216645,1.5479555,8,0,1,0
823315016,823314819,42.35856804332987,-71.08725925819326,1.6381998,-29.250538,-0.004210472,2.650515,2.6215158,1.542707,8,0,1,0
824314829,824314617,42.358567476363014,-71.08725977768852,1.6490145,-29.22784,-0.004210472,2.6507056,2.6220279,1.5490627,8,0,1,0
825314669,825314414,42.358566877858976,-71.08725975549663,1.678308,-29.189981,-0.004210472,2.644939,2.6200004,1.5789847,8,0,1,0
826314466,826314212,42.35856580721849,-71.08726003375625,1.6834326,-29.163074,-0.004210472,2.6464624,2.6208153,1.5739775,8,0,1,0
827314223,827314009,42.35856520598273,-71.08726091763356,1.6586771,-29.163578,-0.004210472,2.64977,2.6214354,1.5532556,8,0,1,0
828314000,828313806,42.35856463614268,-71.0872616472797,1.647779,-29.138777,-0.004210472,2.6523254,2.6225061,1.5541344,8,0,1,0
829313800,829313603,42.358563515676465,-71.08726171926786,1.6541872,-29.083752,-0.004210472,2.649727,2.6215472,1.5558538,8,0,1,0
830313660,830313399,42.35856247552798,-71.08726145614575,1.6449652,-29.03622,-0.004210472,2.651733,2.6224823,1.5462298,8,0,1,0
831313446,831313196,42.3585615892105,-71.08726068543892,1.6440063,-28.970934,-0.004210472,2.6511946,2.6220894,1.5468593,8,0,1,0
832313188,832312992,42.35856159334018,-71.08726035639165,1.684257,-28.892776,-0.004210472,2.6506164,2.6224613,1.5824027,8,0,1,0
833312985,833312789,42.35856239684091,-71.08726142621963,1.6758909,-28.899422,-0.004210472,2.650734,2.6222835,1.5752015,8,0,1,0
834312793,834312584,42.35856315236952,-71.08726223372221,1.6799626,-28.913599,-0.004210472,2.651431,2.62293,1.5740905,8,0,1,0
835312874,835312379,42.35856339271046,-71.08726251925285,1.6597409,-28.96454,-0.004210472,2.647951,2.6216414,1.5594363,8,0,1,0
836312371,836312174,42.35856371470706,-71.08726273094243,1.658948,-29.012222,-0.004210472,2.6506996,2.6227725,1.5688753,8,0,1,0
837312204,837311969,42.35856364200207,-71.0872634433848,1.6588578,-29.035366,-0.004210472,2.6526423,2.622888,1.5442944,8,0,1,0
838311959,838311764,42.35856288016103,-71.08726310215117,1.617598,-29.075678,-0.004210472,2.655456,2.623924,1.5310688,8,0,1,0
839311808,839311558,42.3585630744403,-71.08726312160529,1.5874901,-29.094587,-0.004210472,2.6643116,2.625316,1.4867597,8,0,1,0
840311656,840311352,42.35856304740143,-71.08726366678957,1.5307217,-29.12912,-0.004210472,2.672787,2.6262836,1.4423151,8,0,1,0
841311346,841311146,42.35856344924388,-71.08726497213536,1.4441638,-29.18558,-0.004210472,2.6778684,2.6274834,1.3545408,8,0,1,0
842311132,842310939,42.35856373539342,-71.08726583525444,1.3683596,-29.211464,-0.004210472,2.6839426,2.6287656,1.308187,8,0,1,0
843310929,843310732,42.35856396060509,-71.0872669826912,1.3816538,-29.149769,-0.004210472,2.6829743,2.6280339,1.3069863,8,0,1,0
844313235,844310525,42.35856544148556,-71.08726809280304,1.438705,-29.032507,-0.004210472,2.67451,2.6269255,1.3675003,8,0,1,0
845310524,845310317,42.358566225281734,-71.08726766686206,1.5782003,-28.824821,-0.004210472,2.662445,2.6237018,1.4893861,8,0,1,0
846310375,846310108,42.35856757855501,-71.08727027873061,1.6467214,-28.661287,-0.004210472,2.6590564,2.6225019,1.5291848,8,0,1,0
847310145,847309900,42.35856863287492,-71.08727218037357,1.6534629,-28.55443,-0.004210472,2.6569853,2.622362,1.5435462,8,0,1,0
848309916,848309690,42.35856995137439,-71.08727416271583,1.6941152,-28.413494,-0.004210472,2.6592345,2.6226335,1.5939083,8,0,1,0
849309681,849309481,42.3585704638433,-71.08727440632367,1.7700596,-28.239285,-0.004210472,2.6626203,2.6238363,1.6590204,8,0,1,0
850309491,850309270,42.35857090151345,-71.08727500347959,1.762528,-28.156013,-0.004210472,2.6672258,2.6244283,1.6529984,8,0,1,0
851309255,851309060,42.35857092180558,-71.08727549626603,1.7388844,-28.103876,-0.004210472,2.6695347,2.62536,1.6334567,8,0,1,0
852319062,852318847,42.35857122518541,-71.08727642106412,1.7657604,-28.005232,-0.004210472,2.6699624,2.6252518,1.6620193,8,0,1,0
853308886,853308638,42.358570698264685,-71.08727724665746,1.7684803,-27.960129,-0.004210472,2.6682668,2.6253645,1.6706085,8,0,1,0
854308735,854308426,42.35856947787457,-71.08727761112391,1.7900095,-27.912544,-0.004210472,2.6650772,2.624389,1.6859946,8,0,1,0
855318406,855318212,42.35856885829871,-71.08727840250098,1.7790804,-27.913948,-0.004210472,2.6671433,2.6253517,1.6811242,8,0,1,0
856308193,856308001,42.358569110894074,-71.08728028422394,1.8128157,-27.850811,-0.004210472,2.6697311,2.6253042,1.7175112,8,0,1,0
857307983,857307789,42.358567510407404,-71.08728025852326,1.8708,-27.770916,-0.004210472,2.6726842,2.6262565,1.7582407,8,0,1,0
858317771,858317573,42.35856779294528,-71.08728015124669,1.8772216,-27.721333,-0.004210472,2.6715124,2.6258028,1.7719188,8,0,1,0
859317620,859317359,42.35856866618454,-71.08728029118186,1.9321878,-27.611376,-0.004210472,2.6678495,2.6256115,1.828445,8,0,1,0
860307416,860307148,42.358568043384324,-71.08727934368409,1.9681263,-27.520643,-0.004210472,2.6625323,2.62408,1.8472981,8,0,1,0
861317124,861316931,42.35856842742319,-71.08727857605979,1.9573839,-27.51601,-0.004210472,2.6574469,2.6234052,1.8418994,8,0,1,0
862316911,862316716,42.35856954588027,-71.08727885440064,1.9764774,-27.495026,-0.004210472,2.6701784,2.6242292,1.8785067,8,0,1,0
863316717,863316501,42.35857022873606,-71.08727947513256,2.0166848,-27.456593,-0.004210472,2.6611724,2.6233492,1.9185224,8,0,1,0
864316638,864316286,42.35857132738098,-71.08728059044147,2.043651,-27.443357,-0.004210472,2.6607122,2.6224062,1.9434159,8,0,1,0
865316351,865316071,42.35857233390887,-71.08728183645208,2.076816,-27.410503,-0.004210472,2.6525054,2.6205685,1.9568791,8,0,1,0
866316053,866315855,42.35857296100815,-71.08728259248197,2.0479589,-27.415232,-0.004210472,2.6471453,2.619848,1.933876,8,0,1,0
867315863,867315639,42.35857324363481,-71.0872831403302,2.0050154,-27.409283,-0.004210472,2.6443655,2.619168,1.9027686,8,0,1,0
868315621,868315422,42.35857372412381,-71.08728298496766,2.0256796,-27.330986,-0.004210472,2.6442604,2.6198845,1.9258764,8,0,1,0
869315514,869315206,42.35857452129725,-71.08728300075593,2.0475335,-27.23493,-0.004210472,2.6449335,2.6201127,1.9430239,8,0,1,0
870315234,870314989,42.35857561440602,-71.08728383570795,2.0338855,-27.160656,-0.004210472,2.6468947,2.621285,1.9279344,8,0,1,0
871314995,871314772,42.35857608573497,-71.08728452023836,1.9802065,-27.117771,-0.004210472,2.647259,2.6212938,1.8764224,8,0,1,0
872314751,872314555,42.35857721861147,-71.08728466488313,1.9833477,-27.014729,-0.004210472,2.6439612,2.6209118,1.8907189,8,0,1,0
873314575,873314338,42.35857761333233,-71.0872845683601,1.97139,-26.927639,-0.004210472,2.6444697,2.620952,1.8792136,8,0,1,0
874314328,874314119,42.358577571021996,-71.08728399647471,1.9120142,-26.895117,-0.004210472,2.6439514,2.621318,1.828371,8,0,1,0
875314094,875313901,42.358577491253335,-71.08728349450155,1.8473706,-26.877327,-0.004210472,2.643658,2.6210365,1.7642465,8,0,1,0
876313877,876313683,42.35857691186587,-71.08728210722441,1.8094134,-26.84013,-0.004210472,2.6494343,2.6222231,1.7365637,8,0,1,0
877313696,877313466,42.358577422248565,-71.08728208598752,1.8268294,-26.76601,-0.004210472,2.6431737,2.6203828,1.7511339,8,0,1,0
878313499,878313246,42.35857818137839,-71.0872820367615,1.8674974,-26.69294,-0.004210472,2.6413279,2.6203954,1.7882342,8,0,1,0
879313264,879313027,42.358579254572405,-71.08728245559722,1.9543302,-26.577978,-0.004210472,2.6370454,2.6187708,1.8518786,8,0,1,0
880313004,880312808,42.35857964441525,-71.08728259785352,1.9809811,-26.520245,-0.004210472,2.63487,2.6184487,1.8736186,8,0,1,0
881312783,881312589,42.35857945691172,-71.0872818011514,1.997869,-26.468712,-0.004210472,2.63516,2.618474,1.8927732,8,0,1,0
882312620,882312369,42.358579030226096,-71.08728112913582,1.9902565,-26.443909,-0.004210472,2.6349902,2.6180954,1.8881776,8,0,1,0
883312373,883312150,42.35858022810465,-71.08728131724722,2.0335789,-26.396744,-0.004210472,2.6305952,2.616508,1.9223933,8,0,1,0
884312198,884311930,42.35858101432358,-71.08728150610705,2.0608985,-26.402489,-0.004210472,2.6329675,2.6173804,1.9575045,8,0,1,0
885311903,885311710,42.35858116244805,-71.08728087843177,2.009554,-26.496439,-0.004210472,2.6309094,2.6171122,1.891511,8,0,1,0
886311740,886311490,42.35857985972953,-71.08727929797135,2.0062962,-26.546398,-0.004210472,2.6321678,2.6185033,1.9017684,8,0,1,0
887311494,887311270,42.358579359750514,-71.08727824503346,1.9976068,-26.578148,-0.004210472,2.6357121,2.619826,1.9054492,8,0,1,0
888311268,888311049,42.35857932048061,-71.08727745928806,1.9892008,-26.590172,-0.004210472,2.6391072,2.6214767,1.8870223,8,0,1,0
889311034,889310829,42.35857959923939,-71.08727739079774,1.9883497,-26.583677,-0.004210472,2.6426709,2.6223292,1.8945215,8,0,1,0
890310833,890310608,42.35857994386846,-71.08727787329227,2.0278141,-26.520254,-0.004210472,2.6435816,2.623002,1.9334233,8,0,1,0
891310650,891310387,42.358579816462914,-71.08727856476894,2.0679696,-26.433348,-0.004210472,2.6410155,2.6217551,1.9705617,8,0,1,0
892310371,892310166,42.35857912770205,-71.08727826417261,2.1017425,-26.320473,-0.004210472,2.6376429,2.6207204,1.9983373,8,0,1,0
893310216,893309945,42.358578227545195,-71.08727775577194,2.162327,-26.17786,-0.004210472,2.6354315,2.6193998,2.0576043,8,0,1,0
894309921,894309723,42.35857726001921,-71.08727708202387,2.1721492,-26.072695,-0.004210472,2.6368337,2.6191912,2.064545,8,0,1,0
895309699,895309502,42.358576358938436,-71.08727571566172,2.1232784,-26.024172,-0.004210472,2.6354537,2.618649,2.0052183,8,0,1,0
896309476,896309281,42.358575897869315,-71.08727445711332,2.070088,-25.97703,-0.004210472,2.638251,2.6192365,1.9814138,8,0,1,0
897314267,897309059,42.35857510757647,-71.08727434463943,2.0958781,-25.852156,-0.004210472,2.6399622,2.6189892,2.0121963,8,0,1,0
898309239,898308837,42.35857371317585,-71.08727417543231,2.106947,-25.740488,-0.004210472,2.6418326,2.6195772,2.0056345,8,0,1,0
899308863,899308615,42.35857256623597,-71.0872734745684,2.1216853,-25.62615,-0.004210472,2.6482532,2.6201146,2.0245566,8,0,1,0
900318620,900318391,42.35857118072506,-71.08727308210871,2.1425722,-25.505648,-0.004210472,2.6497436,2.6203787,2.0428267,8,0,1,0
901318365,901318169,42.35857001320989,-71.08727241796225,2.13019,-25.421146,-0.004210472,2.6418324,2.6192288,2.0320492,8,0,1,0
902308172,902307949,42.358568966828386,-71.08727215597668,2.144902,-25.304136,-0.004210472,2.6394598,2.6186492,2.0446086,8,0,1,0
903318105,903317725,42.358568264479864,-71.08727265873144,2.165799,-25.18394,-0.004210472,2.6380858,2.6188715,2.0699263,8,0,1,0
904317766,904317503,42.35856765278619,-71.08727214349186,2.1591623,-25.089973,-0.004210472,2.6391888,2.6191564,2.0620987,8,0,1,0
905307474,905307283,42.35856721005146,-71.08727194607391,2.167087,-24.983229,-0.004210472,2.641065,2.6200824,2.0652146,8,0,1,0
906317290,906317058,42.35856729273211,-71.08727146392786,2.1870527,-24.873837,-0.004210472,2.6433856,2.620553,2.0879407,8,0,1,0
907317032,907316836,42.35856752657743,-71.08727119390228,2.2065663,-24.76814,-0.004210472,2.6471264,2.6219065,2.1067965,8,0,1,0
908316820,908316613,42.35856749514854,-71.08727085566038,2.2410214,-24.660828,-0.004210472,2.6465425,2.621355,2.139802,8,0,1,0
909316652,909316391,42.35856824564602,-71.08727079680365,2.255443,-24.609253,-0.004210472,2.6504304,2.6218214,2.152283,8,0,1,0
910316369,910316168,42.35856800133726,-71.08727093928596,2.223729,-24.62817,-0.004210472,2.6502836,2.6216125,2.1024842,8,0,1,0
911316156,911315945,42.35856838282229,-71.08727072489658,2.1504035,-24.72715,-0.004210472,2.653934,2.6229703,2.0548453,8,0,1,0
912315951,912315722,42.35856882906281,-71.08727039280197,2.1309237,-24.790792,-0.004210472,2.6543245,2.6232655,2.0483928,8,0,1,0
913315714,913315500,42.358569101502766,-71.08727040967511,2.1153,-24.858028,-0.004210472,2.6607034,2.6242447,2.0238557,8,0,1,0
914315648,914315277,42.35856924819678,-71.08727115671249,2.1361372,-24.903053,-0.004210472,2.6675282,2.6246395,2.0483325,8,0,1,0
915315251,915315054,42.35856914686592,-71.08727363844187,2.217687,-24.867508,-0.004210472,2.6782653,2.6257586,2.129918,8,0,1,0
916315026,916314831,42.35856879443198,-71.08727377665582,2.2914824,-24.878006,-0.004210472,2.669834,2.6243014,2.189421,8,0,1,0
917314857,917314608,42.35856902634971,-71.08727350197309,2.3564346,-24.891174,-0.004210472,2.6711314,2.624708,2.251733,8,0,1,0
918314612,918314385,42.35856925999555,-71.08727362907976,2.4131558,-24.900763,-0.004210472,2.679369,2.6248538,2.2974808,8,0,1,0
919314494,919314162,42.35856965798837,-71.08727350941896,2.4674666,-24.943377,-0.004210472,2.6715603,2.6245775,2.3564777,8,0,1,0
920314138,920313939,42.35856926659514,-71.08727413059434,2.512002,-24.977047,-0.004210472,2.6778133,2.6245291,2.396488,8,0,1,0
921313942,921313716,42.358569371463474,-71.08727359036024,2.494097,-25.094427,-0.004210472,2.6783638,2.6243174,2.369245,8,0,1,0
922313762,922313493,42.358571529769456,-71.0872709999301,2.4911761,-25.191547,-0.004210472,2.6776495,2.62458,2.3841703,8,0,1,0
923313516,923313270,42.35857198328529,-71.087269459805,2.493386,-25.29394,-0.004210472,2.6770258,2.6241188,2.3805285,8,0,1,0
924313241,924313047,42.35857332818873,-71.08726632132608,2.4962955,-25.391428,-0.004210472,2.6750236,2.62416,2.3925006,8,0,1,0
925313020,925312824,42.358572783655774,-71.08726882899477,2.514166,-25.474659,-0.004210472,2.6742392,2.624449,2.4162257,8,0,1,0
926312802,926312601,42.35857282978518,-71.0872677437982,2.498677,-25.589249,-0.004210472,2.6765542,2.6246026,2.4023201,8,0,1,0
927312606,927312379,42.35857280166496,-71.08726575887532,2.5009398,-25.685886,-0.004210472,2.6785684,2.6246052,2.3932357,8,0,1,0
928312386,928312155,42.35856963781323,-71.08726600247634,2.5432563,-25.74479,-0.004210472,2.6830509,2.6257534,2.4318535,8,0,1,0
929312153,929311932,42.35856971984243,-71.0872624281947,2.5714235,-25.804867,-0.004210472,2.6890228,2.6255014,2.4752,8,0,1,0
930311955,930311710,42.35856778989013,-71.0872610246322,2.615806,-25.834621,-0.004210472,2.6967127,2.626486,2.4949527,8,0,1,0
931311730,931311486,42.35856661608283,-71.08726094579211,2.6066449,-25.928843,-0.004210472,2.685105,2.6249013,2.4940605,8,0,1,0
932311474,932311264,42.35856687473797,-71.08726183656461,2.5350955,-26.101292,-0.004210472,2.6737921,2.6236153,2.4194286,8,0,1,0
933311276,933311041,42.35856731516991,-71.08726197899776,2.4726696,-26.263517,-0.004210472,2.6680284,2.6224456,2.367861,8,0,1,0
934311019,934310818,42.35856740651493,-71.0872623832637,2.427929,-26.408558,-0.004210472,2.6605031,2.6212506,2.3454154,8,0,1,0
935310818,935310595,42.35856759612204,-71.08726284069652,2.4260335,-26.509954,-0.004210472,2.6601076,2.6212537,2.3272834,8,0,1,0
936310570,936310372,42.35856771644206,-71.08726302520347,2.3943276,-26.640583,-0.004210472,2.6610146,2.6221597,2.3044453,8,0,1,0
937310420,937310149,42.35856817008521,-71.08726291983322,2.3390675,-26.79662,-0.004210472,2.660243,2.6218817,2.2475107,8,0,1,0
938310172,938309927,42.35856852970205,-71.08726263852023,2.3028295,-26.932056,-0.004210472,2.6625955,2.6229975,2.2123334,8,0,1,0
939309901,939309704,42.35856838975767,-71.08726268797729,2.3063486,-27.028353,-0.004210472,2.6672416,2.623735,2.2202866,8,0,1,0
940309679,940309481,42.358567562199504,-71.08726240127716,2.3264477,-27.107573,-0.004210472,2.6704006,2.6248608,2.2295938,8,0,1,0
941309552,941309259,42.35856689192433,-71.08726244594929,2.3240416,-27.210642,-0.004210472,2.6665978,2.6237254,2.22415,8,0,1,0
942309382,942309036,42.35856683264495,-71.08726315201824,2.3168197,-27.317364,-0.004210472,2.6673374,2.6241066,2.2132347,8,0,1,0
943319057,943318811,42.358567176351045,-71.08726347316806,2.344169,-27.391214,-0.004210472,2.6671565,2.6236286,2.239735,8,0,1,0
944308783,944308591,42.35856787183814,-71.08726389427095,2.3403518,-27.494633,-0.004210472,2.6652942,2.6234164,2.2392519,8,0,1,0
945308579,945308368,42.358568218437796,-71.08726399602737,2.3701236,-27.565361,-0.004210472,2.661878,2.6222167,2.2781193,8,0,1,0
946318368,946318144,42.3585685125251,-71.08726398676829,2.4137933,-27.618597,-0.004210472,2.6581857,2.6210454,2.3137746,8,0,1,0
947308313,947307923,42.35856837644888,-71.08726309682058,2.4558208,-27.643156,-0.004210472,2.651699,2.6195493,2.3534412,8,0,1,0
948307941,948307701,42.35856865858266,-71.08726208705384,2.5052586,-27.648361,-0.004210472,2.6508987,2.619021,2.3834753,8,0,1,0
949317674,949317477,42.3585697241694,-71.08726176514625,2.4762118,-27.727716,-0.004210472,2.6527867,2.6192708,2.3689604,8,0,1,0
950317480,950317255,42.358570022978164,-71.08726121803379,2.502183,-27.762356,-0.004210472,2.6577008,2.6201515,2.397757,8,0,1,0
951307291,951307035,42.35857028846477,-71.08725991050018,2.4638762,-27.875141,-0.004210472,2.6550627,2.6205423,2.3623497,8,0,1,0
952317099,952316810,42.35857093049612,-71.08725994133317,2.4741323,-27.945286,-0.004210472,2.6505694,2.618742,2.3858137,8,0,1,0
953316782,953316588,42.358571211619896,-71.08725984071721,2.5213578,-27.993706,-0.004210472,2.6422074,2.6166456,2.4268072,8,0,1,0
954316591,954316367,42.35857256051746,-71.08725918255095,2.5363765,-28.077587,-0.004210472,2.6364884,2.6146932,2.4346,8,0,1,0
955316374,955316145,42.35857374960723,-71.08725859419098,2.5394459,-28.176018,-0.004210472,2.6338348,2.614637,2.4386945,8,0,1,0
956316194,956315923,42.358574480936035,-71.08725792797688,2.534618,-28.279644,-0.004210472,2.6315658,2.6140585,2.4300916,8,0,1,0
957315905,957315702,42.35857544516453,-71.08725741453951,2.5085187,-28.405745,-0.004210472,2.6306164,2.6144643,2.4117062,8,0,1,0
958315714,958315481,42.35857604584378,-71.08725769243019,2.490266,-28.524197,-0.004210472,2.632867,2.6148136,2.3915062,8,0,1,0
959315457,959315259,42.35857688948738,-71.087257887196,2.4824426,-28.632122,-0.004210472,2.6359103,2.6168077,2.385355,8,0,1,0
960315261,960315038,42.358576698848886,-71.08725781923073,2.4845316,-28.729458,-0.004210472,2.636142,2.6171467,2.3884716,8,0,1,0
961315054,961314817,42.35857637937914,-71.0872578455167,2.5269778,-28.788488,-0.004210472,2.6364563,2.6178913,2.4252703,8,0,1,0
962314808,962314596,42.358575978050055,-71.08725772629238,2.5394974,-28.875324,-0.004210472,2.6450522,2.6190808,2.4263885,8,0,1,0
963314567,963314375,42.358576899069625,-71.08725715121317,2.485281,-29.028542,-0.004210472,2.6413515,2.6190047,2.3743503,8,0,1,0
964314347,964314154,42.35857700866145,-71.08725666172657,2.4521315,-29.16259,-0.004210472,2.6437116,2.6190946,2.3569553,8,0,1,0
965314130,965313934,42.35857721071541,-71.08725648372803,2.4501624,-29.263657,-0.004210472,2.6388693,2.61843,2.3530116,8,0,1,0
966313939,966313714,42.35857664947992,-71.08725658209158,2.4536285,-29.353134,-0.004210472,2.6351388,2.6171365,2.364076,8,0,1,0
967313707,967313493,42.358576200850884,-71.08725654826415,2.4671218,-29.423744,-0.004210472,2.6327715,2.6167374,2.3663857,8,0,1,0
968313472,968313272,42.358575818476076,-71.08725634486673,2.4953117,-29.475014,-0.004210472,2.629766,2.6154363,2.396932,8,0,1,0
969313298,969313053,42.35857539479852,-71.08725612212257,2.4873645,-29.558714,-0.004210472,2.629406,2.6159003,2.3744445,8,0,1,0
970313026,970312832,42.35857510318346,-71.08725564235357,2.481384,-29.639576,-0.004210472,2.6317785,2.6160657,2.388592,8,0,1,0
971312825,971312613,42.3585755923005,-71.08725539786602,2.4960616,-29.70529,-0.004210472,2.6291127,2.6156795,2.3992128,8,0,1,0
972312588,972312393,42.35857555250295,-71.08725497427943,2.5272446,-29.756977,-0.004210472,2.6318545,2.616119,2.4233115,8,0,1,0
973312379,973312173,42.358575808589514,-71.08725413524864,2.504647,-29.868683,-0.004210472,2.6289682,2.6157436,2.3946438,8,0,1,0
974312149,974311954,42.358576437320714,-71.08725374351528,2.4794817,-29.982834,-0.004210472,2.627963,2.6154892,2.37487,8,0,1,0
975311930,975311734,42.35857731755852,-71.08725407626555,2.4401271,-30.113668,-0.004210472,2.6288912,2.6165366,2.3361547,8,0,1,0
976311712,976311515,42.35857749525709,-71.0872538686858,2.4118485,-30.242384,-0.004210472,2.632151,2.617002,2.318184,8,0,1,0
977314040,977311296,42.358577963923224,-71.08725334639685,2.3535964,-30.400623,-0.004210472,2.6351397,2.6180115,2.2576609,8,0,1,0
978311446,978311077,42.358578087861524,-71.08725304369463,2.335499,-30.518795,-0.004210472,2.6371863,2.6182573,2.2437549,8,0,1,0
979311053,979310858,42.358577862271254,-71.0872526141845,2.313244,-30.640049,-0.004210472,2.6355853,2.6178167,2.224275,8,0,1,0
980310832,980310639,42.35857746655555,-71.08725177351857,2.3190622,-30.729431,-0.004210472,2.6376846,2.6181817,2.232107,8,0,1,0
981310689,981310421,42.358577064776206,-71.08725070852489,2.3023467,-30.84625,-0.004210472,2.6347678,2.6181674,2.2032866,8,0,1,0
982310401,982310202,42.35857660847326,-71.08725031576536,2.3238225,-30.92517,-0.004210472,2.6307406,2.6167822,2.2294824,8,0,1,0
983310223,983309984,42.35857609835644,-71.08724986817305,2.3413908,-31.007109,-0.004210472,2.628299,2.6158404,2.2395399,8,0,1,0
984310122,984309766,42.3585762466051,-71.08724911512057,2.328986,-31.138403,-0.004210472,2.624356,2.6154537,2.200313,8,0,1,0
985309831,985309547,42.35857629753507,-71.08724754151159,2.2663064,-31.283026,-0.004210472,2.6273823,2.6158273,2.170278,8,0,1,0
986309791,986309329,42.35857530460289,-71.08724733492006,2.27928,-31.388746,-0.004210472,2.6225076,2.614827,2.1995845,8,0,1,0
987309351,987309111,42.358574392882524,-71.08724773779093,2.3138714,-31.434427,-0.004210472,2.6292236,2.6160645,2.2209435,8,0,1,0
988319088,988318892,42.35857326159692,-71.08724763747273,2.3305917,-31.503878,-0.004210472,2.6333692,2.6176298,2.232898,8,0,1,0
989308899,989308676,42.3585728525146,-71.08724775294554,2.3766768,-31.519358,-0.004210472,2.6472065,2.6194801,2.2776425,8,0,1,0
990308729,990308459,42.35857206190009,-71.08724740924691,2.3731737,-31.603039,-0.004210472,2.642312,2.6191306,2.2583067,8,0,1,0
991318577,991318239,42.35857143336616,-71.08724734997938,2.3720272,-31.660921,-0.004210472,2.641176,2.6188302,2.266751,8,0,1,0
992318231,992318022,42.35857090231171,-71.08724739157738,2.3679044,-31.703018,-0.004210472,2.6506636,2.6202152,2.269173,8,0,1,0
993308030,993307807,42.35857037320417,-71.08724768476547,2.3629332,-31.755436,-0.004210472,2.6501567,2.619566,2.2690487,8,0,1,0
994317788,994317588,42.35856995738277,-71.08724854137719,2.3771462,-31.774828,-0.004210472,2.6431987,2.6186337,2.2684324,8,0,1,0
995317622,995317371,42.358569639639065,-71.08724800633563,2.3597217,-31.81623,-0.004210472,2.650618,2.6191244,2.2577825,8,0,1,0
996307361,996307156,42.35856878154388,-71.08724815045412,2.3788152,-31.807735,-0.004210472,2.6526096,2.6200278,2.2801983,8,0,1,0
997317278,997316938,42.358568146110095,-71.08724867929949,2.389913,-31.750051,-0.004210472,2.6463194,2.6180038,2.2834263,8,0,1,0
998316914,998316721,42.35856799387546,-71.08724911262627,2.391763,-31.667349,-0.004210472,2.6540277,2.6178353,2.2886436,8,0,1,0
999306704,999306507,42.35856750217689,-71.08724999249354,2.369645,-31.590511,-0.004210472,2.6557982,2.6164117,2.2788515,8,0,1,0
1000316498,1000316288,42.35856630301393,-71.08725143179667,2.3680797,-31.490276,-0.004210472,2.6567156,2.6163688,2.2745168,8,0,1,0
1001316474,1001316072,42.358563927492106,-71.08725281421071,2.4158201,-31.324436,-0.004210472,2.6499643,2.6143675,2.3120003,8,0,1,0
1002316227,1002315856,42.35856111476102,-71.0872535042798,2.4335191,-31.20614,-0.004210472,2.6480713,2.6140895,2.3189259,8,0,1,0
1003316033,1003315640,42.358558410539445,-71.08725392613128,2.4197905,-31.11997,-0.004210472,2.6451292,2.6140003,2.2973404,8,0,1,0
1004310655,1004305427,42.35855621636288,-71.08725417308612,2.3767083,-31.082153,-0.004210472,2.6449025,2.6142342,2.278388,8,0,1,0
1005315406,1005315209,42.35855394773632,-71.08725469361273,2.3932474,-30.966703,-0.004210472,2.6413507,2.6136842,2.2991662,8,0,1,0
