timestamp,timestamp_sample,output_tracking_error[0],output_tracking_error[1],output_tracking_error[2],control_mode_flags,filter_fault_flags,pos_horiz_accuracy,pos_vert_accuracy,mag_test_ratio,vel_test_ratio,pos_test_ratio,hgt_test_ratio,tas_test_ratio,hagl_test_ratio,beta_test_ratio,time_slip,accel_device_id,gyro_device_id,baro_device_id,mag_device_id,gps_check_fail_flags,innovation_check_flags,solution_status_flags,reset_count_vel_ne,reset_count_vel_d,reset_count_pos_ne,reset_count_pod_d,reset_count_quat,pre_flt_fail_innov_heading,pre_flt_fail_innov_vel_horiz,pre_flt_fail_innov_vel_vert,pre_flt_fail_innov_height,pre_flt_fail_mag_field_disturbed,health_flags,timeout_flags
539368405,539268188,0.00045083743,0.0059353695,0.016353626,67240471,0,0.61966634,0.46031186,0.056040175,0.019721678,0.02301954,0.0030948299,0.0,0.0,0.0,0.004999,4259850,4325386,4028193,396809,0,0,895,8,28,8,21,4,0,0,0,0,0,0,0
539378438,539278187,0.00042625167,0.0058696116,0.016308956,67240471,0,0.6209181,0.45727968,0.056040175,0.019721678,0.02301954,0.009056483,0.0,0.0,0.0,0.004999,4259850,4325386,4028193,396809,0,0,895,8,28,8,21,4,0,0,0,0,0,0,0
539568403,539468167,0.0005676066,0.009286892,0.017368076,67240471,0,0.6204099,0.45968416,0.06776661,0.05716855,0.024346989,0.0011536328,0.0,0.0,0.0,0.004999,4259850,4325386,4028193,396809,0,0,895,8,28,8,21,4,0,0,0,0,0,0,0
539768347,539668142,0.00048433433,0.010012829,0.015710192,67240471,0,0.62237865,0.45952702,0.06756617,0.049318884,0.024408251,0.0152966585,0.0,0.0,0.0,0.004999,4259850,4325386,4028193,396809,0,0,895,8,28,8,21,4,0,0,0,0,0,0,0
539968315,539868119,0.0005798037,0.005850854,0.015514671,67240471,0,0.62092274,0.46214622,0.07965189,0.0126414,0.027314842,0.002353028,0.0,0.0,0.0,0.004999,4259850,4325386,4028193,396809,0,0,895,8,28,8,21,4,0,0,0,0,0,0,0
540178320,540078095,0.00068314164,0.0056501343,0.017831631,67240471,0,0.61262065,0.45864493,0.08710986,0.032360367,0.029821709,0.0116231395,0.0,0.0,0.0,0.004999,4259850,4325386,4028193,396809,0,0,895,8,28,8,21,4,0,0,0,0,0,0,0
540378362,540278072,0.0007379552,0.0022465703,0.011396942,67240471,0,0.60518754,0.4548085,0.07665552,0.015538485,0.031665213,0.0011732952,0.0,0.0,0.0,0.004999,4259850,4325386,4028193,396809,0,0,895,8,28,8,21,4,0,0,0,0,0,0,0
540568347,540468050,0.000618248,0.0081908265,0.021563806,67240471,0,0.5956147,0.44942328,0.07739865,0.028715793,0.034529686,0.011444904,0.0,0.0,0.0,0.004999,4259850,4325386,4028193,396809,0,0,895,8,28,8,21,4,0,0,0,0,0,0,0
540778260,540678026,0.00075691997,0.012126709,0.028497407,67240471,0,0.5913922,0.4471104,0.093242235,0.035349958,0.034077737,0.0018861005,0.0,0.0,0.0,0.004999,4259850,4325386,4028193,396809,0,0,895,8,28,8,21,4,0,0,0,0,0,0,0
540968307,540868004,0.00090782467,0.01738884,0.03758627,67240471,0,0.5852014,0.44669697,0.091555566,0.062272932,0.03288445,0.012357853,0.0,0.0,0.0,0.004999,4259850,4325386,4028193,396809,0,0,895,8,28,8,21,4,0,0,0,0,0,0,0
541168305,541067981,0.0006071026,0.010865416,0.027238276,67240471,0,0.583751,0.44525877,0.06744626,0.018563427,0.031651545,0.007406774,0.0,0.0,0.0,0.004999,4259850,4325386,4028193,396809,0,0,895,8,28,8,21,4,0,0,0,0,0,0,0
541368181,541267958,0.0005951571,0.013180352,0.030879099,67240471,0,0.58124673,0.44335827,0.06782968,0.051361218,0.03063681,0.0035240632,0.0,0.0,0.0,0.004999,4259850,4325386,4028193,396809,0,0,895,8,28,8,21,4,0,0,0,0,0,0,0
541578133,541477934,0.0004452097,0.0046980204,0.0075624115,67240471,0,0.5798417,0.44594043,0.039366826,0.04485284,0.027454633,0.0026579336,0.0,0.0,0.0,0.004999,4259850,4325386,4028193,396809,0,0,895,8,28,8,21,4,0,0,0,0,0,0,0
541778191,541677911,0.00024222382,0.0012442736,0.0036695166,67240471,0,0.5814183,0.44608495,0.031819206,0.006732717,0.026344093,0.0025242125,0.0,0.0,0.0,0.004999,4259850,4325386,4028193,396809,0,0,895,8,28,8,21,4,0,0,0,0,0,0,0
541978090,541877888,0.00025887328,0.004236235,0.007410887,67240471,0,0.5820035,0.44567186,0.032341458,0.03387074,0.025097929,0.008051416,0.0,0.0,0.0,0.004999,4259850,4325386,4028193,396809,0,0,895,8,28,8,21,4,0,0,0,0,0,0,0
542168111,542067866,0.00034861785,0.004907008,0.01122551,67240471,0,0.58221984,0.44831896,0.03112243,0.038545012,0.025635513,0.002899344,0.0,0.0,0.0,0.004999,4259850,4325386,4028193,396809,0,0,895,8,28,8,21,4,0,0,0,0,0,0,0
542368040,542267843,0.00047925647,0.013584738,0.028162176,67240471,0,0.5834167,0.44810086,0.02954829,0.078296214,0.027505396,0.015419138,0.0,0.0,0.0,0.004999,4259850,4325386,4028193,396809,0,0,895,8,28,8,21,4,0,0,0,0,0,0,0
542568043,542467820,0.0003693189,0.007966977,0.019481286,67240471,0,0.5843877,0.44774482,0.044673428,0.021382704,0.025051096,0.01156366,0.0,0.0,0.0,0.004999,4259850,4325386,4028193,396809,0,0,895,8,28,8,21,4,0,0,0,0,0,0,0
542768050,542667797,0.00044285887,0.006439432,0.011487581,67240471,0,0.58122385,0.4492383,0.04460903,0.046118353,0.022062888,0.0015532329,0.0,0.0,0.0,0.004999,4259850,4325386,4028193,396809,0,0,895,8,28,8,21,4,0,0,0,0,0,0,0
542978019,542877773,0.00031508453,0.00847467,0.016835866,67240471,0,0.5807559,0.44864303,0.041163623,0.026483372,0.021766352,0.003033021,0.0,0.0,0.0,0.004999,4259850,4325386,4028193,396809,0,0,895,8,28,8,21,4,0,0,0,0,0,0,0
543177948,543077750,0.0004565301,0.008714434,0.016992383,67240471,0,0.58058816,0.44778568,0.04414443,0.07829364,0.02129995,0.0057653263,0.0,0.0,0.0,0.004999,4259850,4325386,4028193,396809,0,0,895,8,28,8,21,4,0,0,0,0,0,0,0
543377936,543277727,0.00037413937,0.008902003,0.019009994,67240471,0,0.5804928,0.44694686,0.029291438,0.035622872,0.018430293,0.005415934,0.0,0.0,0.0,0.004999,4259850,4325386,4028193,396809,0,0,895,8,28,8,21,4,0,0,0,0,0,0,0
543567903,543467705,0.00042210714,0.015492564,0.031927332,67240471,0,0.5795297,0.44898465,0.034329887,0.07902158,0.015080863,0.019975584,0.0,0.0,0.0,0.004999,4259850,4325386,4028193,396809,0,0,895,8,28,8,21,4,0,0,0,0,0,0,0
543767880,543667682,0.00037430413,0.013340998,0.029244006,67240471,0,0.5760965,0.44659936,0.043937277,0.032899547,0.015247724,0.0068639466,0.0,0.0,0.0,0.004999,4259850,4325386,4028193,396809,0,0,895,8,28,8,21,4,0,0,0,0,0,0,0
543968059,543867660,0.00037686536,0.012414221,0.02439593,67240471,0,0.5758465,0.44566745,0.032530304,0.052650068,0.015711693,0.0033474427,0.0,0.0,0.0,0.004999,4259850,4325386,4028193,396809,0,0,895,8,28,8,21,4,0,0,0,0,0,0,0
544167834,544067636,0.00033662902,0.013389221,0.028318055,67240471,0,0.576031,0.44858608,0.031210283,0.07042053,0.011267637,0.0059886524,0.0,0.0,0.0,0.004999,4259850,4325386,4028193,396809,0,0,895,8,28,8,21,4,0,0,0,0,0,0,0
544377815,544277612,0.00030806722,0.010025985,0.024530003,67240471,0,0.5762622,0.44825834,0.029218191,0.037906304,0.0097279325,0.010562205,0.0,0.0,0.0,0.004999,4259850,4325386,4028193,396809,0,0,895,8,28,8,21,4,0,0,0,0,0,0,0
544577785,544477589,0.00032859592,0.011159785,0.022632144,67240471,0,0.57565504,0.44717097,0.027290192,0.05072518,0.009010326,0.0095145395,0.0,0.0,0.0,0.004999,4259850,4325386,4028193,396809,0,0,895,8,28,8,21,4,0,0,0,0,0,0,0
544777880,544677566,0.00038912185,0.010802086,0.019596566,67240471,0,0.5771094,0.44693276,0.033188026,0.046034116,0.008887015,0.0058187577,0.0,0.0,0.0,0.004999,4259850,4325386,4028193,396809,0,0,895,8,28,8,21,4,0,0,0,0,0,0,0
544967760,544867545,0.00024060454,0.004889198,0.0064918622,67240471,0,0.5801353,0.4505647,0.028910704,0.013534931,0.009525367,0.0067900997,0.0,0.0,0.0,0.004999,4259850,4325386,4028193,396809,0,0,895,8,28,8,21,4,0,0,0,0,0,0,0
545167726,545067522,0.0003145903,0.008525858,0.013019708,67240471,0,0.5814151,0.4501505,0.024193773,0.0449101,0.009561018,0.012344708,0.0,0.0,0.0,0.004999,4259850,4325386,4028193,396809,0,0,895,8,28,8,21,4,0,0,0,0,0,0,0
545367701,545267499,0.00027245164,0.007559147,0.020624772,67240471,0,0.57994175,0.45229545,0.016765142,0.050804365,0.010712262,0.0008474662,0.0,0.0,0.0,0.004999,4259850,4325386,4028193,396809,0,0,895,8,28,8,21,4,0,0,0,0,0,0,0
545567714,545467476,0.00022667374,0.007489444,0.021657916,67240471,0,0.58282924,0.45244557,0.02472917,0.025064418,0.009653256,0.01259694,0.0,0.0,0.0,0.004999,4259850,4325386,4028193,396809,0,0,895,8,28,8,21,4,0,0,0,0,0,0,0
545777651,545677452,0.00020545594,0.0052176774,0.015398671,67240471,0,0.58803135,0.45390904,0.028817328,0.012358652,0.010368549,0.005456401,0.0,0.0,0.0,0.004999,4259850,4325386,4028193,396809,0,0,895,8,28,8,21,4,0,0,0,0,0,0,0
545977677,545877429,0.00033654858,0.003576657,0.005031412,67240471,0,0.5894717,0.4533761,0.038242925,0.03634244,0.008672801,0.009208135,0.0,0.0,0.0,0.004999,4259850,4325386,4028193,396809,0,0,895,8,28,8,21,4,0,0,0,0,0,0,0
546177660,546077406,0.00031349133,0.003320882,0.007872101,67240471,0,0.58925873,0.45222712,0.0446743,0.020349367,0.008911557,0.0027616024,0.0,0.0,0.0,0.004999,4259850,4325386,4028193,396809,0,0,895,8,28,8,21,4,0,0,0,0,0,0,0
546377612,546277384,0.0004052731,0.003562703,0.009949631,67240471,0,0.59266275,0.45624542,0.04284515,0.033032674,0.00694093,0.0041717356,0.0,0.0,0.0,0.004999,4259850,4325386,4028193,396809,0,0,895,8,28,8,21,4,0,0,0,0,0,0,0
546567563,546467362,0.00034292752,0.008354996,0.01895424,67240471,0,0.593885,0.45515382,0.034147743,0.05504627,0.0054438966,0.004012405,0.0,0.0,0.0,0.004999,4259850,4325386,4028193,396809,0,0,895,8,28,8,21,4,0,0,0,0,0,0,0
546767645,546667339,0.00033923614,0.009802618,0.022399176,67240471,0,0.59560436,0.45471638,0.022221223,0.04169892,0.0034805597,0.0042492184,0.0,0.0,0.0,0.004999,4259850,4325386,4028193,396809,0,0,895,8,28,8,21,4,0,0,0,0,0,0,0
546967512,546867316,0.00039711205,0.012322971,0.02847301,67240471,0,0.59700567,0.45799214,0.028701723,0.04772141,0.0053313375,0.0014035532,0.0,0.0,0.0,0.004999,4259850,4325386,4028193,396809,0,0,895,8,28,8,21,4,0,0,0,0,0,0,0
547177537,547077292,0.00032350505,0.009005881,0.023151472,67240471,0,0.60104513,0.45876828,0.024169665,0.050687555,0.005956761,0.0061076786,0.0,0.0,0.0,0.004999,4259850,4325386,4028193,396809,0,0,895,8,28,8,21,4,0,0,0,0,0,0,0
547377505,547277269,0.00021111776,0.002490567,0.006388862,67240471,0,0.6010557,0.45762208,0.034367096,0.012596221,0.006179323,0.009722326,0.0,0.0,0.0,0.004999,4259850,4325386,4028193,396809,0,0,895,8,28,8,21,4,0,0,0,0,0,0,0
547577446,547477246,0.00037944582,0.00975421,0.021640308,67240471,0,0.60387766,0.46140662,0.02482007,0.07609934,0.0073197093,0.001989946,0.0,0.0,0.0,0.004999,4259850,4325386,4028193,396809,0,0,895,8,28,8,21,4,0,0,0,0,0,0,0
547777423,547677224,0.0003891918,0.0077328268,0.018228674,67240471,0,0.60592604,0.46098515,0.029919546,0.06742385,0.009185646,0.003795695,0.0,0.0,0.0,0.004999,4259850,4325386,4028193,396809,0,0,895,8,28,8,21,4,0,0,0,0,0,0,0
547967430,547867202,0.00039983157,0.0115372185,0.019167747,67240471,0,0.6027507,0.4582147,0.04147113,0.055797186,0.0076320516,0.013610391,0.0,0.0,0.0,0.004999,4259850,4325386,4028193,396809,0,0,895,8,28,8,21,4,0,0,0,0,0,0,0
548167376,548067179,0.00031445664,0.0065729283,0.017032653,67240471,0,0.60329384,0.4611504,0.026396029,0.046613287,0.010371624,0.0012465372,0.0,0.0,0.0,0.004999,4259850,4325386,4028193,396809,0,0,895,8,28,8,21,4,0,0,0,0,0,0,0
548367408,548267156,0.00052315294,0.015379887,0.03461991,67240471,0,0.6047499,0.4604293,0.02604613,0.079599,0.011677477,0.01097109,0.0,0.0,0.0,0.004999,4259850,4325386,4028193,396809,0,0,895,8,28,8,21,4,0,0,0,0,0,0,0
548577367,548477133,0.0003349663,0.01065937,0.025184141,67240471,0,0.6098596,0.4614232,0.019614752,0.06896206,0.010262784,0.0044321152,0.0,0.0,0.0,0.004999,4259850,4325386,4028193,396809,0,0,895,8,28,8,21,4,0,0,0,0,0,0,0
548777304,548677110,0.00019886512,0.0018093239,0.0025526243,67240471,0,0.6121257,0.46089968,0.026896354,0.03528237,0.009213398,0.0046554874,0.0,0.0,0.0,0.004999,4259850,4325386,4028193,396809,0,0,895,8,28,8,21,4,0,0,0,0,0,0,0
548977317,548877087,0.00023569509,0.0056417235,0.009983554,67240471,0,0.61522585,0.4646903,0.013319125,0.03356435,0.009732314,0.00018583871,0.0,0.0,0.0,0.004999,4259850,4325386,4028193,396809,0,0,895,8,28,8,21,4,0,0,0,0,0,0,0
549177272,549077064,0.0003259322,0.013811671,0.02729095,67240471,0,0.6168558,0.46393958,0.034051016,0.05540957,0.007887951,0.0005505779,0.0,0.0,0.0,0.004999,4259850,4325386,4028193,396809,0,0,895,8,28,8,21,4,0,0,0,0,0,0,0
549367268,549267043,0.0003017876,0.0061987177,0.012956371,67240471,0,0.6148869,0.4615115,0.0354406,0.034510083,0.013248516,0.005746414,0.0,0.0,0.0,0.004999,4259850,4325386,4028193,396809,0,0,895,8,28,8,21,4,0,0,0,0,0,0,0
549567339,549467020,0.00053251506,0.015503864,0.031922705,67240471,0,0.6125137,0.46348432,0.05483842,0.055305418,0.012365381,0.003375813,0.0,0.0,0.0,0.004999,4259850,4325386,4028193,396809,0,0,895,8,28,8,21,4,0,0,0,0,0,0,0
549767198,549666997,0.00046869842,0.014637403,0.032523192,67240471,0,0.60935086,0.46111023,0.054830786,0.038573857,0.014695261,0.014203242,0.0,0.0,0.0,0.004999,4259850,4325386,4028193,396809,0,0,895,8,28,8,21,4,0,0,0,0,0,0,0
549967168,549866975,0.00048963376,0.01419311,0.032571472,67240471,0,0.6076281,0.45921478,0.04661389,0.03359264,0.013613257,0.006876487,0.0,0.0,0.0,0.004999,4259850,4325386,4028193,396809,0,0,895,8,28,8,21,4,0,0,0,0,0,0,0
550177258,550076951,0.00048131865,0.01145659,0.027574163,67240471,0,0.6070132,0.45817605,0.058192313,0.03647056,0.012774225,0.015488379,0.0,0.0,0.0,0.004999,4259850,4325386,4028193,396809,0,0,895,8,28,8,21,4,0,0,0,0,0,0,0
550377124,550276928,0.00040948638,0.005321682,0.010143284,67240471,0,0.60746896,0.46109223,0.05300621,0.05582603,0.009325193,0.008269336,0.0,0.0,0.0,0.004999,4259850,4325386,4028193,396809,0,0,895,8,28,8,21,4,0,0,0,0,0,0,0
550577104,550476905,0.00045402476,0.0095155435,0.018890537,67240471,0,0.60588163,0.45928198,0.047273707,0.041260637,0.008876717,0.004534907,0.0,0.0,0.0,0.004999,4259850,4325386,4028193,396809,0,0,895,8,28,8,21,4,0,0,0,0,0,0,0
550777121,550676883,0.00048805895,0.010283535,0.023515422,67240471,0,0.5997698,0.45572156,0.05347114,0.031542968,0.009374864,0.02046766,0.0,0.0,0.0,0.004999,4259850,4325386,4028193,396809,0,0,895,8,28,8,21,4,0,0,0,0,0,0,0
550967061,550866861,0.00045026396,0.009090991,0.022830475,67240471,0,0.5937925,0.4555599,0.07028539,0.024274927,0.01047622,0.007646515,0.0,0.0,0.0,0.004999,4259850,4325386,4028193,396809,0,0,895,8,28,8,21,4,0,0,0,0,0,0,0
551167034,551066838,0.0004594236,0.0056514507,0.015430601,67240471,0,0.59394103,0.45453793,0.05164102,0.021263663,0.011888305,0.0066306475,0.0,0.0,0.0,0.004999,4259850,4325386,4028193,396809,0,0,895,8,28,8,21,4,0,0,0,0,0,0,0
551377044,551276816,0.00047358754,0.0057940986,0.016091222,67240471,0,0.59476346,0.45420626,0.054270696,0.022838846,0.013447013,0.016992142,0.0,0.0,0.0,0.004999,4259850,4325386,4028193,396809,0,0,895,8,28,8,21,4,0,0,0,0,0,0,0
551577070,551476792,0.00039661213,0.0056878678,0.018014122,67240471,0,0.59210217,0.4519936,0.036749937,0.013601512,0.015183913,0.010634943,0.0,0.0,0.0,0.004999,4259850,4325386,4028193,396809,0,0,895,8,28,8,21,4,0,0,0,0,0,0,0
551776968,551676769,0.0002554847,0.0031039221,0.009628253,67240471,0,0.58997345,0.4538576,0.03304035,0.022439346,0.016393913,0.0031984576,0.0,0.0,0.0,0.004999,4259850,4325386,4028193,396809,0,0,895,8,28,8,21,4,0,0,0,0,0,0,0
551976959,551876747,0.00022806172,0.0054432014,0.01464588,67240471,0,0.58930016,0.45249128,0.01624651,0.027183192,0.017782936,0.014228572,0.0,0.0,0.0,0.004999,4259850,4325386,4028193,396809,0,0,895,8,28,8,21,4,0,0,0,0,0,0,0
552177006,552076724,0.00024828853,0.008035347,0.02134755,67240471,0,0.5892517,0.45142147,0.024179112,0.026985548,0.019977437,0.017064815,0.0,0.0,0.0,0.004999,4259850,4325386,4028193,396809,0,0,895,8,28,8,21,4,0,0,0,0,0,0,0
552366915,552266702,0.00036690626,0.00783134,0.012324325,67240471,0,0.5876368,0.45308223,0.032216646,0.07496838,0.021023815,0.02300521,0.0,0.0,0.0,0.004999,4259850,4325386,4028193,396809,0,0,895,8,28,8,21,4,0,0,0,0,0,0,0
552566874,552466680,0.00028926047,0.0019049366,0.008340266,67240471,0,0.58538955,0.45108595,0.03325537,0.031608563,0.02199719,0.009501179,0.0,0.0,0.0,0.004999,4259850,4325386,4028193,396809,0,0,895,8,28,8,21,4,0,0,0,0,0,0,0
552776955,552676656,0.00054959446,0.013141673,0.02904508,67240471,0,0.5808661,0.44847065,0.04333166,0.056999557,0.024513207,0.0107970955,0.0,0.0,0.0,0.004999,4259850,4325386,4028193,396809,0,0,895,8,28,8,21,4,0,0,0,0,0,0,0
552976977,552876633,0.00029730174,0.0065757832,0.018419953,67240471,0,0.57638186,0.44913888,0.036817923,0.041502576,0.023873162,0.00942838,0.0,0.0,0.0,0.004999,4259850,4325386,4028193,396809,0,0,895,8,28,8,21,4,0,0,0,0,0,0,0
553176814,553076611,0.00031475924,0.0041228,0.0061147073,67240471,0,0.57484174,0.4474939,0.030755404,0.026503703,0.022268202,0.009294604,0.0,0.0,0.0,0.004999,4259850,4325386,4028193,396809,0,0,895,8,28,8,21,4,0,0,0,0,0,0,0
553376835,553276588,0.000429893,0.011263489,0.025998158,67240471,0,0.57111263,0.4448357,0.028372223,0.057396684,0.022937514,0.009325638,0.0,0.0,0.0,0.004999,4259850,4325386,4028193,396809,0,0,895,8,28,8,21,4,0,0,0,0,0,0,0
553576763,553476565,0.00034206102,0.010442007,0.026255675,67240471,0,0.5656463,0.44484863,0.027301433,0.035397973,0.0217272,0.0013446271,0.0,0.0,0.0,0.004999,4259850,4325386,4028193,396809,0,0,895,8,28,8,21,4,0,0,0,0,0,0,0
553766743,553666544,0.0003385727,0.009134203,0.021004021,67240471,0,0.5656231,0.44373283,0.027963432,0.04375697,0.02119777,0.015505087,0.0,0.0,0.0,0.004999,4259850,4325386,4028193,396809,0,0,895,8,28,8,21,4,0,0,0,0,0,0,0
553966723,553866522,0.0002151086,0.0012016208,0.005853229,67240471,0,0.5647903,0.44256142,0.035612006,0.016921403,0.018220587,0.011722784,0.0,0.0,0.0,0.004999,4259850,4325386,4028193,396809,0,0,895,8,28,8,21,4,0,0,0,0,0,0,0
554176782,554076498,0.00050708035,0.013936483,0.030257124,67240471,0,0.56344885,0.4414384,0.040134605,0.09032215,0.018186778,0.0046137385,0.0,0.0,0.0,0.004999,4259850,4325386,4028193,396809,0,0,895,8,28,8,21,4,0,0,0,0,0,0,0
554376702,554276476,0.00031634804,0.0047771106,0.014532532,67240471,0,0.5625733,0.44379905,0.043864906,0.0133838225,0.016552102,0.011777299,0.0,0.0,0.0,0.004999,4259850,4325386,4028193,396809,0,0,895,8,28,8,21,4,0,0,0,0,0,0,0
554576652,554476453,0.00030947663,0.00529736,0.015144195,67240471,0,0.56371623,0.44360533,0.032511033,0.015370124,0.015032325,0.0067710513,0.0,0.0,0.0,0.004999,4259850,4325386,4028193,396809,0,0,895,8,28,8,21,4,0,0,0,0,0,0,0
554776628,554676430,0.00023709508,0.008936423,0.021761889,67240471,0,0.5621095,0.44204134,0.026818527,0.032892823,0.012306951,0.007761854,0.0,0.0,0.0,0.004999,4259850,4325386,4028193,396809,0,0,895,8,28,8,21,4,0,0,0,0,0,0,0
554976636,554876408,0.0011684422,0.041556418,0.08568927,67240471,0,0.5626026,0.44153842,0.03007173,0.21127261,0.017910676,0.008855941,0.0,0.0,0.0,0.004999,4259850,4325386,4028193,396809,0,0,895,8,28,8,21,4,0,0,0,0,0,0,0
555176651,555076385,0.00042493924,0.0077036913,0.020207126,67240471,0,0.56102026,0.44360214,0.035523552,0.091024086,0.014018207,0.005306212,0.0,0.0,0.0,0.004999,4259850,4325386,4028193,396809,0,0,895,8,28,8,21,4,0,0,0,0,0,0,0
555366578,555266364,0.00040917358,0.0049400115,0.0089737335,67240471,0,0.55737966,0.44077808,0.027230367,0.041208223,0.013161784,0.01081831,0.0,0.0,0.0,0.004999,4259850,4325386,4028193,396809,0,0,895,8,28,8,21,4,0,0,0,0,0,0,0
555576563,555476340,0.00023549862,0.004251754,0.011594746,67240471,0,0.5572458,0.440364,0.020493928,0.028331932,0.010698632,0.0005233261,0.0,0.0,0.0,0.004999,4259850,4325386,4028193,396809,0,0,895,8,28,8,21,4,0,0,0,0,0,0,0
555776713,555676317,0.0002945214,0.0053596804,0.0077279625,67240471,0,0.550062,0.43955582,0.03794238,0.015169335,0.007818089,0.009717284,0.0,0.0,0.0,0.004999,4259850,4325386,4028193,396809,0,0,895,8,28,8,21,4,0,0,0,0,0,0,0
555976514,555876296,0.0003666422,0.008209632,0.016719334,67240471,0,0.5503113,0.43904275,0.033692524,0.07484319,0.006556944,0.0064709103,0.0,0.0,0.0,0.004999,4259850,4325386,4028193,396809,0,0,895,8,28,8,21,4,0,0,0,0,0,0,0
556176497,556076273,0.00027376774,0.0072757355,0.0136067225,67240471,0,0.5515571,0.43905813,0.02031119,0.052369043,0.010694027,0.0025181402,0.0,0.0,0.0,0.004999,4259850,4325386,4028193,396809,0,0,895,8,28,8,21,4,0,0,0,0,0,0,0
556376487,556276250,0.00035336948,0.012463801,0.023964318,67240471,0,0.55075467,0.4414912,0.024200138,0.037873544,0.011291853,0.008749756,0.0,0.0,0.0,0.004999,4259850,4325386,4028193,396809,0,0,895,8,28,8,21,4,0,0,0,0,0,0,0
556576450,556476228,0.00030873748,0.013613964,0.028695455,67240471,0,0.54928184,0.44008103,0.023511298,0.04842575,0.01030718,0.009639251,0.0,0.0,0.0,0.004999,4259850,4325386,4028193,396809,0,0,895,8,28,8,21,4,0,0,0,0,0,0,0
556766436,556666206,0.00022401988,0.0113612255,0.026240341,67240471,0,0.5477909,0.43828022,0.014552487,0.025427585,0.01071816,0.0038253288,0.0,0.0,0.0,0.004999,4259850,4325386,4028193,396809,0,0,895,8,28,8,21,4,0,0,0,0,0,0,0
556976411,556876183,0.00031843522,0.011654601,0.026727432,67240471,0,0.5514832,0.4396314,0.02196739,0.062498964,0.013020073,0.012854271,0.0,0.0,0.0,0.004999,4259850,4325386,4028193,396809,0,0,895,8,28,8,21,4,0,0,0,0,0,0,0
557176357,557076160,0.00020084636,0.004545119,0.011911855,67240471,0,0.5550692,0.4440148,0.024778556,0.065638,0.011321828,0.01125746,0.0,0.0,0.0,0.004999,4259850,4325386,4028193,396809,0,0,895,8,28,8,21,4,0,0,0,0,0,0,0
557376335,557276138,0.00021438669,0.003089774,0.009351296,67240471,0,0.55636007,0.4437274,0.025462495,0.030972138,0.011656244,0.010801056,0.0,0.0,0.0,0.004999,4259850,4325386,4028193,396809,0,0,895,8,28,8,21,4,0,0,0,0,0,0,0
557576336,557476115,0.00022896135,0.0032166382,0.008701189,67240471,0,0.5571101,0.4431724,0.02795581,0.014187101,0.013543595,0.008846607,0.0,0.0,0.0,0.004999,4259850,4325386,4028193,396809,0,0,895,8,28,8,21,4,0,0,0,0,0,0,0
557776290,557676093,0.0002443787,0.007003469,0.017300317,67240471,0,0.56092244,0.44754112,0.022192836,0.033864018,0.015424942,0.003960305,0.0,0.0,0.0,0.004999,4259850,4325386,4028193,396809,0,0,895,8,28,8,21,4,0,0,0,0,0,0,0
557976298,557876070,0.0001550511,0.0011015526,0.006294516,67240471,0,0.5640605,0.44790226,0.017707461,0.017606735,0.015078009,0.002402464,0.0,0.0,0.0,0.004999,4259850,4325386,4028193,396809,0,0,895,8,28,8,21,4,0,0,0,0,0,0,0
558166284,558066049,0.00021935765,0.008041925,0.02157678,67240471,0,0.5623832,0.44595286,0.016697094,0.0330233,0.01745636,0.002922673,0.0,0.0,0.0,0.004999,4259850,4325386,4028193,396809,0,0,895,8,28,8,21,4,0,0,0,0,0,0,0
558376272,558276026,0.00018582144,0.008145385,0.023987629,67240471,0,0.5626988,0.4492941,0.010732173,0.021179788,0.015804201,0.0029776066,0.0,0.0,0.0,0.004999,4259850,4325386,4028193,396809,0,0,895,8,28,8,21,4,0,0,0,0,0,0,0
558576321,558476003,0.00013338421,0.0078151375,0.02209529,67240471,0,0.562597,0.44838196,0.013097338,0.024935666,0.014310384,9.0374764e-05,0.0,0.0,0.0,0.004999,4259850,4325386,4028193,396809,0,0,895,8,28,8,21,4,0,0,0,0,0,0,0
558776180,558675981,0.00033982558,0.009239527,0.016135108,67240471,0,0.5637591,0.44799468,0.011643391,0.073979415,0.008265277,0.004507269,0.0,0.0,0.0,0.004999,4259850,4325386,4028193,396809,0,0,895,8,28,8,21,4,0,0,0,0,0,0,0
558976222,558875959,0.0003914864,0.01261748,0.024694158,67240471,0,0.56418216,0.45098478,0.02482798,0.05234434,0.009340616,0.0069469684,0.0,0.0,0.0,0.004999,4259850,4325386,4028193,396809,0,0,895,8,28,8,21,4,0,0,0,0,0,0,0
559176217,559075936,0.00042512885,0.015303179,0.03013113,67240471,0,0.56320226,0.4496597,0.028355742,0.063357875,0.009063623,0.0023259271,0.0,0.0,0.0,0.004999,4259850,4325386,4028193,396809,0,0,895,8,28,8,21,4,0,0,0,0,0,0,0
559376144,559275914,0.00026811013,0.0026525229,0.006657295,67240471,0,0.56222975,0.44833997,0.02399056,0.018457443,0.0061386917,0.0001660423,0.0,0.0,0.0,0.004999,4259850,4325386,4028193,396809,0,0,895,8,28,8,21,4,0,0,0,0,0,0,0
559576171,559475891,0.00028500665,0.0049539967,0.013658005,67240471,0,0.5630347,0.4477236,0.02702108,0.021873342,0.005115911,0.0004920526,0.0,0.0,0.0,0.004999,4259850,4325386,4028193,396809,0,0,895,8,28,8,21,4,0,0,0,0,0,0,0
559776109,559675869,0.00021146279,0.007612638,0.019957487,67240471,0,0.5635545,0.45072827,0.025721503,0.0217375,0.0033887785,0.0015752544,0.0,0.0,0.0,0.004999,4259850,4325386,4028193,396809,0,0,895,8,28,8,21,4,0,0,0,0,0,0,0
559976044,559875847,0.00022225126,0.010814619,0.02820531,67240471,0,0.5625987,0.44935018,0.015719976,0.043715604,0.0035126728,0.004130282,0.0,0.0,0.0,0.004999,4259850,4325386,4028193,396809,0,0,895,8,28,8,21,4,0,0,0,0,0,0,0
560176076,560075824,0.00028523288,0.0040340913,0.005937872,67240471,0,0.5647923,0.4492404,0.020203799,0.05375038,0.005567782,0.011829737,0.0,0.0,0.0,0.004999,4259850,4325386,4028193,396809,0,0,895,8,28,8,21,4,0,0,0,0,0,0,0
560376047,560275805,0.00022368292,0.0036908526,0.0049377363,67240471,0,0.5658289,0.44867298,0.021396905,0.02758446,0.005814627,0.0011366965,0.0,0.0,0.0,0.004999,4259850,4325386,4028193,396809,0,0,895,8,28,8,21,4,0,0,0,0,0,0,0
560575974,560475780,0.00024122649,0.0028299347,0.005456723,67240471,0,0.566969,0.45184505,0.02457721,0.027609626,0.005822475,0.008010335,0.0,0.0,0.0,0.004999,4259850,4325386,4028193,396809,0,0,895,8,28,8,21,4,0,0,0,0,0,0,0
560775954,560675757,0.00037521913,0.008404923,0.015106208,67240471,0,0.56791556,0.45118108,0.035839595,0.055484366,0.0057154326,0.009328092,0.0,0.0,0.0,0.004999,4259850,4325386,4028193,396809,0,0,895,8,28,8,21,4,0,0,0,0,0,0,0
560975980,560875736,0.00025534185,0.0075135184,0.017275233,67240471,0,0.56888366,0.45050263,0.029530248,0.02265404,0.009390218,0.003675745,0.0,0.0,0.0,0.004999,4259850,4325386,4028193,396809,0,0,895,8,28,8,21,4,0,0,0,0,0,0,0
561175910,561075713,0.00036615992,0.008681475,0.018460287,67240471,0,0.57013583,0.45369035,0.020080555,0.06571037,0.015073929,0.010815614,0.0,0.0,0.0,0.004999,4259850,4325386,4028193,396809,0,0,895,8,28,8,21,4,0,0,0,0,0,0,0
561375904,561275691,0.0002826413,0.00987974,0.025884854,67240471,0,0.57317233,0.4537834,0.025062267,0.029515704,0.016880335,0.0044614887,0.0,0.0,0.0,0.004999,4259850,4325386,4028193,396809,0,0,895,8,28,8,21,4,0,0,0,0,0,0,0
561575916,561475668,0.0002603002,0.008473543,0.02103602,67240471,0,0.5739621,0.45299873,0.020735832,0.05379439,0.016626632,0.0033412345,0.0,0.0,0.0,0.004999,4259850,4325386,4028193,396809,0,0,895,8,28,8,21,4,0,0,0,0,0,0,0
561775840,561675646,0.00021231893,0.0083486885,0.02478897,67240471,0,0.57183695,0.4548848,0.020378599,0.036701895,0.01382137,0.005255784,0.0,0.0,0.0,0.004999,4259850,4325386,4028193,396809,0,0,895,8,28,8,21,4,0,0,0,0,0,0,0
561975972,561875623,0.00029829514,0.011873431,0.030706583,67240471,0,0.5699092,0.45301566,0.023608007,0.039638307,0.014510047,0.008147903,0.0,0.0,0.0,0.004999,4259850,4325386,4028193,396809,0,0,895,8,28,8,21,4,0,0,0,0,0,0,0
562175817,562075601,0.00020998328,0.0075067277,0.022081565,67240471,0,0.56568813,0.45012218,0.028489642,0.013660664,0.016424194,0.013707083,0.0,0.0,0.0,0.004999,4259850,4325386,4028193,396809,0,0,895,8,28,8,21,4,0,0,0,0,0,0,0
562375832,562275579,0.00028894603,0.011013058,0.029209217,67240471,0,0.56956446,0.45053694,0.03149515,0.05607758,0.016334452,0.0039558955,0.0,0.0,0.0,0.004999,4259850,4325386,4028193,396809,0,0,895,8,28,8,21,4,0,0,0,0,0,0,0
562575758,562475556,0.00035344844,0.008597132,0.017756734,67240471,0,0.5709342,0.4536996,0.02426816,0.07315944,0.016135419,0.016493943,0.0,0.0,0.0,0.004999,4259850,4325386,4028193,396809,0,0,895,8,28,8,21,4,0,0,0,0,0,0,0
562775735,562675534,0.0001519562,0.0017517311,0.010195598,131607,0,0.57013786,0.4521714,0.01684382,0.016942345,0.020246895,0.016228763,0.0,0.0,0.0,0.004999,4259850,4325386,4028193,396809,0,0,895,8,28,8,21,4,0,0,0,0,0,0,0
562975711,562875512,0.00024439892,0.005939961,0.021607246,131607,0,0.57138556,0.45152214,0.023206556,0.023414647,0.024351789,0.006326383,0.0,0.0,0.0,0.004999,4259850,4325386,4028193,396809,0,0,895,8,28,8,21,4,0,0,0,0,0,0,0
563175735,563075489,0.00032252984,0.007943737,0.018703347,131607,0,0.57227695,0.45449978,0.026326725,0.05865512,0.027830109,0.0034167168,0.0,0.0,0.0,0.004999,4259850,4325386,4028193,396809,0,0,895,8,28,8,21,4,0,0,0,0,0,0,0
563375669,563275468,0.00028875482,0.0073249377,0.0205724,131607,0,0.57151175,0.45305985,0.025037535,0.05246275,0.032813843,0.007183964,0.0,0.0,0.0,0.004999,4259850,4325386,4028193,396809,0,0,895,8,28,8,21,4,0,0,0,0,0,0,0
563575643,563475445,0.00021058682,0.0024060574,0.013434394,131607,0,0.5718246,0.45205197,0.020456081,0.04489096,0.039587975,0.0022658315,0.0,0.0,0.0,0.004999,4259850,4325386,4028193,396809,0,0,895,8,28,8,21,4,0,0,0,0,0,0,0
563775623,563675423,0.00024510056,0.002909303,0.011616817,131607,0,0.5749675,0.45599034,0.028721198,0.02958087,0.041221637,0.013879242,0.0,0.0,0.0,0.004999,4259850,4325386,4028193,396809,0,0,895,8,28,8,21,4,0,0,0,0,0,0,0
563975596,563875401,0.00025240376,0.00814531,0.030431531,131607,0,0.5737686,0.45434827,0.022865495,0.02520966,0.04486795,0.008343339,0.0,0.0,0.0,0.004999,4259850,4325386,4028193,396809,0,0,895,8,28,8,21,4,0,0,0,0,0,0,0
564175590,564075378,0.00030575448,0.0037517063,0.01168719,67240471,0,0.57186717,0.45241413,0.03558238,0.05368711,0.04386257,0.006492183,0.0,0.0,0.0,0.004999,4259850,4325386,4028193,396809,0,0,895,8,28,8,21,4,0,0,0,0,0,0,0
564375555,564275357,0.0004155128,0.007707808,0.011976072,67240471,0,0.57549167,0.45651612,0.034725174,0.075127244,0.04760729,0.0011525481,0.0,0.0,0.0,0.004999,4259850,4325386,4028193,396809,0,0,895,8,28,8,21,4,0,0,0,0,0,0,0
564575536,564475334,0.00023110418,0.00506074,0.0052241823,67240471,0,0.5761864,0.45556074,0.025710816,0.03896962,0.049516335,0.005419929,0.0,0.0,0.0,0.004999,4259850,4325386,4028193,396809,0,0,895,8,28,8,21,4,0,0,0,0,0,0,0
564775623,564675312,0.0003851798,0.012481937,0.018254027,67240471,0,0.5793326,0.4555856,0.028762966,0.08718816,0.04874292,0.00075088,0.0,0.0,0.0,0.004999,4259850,4325386,4028193,396809,0,0,895,8,28,8,21,4,0,0,0,0,0,0,0
564975535,564875290,0.00037965103,0.009994184,0.03042339,67240471,0,0.5819763,0.4553531,0.0314689,0.054302737,0.054253608,0.013738953,0.0,0.0,0.0,0.004999,4259850,4325386,4028193,396809,0,0,895,8,28,8,21,4,0,0,0,0,0,0,0
565175518,565075267,0.00040457526,0.011971246,0.033980496,67240471,0,0.58514863,0.45920035,0.030385934,0.0351607,0.054006465,0.0022088306,0.0,0.0,0.0,0.004999,4259850,4325386,4028193,396809,0,0,895,8,28,8,21,4,0,0,0,0,0,0,0
565375568,565275245,0.00034533796,0.009390095,0.030384397,67240471,0,0.5878975,0.45895326,0.039836213,0.04448374,0.0544256,0.0038975605,0.0,0.0,0.0,0.004999,4259850,4325386,4028193,396809,0,0,895,8,28,8,21,4,0,0,0,0,0,0,0
565575424,565475223,0.00041719092,0.0024783914,0.013714641,67240471,0,0.5890365,0.458074,0.050846577,0.04977732,0.054040827,0.005721866,0.0,0.0,0.0,0.004999,4259850,4325386,4028193,396809,0,0,895,8,28,8,21,4,0,0,0,0,0,0,0
565775519,565675201,0.00042172763,0.008380838,0.027304273,67240471,0,0.58409894,0.45500427,0.03799026,0.032216128,0.056431133,0.004547868,0.0,0.0,0.0,0.004999,4259850,4325386,4028193,396809,0,0,895,8,28,8,21,4,0,0,0,0,0,0,0
565975373,565875178,0.00024513187,0.0031823216,0.014072538,67240471,0,0.5869202,0.45863894,0.030596722,0.045484193,0.05399145,0.0063048084,0.0,0.0,0.0,0.004999,4259850,4325386,4028193,396809,0,0,895,8,28,8,21,4,0,0,0,0,0,0,0
566167853,566065157,0.00025415688,0.008380745,0.026703386,67240471,0,0.5812357,0.45471808,0.020187313,0.038208727,0.052250195,0.008224653,0.0,0.0,0.0,0.004999,4259850,4325386,4028193,396809,0,0,895,8,28,8,21,4,0,0,0,0,0,0,0
566375417,566275134,0.00029520888,0.010012922,0.027065182,67240471,0,0.5860399,0.45562473,0.02296462,0.04275197,0.049039654,0.0037843978,0.0,0.0,0.0,0.004999,4259850,4325386,4028193,396809,0,0,895,8,28,8,21,4,0,0,0,0,0,0,0
566575359,566475112,0.00020806311,0.008745325,0.02451579,67240471,0,0.5875744,0.45873892,0.020825813,0.009373527,0.04706695,0.00872408,0.0,0.0,0.0,0.004999,4259850,4325386,4028193,396809,0,0,895,8,28,8,21,4,0,0,0,0,0,0,0
566775290,566675090,0.0005629143,0.02107408,0.045859363,67240471,0,0.59052515,0.4584598,0.028350541,0.10670625,0.042206198,0.005186866,0.0,0.0,0.0,0.004999,4259850,4325386,4028193,396809,0,0,895,8,28,8,21,4,0,0,0,0,0,0,0
566975362,566875067,0.00041169807,0.014805945,0.03422861,67240471,0,0.5929376,0.4579544,0.032134846,0.045267154,0.03985845,0.0042119585,0.0,0.0,0.0,0.004999,4259850,4325386,4028193,396809,0,0,895,8,28,8,21,4,0,0,0,0,0,0,0
567175241,567075045,0.00029289932,0.011346921,0.028196389,67240471,0,0.59423876,0.4609591,0.036316965,0.0337965,0.03861924,0.00881961,0.0,0.0,0.0,0.004999,4259850,4325386,4028193,396809,0,0,895,8,28,8,21,4,0,0,0,0,0,0,0
567375221,567275023,0.0003598936,0.0111839175,0.027847739,67240471,0,0.59710133,0.46054727,0.035534795,0.04356625,0.038209215,0.007336066,0.0,0.0,0.0,0.004999,4259850,4325386,4028193,396809,0,0,895,8,28,8,21,4,0,0,0,0,0,0,0
567575265,567475001,0.0004058585,0.015158886,0.035853975,67240471,0,0.60003334,0.46014524,0.01971235,0.08064865,0.036973596,0.0014431039,0.0,0.0,0.0,0.004999,4259850,4325386,4028193,396809,0,0,895,8,28,8,21,4,0,0,0,0,0,0,0
567775179,567674979,0.0008444315,0.032622382,0.07234222,67240471,0,0.6041648,0.46415633,0.018563172,0.16720663,0.0418311,0.0016695549,0.0,0.0,0.0,0.004999,4259850,4325386,4028193,396809,0,0,895,8,28,8,21,4,0,0,0,0,0,0,0
567975159,567874957,0.00026216745,0.01339392,0.035158303,67240471,0,0.6077195,0.46391904,0.011944177,0.016071664,0.04047433,0.022622904,0.0,0.0,0.0,0.004999,4259850,4325386,4028193,396809,0,0,895,8,28,8,21,4,0,0,0,0,0,0,0
568175216,568074934,0.00038130465,0.0098146275,0.017559266,67240471,0,0.6079545,0.46252805,0.016390493,0.049601395,0.0394037,0.005698626,0.0,0.0,0.0,0.004999,4259850,4325386,4028193,396809,0,0,895,8,28,8,21,4,0,0,0,0,0,0,0
568375138,568274912,0.00021713923,0.011245837,0.02085649,67240471,0,0.6099746,0.46167973,0.02126115,0.0181345,0.03929064,0.0107542,0.0,0.0,0.0,0.004999,4259850,4325386,4028193,396809,0,0,895,8,28,8,21,4,0,0,0,0,0,0,0
568570113,568464891,0.00026315718,0.011966645,0.024671922,67240471,0,0.61328703,0.4648538,0.033899024,0.019229027,0.039174564,0.008619225,0.0,0.0,0.0,0.004999,4259850,4325386,4028193,396809,0,0,895,8,28,8,21,4,0,0,0,0,0,0,0
568775088,568674868,0.0012869448,0.049774613,0.10154733,67240471,0,0.6189324,0.4656626,0.03322515,0.31939018,0.03506356,0.005187179,0.0,0.0,0.0,0.004999,4259850,4325386,4028193,396809,0,0,895,8,28,8,21,4,0,1,0,0,0,0,0
568975057,568874846,0.00030594706,0.020756986,0.04627812,67240471,0,0.62356853,0.46561655,0.01889598,0.04568569,0.036382478,0.015204516,0.0,0.0,0.0,0.004999,4259850,4325386,4028193,396809,0,0,895,8,28,8,21,4,0,0,0,0,0,0,0
569175021,569074824,0.0003163722,0.008705769,0.018922554,67240471,0,0.6229895,0.46811455,0.025396299,0.06571311,0.037407167,0.023627423,0.0,0.0,0.0,0.004999,4259850,4325386,4028193,396809,0,0,895,8,28,8,21,4,0,0,0,0,0,0,0
569374997,569274802,0.00047641015,0.015839102,0.033049084,67240471,0,0.62550414,0.46743223,0.03243076,0.07362251,0.03577991,0.008094232,0.0,0.0,0.0,0.004999,4259850,4325386,4028193,396809,0,0,895,8,28,8,21,4,0,0,0,0,0,0,0
569574977,569474779,0.00055238814,0.022237122,0.04783965,67240471,0,0.63007796,0.46736777,0.033101894,0.107188754,0.033385005,0.014671603,0.0,0.0,0.0,0.004999,4259850,4325386,4028193,396809,0,0,895,8,28,8,21,4,0,0,0,0,0,0,0
569774957,569674757,0.00032915757,0.012728956,0.028828476,67240471,0,0.6276472,0.46930203,0.026650107,0.036516804,0.03302664,0.0061268504,0.0,0.0,0.0,0.004999,4259850,4325386,4028193,396809,0,0,895,8,28,8,21,4,0,0,0,0,0,0,0
569974950,569874736,0.0003022644,0.0052811694,0.013673197,67240471,0,0.62973386,0.468432,0.026908787,0.032968823,0.03387933,0.009563026,0.0,0.0,0.0,0.004999,4259850,4325386,4028193,396809,0,0,895,8,28,8,21,4,0,0,0,0,0,0,0
570174940,570074713,0.0003571712,0.013554535,0.031034594,67240471,0,0.63453174,0.4684253,0.01861745,0.060284402,0.033937346,0.024041949,0.0,0.0,0.0,0.004999,4259850,4325386,4028193,396809,0,0,895,8,28,8,21,4,0,0,0,0,0,0,0
570374931,570274691,0.00038138937,0.0077726417,0.018303365,67240471,0,0.638418,0.46808577,0.01979409,0.10789056,0.028989943,0.022028448,0.0,0.0,0.0,0.004999,4259850,4325386,4028193,396809,0,0,895,8,28,8,21,4,0,0,0,0,0,0,0
570574867,570474669,0.00027347865,0.005911615,0.01815374,67240471,0,0.6451395,0.47279277,0.027083,0.045512892,0.028142285,0.018812936,0.0,0.0,0.0,0.004999,4259850,4325386,4028193,396809,0,0,895,8,28,8,21,4,0,0,0,0,0,0,0
570774888,570674646,0.0002515409,0.006732683,0.02092761,67240471,0,0.6523984,0.4733428,0.029065914,0.05040692,0.02557659,0.0103833405,0.0,0.0,0.0,0.004999,4259850,4325386,4028193,396809,0,0,895,8,28,8,21,4,0,0,0,0,0,0,0
570974998,570874624,0.00051405834,0.017211134,0.041371174,67240471,0,0.6579013,0.47328627,0.03444113,0.10794979,0.02561006,0.015052689,0.0,0.0,0.0,0.004999,4259850,4325386,4028193,396809,0,0,895,8,28,8,21,4,0,0,0,0,0,0,0
571174921,571074602,0.0003360175,0.011993459,0.030593645,67240471,0,0.66156054,0.4727665,0.02487555,0.04039015,0.022756757,0.008975038,0.0,0.0,0.0,0.004999,4259850,4325386,4028193,396809,0,0,895,8,28,8,21,4,0,0,0,0,0,0,0
571374777,571274580,0.00041134926,0.01553312,0.039132778,67240471,0,0.66785127,0.47730762,0.020451505,0.09706796,0.017602822,0.021260219,0.0,0.0,0.0,0.004999,4259850,4325386,4028193,396809,0,0,895,8,28,8,21,4,0,0,0,0,0,0,0
571574797,571474558,0.00037514867,0.014079998,0.036980364,67240471,0,0.67396164,0.47736344,0.017780352,0.05840751,0.01565064,0.0041091754,0.0,0.0,0.0,0.004999,4259850,4325386,4028193,396809,0,0,895,8,28,8,21,4,0,0,0,0,0,0,0
571774766,571674535,0.00017723918,0.0064811143,0.021319,67240471,0,0.67712545,0.47669578,0.015029903,0.019351954,0.013681362,0.0069255624,0.0,0.0,0.0,0.004999,4259850,4325386,4028193,396809,0,0,895,8,28,8,21,4,0,0,0,0,0,0,0
571974764,571874513,0.00019939756,0.004595456,0.0161913,67240471,0,0.68071705,0.4805948,0.020687021,0.026111847,0.01370301,0.017534612,0.0,0.0,0.0,0.004999,4259850,4325386,4028193,396809,0,0,895,8,28,8,21,4,0,0,0,0,0,0,0
572174713,572074492,0.00037066906,0.015312719,0.028789073,67240471,0,0.6809497,0.47915298,0.029075982,0.05399634,0.017930623,0.009443376,0.0,0.0,0.0,0.004999,4259850,4325386,4028193,396809,0,0,895,8,28,8,21,4,0,0,0,0,0,0,0
572374698,572274469,0.00024560504,0.0047043376,0.011829681,67240471,0,0.6853777,0.47875518,0.027224228,0.048251595,0.015368858,0.030083459,0.0,0.0,0.0,0.004999,4259850,4325386,4028193,396809,0,0,895,8,28,8,21,4,0,0,0,0,0,0,0
572574713,572474447,0.00031780617,0.0025126482,0.007160733,67240471,0,0.68576604,0.48186707,0.032350536,0.019971028,0.01635639,0.013026861,0.0,0.0,0.0,0.004999,4259850,4325386,4028193,396809,0,0,895,8,28,8,21,4,0,0,0,0,0,0,0
572774625,572674425,0.0003923915,0.015635658,0.034269005,67240471,0,0.6825976,0.4794838,0.0252282,0.053436186,0.018252479,0.017163495,0.0,0.0,0.0,0.004999,4259850,4325386,4028193,396809,0,0,895,8,28,8,21,4,0,0,0,0,0,0,0
572974600,572874403,0.0003539856,0.0171449,0.038834564,67240471,0,0.6864156,0.47891006,0.01914767,0.0380134,0.02157857,0.012853234,0.0,0.0,0.0,0.004999,4259850,4325386,4028193,396809,0,0,895,8,28,8,21,4,0,0,0,0,0,0,0
573174647,573074381,0.0001426969,0.007852256,0.019898703,67240471,0,0.6906625,0.48295194,0.006506103,0.045856778,0.019856064,0.010607416,0.0,0.0,0.0,0.004999,4259850,4325386,4028193,396809,0,0,895,8,28,8,21,4,0,0,0,0,0,0,0
573374561,573274359,0.000295216,0.015123788,0.036163162,67240471,0,0.6791722,0.4783318,0.0153371,0.03658312,0.02151014,0.0113263605,0.0,0.0,0.0,0.004999,4259850,4325386,4028193,396809,0,0,895,8,28,8,21,4,0,0,0,0,0,0,0
573574531,573474336,0.0001539187,0.0068424116,0.016649649,67240471,0,0.67805845,0.47644195,0.011787683,0.031028796,0.026549852,0.023793858,0.0,0.0,0.0,0.004999,4259850,4325386,4028193,396809,0,0,895,8,28,8,21,4,0,0,0,0,0,0,0
573774707,573674314,0.00013647534,0.0024907507,0.011692423,67240471,0,0.680773,0.47566384,0.009854485,0.024142116,0.030291615,0.021489775,0.0,0.0,0.0,0.004999,4259850,4325386,4028193,396809,0,0,895,8,28,8,21,4,0,0,0,0,0,0,0
573974495,573874292,0.00028490243,0.0090029,0.020338273,131607,0,0.6820339,0.47896835,0.02537523,0.06300266,0.03347329,0.013201949,0.0,0.0,0.0,0.004999,4259850,4325386,4028193,396809,0,0,895,8,28,8,21,4,0,0,0,0,0,0,0
574174469,574074270,0.00028115258,0.0057741012,0.009350118,131607,0,0.6803857,0.47703454,0.013528377,0.058620933,0.03801294,0.027419783,0.0,0.0,0.0,0.004999,4259850,4325386,4028193,396809,0,0,895,8,28,8,21,4,0,0,0,0,0,0,0
574374494,574274248,0.00013800633,0.007564805,0.026983315,131607,0,0.67867833,0.4750701,0.010737654,0.02288037,0.04034996,0.03556954,0.0,0.0,0.0,0.004999,4259850,4325386,4028193,396809,0,0,895,8,28,8,21,4,0,0,0,0,0,0,0
574574464,574474226,0.00021892137,0.0050573335,0.014100518,131607,0,0.6781377,0.47786656,0.027171774,0.042849556,0.038761485,0.0076921373,0.0,0.0,0.0,0.004999,4259850,4325386,4028193,396809,0,0,895,8,28,8,21,4,0,0,0,0,0,0,0
574774400,574674203,0.0003102443,0.0064291535,0.022282133,131607,0,0.6778574,0.4762914,0.03327365,0.030273737,0.038470767,0.014674384,0.0,0.0,0.0,0.004999,4259850,4325386,4028193,396809,0,0,895,8,28,8,21,4,0,0,0,0,0,0,0
574974390,574874181,0.00043204305,0.011412411,0.02802841,131607,0,0.67697513,0.47456697,0.029723026,0.06558588,0.037509125,0.009011887,0.0,0.0,0.0,0.004999,4259850,4325386,4028193,396809,0,0,895,8,28,8,21,4,0,0,0,0,0,0,0
575174363,575074159,0.00024540178,0.008658714,0.025561405,131607,0,0.6749794,0.47692236,0.028818814,0.0176672,0.038523603,0.0037089812,0.0,0.0,0.0,0.004999,4259850,4325386,4028193,396809,0,0,895,8,28,8,21,4,0,0,0,0,0,0,0
575374334,575274137,0.0004493045,0.019504467,0.050001875,131607,0,0.6699448,0.47388965,0.021691585,0.06337209,0.03865178,0.000345167,0.0,0.0,0.0,0.004999,4259850,4325386,4028193,396809,0,0,895,8,28,8,21,4,0,0,0,0,0,0,0
575574314,575474115,0.0002017462,0.011857643,0.033380102,67240471,0,0.66597176,0.47121352,0.007660774,0.007815061,0.036491197,0.013318984,0.0,0.0,0.0,0.004999,4259850,4325386,4028193,396809,0,0,895,8,28,8,21,4,0,0,0,0,0,0,0
575774317,575674093,0.00048477136,0.024151692,0.060167618,67240471,0,0.6658943,0.4697937,0.0036241633,0.10877824,0.039710175,0.006547266,0.0,0.0,0.0,0.004999,4259850,4325386,4028193,396809,0,0,895,8,28,8,21,4,0,0,0,0,0,0,0
575974267,575874071,0.00037260927,0.018705314,0.0480908,67240471,0,0.66607046,0.4727283,0.0192819,0.04343845,0.037233964,0.019272164,0.0,0.0,0.0,0.004999,4259850,4325386,4028193,396809,0,0,895,8,28,8,21,4,0,0,0,0,0,0,0
576174257,576074048,0.00042591503,0.01431548,0.039936006,67240471,0,0.6668372,0.4715824,0.043281596,0.04386369,0.035850115,0.017358825,0.0,0.0,0.0,0.004999,4259850,4325386,4028193,396809,0,0,895,8,28,8,21,4,0,0,0,0,0,0,0
576374244,576274026,0.000366029,0.011769523,0.03756147,67240471,0,0.6677025,0.47047365,0.03688806,0.031432804,0.03847996,0.0084728645,0.0,0.0,0.0,0.004999,4259850,4325386,4028193,396809,0,0,895,8,28,8,21,4,0,0,0,0,0,0,0
576574316,576474004,0.00036877693,0.003960743,0.019977545,67240471,0,0.6687789,0.46944466,0.037177887,0.028907765,0.03786972,0.011753702,0.0,0.0,0.0,0.004999,4259850,4325386,4028193,396809,0,0,895,8,28,8,21,4,0,0,0,0,0,0,0
576774201,576673982,0.0003194358,0.00786068,0.021490695,67240471,0,0.6709184,0.4730075,0.025205318,0.036403384,0.03721571,0.0029312125,0.0,0.0,0.0,0.004999,4259850,4325386,4028193,396809,0,0,895,8,28,8,21,4,0,0,0,0,0,0,0
576974174,576873960,0.00022537028,0.007469911,0.018487426,67240471,0,0.6732412,0.47227627,0.018477738,0.029093226,0.035689153,0.011400327,0.0,0.0,0.0,0.004999,4259850,4325386,4028193,396809,0,0,895,8,28,8,21,4,0,0,0,0,0,0,0
577174301,577073938,0.0002687812,0.006915437,0.01769933,67240471,0,0.6734846,0.470924,0.015424051,0.037024036,0.03570171,0.0029652556,0.0,0.0,0.0,0.004999,4259850,4325386,4028193,396809,0,0,895,8,28,8,21,4,0,0,0,0,0,0,0
577374112,577273915,0.00030838585,0.009572119,0.02270409,67240471,0,0.675996,0.47458094,0.0099362545,0.043019526,0.03730778,0.004651641,0.0,0.0,0.0,0.004999,4259850,4325386,4028193,396809,0,0,895,8,28,8,21,4,0,0,0,0,0,0,0
577574115,577473893,0.00035944697,0.013607338,0.03325625,67240471,0,0.67919433,0.47407237,0.0033447267,0.0679955,0.036604945,0.006276238,0.0,0.0,0.0,0.004999,4259850,4325386,4028193,396809,0,0,895,8,28,8,21,4,0,0,0,0,0,0,0
577774139,577673871,0.0003383205,0.010836505,0.026491193,67240471,0,0.6822096,0.47350502,0.019301722,0.06006659,0.037713744,0.01651416,0.0,0.0,0.0,0.004999,4259850,4325386,4028193,396809,0,0,895,8,28,8,21,4,0,0,0,0,0,0,0
577974049,577873849,0.0011789982,0.0434657,0.09616865,67240471,0,0.6818306,0.47632834,0.017889284,0.2060217,0.039223768,0.0123052215,0.0,0.0,0.0,0.004999,4259850,4325386,4028193,396809,0,0,895,8,28,8,21,4,0,0,0,0,0,0,0
578174037,578073827,0.00038535628,0.018281968,0.046227824,67240471,0,0.6843671,0.47557664,0.025724862,0.026396414,0.034172438,0.0058246967,0.0,0.0,0.0,0.004999,4259850,4325386,4028193,396809,0,0,895,8,28,8,21,4,0,0,0,0,0,0,0
578374034,578273804,0.00030486123,0.010005493,0.02914982,67240471,0,0.68618274,0.47463423,0.029522898,0.040588256,0.034284897,0.0027830824,0.0,0.0,0.0,0.004999,4259850,4325386,4028193,396809,0,0,895,8,28,8,21,4,0,0,0,0,0,0,0
578573984,578473782,0.00036100674,0.0055454196,0.016860204,67240471,0,0.6887891,0.4782938,0.026261773,0.051152576,0.034978814,0.02238017,0.0,0.0,0.0,0.004999,4259850,4325386,4028193,396809,0,0,895,8,28,8,21,4,0,0,0,0,0,0,0
578774023,578673760,0.0003304899,0.0039296052,0.007157198,67240471,0,0.6881663,0.47665468,0.024180328,0.015898416,0.032401897,0.0030713002,0.0,0.0,0.0,0.004999,4259850,4325386,4028193,396809,0,0,895,8,28,8,21,4,0,0,0,0,0,0,0
578973936,578873738,0.00033102944,0.007465585,0.012964931,67240471,0,0.69060457,0.4758834,0.02168429,0.049693625,0.03283718,0.005867172,0.0,0.0,0.0,0.004999,4259850,4325386,4028193,396809,0,0,895,8,28,8,21,4,0,0,0,0,0,0,0
579173974,579073716,0.00039112443,0.007705702,0.018247139,67240471,0,0.6858373,0.4730574,0.025601914,0.04321027,0.032521036,0.0022246195,0.0,0.0,0.0,0.004999,4259850,4325386,4028193,396809,0,0,895,8,28,8,21,4,0,0,0,0,0,0,0
579374023,579273693,0.00036593585,0.0061604693,0.014213301,67240471,0,0.6887514,0.4767909,0.03183744,0.032165557,0.03043635,0.0056531485,0.0,0.0,0.0,0.004999,4259850,4325386,4028193,396809,0,0,895,8,28,8,21,4,0,0,0,0,0,0,0
579573868,579473671,0.0003122398,0.004514018,0.011763815,67240471,0,0.6933644,0.4765389,0.035962828,0.026292862,0.030604217,0.0049262587,0.0,0.0,0.0,0.004999,4259850,4325386,4028193,396809,0,0,895,8,28,8,21,4,0,0,0,0,0,0,0
579773845,579673649,0.00038856917,0.013182084,0.031433884,67240471,0,0.69635236,0.47582242,0.041256893,0.04752264,0.030365678,0.010080483,0.0,0.0,0.0,0.004999,4259850,4325386,4028193,396809,0,0,895,8,28,8,21,4,0,0,0,0,0,0,0
579974032,579873627,0.00052262266,0.016193189,0.03708564,67240471,0,0.6990036,0.47943807,0.057139173,0.029920802,0.03346944,0.006438667,0.0,0.0,0.0,0.004999,4259850,4325386,4028193,396809,0,0,895,8,28,8,21,4,0,0,0,0,0,0,0
580173829,580073605,0.00047775137,0.0063984026,0.02090204,67240471,0,0.7042397,0.47921172,0.04815655,0.06111661,0.03589076,0.0063786306,0.0,0.0,0.0,0.004999,4259850,4325386,4028193,396809,0,0,895,8,28,8,21,4,0,0,0,0,0,0,0
580373781,580273582,0.00045977812,0.0069408054,0.023945162,131607,0,0.7060794,0.47808343,0.030891137,0.044624485,0.03498922,0.0059744143,0.0,0.0,0.0,0.004999,4259850,4325386,4028193,396809,0,0,895,8,28,8,21,4,0,0,0,0,0,0,0
580573811,580473560,0.00039537004,0.008498572,0.024809733,131607,0,0.7106211,0.48217034,0.039903637,0.061215833,0.031458642,0.0064382316,0.0,0.0,0.0,0.004999,4259850,4325386,4028193,396809,0,0,895,8,28,8,21,4,0,0,0,0,0,0,0
580773801,580673538,0.00041552426,0.008562325,0.025068164,131607,0,0.70779175,0.47981828,0.043289546,0.038027324,0.032057364,0.0041777636,0.0,0.0,0.0,0.004999,4259850,4325386,4028193,396809,0,0,895,8,28,8,21,4,0,0,0,0,0,0,0
580973771,580873516,0.0007492462,0.02233452,0.053736582,131607,0,0.71138537,0.47911704,0.066055,0.11521932,0.03764841,0.0036011392,0.0,0.0,0.0,0.004999,4259850,4325386,4028193,396809,0,0,895,8,28,8,21,4,0,0,0,0,0,0,0
581173772,581073494,0.00080609246,0.021714667,0.05423064,131607,0,0.71579224,0.47858617,0.070045814,0.09045586,0.039890707,0.0024638206,0.0,0.0,0.0,0.004999,4259850,4325386,4028193,396809,0,0,895,8,28,8,21,4,0,0,0,0,0,0,0
581373678,581273475,0.00076023256,0.014374325,0.033109207,67240471,0,0.7213649,0.48281458,0.056875937,0.1251613,0.041984968,0.0073313504,0.0,0.0,0.0,0.004999,4259850,4325386,4028193,396809,0,0,895,8,28,8,21,4,0,0,0,0,0,0,0
581573673,581473450,0.0009494483,0.033436544,0.07520265,131607,0,0.726529,0.48245668,0.021444196,0.15793948,0.048105497,0.009615681,0.0,0.0,0.0,0.004999,4259850,4325386,4028193,396809,0,0,895,8,28,8,21,4,0,0,0,0,0,0,0
581773632,581673427,0.00060982857,0.027112626,0.06709429,131607,0,0.72263104,0.4799546,0.010485678,0.0796242,0.046408977,0.008989245,0.0,0.0,0.0,0.004999,4259850,4325386,4028193,396809,0,0,895,8,28,8,21,4,0,0,0,0,0,0,0
581973609,581873405,0.00053564983,0.014817342,0.038116213,131607,0,0.72055745,0.48240548,0.0032083637,0.097393885,0.039385125,0.008810102,0.0,0.0,0.0,0.004999,4259850,4325386,4028193,396809,0,0,895,8,28,8,21,4,0,0,0,0,0,0,0
582173599,582073382,0.00019065764,0.005911498,0.0174079,131607,0,0.71735686,0.47998703,0.00036028103,0.03527123,0.033911448,0.0013082145,0.0,0.0,0.0,0.004999,4259850,4325386,4028193,396809,0,0,895,8,28,8,21,4,0,0,0,0,0,0,0
582373560,582273360,0.00025146102,0.0153209735,0.034736257,131607,0,0.70812315,0.47585887,0.014023206,0.075066715,0.026305791,0.006290248,0.0,0.0,0.0,0.004999,4259850,4325386,4028193,396809,0,0,895,8,28,8,21,4,0,0,0,0,0,0,0
582573586,582473338,0.000623168,0.031009022,0.07366273,67240471,0,0.7151619,0.4761545,0.021838045,0.1898685,0.018693635,0.0034233355,0.0,0.0,0.0,0.004999,4259850,4325386,4028193,396809,0,0,895,8,28,8,21,4,0,1,0,0,0,0,0
582773618,582673315,0.00019518303,0.019230055,0.053280566,67240471,0,0.71828794,0.47982574,0.0191483,0.014238722,0.019186737,0.00259269,0.0,0.0,0.0,0.004999,4259850,4325386,4028193,396809,0,0,895,8,28,8,21,4,0,0,0,0,0,0,0
582973546,582873293,0.0003382221,0.020286757,0.05312003,67240471,0,0.72240883,0.4793905,0.016877998,0.08685687,0.016750745,0.0056180255,0.0,0.0,0.0,0.004999,4259850,4325386,4028193,396809,0,0,895,8,28,8,21,4,0,0,0,0,0,0,0
583173499,583073270,0.0002942559,0.021763017,0.059176758,67240471,0,0.72254825,0.4778674,0.016878912,0.04780167,0.015815336,0.0026102997,0.0,0.0,0.0,0.004999,4259850,4325386,4028193,396809,0,0,895,8,28,8,21,4,0,0,0,0,0,0,0
583373519,583273248,0.00016988174,0.01702785,0.0480812,67240471,0,0.72045314,0.4803054,0.005196471,0.031368013,0.015706155,0.0005627754,0.0,0.0,0.0,0.004999,4259850,4325386,4028193,396809,0,0,895,8,28,8,21,4,0,0,0,0,0,0,0
583573422,583473226,7.739083e-05,0.0139834415,0.042611934,67240471,0,0.72127175,0.47901103,0.0052214838,0.016550034,0.016845005,0.004064301,0.0,0.0,0.0,0.004999,4259850,4325386,4028193,396809,0,0,895,8,28,8,21,4,0,0,0,0,0,0,0
583773402,583673204,0.00022854676,0.0037059989,0.01538808,67240471,0,0.7186396,0.47682652,0.008315142,0.048455287,0.015630934,0.007374553,0.0,0.0,0.0,0.004999,4259850,4325386,4028193,396809,0,0,895,8,28,8,21,4,0,0,0,0,0,0,0
583973381,583873181,0.00024873484,0.011205807,0.03408059,67240471,0,0.7190921,0.4799163,0.032065347,0.04307896,0.014982891,0.0026015155,0.0,0.0,0.0,0.004999,4259850,4325386,4028193,396809,0,0,895,8,28,8,21,4,0,0,0,0,0,0,0
584173360,584073159,0.0005966686,0.022906644,0.058552537,67240471,0,0.72110933,0.47900105,0.028747778,0.1059621,0.014767212,0.001632631,0.0,0.0,0.0,0.004999,4259850,4325386,4028193,396809,0,0,895,8,28,8,21,4,0,0,0,0,0,0,0
584373331,584273136,0.00029102564,0.01547491,0.04516342,67240471,0,0.7195291,0.47713855,0.026651371,0.051438984,0.008411712,0.0036048729,0.0,0.0,0.0,0.004999,4259850,4325386,4028193,396809,0,0,895,8,28,8,21,4,0,0,0,0,0,0,0
584573384,584473114,0.00043333918,0.013114165,0.035049174,67240471,0,0.70846945,0.4725062,0.024624815,0.049715996,0.0048395274,0.007276175,0.0,0.0,0.0,0.004999,4259850,4325386,4028193,396809,0,0,895,8,28,8,21,4,0,0,0,0,0,0,0
584773360,584673092,0.00029770378,0.007875075,0.025120178,67240471,0,0.7113704,0.47629586,0.025855154,0.06395268,0.007865836,0.0045279562,0.0,0.0,0.0,0.004999,4259850,4325386,4028193,396809,0,0,895,8,28,8,21,4,0,0,0,0,0,0,0
584973266,584873070,0.00031982613,0.010307824,0.032215297,67240471,0,0.71248436,0.47520092,0.040159024,0.033139024,0.0102442745,0.009201197,0.0,0.0,0.0,0.004999,4259850,4325386,4028193,396809,0,0,895,8,28,8,21,4,0,0,0,0,0,0,0
585173271,585073047,0.00057176966,0.018771773,0.047270533,67240471,0,0.71580917,0.47473922,0.0447124,0.08513314,0.009811629,0.0054406696,0.0,0.0,0.0,0.004999,4259850,4325386,4028193,396809,0,0,895,8,28,8,21,4,0,0,0,0,0,0,0
585373274,585273025,0.00051442796,0.010155389,0.027259903,67240471,0,0.7161012,0.47784376,0.05428505,0.010442774,0.0061853584,0.009184956,0.0,0.0,0.0,0.004999,4259850,4325386,4028193,396809,0,0,895,8,28,8,21,4,0,0,0,0,0,0,0
585573318,585473002,0.0006634705,0.018066417,0.03999751,67240471,0,0.7187685,0.4772429,0.045548927,0.09560107,0.008235808,0.01225548,0.0,0.0,0.0,0.004999,4259850,4325386,4028193,396809,0,0,895,8,28,8,21,4,0,0,0,0,0,0,0
585773177,585672980,0.0004254069,0.01022647,0.024900582,67240471,0,0.7223562,0.47686815,0.04683966,0.0155519815,0.0075152977,0.02158891,0.0,0.0,0.0,0.004999,4259850,4325386,4028193,396809,0,0,895,8,28,8,21,4,0,0,0,0,0,0,0
585973157,585872957,0.00040281893,0.0031332728,0.0097283665,67240471,0,0.7238018,0.480415,0.046077885,0.008331795,0.0056102537,0.007923178,0.0,0.0,0.0,0.004999,4259850,4325386,4028193,396809,0,0,895,8,28,8,21,4,0,0,0,0,0,0,0
586173304,586072935,0.00036523613,0.0022388636,0.004990057,67240471,0,0.726737,0.47982827,0.03549917,0.013267142,0.0056553995,0.0043090573,0.0,0.0,0.0,0.004999,4259850,4325386,4028193,396809,0,0,895,8,28,8,21,4,0,0,0,0,0,0,0
586373111,586272913,0.00030257704,0.006812318,0.019175379,67240471,0,0.72618824,0.47835582,0.028636437,0.03637543,0.004704321,0.008293923,0.0,0.0,0.0,0.004999,4259850,4325386,4028193,396809,0,0,895,8,28,8,21,4,0,0,0,0,0,0,0
586573115,586472890,0.00055678707,0.01674035,0.038861886,67240471,0,0.72647905,0.4770966,0.046242617,0.09291293,0.004279614,0.0039181607,0.0,0.0,0.0,0.004999,4259850,4325386,4028193,396809,0,0,895,8,28,8,21,4,0,0,0,0,0,0,0
586773149,586672868,0.0006821601,0.022625104,0.05432779,67240471,0,0.7232259,0.47935992,0.05667526,0.08691777,0.0024775553,0.0049481145,0.0,0.0,0.0,0.004999,4259850,4325386,4028193,396809,0,0,895,8,28,8,21,4,0,0,0,0,0,0,0
586973044,586872845,0.00044184772,0.010781791,0.029972982,67240471,0,0.7255456,0.47864035,0.050569076,0.046693835,0.005388339,0.0074773855,0.0,0.0,0.0,0.004999,4259850,4325386,4028193,396809,0,0,895,8,28,8,21,4,0,0,0,0,0,0,0
587173022,587072823,0.0005387577,0.014300404,0.038026385,67240471,0,0.7280613,0.47793838,0.060236007,0.07306865,0.007247556,0.0052333106,0.0,0.0,0.0,0.004999,4259850,4325386,4028193,396809,0,0,895,8,28,8,21,4,0,0,0,0,0,0,0
587373053,587272800,0.0006441024,0.01376053,0.035763454,67240471,0,0.7277953,0.4809752,0.06898371,0.04670548,0.007859253,0.010556406,0.0,0.0,0.0,0.004999,4259850,4325386,4028193,396809,0,0,895,8,28,8,21,4,0,0,0,0,0,0,0
587572976,587472778,0.00051123573,0.015309137,0.038223613,67240471,0,0.7178373,0.47684914,0.054208823,0.06519892,0.0059573897,0.0029640358,0.0,0.0,0.0,0.004999,4259850,4325386,4028193,396809,0,0,895,8,28,8,21,4,0,0,0,0,0,0,0
587772952,587672755,0.00055441575,0.019401267,0.0473464,67240471,0,0.70901656,0.4728323,0.045537684,0.044597067,0.0059896833,0.004358294,0.0,0.0,0.0,0.004999,4259850,4325386,4028193,396809,0,0,895,8,28,8,21,4,0,0,0,0,0,0,0
587972972,587872737,0.0005386637,0.016202187,0.038539343,67240471,0,0.7062057,0.47054368,0.046285726,0.055609297,0.004850796,0.0004246634,0.0,0.0,0.0,0.004999,4259850,4325386,4028193,396809,0,0,895,8,28,8,21,4,0,0,0,0,0,0,0
588172906,588072710,0.0004370992,0.0133891,0.02963729,67240471,0,0.7034775,0.47257832,0.045118857,0.04960983,0.007235938,0.005460307,0.0,0.0,0.0,0.004999,4259850,4325386,4028193,396809,0,0,895,8,28,8,21,4,0,0,0,0,0,0,0
588372916,588272688,0.00044186364,0.0031349345,0.007174942,67240471,0,0.7064152,0.47212675,0.054114588,0.04776292,0.009566286,0.0039373613,0.0,0.0,0.0,0.004999,4259850,4325386,4028193,396809,0,0,895,8,28,8,21,4,0,0,0,0,0,0,0
588572890,588472665,0.00057023513,0.004371925,0.0075018583,67240471,0,0.7000929,0.46871537,0.06346548,0.035401464,0.010187209,0.005958241,0.0,0.0,0.0,0.004999,4259850,4325386,4028193,396809,0,0,895,8,28,8,21,4,0,0,0,0,0,0,0
588772840,588672642,0.0004968026,0.007454939,0.018258352,67240471,0,0.7037197,0.47276717,0.06541881,0.05226834,0.01398965,0.0011483439,0.0,0.0,0.0,0.004999,4259850,4325386,4028193,396809,0,0,895,8,28,8,21,4,0,0,0,0,0,0,0
588972970,588872620,0.00055002084,0.004928063,0.015033499,67240471,0,0.69957876,0.46999675,0.06189131,0.056805044,0.0148902815,0.0060071955,0.0,0.0,0.0,0.004999,4259850,4325386,4028193,396809,0,0,895,8,28,8,21,4,0,0,0,0,0,0,0
589172832,589072597,0.0006371464,0.010909221,0.018264119,67240471,0,0.7004226,0.4688962,0.04732844,0.0968511,0.014263287,0.002832958,0.0,0.0,0.0,0.004999,4259850,4325386,4028193,396809,0,0,895,8,28,8,21,4,0,0,0,0,0,0,0
589372777,589272575,0.0002939528,0.004128079,0.008742148,67240471,0,0.70195633,0.4722388,0.026472954,0.047234014,0.015915692,0.018781967,0.0,0.0,0.0,0.004999,4259850,4325386,4028193,396809,0,0,895,8,28,8,21,4,0,0,0,0,0,0,0
589572799,589472552,0.00025257026,0.0053036283,0.011525452,67240471,0,0.70069456,0.47040537,0.023654165,0.035753813,0.014935986,0.004343467,0.0,0.0,0.0,0.004999,4259850,4325386,4028193,396809,0,0,895,8,28,8,21,4,0,0,0,0,0,0,0
589772735,589672530,0.00041916428,0.009274961,0.024192937,67240471,0,0.70301586,0.46974874,0.03244979,0.050619237,0.017243143,0.0046674614,0.0,0.0,0.0,0.004999,4259850,4325386,4028193,396809,0,0,895,8,28,8,21,4,0,0,0,0,0,0,0
589972743,589872507,0.00027977492,0.006605547,0.023301456,67240471,0,0.7070611,0.4695779,0.038264636,0.028785009,0.016718369,0.008196356,0.0,0.0,0.0,0.004999,4259850,4325386,4028193,396809,0,0,895,8,28,8,21,4,0,0,0,0,0,0,0
590172711,590072484,0.00034239978,0.010957477,0.030586569,67240471,0,0.7071109,0.47248393,0.03154681,0.06210474,0.018419698,0.0025818602,0.0,0.0,0.0,0.004999,4259850,4325386,4028193,396809,0,0,895,8,28,8,21,4,0,0,0,0,0,0,0
590372710,590272462,0.00022673148,0.006020754,0.018089483,67240471,0,0.71108973,0.47228137,0.0065994747,0.061061416,0.018042821,0.0033182695,0.0,0.0,0.0,0.004999,4259850,4325386,4028193,396809,0,0,895,8,28,8,21,4,0,0,0,0,0,0,0
590572674,590472439,0.0002793904,0.012475352,0.030823423,67240471,0,0.7176711,0.4727137,0.022087937,0.06987747,0.016550537,0.0059210234,0.0,0.0,0.0,0.004999,4259850,4325386,4028193,396809,0,0,895,8,28,8,21,4,0,0,0,0,0,0,0
590772612,590672416,0.00014307587,0.00911555,0.023580937,67240471,0,0.7237732,0.47732183,0.0049914783,0.035717122,0.016490258,0.0057156677,0.0,0.0,0.0,0.004999,4259850,4325386,4028193,396809,0,0,895,8,28,8,21,4,0,0,0,0,0,0,0
590972589,590872394,0.00036743312,0.009572889,0.022109665,67240471,0,0.7299327,0.47750625,0.007721206,0.10412463,0.022559714,0.00085822947,0.0,0.0,0.0,0.004999,4259850,4325386,4028193,396809,0,0,895,8,28,8,21,4,0,0,0,0,0,0,0
591172619,591072371,9.194921e-05,0.0044728103,0.017326558,67240471,0,0.73256475,0.4768123,0.014818551,0.028931014,0.026598498,0.0031037591,0.0,0.0,0.0,0.004999,4259850,4325386,4028193,396809,0,0,895,8,28,8,21,4,0,0,0,0,0,0,0
591372546,591272349,8.9033114e-05,0.0056481017,0.019876845,67240471,0,0.7332138,0.48014742,0.01199486,0.018368086,0.025417505,0.004966731,0.0,0.0,0.0,0.004999,4259850,4325386,4028193,396809,0,0,895,8,28,8,21,4,0,0,0,0,0,0,0
591572526,591472326,0.00015065396,0.007260401,0.022195172,67240471,0,0.72975206,0.47795004,0.0015402749,0.02888605,0.02560682,0.0058841975,0.0,0.0,0.0,0.004999,4259850,4325386,4028193,396809,0,0,895,8,28,8,21,4,0,0,0,0,0,0,0
591772578,591672303,6.420258e-05,0.00572451,0.021210594,67240471,0,0.7310135,0.47695044,0.002693117,0.013513363,0.02694836,0.007846039,0.0,0.0,0.0,0.004999,4259850,4325386,4028193,396809,0,0,895,8,28,8,21,4,0,0,0,0,0,0,0
591977548,591872280,0.00036104594,0.015252453,0.037790824,67240471,0,0.7370452,0.4771498,0.0027516908,0.10215417,0.028474502,0.005642277,0.0,0.0,0.0,0.004999,4259850,4325386,4028193,396809,0,0,895,8,28,8,21,4,0,0,0,0,0,0,0
592172455,592072257,0.00049890316,0.023127122,0.057418842,131607,0,0.7411207,0.48131934,0.004574149,0.072900295,0.030460658,0.018720316,0.0,0.0,0.0,0.004999,4259850,4325386,4028193,396809,0,0,895,8,28,8,21,4,0,0,0,0,0,0,0
