timestamp,timestamp_sample,baro_device_id,bias,bias_var,innov,innov_var,innov_test_ratio
539708801,539594913,4028193,2.922927,0.007467713,-6.9110117,16.608868,0.31952196
540108754,539969316,4028193,2.916452,0.007461499,-7.1232376,16.59219,0.33978847
540708725,540567003,4028193,2.9066827,0.0074522374,-7.349272,16.55064,0.36260292
541098681,540948676,4028193,2.9002607,0.0074460404,-7.212615,16.509295,0.35011804
541718779,541596698,4028193,2.8903,0.007436801,-7.4423714,16.394598,0.37538716
542108520,541971106,4028193,2.8837054,0.007430546,-7.3191214,16.35806,0.36386776
542708425,542561507,4028193,2.8737504,0.007421213,-7.2635794,16.337826,0.35881004
543118336,542993477,4028193,2.8671968,0.0074150586,-7.2991676,16.337818,0.36233485
543708284,543591071,4028193,2.8573377,0.0074057723,-7.3396425,16.30153,0.36717993
544108341,543972664,4028193,2.85094,0.007399563,-7.02986,16.285452,0.33717164
544708316,544563057,4028193,2.8417647,0.0073902914,-6.9454026,16.325684,0.32830763
545108279,544995075,4028193,2.835739,0.007384209,-6.603343,16.394545,0.2955193
545718048,545585498,4028193,2.826946,0.007375077,-6.354225,16.500978,0.27187735
546108093,545967163,4028193,2.8211253,0.00736903,-6.514196,16.571302,0.28452635
546718176,546615085,4028193,2.8127275,0.0073601184,-6.188221,16.654774,0.25547618
547107937,546996689,4028193,2.807255,0.007354153,-6.2425847,16.709457,0.2591338
547717835,547587137,4028193,2.7990918,0.0073452736,-6.097044,16.785734,0.24606839
548107788,547961576,4028193,2.793798,0.0073393686,-6.0605764,16.849792,0.2422093
548707782,548559069,4028193,2.7862434,0.0073306556,-5.8383427,17.001019,0.22277257
549107726,548991108,4028193,2.781303,0.007324946,-5.66549,17.084137,0.20875622
549717691,549588673,4028193,2.773932,0.00731636,-5.6444445,17.123756,0.20672874
550097651,549963097,4028193,2.7691624,0.0073106172,-5.573122,17.136995,0.20138165
550707576,550553475,4028193,2.762163,0.0073020575,-5.455591,17.114922,0.19322628
551107441,550985458,4028193,2.7574694,0.0072964095,-5.4393187,17.101702,0.1922238
551717435,551583081,4028193,2.7505953,0.007287889,-5.2967167,17.097292,0.18232393
552107491,551964671,4028193,2.746283,0.0072821993,-4.986019,17.097286,0.16156161
552707313,552555090,4028193,2.7401679,0.0072736866,-4.7677336,17.070913,0.14795332
553107270,552987170,4028193,2.7362475,0.0072680647,-4.572829,17.031496,0.13641891
553707201,553577485,4028193,2.7301896,0.007259516,-4.5602474,16.914227,0.1366099
554097352,553959082,4028193,2.726188,0.0072537926,-4.714636,16.862574,0.14646368
554707040,554556686,4028193,2.7201414,0.007245216,-4.4971266,16.751648,0.13414367
555107088,554988675,4028193,2.7162068,0.0072395066,-4.4486704,16.646267,0.13209948
555717055,555579081,4028193,2.7105167,0.0072308304,-4.402529,16.56701,0.12999232
556126925,556011065,4028193,2.7069032,0.0072250944,-4.0383863,16.529718,0.109624535
556716797,556601471,4028193,2.7011511,0.007216405,-4.3657885,16.480246,0.12850475
557116775,556983070,4028193,2.697406,0.007210608,-4.237151,16.48024,0.12104361
557726745,557580661,4028193,2.69165,0.0072019747,-4.5313206,16.517303,0.1381236
558116699,558012695,4028193,2.6879573,0.007196289,-4.201397,16.537962,0.118594065
558716675,558603093,4028193,2.6823442,0.0071877036,-4.3943415,16.562817,0.1295421
559106635,558977527,4028193,2.6787105,0.0071819755,-4.152993,16.579426,0.11558739
559716703,559575116,4028193,2.6730747,0.0071734823,-4.363236,16.62946,0.12720284
560106508,559956705,4028193,2.6694405,0.0071678204,-4.337515,16.642008,0.12561275
560706442,560604676,4028193,2.6638737,0.0071594403,-4.3778963,16.633627,0.12802698
561106306,560979094,4028193,2.660226,0.007153779,-4.2671022,16.625257,0.121690094
561706256,561569473,4028193,2.6544776,0.0071453326,-4.3700857,16.58355,0.12795576
562106266,562001515,4028193,2.6507127,0.0071397545,-4.283088,16.558619,0.12309699
562706280,562599115,4028193,2.6452184,0.007131357,-4.3299417,16.604359,0.12545833
563106306,562980733,4028193,2.641531,0.007125763,-4.299511,16.629412,0.12351472
563716024,563571167,4028193,2.6361237,0.0071173813,-4.382848,16.562746,0.12886587
564116046,564003064,4028193,2.6323206,0.007111838,-4.440282,16.52134,0.13259688
564715985,564593519,4028193,2.6266146,0.0071034436,-4.337208,16.496588,0.1267021
565115858,564975079,4028193,2.6227453,0.0070978473,-4.4893723,16.488352,0.13581616
565715882,565572659,4028193,2.617093,0.0070895012,-4.314989,16.48423,0.1255013
566125861,566004700,4028193,2.6132667,0.007083991,-4.384808,16.484224,0.12959556
566715732,566595075,4028193,2.6075814,0.007075662,-4.2701483,16.492443,0.12284526
567105653,566969493,4028193,2.6038644,0.007070105,-4.3353453,16.529562,0.12634078
567715762,567567085,4028193,2.5982308,0.0070618805,-4.3750606,16.60429,0.12808707
568105679,567999079,4028193,2.5944858,0.0070564765,-4.45518,16.66286,0.13235444
568705579,568596732,4028193,2.589319,0.0070483666,-3.9070628,16.755693,0.10122688
569105414,568971095,4028193,2.5859673,0.0070429533,-4.0321503,16.802471,0.1075122
569710404,569561460,4028193,2.5809684,0.007034924,-3.937815,16.883839,0.10204622
570115400,569993458,4028193,2.5775852,0.007029662,-3.975961,16.931276,0.10374138
570715341,570591066,4028193,2.5726545,0.0070217717,-3.7999465,17.083834,0.0939133
571115258,570972664,4028193,2.5695016,0.0070165545,-3.8372726,17.203196,0.09510288
571715163,571563097,4028193,2.564831,0.0070088254,-3.8005023,17.369133,0.092397735
572115171,571995083,4028193,2.5618827,0.0070037856,-3.689296,17.49195,0.08645822
572715023,572585531,4028193,2.5573797,0.0069962176,-3.7790632,17.620855,0.09005313
573115064,572967072,4028193,2.5544558,0.0069912006,-3.7636378,17.685896,0.088990994
573725096,573615076,4028193,2.5500348,0.006983796,-3.8307986,17.681227,0.09221971
574124947,573996666,4028193,2.5470107,0.0069787963,-3.7396717,17.65331,0.08802343
574704816,574587065,4028193,2.5427613,0.006971304,-3.420157,17.588455,0.07389616
575104829,574961455,4028193,2.5399592,0.00696627,-3.5034885,17.537773,0.07776505
575714910,575609512,4028193,2.5359223,0.006958836,-3.3219676,17.505644,0.07004388
576104717,575991092,4028193,2.533078,0.006953831,-3.7330644,17.523981,0.08835999
576714588,576588734,4028193,2.5288708,0.006946393,-3.3997934,17.606918,0.07294226
577114612,576963081,4028193,2.5261133,0.006941439,-3.4500468,17.70917,0.07468085
577714765,577611069,4028193,2.5221078,0.006934205,-3.1708224,17.859627,0.06255024
578114419,577985501,4028193,2.5194428,0.006929343,-3.563513,17.945158,0.07862613
578704480,578583067,4028193,2.5157962,0.0069221654,-3.0433972,18.036142,0.05705991
579104388,578964693,4028193,2.513302,0.006917387,-3.1259806,18.089146,0.060022216
579714345,579612695,4028193,2.5095289,0.006910374,-3.388951,18.23005,0.07000036
580104222,579987113,4028193,2.507045,0.0069056577,-3.312988,18.318354,0.06657494
580714205,580577498,4028193,2.5033972,0.0068986723,-3.1812162,18.397385,0.061120626
581114256,581009468,4028193,2.5012589,0.0068940953,-2.7599168,18.442066,0.04589231
581504136,581391062,4028193,2.4994366,0.006889463,-2.3291705,18.427149,0.032711606
581914129,581772696,4028193,2.497738,0.0068848324,-2.214222,18.422176,0.02957051
582503941,582363121,4028193,2.4950697,0.0068779294,-2.6996787,18.51188,0.043745268
583114134,583011093,4028193,2.4921248,0.0068711657,-2.7717562,18.572042,0.04596295
583713912,583601522,4028193,2.4892669,0.006864343,-2.8296309,18.582092,0.047876507
583913925,583767093,4028193,2.4882581,0.0068620397,-2.734545,18.607265,0.04465243
584713715,584580718,4028193,2.4842088,0.006853043,-2.8079367,18.61734,0.04705594
585113714,585012678,4028193,2.4821448,0.0068485783,-2.8528218,18.59214,0.048638195
585713670,585603100,4028193,2.4790702,0.006841786,-2.8589666,18.521852,0.04903331
586103725,585977451,4028193,2.476985,0.006837237,-2.8416595,18.531864,0.048415285
586503537,586359160,4028193,2.4748657,0.006832719,-2.7482975,18.551918,0.045237247
586903546,586791152,4028193,2.4729073,0.0068282792,-2.7546134,18.587086,0.04535942
587713410,587604740,4028193,2.4690158,0.0068193874,-2.8173645,18.657724,0.047269918
588093333,587979066,4028193,2.466944,0.006814913,-2.8404396,18.688112,0.047969278
588503328,588353471,4028193,2.465028,0.0068104505,-2.552682,18.708414,0.03870026
588903314,588785466,4028193,2.4631112,0.006806081,-2.5786746,18.72366,0.03946025
589703225,589599086,4028193,2.4594684,0.0067973086,-2.5737932,18.749104,0.039257646
590103216,589980670,4028193,2.4578352,0.006792908,-2.2083585,18.779713,0.028854111
590503038,590355130,4028193,2.4562593,0.0067885127,-2.3487103,18.86169,0.032496437
590903053,590787111,4028193,2.4546728,0.0067842216,-2.1577938,18.897717,0.027375877
591712995,591593455,4028193,2.4518406,0.006775524,-1.8218174,18.749083,0.01966922
592112899,591975097,4028193,2.4506433,0.006771154,-1.7093768,18.769478,0.017297404
592512904,592407129,4028193,2.4493778,0.0067668585,-1.8825605,18.784794,0.020962784
592912892,592788663,4028193,2.448179,0.0067625083,-1.7915173,18.805246,0.018963585
593712665,593595156,4028193,2.445474,0.0067539276,-1.9341788,18.964857,0.021918012
594102660,593969536,4028193,2.4442284,0.0067496435,-1.938721,19.089748,0.021877006
594502706,594401479,4028193,2.4431357,0.0067454814,-1.5474033,19.22107,0.0138416225
594902604,594783075,4028193,2.4419856,0.006741291,-1.8158336,19.337666,0.018945476
595702584,595596659,4028193,2.4396613,0.0067330715,-1.6274726,19.530544,0.015068517
596112437,595971083,4028193,2.438553,0.0067289374,-1.5853491,19.557535,0.014278848
596522345,596403087,4028193,2.4374583,0.0067249076,-1.5835483,19.644253,0.014183539
596912292,596777465,4028193,2.4363332,0.0067208214,-1.662082,19.726013,0.015560483
597712312,597591112,4028193,2.43406,0.0067128274,-1.6037381,19.907473,0.014355167
598112155,597972660,4028193,2.432867,0.006708844,-1.7867837,20.035233,0.017705454
598712103,598563083,4028193,2.431362,0.0067029446,-1.7004731,20.226034,0.015884966
599112139,598995067,4028193,2.4301825,0.0066991076,-1.8584883,20.345037,0.018863343
599501998,599369497,4028193,2.428904,0.006695215,-1.9112236,20.453466,0.019843286
599912022,599801511,4028193,2.4276495,0.006691439,-1.9549787,20.58569,0.020628903
600711964,600564684,4028193,2.425001,0.006683824,-2.0763662,20.672487,0.023172487
601111862,600996682,4028193,2.4235358,0.0066800877,-2.2834566,20.666681,0.02803317
601501798,601371072,4028193,2.4220984,0.006676296,-2.2513132,20.812304,0.027058842
601901897,601745464,4028193,2.4205384,0.0066725346,-2.5271509,20.93559,0.03389492
602701688,602559086,4028193,2.4176805,0.0066652116,-2.4011004,21.226694,0.030178368
603101634,602991067,4028193,2.4161196,0.006661631,-2.6571634,21.358955,0.036729414
603501681,603372691,4028193,2.4145458,0.0066580125,-2.5620801,21.449684,0.034003377
603911585,603804701,4028193,2.4130669,0.0066544753,-2.4756393,21.522594,0.031640083
604701466,604553498,4028193,2.4103117,0.006647274,-2.138712,21.50433,0.02363394
605101367,604985534,4028193,2.4091275,0.006643736,-1.8344212,21.401222,0.01747097
605501340,605367093,4028193,2.4079006,0.006640118,-2.0677958,21.29869,0.022305906
605901381,605799067,4028193,2.4066668,0.0066365516,-1.9659476,21.220676,0.020236816
606711214,606555107,4028193,2.4043565,0.0066292034,-1.9148672,20.8826,0.019509684
607111124,606987069,4028193,2.4030988,0.0066255536,-2.0100882,20.707277,0.021680271
607501192,607361468,4028193,2.4017136,0.006621789,-2.1715965,20.528002,0.025525196
607901096,607793507,4028193,2.4001968,0.006618081,-2.3652833,20.38482,0.030494176
608700968,608556675,4028193,2.3970723,0.006610467,-2.351981,20.158335,0.03049091
609111061,608988688,4028193,2.3954391,0.0066066957,-2.3818815,20.02398,0.031480916
609510891,609363096,4028193,2.3938453,0.006602813,-2.5412378,19.863169,0.03612431
609900921,609795097,4028193,2.392101,0.006598976,-2.5632448,19.665886,0.03712138
610700685,610551076,4028193,2.388332,0.006591059,-2.8099828,19.35349,0.045332067
611100674,610983140,4028193,2.3863983,0.0065871305,-2.8116412,19.205088,0.045736294
611500644,611364693,4028193,2.3842795,0.00658311,-3.0972164,19.068687,0.055895876
612100590,611955055,4028193,2.3811963,0.006577071,-2.9841332,18.985415,0.05211633
612710580,612603068,4028193,2.3781981,0.006571094,-2.8887503,18.902657,0.04905177
613110509,612977509,4028193,2.3760564,0.0065670335,-3.0748625,18.92846,0.055500083
613700584,613575066,4028193,2.3729415,0.0065610283,-3.0546908,18.990587,0.054595094
614100257,613956673,4028193,2.3708003,0.006557038,-3.203707,19.110483,0.05967486
614700340,614547129,4028193,2.3676386,0.006551132,-3.0329192,19.294964,0.052970637
615100183,614979083,4028193,2.3655508,0.0065472717,-3.13263,19.29496,0.056510855
615700062,615569496,4028193,2.362495,0.006541396,-3.0978668,19.241995,0.05541571
616100018,615951071,4028193,2.3604221,0.0065374635,-3.0368752,19.21031,0.05334295
616710019,616599069,4028193,2.3573055,0.0065316805,-3.1707716,19.273737,0.05795908
617099972,616980660,4028193,2.355133,0.0065277913,-3.3040545,19.358757,0.06265769
617709923,617571070,4028193,2.3518946,0.0065220217,-3.2610886,19.524942,0.060519163
618099874,617945507,4028193,2.3498023,0.0065181544,-3.1416192,19.417498,0.056476958
618709809,618593465,4028193,2.346498,0.006512454,-3.3914483,19.326797,0.066125356
619099707,618975065,4028193,2.34431,0.006508567,-3.118503,19.226112,0.056202855
619709645,619572685,4028193,2.3409486,0.0065027834,-3.3708935,19.263113,0.06554221
620099679,619947074,4028193,2.3387558,0.006498911,-3.2823184,19.34807,0.06187016
620709443,620595089,4028193,2.3354754,0.006493259,-3.250578,19.428179,0.06042916
621099455,620969489,4028193,2.3332784,0.00648943,-3.2290497,19.45498,0.059549224
621699351,621567086,4028193,2.3300378,0.006483776,-3.2033777,19.568102,0.05826733
622099428,621948701,4028193,2.327703,0.0064800233,-3.6051848,19.703924,0.07329255
622699414,622596704,4028193,2.3242524,0.006474559,-3.4094987,19.907234,0.06488251
623109152,622971089,4028193,2.321907,0.006470864,-3.6487815,20.001564,0.0739587
623709145,623561512,4028193,2.3179796,0.0064654127,-4.109105,20.152569,0.09309398
624109029,623993490,4028193,2.315492,0.0064618643,-4.111123,20.24274,0.09277034
624709024,624591113,4028193,2.3115962,0.0064565376,-4.179166,20.464684,0.09482692
625099001,624972687,4028193,2.3090727,0.006453003,-4.0126495,20.585451,0.08690796
625708841,625563088,4028193,2.305396,0.0064477907,-3.8379273,20.888296,0.078351624
626108833,625995073,4028193,2.303067,0.0064444267,-3.8829465,21.113022,0.07934689
626708695,626585473,4028193,2.299507,0.0064393873,-3.912375,21.4616,0.07924582
627098744,626967062,4028193,2.2971375,0.0064360797,-4.054554,21.724367,0.08408074
627708731,627564660,4028193,2.2937043,0.006431251,-3.872011,22.15375,0.07519404
628098654,627996701,4028193,2.2914512,0.0064281314,-3.9088254,22.36883,0.07589388
628698454,628587066,4028193,2.2880452,0.0064234165,-3.9911993,22.528452,0.078565694
629098401,628961492,4028193,2.2858744,0.0064202654,-3.728139,22.599077,0.068336226
629708312,629559079,4028193,2.2825398,0.0064156367,-4.038513,22.754019,0.07964205
630098311,629991068,4028193,2.2802107,0.0064126123,-4.258799,22.818916,0.08831547
630688349,630531075,4028193,2.2765832,0.0064079766,-4.4790792,23.047636,0.09671829
631088307,630963067,4028193,2.274081,0.0064050164,-4.476366,23.19927,0.09596975
631698158,631553472,4028193,2.2701087,0.0064005447,-4.9903235,23.445429,0.1180203
632088096,631985465,4028193,2.2675347,0.0063976515,-4.547493,23.586355,0.097418346
632698001,632583098,4028193,2.2636538,0.0063932966,-4.7924643,23.84361,0.10702944
633098049,632964705,4028193,2.2611277,0.006390414,-4.714631,24.055616,0.102668315
633707922,633555093,4028193,2.257397,0.0063861343,-4.7871222,24.158888,0.10539733
634097798,633987128,4028193,2.254834,0.0063833576,-4.922635,24.297287,0.110814095
634687790,634577499,4028193,2.2510147,0.006379148,-4.6964445,24.478395,0.100118175
635097629,634959066,4028193,2.2484338,0.006376355,-4.877119,24.57648,0.10753864
635707525,635556698,4028193,2.2445056,0.0063722385,-5.1896,24.823399,0.12054911
636097609,635988663,4028193,2.2417588,0.0063695703,-5.3984528,25.008411,0.12948218
636707551,636579057,4028193,2.2377121,0.0063655446,-5.531707,25.346292,0.13414094
637107393,636953524,4028193,2.2349522,0.006362867,-5.4334445,25.52053,0.12853406
637707421,637601473,4028193,2.2307942,0.006359013,-5.54237,25.725262,0.13267487
638107279,637983111,4028193,2.2279782,0.006356401,-5.55418,25.828215,0.1327098
638697272,638580696,4028193,2.2237637,0.006352531,-5.9345164,25.879835,0.15120518
639107086,638955147,4028193,2.2208993,0.0063499156,-5.804636,25.909378,0.14449422
639697136,639545513,4028193,2.216747,0.0063460423,-5.5413103,25.901985,0.13171929
640097152,639977453,4028193,2.2139735,0.006343509,-5.552032,25.81347,0.13268292
640697029,640575074,4028193,2.2099094,0.0063396483,-5.6158495,25.820831,0.13571198
641097009,640956675,4028193,2.207079,0.0063370625,-5.766117,25.872438,0.14278647
641706910,641604689,4028193,2.2026222,0.0063332412,-6.0428877,25.46229,0.15934889
642106686,641979092,4028193,2.1996002,0.0063305874,-6.0710154,25.418718,0.16111149
642706625,642569474,4028193,2.195137,0.006326637,-5.8983774,25.245144,0.15312453
643106685,643001542,4028193,2.1922653,0.0063240402,-5.7984877,25.122894,0.14870217
643696496,643548685,4028193,2.187866,0.006320011,-5.8531036,25.072723,0.15181981
644106440,643980719,4028193,2.1849074,0.00631741,-5.944098,25.09421,0.15644291
644706433,644571091,4028193,2.1804285,0.006313452,-6.097762,25.23072,0.16374528
645096376,644945465,4028193,2.177442,0.006310799,-5.895609,25.266762,0.15284994
645716344,645593503,4028193,2.1730943,0.0063069584,-5.7672925,25.331766,0.1458935
646106312,645975069,4028193,2.170275,0.0063043353,-5.581397,25.273972,0.13695246
646716100,646572663,4028193,2.1659229,0.00630042,-5.7281647,25.16595,0.1448689
647116035,647004663,4028193,2.1631174,0.006297844,-5.4951916,25.079863,0.1337821
647705965,647595063,4028193,2.1589184,0.006293872,-5.5464263,24.873003,0.13742185
648105876,647969574,4028193,2.1560974,0.0062911697,-5.477745,24.667822,0.13515444
648705863,648567128,4028193,2.1519186,0.006287131,-5.365555,24.34582,0.13139002
649105839,648999081,4028193,2.1491973,0.006284444,-5.2240844,24.110537,0.12576824
649705774,649596666,4028193,2.1452796,0.0062802914,-4.808736,23.707739,0.10837502
650095826,649971130,4028193,2.142744,0.0062774452,-4.7594757,23.485481,0.10717075
650705621,650561489,4028193,2.1390908,0.0062731155,-4.387503,22.80578,0.09378803
651105576,650993457,4028193,2.1365933,0.006270208,-4.5727377,22.464298,0.103423014
651715426,651591074,4028193,2.13293,0.0062657217,-4.242692,22.134716,0.09035798
652115399,651972705,4028193,2.1305208,0.0062626665,-4.208908,21.884872,0.089939885
652715233,652563126,4028193,2.126855,0.0062580225,-4.135107,21.510025,0.088326305
653105237,652995209,4028193,2.1245017,0.00625494,-3.9692156,21.298306,0.082190536
653715168,653585463,4028193,2.1210477,0.0062501812,-3.7928684,21.047478,0.07594391
654105122,653967085,4028193,2.1187131,0.00624697,-3.8378298,20.888094,0.0783484
654705118,654564694,4028193,2.1152332,0.0062421467,-3.845598,20.706894,0.07935427
655114946,654996659,4028193,2.1128354,0.0062389644,-3.9526546,20.672043,0.083975345
655714959,655587093,4028193,2.1091936,0.0062341215,-4.0971823,20.73598,0.089950494
656114775,655961502,4028193,2.1068134,0.0062308847,-3.9956372,20.788475,0.08533102
656714871,656609455,4028193,2.1032615,0.006226176,-3.859138,20.864584,0.07931008
657114659,656991067,4028193,2.100953,0.006222982,-3.716643,20.852852,0.0736027
657724553,657588666,4028193,2.0974085,0.006218234,-4.231941,20.893942,0.09523934
658104527,657963073,4028193,2.0951688,0.006215036,-3.7516315,20.893938,0.07484754
658704443,658553457,4028193,2.091807,0.006210286,-3.7166376,20.87044,0.073540464
659104575,658985529,4028193,2.0895505,0.00620718,-3.8624601,20.89393,0.07933509
659714419,659583118,4028193,2.0861583,0.0062024645,-3.79212,20.882174,0.076514885
660104202,659964668,4028193,2.0838606,0.0061993008,-3.9298952,20.876297,0.08219889
660704169,660555156,4028193,2.0804687,0.0061945757,-3.9019823,20.882166,0.08101259
661114113,660987081,4028193,2.0783076,0.0061914898,-3.7351077,20.917442,0.0741063
661714044,661577459,4028193,2.0750568,0.0061867996,-3.6152604,20.982306,0.069212325
662114005,662009497,4028193,2.0729299,0.006183742,-3.6972003,21.017786,0.07226308
674952033,674811103,4028193,2.0714848,0.006199239,-4.845946,20.794287,0.12547886
675162098,675027084,4028193,2.0700703,0.006197685,-4.748292,20.811825,0.12037107
675352154,675243079,4028193,2.0687332,0.0061961324,-4.491764,20.823528,0.107655704
675952013,675833473,4028193,2.064793,0.0061914013,-4.4408073,20.835234,0.10516784
676351873,676215073,4028193,2.0621827,0.006188245,-4.4073267,20.84109,0.10355893
676751885,676646924,4028193,2.0596437,0.006185156,-4.1888914,20.835228,0.09357449
677361708,677244584,4028193,2.0557468,0.0061804513,-4.44888,20.735926,0.10605606
677791634,677676543,4028193,2.0531049,0.0061773392,-4.4242363,20.637207,0.10538606
678361548,678209310,4028193,2.0490766,0.0061724763,-4.5668087,20.493074,0.113077454
678951482,678806941,4028193,2.04517,0.0061677005,-4.3413177,20.407194,0.102616526
679351500,679238870,4028193,2.042459,0.0061645475,-4.469896,20.338816,0.10915072
679951369,679836475,4028193,2.0385616,0.0061597475,-4.368208,20.270721,0.10459113
680351304,680210882,4028193,2.035964,0.006156499,-4.228301,20.219843,0.09824524
680951362,680801285,4028193,2.0319912,0.006151668,-4.3545685,20.191643,0.10434607
681361158,681233272,4028193,2.0292895,0.0061485004,-4.366872,20.157873,0.105112344
681761096,681614861,4028193,2.0266516,0.0061452696,-4.416524,20.146627,0.107576236
682360957,682212533,4028193,2.0226092,0.0061404565,-4.602882,20.118559,0.117009275
682950855,682802899,4028193,2.0183835,0.0061356295,-4.576538,20.10174,0.11577052
683340909,683234869,4028193,2.015599,0.0061324695,-4.554537,20.101736,0.114660114
683950660,683825312,4028193,2.011478,0.0061276443,-4.5000353,20.062567,0.11215093
684350724,684206903,4028193,2.0087044,0.006124424,-4.583186,20.056976,0.11636625
684950656,684804593,4028193,2.0046527,0.006119632,-4.484272,20.05697,0.111397654
685340589,685236497,4028193,2.001986,0.0061164764,-4.4185877,20.00121,0.108459644
685950424,685826917,4028193,1.9979808,0.0061116554,-4.419382,19.978954,0.1086195
686350301,686201271,4028193,1.9951637,0.0061084195,-4.7249036,19.990072,0.124087796
686740400,686633277,4028193,1.9922197,0.0061052795,-4.8375607,20.04579,0.12971409
687360187,687230930,4028193,1.9878867,0.0061005484,-4.712426,20.214144,0.12206503
687950046,687828469,4028193,1.9835135,0.006095833,-5.057402,20.118515,0.14125913
688360135,688202935,4028193,1.9805086,0.006092636,-4.87904,20.056944,0.13187468
688949903,688793346,4028193,1.9759697,0.006087882,-4.9427195,20.073708,0.1352265
689349956,689225403,4028193,1.9729418,0.006084782,-4.91061,20.112896,0.1332152
689949946,689822940,4028193,1.9685172,0.0060800626,-4.9121246,20.045765,0.1337438
690349687,690204522,4028193,1.9654757,0.006076893,-5.1843224,20.023449,0.1491429
690949610,690794928,4028193,1.9611032,0.0060721426,-4.652014,19.9179,0.12072463
691359508,691226885,4028193,1.958249,0.006069012,-4.68119,19.818573,0.12285636
691949413,691817325,4028193,1.953956,0.006064225,-4.8037853,19.77463,0.12966308
692349424,692198894,4028193,1.9510183,0.006061026,-4.8140206,19.758184,0.13032459
692759413,692630881,4028193,1.9481186,0.0060578925,-4.6701117,19.752705,0.1226833
693359452,693228477,4028193,1.9436343,0.0060531264,-4.8308806,19.703497,0.13160332
693949145,693818864,4028193,1.9389561,0.0060483366,-5.172564,19.659893,0.15121263
694349125,694193318,4028193,1.9358889,0.006045115,-4.9077187,19.638138,0.1362751
694949123,694841289,4028193,1.9312656,0.006040403,-4.830518,19.58389,0.13238716
695348954,695222887,4028193,1.9281981,0.0060371966,-5.0477047,19.556843,0.14475936
695748858,695604525,4028193,1.9251559,0.0060339835,-4.822342,19.502901,0.13248731
696348729,696194968,4028193,1.9205112,0.0060291747,-5.1579704,19.481377,0.1517384
696748782,696626892,4028193,1.9173415,0.006026023,-5.1289954,19.44379,0.15032846
697368609,697217350,4028193,1.912656,0.006021202,-5.105052,19.347593,0.14966866
697758631,697649267,4028193,1.9093968,0.0060180314,-5.165327,19.289124,0.15368824
698348619,698246883,4028193,1.9045156,0.006013195,-5.3005695,19.178177,0.16277783
698758358,698628470,4028193,1.9009672,0.006009936,-5.8486743,19.109936,0.19889008
699358242,699218887,4028193,1.8957708,0.006005051,-5.626052,19.047243,0.184643
699758239,699650901,4028193,1.892224,0.006001842,-5.6451125,18.99522,0.18640535
700358149,700241265,4028193,1.8867686,0.0059969393,-5.7632194,18.943396,0.1948184
700778083,700673289,4028193,1.8830117,0.0059937257,-5.8595614,18.927885,0.20155132
701357951,701220508,4028193,1.8773177,0.005988784,-6.0379677,18.927881,0.21401148
701778035,701652474,4028193,1.8734297,0.005985583,-6.334773,18.943384,0.23537591
702367911,702242911,4028193,1.8676858,0.0059807147,-6.12493,18.979633,0.21962002
702767688,702617318,4028193,1.863848,0.005977446,-6.149526,18.96408,0.221569
703367701,703265315,4028193,1.8581777,0.005972676,-6.1574354,18.969255,0.22207871
703777543,703647024,4028193,1.8543152,0.0059694336,-6.2709303,18.938196,0.2307187
704367401,704244672,4028193,1.8486564,0.005964599,-6.032322,18.907207,0.21384501
704777442,704676737,4028193,1.8447853,0.005961422,-6.1299696,18.902046,0.22088455
705367309,705209514,4028193,1.838989,0.0059564956,-6.201812,18.896889,0.22615406
705787201,705641452,4028193,1.8351867,0.0059533273,-6.163996,18.902039,0.22334364
706377138,706239093,4028193,1.8295366,0.0059485207,-6.0206823,18.902035,0.21307886
706757152,706620692,4028193,1.8258232,0.0059452946,-5.9653964,18.876278,0.20946898
707367137,707211070,4028193,1.8200103,0.005940472,-6.0469637,18.865984,0.2153539
707776908,707643109,4028193,1.816172,0.0059373155,-6.1417685,18.845428,0.22240184
708356782,708233458,4028193,1.8104887,0.0059324894,-6.13521,18.7993,0.22247165
708746735,708615108,4028193,1.806803,0.005929269,-5.847341,18.804413,0.2020294
709366710,709263092,4028193,1.8012236,0.005924551,-5.887322,18.881403,0.20396648
709776687,709644687,4028193,1.7974015,0.0059213666,-6.129124,18.953667,0.22022218
710366434,710235089,4028193,1.7919108,0.0059166416,-5.8464165,19.099375,0.19884643
710776393,710667115,4028193,1.7882396,0.005913576,-6.049208,19.19387,0.2118322
711356265,711207077,4028193,1.7828058,0.005908879,-5.935008,19.374136,0.20201229
711776318,711639084,4028193,1.7792236,0.0059058773,-6.0188546,19.497389,0.20644708
712156186,712020666,4028193,1.7755182,0.005902836,-6.228261,19.61085,0.2197833
733932396,733779286,4028193,1.7743144,0.005930715,-4.4865093,22.109253,0.101158075
734132517,733995287,4028193,1.7730849,0.005929416,-4.5835648,22.109253,0.105582066
734332357,734211364,4028193,1.7719043,0.0059281182,-4.401779,22.109251,0.097373314
734922228,734801781,4028193,1.7684525,0.005924151,-4.2837815,22.140661,0.092091925
735322213,735183374,4028193,1.7662374,0.005921496,-4.0444593,22.084148,0.082299605
735922141,735781005,4028193,1.7628329,0.0059175426,-4.1947217,22.034048,0.0887298
747120090,747013131,4028193,1.7615184,0.005930973,-4.3740377,19.741629,0.107681125
747320061,747171476,4028193,1.7602043,0.0059293997,-4.3712125,19.73069,0.10760168
747540021,747387473,4028193,1.7589328,0.005927904,-4.2166967,19.665215,0.10046239
747929985,747819538,4028193,1.7564039,0.005924906,-4.2731876,19.61087,0.10345811
748519871,748409898,4028193,1.7522846,0.0059203533,-4.575283,19.736147,0.11785039
749119649,749007489,4028193,1.7479988,0.005915878,-4.8335505,19.93436,0.130223
749519644,749389128,4028193,1.7451092,0.0059128995,-4.766242,20.01771,0.12609425
750119478,749979496,4028193,1.7407123,0.0059084804,-5.1044583,20.16888,0.14354068
750529465,750411514,4028193,1.7377648,0.005905619,-5.1955914,20.287464,0.14784265
750929413,750785884,4028193,1.7348398,0.0059026936,-5.101569,20.372707,0.14194375
751529298,751383474,4028193,1.730351,0.005898407,-5.265389,20.53303,0.1500256
751929216,751815489,4028193,1.7274046,0.005895612,-5.0954247,20.590668,0.14010313
752529045,752413070,4028193,1.7229484,0.00589133,-5.102561,20.378395,0.14195932
752928958,752787497,4028193,1.719826,0.005888402,-5.375151,20.185747,0.15903549
753528951,753377889,4028193,1.7149177,0.005884012,-5.548688,19.99541,0.17108336
753938903,753809893,4028193,1.7115867,0.0058811186,-5.722418,19.873484,0.18308072
754528720,754407513,4028193,1.7061855,0.005876684,-6.247747,19.665163,0.22054988
754928850,754789112,4028193,1.7024289,0.005873677,-6.2749414,19.540476,0.2238936
755518545,755379479,4028193,1.6965351,0.0058691464,-6.4125276,19.374096,0.23582755
755938479,755811507,4028193,1.6926847,0.005866163,-6.2287183,19.278368,0.2236066
756528431,756401869,4028193,1.6868566,0.0058615943,-6.4371386,19.225464,0.23947841
756918338,756783485,4028193,1.6830235,0.0058585377,-6.3140683,19.193815,0.2307888
757528170,757381088,4028193,1.6771661,0.005853978,-6.3364244,19.130741,0.2331923
757938068,757813063,4028193,1.6734123,0.0058509717,-6.131502,19.04188,0.21937211
758528001,758403479,4028193,1.6677748,0.005846349,-6.110768,18.922573,0.21926478
758928005,758777875,4028193,1.6640849,0.005843235,-6.003124,18.896774,0.21189685
759507800,759375480,4028193,1.6585038,0.005838619,-5.8211446,18.82481,0.20000628
760117710,759973062,4028193,1.6532233,0.0058339927,-5.5711355,18.799202,0.18344486
760527585,760405073,4028193,1.6498193,0.0058309683,-5.348196,18.876163,0.16836755
760927505,760779582,4028193,1.6464646,0.0058278833,-5.4334173,18.974293,0.17287733
761517472,761369910,4028193,1.6413058,0.00582334,-5.5852118,19.13071,0.1811781
761927299,761801899,4028193,1.637841,0.0058203964,-5.67774,19.251846,0.18605275
772915324,772767704,4028193,1.6367509,0.0058336128,-3.8735068,20.735579,0.08039887
773115321,772983664,4028193,1.6357067,0.005832267,-3.718868,20.776396,0.073962025
773325257,773199736,4028193,1.6346934,0.0058309245,-3.6144006,20.805609,0.06976693
773725136,773581278,4028193,1.6327248,0.005828184,-3.484325,20.852457,0.06469005
774115119,774013297,4028193,1.6306418,0.0058255135,-3.7665458,20.864183,0.07555141
774515039,774387728,4028193,1.6286342,0.005822768,-3.6334536,20.905308,0.070168175
775324796,775194016,4028193,1.6248835,0.005817408,-3.2269564,21.088604,0.054865055
775724843,775575501,4028193,1.6231437,0.0058147316,-3.0030851,21.18396,0.047302667
776124716,776007486,4028193,1.62154,0.005812135,-2.9993076,21.273823,0.046984434
776514634,776389117,4028193,1.6201359,0.0058094934,-2.634614,21.376213,0.036079515
777319566,777195488,4028193,1.6174339,0.0058042766,-2.35383,21.376207,0.028798977
777724433,777569888,4028193,1.6162091,0.00580162,-2.178564,21.315905,0.024739698
778134262,778001940,4028193,1.6150548,0.0057990476,-1.9852889,21.3159,0.020544767
778714284,778599508,4028193,1.613539,0.005795136,-1.9170076,21.346022,0.01912882
779314141,779197085,4028193,1.6124017,0.0057912273,-1.0742743,21.309874,0.0060173734
780114046,780003468,4028193,1.6112969,0.0057860515,-0.83306897,21.479156,0.003590064
781523631,781407480,4028193,1.610283,0.005777119,-0.45552194,21.570484,0.0010688487
783323444,783185894,4028193,1.6091568,0.005765392,-0.60006154,20.864124,0.0019175598
785132991,785029104,4028193,1.6081123,0.0057532773,-0.41848195,20.17998,0.0009642513
786922608,786807462,4028193,1.607032,0.0057408437,-0.46358418,19.984144,0.0011948934
788342473,788211489,4028193,1.6059898,0.0057311803,-0.69173694,19.862297,0.002676763
789134740,789017870,4028193,1.6049263,0.0057256427,-0.83969724,19.785265,0.0039596893
789732131,789615501,4028193,1.6038985,0.0057214615,-1.3022264,19.616093,0.009605456
790322009,790213066,4028193,1.6028278,0.005717251,-1.4669967,19.507967,0.012257553
790921833,790803504,4028193,1.6015406,0.0057130163,-1.6018502,19.486435,0.014630827
791511789,791393929,4028193,1.6000655,0.0057088127,-1.7012844,19.637802,0.0163764
791921727,791775485,4028193,1.5989988,0.0057060313,-1.8700993,19.757828,0.01966743
792321753,792207469,4028193,1.5978938,0.005703329,-1.9061084,19.818207,0.020369872
792931463,792805101,4028193,1.5964539,0.0056992043,-1.7677718,19.719526,0.017608138
793521408,793395510,4028193,1.5949773,0.005695045,-1.8688745,19.65954,0.019739876
794131234,793985915,4028193,1.5935694,0.00569089,-1.5478853,19.637785,0.013556343
794721102,794583498,4028193,1.5923779,0.00568676,-1.2717142,19.64865,0.009145424
795321012,795181072,4028193,1.5912466,0.0056826524,-1.2837986,19.74138,0.009276277
795920982,795771477,4028193,1.5901685,0.0056785624,-1.340157,19.867762,0.010044306
796520825,796419494,4028193,1.5889257,0.0056745913,-1.5477214,19.978518,0.013322319
797120619,797009966,4028193,1.5876812,0.005670566,-1.4602765,20.056522,0.011813322
797730604,797607496,4028193,1.5865971,0.0056665847,-1.270515,20.140533,0.00890525
798340438,798205092,4028193,1.5853404,0.0056626345,-1.4289225,20.241941,0.01120786
798930400,798795469,4028193,1.5839937,0.005658688,-1.595543,20.281551,0.01394676
799530219,799385859,4028193,1.5826104,0.0056547374,-1.6828197,20.230633,0.015553324
800130136,799983463,4028193,1.5811025,0.005650821,-1.9399986,20.292875,0.020607093
800530026,800415461,4028193,1.5800725,0.005648262,-1.870843,20.31557,0.019142698
800940003,800797144,4028193,1.5789801,0.005645647,-1.9592627,20.343985,0.020965578
801329853,801229083,4028193,1.5778909,0.0056431005,-1.9436121,20.361053,0.020614672
801729879,801603497,4028193,1.5767676,0.0056404765,-2.061241,20.378143,0.023165964
802119731,801977899,4028193,1.5755349,0.0056378613,-2.1608934,20.418089,0.02541026
802519635,802409989,4028193,1.5741708,0.0056353263,-2.4165788,20.34966,0.03188616
802929589,802791504,4028193,1.572739,0.0056327195,-2.6067135,20.281525,0.037225753
803329658,803223488,4028193,1.5711737,0.005630153,-3.0319717,20.090033,0.050842527
804129274,803979494,4028193,1.5677217,0.005624815,-3.073288,19.823627,0.052939627
804529275,804411479,4028193,1.5658258,0.0056221755,-3.324644,19.556427,0.062799804
804919162,804785882,4028193,1.5639503,0.005619391,-3.1196306,19.093845,0.05663311
805329018,805217858,4028193,1.5620474,0.0056166267,-3.2428246,18.783644,0.062204894
806128925,805981105,4028193,1.558465,0.005610847,-2.7420294,18.312136,0.04562078
806528794,806413089,4028193,1.5567656,0.005607962,-2.5656986,18.083006,0.040448103
806928730,806787465,4028193,1.5551358,0.0056049502,-2.6496625,17.834652,0.043739516
807328761,807219475,4028193,1.5534021,0.0056019817,-2.6461463,17.624094,0.044144683
807728570,807593905,4028193,1.5516557,0.0055989125,-2.7464004,17.53181,0.047803357
808538506,808407457,4028193,1.548401,0.0055927993,-2.461316,17.255291,0.039009463
808928345,808789070,4028193,1.5468413,0.0055896766,-2.323782,17.130857,0.035024274
809328300,809221143,4028193,1.545396,0.0055865985,-2.2268887,17.029814,0.032355238
810118202,809969856,4028193,1.5423834,0.005580248,-2.2654262,16.921183,0.033699743
810528011,810401943,4028193,1.5409068,0.0055771433,-2.1343517,16.860895,0.03001987
810927919,810783487,4028193,1.5395324,0.005573966,-2.078339,16.796736,0.028573629
811327953,811215467,4028193,1.5381682,0.005570842,-1.9893907,16.741497,0.02626657
812127783,811971484,4028193,1.5355369,0.005564435,-1.8535019,16.669767,0.02289887
812527621,812403464,4028193,1.5341983,0.005561304,-2.0074742,16.657167,0.026881672
812937725,812835512,4028193,1.5328398,0.005558172,-2.0237257,16.640396,0.027346212
813337428,813209877,4028193,1.5316021,0.005554954,-1.8874171,16.581957,0.023870278
814127441,814023465,4028193,1.528821,0.005548594,-2.1151989,16.490915,0.03014499
814527237,814405133,4028193,1.527359,0.005545375,-2.1349466,16.441662,0.030802486
814927182,814779511,4028193,1.5261248,0.0055421316,-1.8850121,16.408989,0.024060462
815327108,815211469,4028193,1.5248427,0.005538975,-1.7172623,16.417141,0.019958744
816126970,816017892,4028193,1.5222083,0.005532607,-2.0542543,16.474451,0.028461313
816526832,816399479,4028193,1.5208888,0.005529418,-1.9160558,16.503254,0.024717482
816926798,816781088,4028193,1.5195132,0.005526241,-2.039062,16.540428,0.027930042
817326643,817213179,4028193,1.5181187,0.0055231433,-2.1486182,16.59025,0.030918831
817736590,817587496,4028193,1.5167178,0.0055199764,-1.9270512,16.636171,0.024802223
818536499,818393907,4028193,1.5137246,0.005513775,-2.3142705,16.7584,0.035510205
818936347,818825862,4028193,1.5122494,0.005510742,-2.1747692,16.813738,0.031255003
819326285,819207534,4028193,1.5108304,0.0055076634,-2.1933527,16.886616,0.031654235
820126217,820021123,4028193,1.5080069,0.005501639,-2.12301,17.064753,0.029346852
820525993,820395472,4028193,1.5065836,0.0054986123,-2.2911792,17.1839,0.033943284
820925934,820769909,4028193,1.5051434,0.0054956134,-2.273222,17.295523,0.033197664
821315920,821201942,4028193,1.5037191,0.0054927217,-2.2743046,17.394785,0.033039667
822115690,821965067,4028193,1.5009267,0.0054868776,-2.1639209,17.573126,0.029606786
822515596,822397077,4028193,1.4994092,0.005484048,-2.4025116,17.651815,0.03633282
822925627,822771596,4028193,1.4980522,0.0054811537,-2.2268453,17.726406,0.031082567
823325484,823203479,4028193,1.496601,0.0054783598,-2.2919128,17.787384,0.032812674
824125335,824009891,4028193,1.4936953,0.005472717,-2.286264,17.839245,0.032556202
824525188,824391486,4028193,1.4922677,0.0054698824,-2.3121915,17.848698,0.03328117
824935087,824823541,4028193,1.4907923,0.0054671178,-2.4390433,17.86763,0.036993854
825325120,825205066,4028193,1.4894204,0.0054642987,-2.3659496,17.900843,0.034745213
826124889,826011503,4028193,1.4863747,0.005458733,-2.5715125,17.958006,0.040914442
826524886,826385916,4028193,1.4848739,0.0054559223,-2.297264,17.996273,0.032583427
826934802,826817906,4028193,1.4833558,0.0054532066,-2.5444205,18.044292,0.039865334
827334635,827199464,4028193,1.4817808,0.0054504387,-2.6948657,18.087677,0.04461172
828134531,828013143,4028193,1.4785215,0.0054450002,-2.857719,18.170073,0.049939
828524438,828387488,4028193,1.4768463,0.005442231,-2.7743409,18.116684,0.04720613
828934361,828819461,4028193,1.475093,0.0054395497,-2.96875,18.136068,0.053996004
829324201,829193861,4028193,1.473398,0.005436795,-2.8540587,18.179794,0.04978452
830124112,830007465,4028193,1.4698898,0.0054314276,-2.9414291,18.297197,0.052539956
830533961,830389077,4028193,1.4681062,0.0054287347,-3.244895,18.366215,0.06369996
830924001,830821118,4028193,1.4661963,0.0054261256,-3.163481,18.485445,0.060153104
831343908,831195495,4028193,1.4643478,0.00542346,-3.208346,18.620953,0.061421152
831733832,831627480,4028193,1.4626322,0.0054208827,-2.8938332,18.570591,0.050104734
832533710,832383468,4028193,1.4595209,0.0054155206,-2.5433562,18.272627,0.03933425
832923570,832815470,4028193,1.4579784,0.00541289,-2.6444018,18.228552,0.04262459
833323398,833197099,4028193,1.4564823,0.005410194,-2.4910069,18.204132,0.037873667
834123305,834003464,4028193,1.4536994,0.0054048323,-2.4575474,18.092464,0.037090573
834523131,834377926,4028193,1.4523314,0.005402093,-2.2843728,18.001013,0.032210283
834923077,834809914,4028193,1.4510359,0.0053994204,-2.1609843,17.877043,0.029024519
835325669,835191529,4028193,1.4497374,0.005396664,-2.1359415,17.754423,0.028551547
836122845,836005068,4028193,1.4473673,0.0053911647,-1.9256976,17.559202,0.023465449
836522852,836379523,4028193,1.4460219,0.005388348,-2.1400368,17.49949,0.029078672
836932797,836811479,4028193,1.4446045,0.0053856117,-2.386613,17.476612,0.036212977
837332598,837185863,4028193,1.4429477,0.0053827944,-2.811298,17.47204,0.05026059
838132447,837999480,4028193,1.4398891,0.0053772693,-2.3395572,17.481174,0.034789983
838542327,838431501,4028193,1.4384956,0.0053745634,-2.2865853,17.609974,0.03298934
838992233,838863529,4028193,1.4369742,0.0053718947,-2.5343773,17.801397,0.040090915
839372152,839245067,4028193,1.4352286,0.0053691957,-2.6974368,17.95314,0.045031834
839792201,839677069,4028193,1.433709,0.0053665885,-2.704852,18.092424,0.044931177
840571892,840425888,4028193,1.4305915,0.005361276,-2.6036954,18.297129,0.041167535
840971812,840857887,4028193,1.4288146,0.005358731,-3.2472901,18.385937,0.0637256
841371868,841239488,4028193,1.42709,0.0053561414,-3.0924702,18.480383,0.05749864
841781795,841671459,4028193,1.4253838,0.005353635,-2.769313,18.590645,0.04583605
842561742,842427579,4028193,1.4223211,0.005348531,-2.545152,18.737467,0.03841263
842951441,842801855,4028193,1.4207879,0.0053459844,-2.7149172,18.773159,0.043624785
843351535,843233883,4028193,1.4191165,0.0053435327,-2.9392238,18.829441,0.050978303
843771355,843665914,4028193,1.4175235,0.005341092,-2.9626567,18.891119,0.05162529
844561156,844429145,4028193,1.4141858,0.005336009,-3.0127993,18.385914,0.054854553
844971061,844861137,4028193,1.4124546,0.005333471,-3.087099,18.189432,0.058215614
845561045,845451478,4028193,1.4094172,0.005329537,-3.5743423,17.929256,0.07917489
845970866,845825865,4028193,1.4071766,0.0053268326,-3.703989,17.64237,0.08640522
846550664,846423458,4028193,1.4034182,0.0053227767,-4.161328,17.421854,0.11044014
846960751,846855508,4028193,1.4009207,0.0053201052,-4.0883865,17.394611,0.10676937
847560651,847453088,4028193,1.3973957,0.0053160503,-3.8587537,17.453718,0.09479024
847960451,847827498,4028193,1.3949989,0.0053133173,-3.922999,17.476542,0.097844936
848570242,848417866,4028193,1.3913888,0.005309278,-3.911892,17.536114,0.09696116
848960237,848849885,4028193,1.3889318,0.005306655,-4.1289625,17.58679,0.1077092
849560050,849447464,4028193,1.3852738,0.0053026904,-4.1168623,17.716875,0.106292605
849969948,849829072,4028193,1.3828683,0.005300051,-4.0534306,17.815466,0.10247214
850569927,850419528,4028193,1.3792881,0.005296143,-4.2282057,17.96262,0.11058597
850969774,850851510,4028193,1.3770317,0.005293614,-3.729473,18.034512,0.08569354
851579635,851441872,4028193,1.3734188,0.0052897646,-4.192043,18.135918,0.10766371
851959611,851823491,4028193,1.3711573,0.0052872133,-4.0025325,18.238205,0.09759894
852579517,852471496,4028193,1.3678064,0.0052835317,-3.7072585,18.470335,0.08267771
852969299,852853152,4028193,1.3657594,0.005281051,-3.587027,18.630909,0.07673487
853569206,853443470,4028193,1.3626105,0.005277391,-3.570715,18.844769,0.07517563
853959199,853817856,4028193,1.3605666,0.0052749477,-3.5964367,18.927166,0.07593059
854559029,854415579,4028193,1.3576016,0.00527138,-3.6291585,19.103962,0.076603025
854958888,854847512,4028193,1.3557138,0.005269069,-3.5838284,19.219591,0.074251935
855558752,855445118,4028193,1.3527616,0.0052655735,-3.7265818,19.373491,0.07964727
855758721,855603486,4028193,1.3517343,0.005264356,-3.7901807,19.42695,0.08216232
856558539,856409858,4028193,1.3477739,0.005259793,-3.5034015,19.735485,0.06910182
856958583,856841869,4028193,1.3457382,0.0052575762,-3.7795978,19.730017,0.080449104
857558404,857439481,4028193,1.3426614,0.005254147,-3.8525105,19.432297,0.08486351
857958299,857821070,4028193,1.3404591,0.0052518114,-4.144372,19.283054,0.09896899
858568181,858411489,4028193,1.337131,0.0052482844,-3.9601264,19.030859,0.091562405
858978056,858843514,4028193,1.3348416,0.005245946,-4.0365176,18.773058,0.09643533
859558014,859433889,4028193,1.3311179,0.0052422923,-4.282073,18.460325,0.11036371
859967871,859865889,4028193,1.3287987,0.0052398792,-4.0387173,18.297007,0.09905225
860557797,860413065,4028193,1.3253496,0.005236094,-3.8011446,18.077806,0.08880564
860967793,860845080,4028193,1.3230444,0.0052336343,-3.946045,17.986471,0.09619126
861397577,861277123,4028193,1.3208257,0.0052311635,-3.822298,17.910116,0.09063756
861797593,861651485,4028193,1.3197463,0.00523014,-3.7022848,17.943459,0.08487719
862577360,862457857,4028193,1.3164634,0.005226647,-3.8284516,17.853186,0.09121959
862977239,862839605,4028193,1.3142064,0.0052240845,-3.8617048,17.66085,0.09382185
863567041,863437315,4028193,1.3109182,0.0052202083,-3.798401,17.362822,0.092329144
863797031,863653395,4028193,1.3097801,0.005218921,-3.7607026,17.250446,0.09109513
864567008,864459674,4028193,1.3064288,0.0052152267,-3.7520404,16.990192,0.09206493
864976771,864834106,4028193,1.3040797,0.005212503,-3.7929947,16.81771,0.09505065
865576642,865431671,4028193,1.3002459,0.0052084243,-4.187118,16.560837,0.11762662
865976667,865863769,4028193,1.2976688,0.0052057034,-4.050208,16.363937,0.1113844
866576436,866461457,4028193,1.2934985,0.00520151,-4.4482694,16.183527,0.13585213
866976455,866835984,4028193,1.2907412,0.005198663,-4.382015,16.143984,0.13215832
867566282,867426378,4028193,1.2864155,0.005194432,-4.5006514,16.112492,0.13968365
867976191,867858492,4028193,1.2835655,0.0051916633,-4.409729,16.08113,0.13435838
868576025,868456064,4028193,1.2792363,0.00518745,-4.5169454,16.069399,0.14107418
868980966,868837663,4028193,1.2761908,0.00518462,-4.856612,16.04989,0.16328724
869575890,869428089,4028193,1.271526,0.0051803896,-4.8454046,16.042099,0.16261342
869955676,869802489,4028193,1.2682562,0.0051775486,-5.1688204,16.057678,0.18486623
870575538,870450463,4028193,1.263421,0.005173428,-5.1099157,16.100697,0.18019399
870975521,870832082,4028193,1.2601207,0.0051706303,-5.123845,16.132133,0.18082465
871585501,871480090,4028193,1.2551271,0.005166536,-5.302466,16.112465,0.19388816
871975297,871861668,4028193,1.2517724,0.005163744,-5.2241864,16.108534,0.18825166
872565207,872452105,4028193,1.2467521,0.0051595746,-5.2270885,16.104607,0.18850681
872975014,872826501,4028193,1.2434479,0.0051567694,-5.0972643,16.088923,0.17943403
873574938,873424077,4028193,1.2384735,0.005152621,-5.0713525,16.053755,0.17800346
873967420,873856265,4028193,1.2350982,0.0051498967,-5.112132,16.034288,0.18109728
874574855,874453900,4028193,1.2299932,0.005145745,-5.490197,16.007116,0.20922823
874969624,874828308,4028193,1.2266252,0.0051429346,-5.186359,15.976186,0.18707232
875574459,875418661,4028193,1.2216101,0.0051387665,-5.22363,15.995497,0.18954161
875804429,875692317,4028193,1.2199851,0.0051374924,-5.0626264,16.010983,0.17786531
876574428,876448277,4028193,1.2152293,0.005133581,-4.9926367,16.018734,0.1728977
876974173,876829921,4028193,1.212225,0.0051308046,-4.6874256,15.968462,0.1528844
877574144,877420331,4028193,1.2076509,0.005126636,-4.7311945,15.884153,0.15657954
877973936,877852279,4028193,1.2045976,0.0051239114,-4.8777294,15.8803425,0.16646887
878573793,878442662,4028193,1.2000382,0.0051197354,-4.80489,15.812118,0.1622312
878963759,878824298,4028193,1.1968598,0.005116935,-4.912093,15.7632475,0.17007676
879563597,879421897,4028193,1.1921289,0.005112758,-4.9000177,15.729611,0.1696035
879973569,879853950,4028193,1.1889982,0.0051100245,-4.8338842,15.763241,0.16470411
880563366,880444316,4028193,1.1841655,0.005105868,-4.837629,15.834772,0.16421421
880973414,880818722,4028193,1.1809804,0.005103076,-4.800291,15.823426,0.16180506
881403157,881250753,4028193,1.1777207,0.0051003615,-5.0646553,15.770727,0.18071973
881973224,881848350,4028193,1.1744514,0.0050978772,-5.0100203,15.763228,0.17692587
882572989,882445971,4028193,1.1696912,0.0050937342,-4.7514157,15.699832,0.15977488
882962903,882820492,4028193,1.1665981,0.0050909305,-4.7235503,15.688702,0.15801837
883572828,883468481,4028193,1.1622212,0.005086855,-4.453528,15.688698,0.14046852
883792780,883684533,4028193,1.1607883,0.0050854976,-4.418083,15.684992,0.13827413
884582499,884440701,4028193,1.1565902,0.005081585,-4.455439,15.69982,0.1404895
884982539,884872699,4028193,1.1537482,0.005078885,-4.5148597,15.725849,0.14402303
885562296,885412744,4028193,1.149586,0.0050747003,-4.219366,15.733302,0.12572801
885962313,885844788,4028193,1.1469158,0.005072012,-4.2739153,15.725842,0.12906112
886562179,886435071,4028193,1.1428819,0.0050679045,-4.1595397,15.7444935,0.12210104
886961947,886816709,4028193,1.1401281,0.0050651664,-4.3856196,15.759451,0.13560583
887561810,887414355,4028193,1.1358119,0.0050611147,-4.401958,15.838512,0.13593611
887971779,887846328,4028193,1.1329309,0.0050584744,-4.4802237,15.899342,0.1402742
888561663,888436667,4028193,1.1285421,0.0050544734,-4.738148,16.053658,0.15538204
888971714,888868714,4028193,1.125601,0.0050518927,-4.8194313,16.163582,0.15966564
889561442,889459084,4028193,1.121125,0.0050479677,-4.6493096,16.239065,0.14790179
889971434,889840729,4028193,1.1182265,0.0050453558,-4.6882057,16.271065,0.15009107
890561195,890438315,4028193,1.1136825,0.0050414847,-4.97958,16.295143,0.16907708
890971184,890870281,4028193,1.1104466,0.005038946,-5.219361,16.251043,0.18625627
891561132,891403118,4028193,1.1055167,0.0050349603,-5.437501,16.215137,0.20259818
891970874,891835113,4028193,1.1020613,0.005032423,-5.507636,16.23905,0.20755221
892570722,892432682,4028193,1.0969018,0.005028566,-5.4638414,16.271048,0.20386289
892970705,892864739,4028193,1.0934148,0.005026043,-5.7246885,16.267036,0.22384779
893580511,893462283,4028193,1.0881227,0.005022188,-5.6085577,16.183348,0.21596904
893810578,893678279,4028193,1.0862734,0.005020921,-5.9544187,16.171463,0.24360539
894570277,894427094,4028193,1.0807189,0.0050172657,-6.0423727,16.223082,0.2500571
894980289,894859139,4028193,1.0769575,0.005014748,-5.9161057,16.219097,0.23977433
895570239,895456686,4028193,1.0714492,0.00501091,-5.9949694,16.207157,0.24639086
895809984,895672655,4028193,1.0695474,0.005009653,-6.1506643,16.207155,0.2593551
896579891,896428709,4028193,1.0637325,0.0050060498,-6.3111353,16.26301,0.27212694
896789844,896644667,4028193,1.0617305,0.005004801,-6.501942,16.259008,0.28890142
897579629,897451141,4028193,1.0557082,0.005001289,-6.5165715,16.331364,0.2889172
897799684,897667124,4028193,1.0537232,0.0050000497,-6.481447,16.331362,0.2858111
898394473,898264796,4028193,1.0497403,0.0049978164,-6.448097,16.40437,0.28161845
898799519,898696790,4028193,1.0477756,0.004996883,-6.468991,16.4575,0.28253138
899561763,899452706,4028193,1.0417762,0.004993367,-6.5696726,16.461597,0.2913218
899799163,899668704,4028193,1.0397741,0.004992142,-6.58847,16.43293,0.2935024
900579079,900475151,4028193,1.0336199,0.004988676,-6.8970184,16.367775,0.3229168
900958930,900856695,4028193,1.029458,0.0049861474,-6.9506664,16.303133,0.32926026
901568882,901454280,4028193,1.0231153,0.004982388,-6.7703915,16.299105,0.31247935
901978637,901828716,4028193,1.0187025,0.0049798437,-7.0850787,16.291063,0.34237137
902558537,902419049,4028193,1.0122395,0.0049760737,-7.0642653,16.295078,0.34027892
902968583,902851150,4028193,1.00782,0.0049736197,-7.2263694,16.27901,0.35642636
903558338,903448683,4028193,1.0012993,0.0049698744,-6.9709535,16.279007,0.33167592
903968215,903830287,4028193,0.99706614,0.0049673663,-7.0399947,16.311165,0.3376115
904558120,904420663,4028193,0.99069935,0.004963635,-7.0714016,16.375866,0.33928463
904958177,904852685,4028193,0.98644227,0.004961218,-6.9008408,16.424726,0.32215387
905557936,905443119,4028193,0.98020786,0.0049575306,-6.7554226,16.48621,0.3075684
905957802,905824747,4028193,0.97607476,0.004955078,-6.8910885,16.539858,0.31900784
906557746,906422277,4028193,0.9698785,0.0049514575,-6.975251,16.635603,0.32496655
906957599,906854296,4028193,0.9657808,0.0049491026,-6.8675575,16.685976,0.31405845
907557370,907444724,4028193,0.95968294,0.004945507,-6.8589582,16.75359,0.31200814
907957368,907819067,4028193,0.95563865,0.0049430947,-6.8203864,16.791843,0.307806
908567262,908416660,4028193,0.94966066,0.004939558,-6.797157,16.864552,0.30439484
908787253,908683111,4028193,0.94768554,0.0049384693,-6.7514453,16.886045,0.29993215
909557016,909446274,4028193,0.9421242,0.00493522,-6.4557986,17.068573,0.2713065
909946981,909820688,4028193,0.9384124,0.0049328767,-6.357703,17.1302,0.2621776
910546821,910411076,4028193,0.9331174,0.004929429,-6.0836415,17.245687,0.23845378
910936668,910792711,4028193,0.92963827,0.0049271453,-6.12234,17.348978,0.24005929
911536583,911390269,4028193,0.9247192,0.004923793,-6.005236,17.531136,0.2285639
911946453,911822318,4028193,0.92148215,0.0049216277,-5.7703867,17.660547,0.20948994
912506274,912355070,4028193,0.9169038,0.004918405,-5.7151604,18.534956,0.19580455
913096179,912952712,4028193,0.91239816,0.0049153212,-5.492978,18.645702,0.17980197
913496076,913384715,4028193,0.9095575,0.004913322,-5.4276214,18.711597,0.17493057
914105976,913982296,4028193,0.9054146,0.004910297,-5.2881045,18.937136,0.16407533
914505849,914356711,4028193,0.9026841,0.004908266,-5.3353715,19.06701,0.16588388
915105775,915004701,4028193,0.89851236,0.004905368,-5.43526,19.166548,0.17125931
915505730,915379125,4028193,0.8958146,0.0049033645,-5.2658978,19.213947,0.1603562
916095578,915976670,4028193,0.89189065,0.0049004336,-5.090302,19.272104,0.14938791
916515466,916408671,4028193,0.8892087,0.0048985323,-5.295189,19.335821,0.1611231
917115322,917006277,4028193,0.88527125,0.004895648,-5.00929,19.512533,0.14288816
917505256,917380686,4028193,0.88271254,0.004893702,-5.0994453,19.598995,0.14742446
918105024,917971106,4028193,0.8788433,0.0048908447,-5.2925587,19.702333,0.15796876
918514938,918403065,4028193,0.8763654,0.0048890123,-4.9653525,19.817392,0.13823281
919114846,919000688,4028193,0.8726576,0.0048862197,-4.875417,19.872488,0.13290118
919514742,919382292,4028193,0.870192,0.004884337,-5.0237236,19.855936,0.14122728
919914640,919756695,4028193,0.8677916,0.0048824404,-4.8655915,19.900108,0.1321823
920564632,920462532,4028193,0.86419225,0.0048798043,-4.8862467,19.839397,0.13371488
920964388,920836873,4028193,0.86187875,0.004877898,-4.6953115,19.757,0.123983905
921514308,921376881,4028193,0.8584328,0.004874999,-4.477905,19.561087,0.11389752
922104158,921974495,4028193,0.8553398,0.0048721535,-4.021155,19.437273,0.092432305
922354160,922240881,4028193,0.85431165,0.004871283,-4.0858445,19.36243,0.09579907
922754139,922622518,4028193,0.8524279,0.004869342,-3.6950574,19.235037,0.0788691
923554027,923428877,4028193,0.84866333,0.0048654736,-3.634397,19.087864,0.07688912
923953782,923803268,4028193,0.8467636,0.0048634973,-3.6510496,19.103556,0.0775316
924353705,924235298,4028193,0.8449595,0.004861607,-3.488586,19.114025,0.07074637
924763647,924616912,4028193,0.84312665,0.0048596524,-3.467366,19.077406,0.070022486
925563465,925430489,4028193,0.8397079,0.004855807,-3.4549432,19.087852,0.069483586
925943366,925804882,4028193,0.83793515,0.004853845,-3.5040329,19.161238,0.071198404
926363198,926236945,4028193,0.83617455,0.00485198,-3.4827132,19.256168,0.069987915
926773212,926668946,4028193,0.83437973,0.0048501296,-3.5395806,19.346422,0.071954906
927542940,927424868,4028193,0.83065194,0.004846314,-3.9607193,19.480192,0.089477204
927952896,927806478,4028193,0.8287996,0.0048444318,-3.6574304,19.55565,0.07600416
928372879,928238527,4028193,0.82681245,0.004842624,-4.0701723,19.6315,0.09376259
928792648,928670479,4028193,0.8248076,0.004840819,-4.1186304,19.636934,0.09598192
929562542,929419386,4028193,0.821748,0.0048382804,-4.2460775,19.87244,0.100805014
929792472,929635490,4028193,0.82073456,0.0048373993,-4.1749983,19.93328,0.097160846
930572405,930449207,4028193,0.81757385,0.004835039,-4.4838877,20.286394,0.11011896
930962285,930830865,4028193,0.81573206,0.004833233,-3.9114149,20.033356,0.08485385
931372120,931262889,4028193,0.81392896,0.00483148,-3.691073,19.96101,0.07583684
931781995,931637279,4028193,0.81207955,0.0048296456,-3.7820573,19.988792,0.07951098
932561839,932443726,4028193,0.8086907,0.0048260535,-3.383252,19.866909,0.06401707
932971821,932825299,4028193,0.8070079,0.004824217,-3.4191186,19.691357,0.06596449
933371712,933257282,4028193,0.8054564,0.0048224186,-2.8254347,19.474792,0.04554652
933781569,933638912,4028193,0.8040171,0.0048205364,-2.7844067,19.298538,0.044637352
934571470,934445263,4028193,0.8009864,0.004816789,-3.0090969,19.213861,0.05236187
934951455,934819662,4028193,0.7995226,0.0048148697,-3.04056,19.145443,0.053653646
935371177,935251788,4028193,0.797988,0.00481303,-3.0120196,19.103504,0.052766714
935791173,935683863,4028193,0.79652804,0.0048111835,-3.0481658,19.030422,0.054248314
936570926,936447150,4028193,0.7939457,0.004807342,-2.342791,18.926699,0.032221794
936960960,936821506,4028193,0.7927482,0.0048054033,-2.2386298,18.942204,0.029396227
937360831,937253689,4028193,0.7916196,0.0048035574,-2.169524,19.009607,0.027511435
937750750,937628264,4028193,0.7904911,0.0048016426,-2.3524678,19.113964,0.032170225
938560512,938441971,4028193,0.7883531,0.004797964,-2.1505525,19.341043,0.02656915
938950454,938823478,4028193,0.7872617,0.004796114,-2.203673,19.437197,0.027759913
939360474,939255510,4028193,0.78620076,0.0047943383,-2.0869646,19.50166,0.024815101
939770258,939629891,4028193,0.78513616,0.004792491,-2.1119037,19.588058,0.025299637
940560127,940436319,4028193,0.7829437,0.0047889194,-2.4109282,19.789816,0.03263505
940959968,940817923,4028193,0.7818612,0.004787131,-2.3130565,19.877909,0.029906064
941359977,941249880,4028193,0.780714,0.0047854185,-2.4812715,19.966518,0.03426129
941759893,941631457,4028193,0.7795418,0.0047836537,-2.4319515,20.044468,0.03278482
942559569,942437865,4028193,0.7774075,0.0047801896,-2.3005114,20.12842,0.029214375
942959542,942812274,4028193,0.7763442,0.004778421,-2.1135852,20.122805,0.024666557
943359482,943244255,4028193,0.7753077,0.00477673,-2.072052,20.04446,0.023799311
943779354,943676303,4028193,0.77426153,0.004775037,-2.2255769,20.011002,0.027502606
944569129,944439477,4028193,0.77211,0.004771512,-2.3300085,19.927673,0.030270245
944959129,944813869,4028193,0.7710397,0.0047697253,-2.1592188,19.877892,0.026060363
945559126,945404279,4028193,0.76950866,0.0047670817,-2.2689066,19.82277,0.028855355
945968855,945836279,4028193,0.7684609,0.004765364,-2.172794,19.691298,0.026639145
946358807,946217894,4028193,0.7673831,0.0047635604,-2.2274528,19.46936,0.028315408
946768846,946649903,4028193,0.7662049,0.004761794,-2.3927453,19.240213,0.033062868
947568533,947463476,4028193,0.76375943,0.00475814,-2.5382047,18.92665,0.03782135
948188348,948053891,4028193,0.76246214,0.004756525,-2.5961847,18.741966,0.039958898
948788241,948644298,4028193,0.761177,0.0047548837,-2.555128,18.529781,0.039148267
949158126,949025952,4028193,0.7599674,0.0047529535,-2.2156768,18.41508,0.029620795
949568206,949457872,4028193,0.75878733,0.004751077,-2.375069,18.330978,0.03419198
950167962,950055482,4028193,0.7575824,0.004749425,-2.1493225,18.311274,0.028031228
950557908,950429867,4028193,0.7564895,0.004747455,-2.250938,18.227886,0.030885043
950977708,950861861,4028193,0.75541687,0.0047455593,-2.0028436,18.149933,0.02455707
951397713,951293917,4028193,0.7543358,0.0047436515,-1.9643121,18.029156,0.023779519
951967538,951833950,4028193,0.7532979,0.0047418824,-1.8891883,17.952513,0.02208934
952377404,952265886,4028193,0.75227225,0.004739944,-1.9051359,17.781942,0.022679329
952977296,952863488,4028193,0.750932,0.0047369413,-1.6366689,17.563154,0.016946368
953567195,953453876,4028193,0.74983907,0.004733867,-1.3974309,17.312738,0.012532923
954367064,954260348,4028193,0.7485054,0.004729741,-1.2261398,17.112347,0.009761754
955176938,955073880,4028193,0.74733716,0.004725587,-0.9844189,16.92897,0.0063604354
956156682,956045864,4028193,0.74621433,0.0047202734,-0.6795098,16.77885,0.0030576426
957376279,957233900,4028193,0.7450933,0.0047138836,-0.60292983,16.647932,0.0024262231
958776036,958637860,4028193,0.7440874,0.004707846,-0.35187906,16.907358,0.000813708
960155780,960041883,4028193,0.7429398,0.004700622,-0.6784838,16.959263,0.0030159869
961175624,961071575,4028193,0.7419319,0.004695504,-0.99560934,16.920296,0.006509198
962565194,962418101,4028193,0.74086326,0.004690824,-0.74615157,16.924614,0.0036550455
964174791,964038069,4028193,0.73976785,0.0046838676,-0.6590658,16.778814,0.0028764298
965964380,965823879,4028193,0.73869574,0.0046744337,-0.35811538,16.5189,0.0008626255
967374261,967220885,4028193,0.73758584,0.0046670344,-0.53152144,16.383694,0.0019159636
968963819,968848086,4028193,0.7365829,0.0046585463,-0.6080983,16.198856,0.0025364177
972373166,972246718,4028193,0.7355807,0.0046430263,-0.13912779,16.108013,0.00013351906
975792294,975645086,4028193,0.73664707,0.004624935,0.5182072,16.002722,0.0018645349
977194416,977056270,4028193,0.73773676,0.0046201777,0.95021915,16.014343,0.006264637
978381676,978237153,4028193,0.7389085,0.004615089,0.85348606,15.967946,0.005068755
979381491,979266815,4028193,0.74018,0.00461115,1.1982186,15.956389,0.009997583
980121385,979965271,4028193,0.7412509,0.0046081,1.3042579,15.987233,0.011822548
980723960,980613376,4028193,0.7423276,0.0046049817,1.0615413,15.914176,0.007867687
