timestamp,timestamp_sample,q[0],q[1],q[2],q[3],delta_q_reset[0],delta_q_reset[1],delta_q_reset[2],delta_q_reset[3],quat_reset_counter
539821926,539821540,0.27529892,0.013014884,0.008607019,0.961232,0.99963945,-3.5592995e-09,2.0442933e-08,0.02685347,4
540319667,540319270,0.2752927,0.013362388,0.008655328,0.9612286,0.99963945,-3.5592995e-09,2.0442933e-08,0.02685347,4
540822274,540821978,0.275534,0.011982409,0.008678571,0.96117747,0.99963945,-3.5592995e-09,2.0442933e-08,0.02685347,4
541319991,541319708,0.2757061,0.011930356,0.009292605,0.9611231,0.99963945,-3.5592995e-09,2.0442933e-08,0.02685347,4
541817755,541817439,0.2757417,0.012462073,0.009235679,0.9611066,0.99963945,-3.5592995e-09,2.0442933e-08,0.02685347,4
542320608,542320146,0.27592823,0.01338225,0.009184761,0.9610413,0.99963945,-3.5592995e-09,2.0442933e-08,0.02685347,4
542818419,542817877,0.27617902,0.012796016,0.009360585,0.9609755,0.99963945,-3.5592995e-09,2.0442933e-08,0.02685347,4
543320887,543320584,0.27627212,0.012369391,0.0092896065,0.96095496,0.99963945,-3.5592995e-09,2.0442933e-08,0.02685347,4
543818596,543818315,0.27644962,0.011573102,0.008656062,0.96091974,0.99963945,-3.5592995e-09,2.0442933e-08,0.02685347,4
544321472,544321023,0.27670902,0.011743486,0.008276778,0.96084636,0.99963945,-3.5592995e-09,2.0442933e-08,0.02685347,4
544819139,544818753,0.27672094,0.01228348,0.008548718,0.96083385,0.99963945,-3.5592995e-09,2.0442933e-08,0.02685347,4
545316898,545316484,0.27683145,0.0122931795,0.008550977,0.96080184,0.99963945,-3.5592995e-09,2.0442933e-08,0.02685347,4
545819470,545819192,0.2771623,0.011872923,0.008558202,0.9607117,0.99963945,-3.5592995e-09,2.0442933e-08,0.02685347,4
546317199,546316923,0.27733207,0.012000328,0.008489477,0.9606617,0.99963945,-3.5592995e-09,2.0442933e-08,0.02685347,4
546820040,546819631,0.2774229,0.01313322,0.007817943,0.9606263,0.99963945,-3.5592995e-09,2.0442933e-08,0.02685347,4
547318074,547317362,0.27764642,0.013261642,0.007112926,0.96056557,0.99963945,-3.5592995e-09,2.0442933e-08,0.02685347,4
547820380,547820070,0.2777644,0.01318788,0.007115329,0.9605324,0.99963945,-3.5592995e-09,2.0442933e-08,0.02685347,4
548318079,548317801,0.2776538,0.012842002,0.0077094818,0.96056443,0.99963945,-3.5592995e-09,2.0442933e-08,0.02685347,4
548815806,548815531,0.27779755,0.012880624,0.0075134267,0.96052396,0.99963945,-3.5592995e-09,2.0442933e-08,0.02685347,4
549318623,549318240,0.27781418,0.013197184,0.0075608096,0.9605145,0.99963945,-3.5592995e-09,2.0442933e-08,0.02685347,4
549821236,549820948,0.2777459,0.013174397,0.007968198,0.9605313,0.99963945,-3.5592995e-09,2.0442933e-08,0.02685347,4
550318958,550318679,0.27783027,0.01257409,0.008000929,0.96051455,0.99963945,-3.5592995e-09,2.0442933e-08,0.02685347,4
550821803,550821388,0.27798516,0.0131457085,0.007813045,0.96046364,0.99963945,-3.5592995e-09,2.0442933e-08,0.02685347,4
551319536,551319119,0.27796224,0.013422574,0.007853537,0.9604662,0.99963945,-3.5592995e-09,2.0442933e-08,0.02685347,4
551817410,551816850,0.27799764,0.012882471,0.008349444,0.9604591,0.99963945,-3.5592995e-09,2.0442933e-08,0.02685347,4
552319834,552319559,0.27810425,0.01265053,0.0085755,0.9604293,0.99963945,-3.5592995e-09,2.0442933e-08,0.02685347,4
552817569,552817290,0.27803048,0.012644035,0.008561952,0.96045095,0.99963945,-3.5592995e-09,2.0442933e-08,0.02685347,4
553320378,553319999,0.27808377,0.01278779,0.008274558,0.9604361,0.99963945,-3.5592995e-09,2.0442933e-08,0.02685347,4
553818217,553817731,0.27814418,0.012041212,0.008680639,0.9604246,0.99963945,-3.5592995e-09,2.0442933e-08,0.02685347,4
554320720,554320439,0.27810904,0.011811425,0.008562067,0.9604388,0.99963945,-3.5592995e-09,2.0442933e-08,0.02685347,4
554818532,554818171,0.27808714,0.011767241,0.008687108,0.9604445,0.99963945,-3.5592995e-09,2.0442933e-08,0.02685347,4
555316188,555315903,0.27825385,0.012757733,0.008481417,0.96038544,0.99963945,-3.5592995e-09,2.0442933e-08,0.02685347,4
555819030,555818612,0.2783035,0.013323896,0.008876865,0.96035975,0.99963945,-3.5592995e-09,2.0442933e-08,0.02685347,4
556316875,556316345,0.27827707,0.012917085,0.009055517,0.9603714,0.99963945,-3.5592995e-09,2.0442933e-08,0.02685347,4
556819328,556819052,0.27842999,0.012840721,0.008739303,0.96033096,0.99963945,-3.5592995e-09,2.0442933e-08,0.02685347,4
557322145,557321761,0.27861187,0.01252567,0.008207354,0.9602871,0.99963945,-3.5592995e-09,2.0442933e-08,0.02685347,4
557819906,557819494,0.2786044,0.013327717,0.008135262,0.9602791,0.99963945,-3.5592995e-09,2.0442933e-08,0.02685347,4
558322475,558322203,0.27857545,0.014532196,0.007913427,0.9602718,0.99963945,-3.5592995e-09,2.0442933e-08,0.02685347,4
558815375,558814957,0.27859774,0.014371586,0.00808782,0.9602663,0.99963945,-3.5592995e-09,2.0442933e-08,0.02685347,4
559317952,559317667,0.27857348,0.012985043,0.008521579,0.9602894,0.99963945,-3.5592995e-09,2.0442933e-08,0.02685347,4
559820788,559820376,0.2786798,0.013547019,0.008332948,0.96025246,0.99963945,-3.5592995e-09,2.0442933e-08,0.02685347,4
560318570,560318108,0.2788992,0.014062674,0.007877421,0.9601851,0.99963945,-3.5592995e-09,2.0442933e-08,0.02685347,4
560821091,560820818,0.2790829,0.014000447,0.007889298,0.9601326,0.99963945,-3.5592995e-09,2.0442933e-08,0.02685347,4
561318823,561318550,0.2791867,0.013462637,0.008074871,0.9601086,0.99963945,-3.5592995e-09,2.0442933e-08,0.02685347,4
561821693,561821260,0.27953148,0.012793258,0.008196164,0.9600163,0.99963945,-3.5592995e-09,2.0442933e-08,0.02685347,4
562319407,562318992,0.2796989,0.013271197,0.008870007,0.9599551,0.99963945,-3.5592995e-09,2.0442933e-08,0.02685347,4
562817109,562816724,0.2791394,0.013681151,0.008467984,0.96011585,0.99963945,-3.5592995e-09,2.0442933e-08,0.02685347,4
563319717,563319434,0.2784012,0.013398798,0.008543056,0.9603334,0.99963945,-3.5592995e-09,2.0442933e-08,0.02685347,4
563817455,563817167,0.27776217,0.013250223,0.008329747,0.9605224,0.99963945,-3.5592995e-09,2.0442933e-08,0.02685347,4
564320555,564319876,0.27715573,0.012782602,0.00784712,0.96070796,0.99963945,-3.5592995e-09,2.0442933e-08,0.02685347,4
564818064,564817609,0.27658215,0.011200759,0.008357965,0.9608887,0.99963945,-3.5592995e-09,2.0442933e-08,0.02685347,4
565320591,565320319,0.2758976,0.012893495,0.0081463,0.96106607,0.99963945,-3.5592995e-09,2.0442933e-08,0.02685347,4
565818325,565818051,0.27521893,0.013381351,0.008771428,0.9612485,0.99963945,-3.5592995e-09,2.0442933e-08,0.02685347,4
566316075,566315784,0.27470776,0.013201024,0.00927197,0.96139246,0.99963945,-3.5592995e-09,2.0442933e-08,0.02685347,4
566818940,566818494,0.2741442,0.011308504,0.008951522,0.9615805,0.99963945,-3.5592995e-09,2.0442933e-08,0.02685347,4
567321482,567321204,0.27349174,0.0130758695,0.008473816,0.9617481,0.99963945,-3.5592995e-09,2.0442933e-08,0.02685347,4
567819216,567818936,0.2728895,0.012273049,0.008036764,0.9619335,0.99963945,-3.5592995e-09,2.0442933e-08,0.02685347,4
568322059,568321646,0.27226147,0.011843023,0.0084256595,0.96211356,0.99963945,-3.5592995e-09,2.0442933e-08,0.02685347,4
568819766,568819379,0.27159843,0.012272473,0.008928263,0.962291,0.99963945,-3.5592995e-09,2.0442933e-08,0.02685347,4
569317804,569317112,0.2711004,0.012823002,0.009440531,0.9624194,0.99963945,-3.5592995e-09,2.0442933e-08,0.02685347,4
569820097,569819822,0.27057257,0.011961758,0.009710938,0.9625764,0.99963945,-3.5592995e-09,2.0442933e-08,0.02685347,4
570317845,570317554,0.26992986,0.0118322475,0.009502893,0.96276045,0.99963945,-3.5592995e-09,2.0442933e-08,0.02685347,4
570820645,570820264,0.26937607,0.013394297,0.009679222,0.9628933,0.99963945,-3.5592995e-09,2.0442933e-08,0.02685347,4
571318374,571317997,0.26874658,0.013113573,0.009661335,0.96307325,0.99963945,-3.5592995e-09,2.0442933e-08,0.02685347,4
571820985,571820707,0.26825437,0.013228749,0.010385424,0.96320134,0.99963945,-3.5592995e-09,2.0442933e-08,0.02685347,4
572318717,572318440,0.26776236,0.013254445,0.011450803,0.9633258,0.99963945,-3.5592995e-09,2.0442933e-08,0.02685347,4
572816454,572816173,0.2671818,0.01275346,0.011190886,0.9634968,0.99963945,-3.5592995e-09,2.0442933e-08,0.02685347,4
573319550,573318883,0.26676756,0.013449408,0.013297413,0.96357536,0.99963945,-3.5592995e-09,2.0442933e-08,0.02685347,4
573817056,573816615,0.2663225,0.013913661,0.017219346,0.9636298,0.99963945,-3.5592995e-09,2.0442933e-08,0.02685347,4
574319606,574319325,0.266436,0.020776365,0.04308194,0.96266514,0.99963945,-3.5592995e-09,2.0442933e-08,0.02685347,4
574817339,574817058,0.26569086,0.020843249,0.04466583,0.9627975,0.99963945,-3.5592995e-09,2.0442933e-08,0.02685347,4
575320150,575319768,0.26484445,0.020959565,0.045675963,0.9629808,0.99963945,-3.5592995e-09,2.0442933e-08,0.02685347,4
575822752,575822478,0.2640108,0.020724254,0.045920197,0.9632031,0.99963945,-3.5592995e-09,2.0442933e-08,0.02685347,4
576315832,576315233,0.2631475,0.020757638,0.045156028,0.96347475,0.99963945,-3.5592995e-09,2.0442933e-08,0.02685347,4
576818217,576817943,0.2620871,0.020461129,0.044803705,0.9637865,0.99963945,-3.5592995e-09,2.0442933e-08,0.02685347,4
577321209,577320653,0.26129436,0.020679956,0.04496402,0.9639896,0.99963945,-3.5592995e-09,2.0442933e-08,0.02685347,4
577818767,577818385,0.26054963,0.020527605,0.045139015,0.96418625,0.99963945,-3.5592995e-09,2.0442933e-08,0.02685347,4
578321405,578321095,0.25985593,0.020096973,0.04510412,0.96438414,0.99963945,-3.5592995e-09,2.0442933e-08,0.02685347,4
578819105,578818828,0.25893065,0.02005321,0.04532442,0.9646236,0.99963945,-3.5592995e-09,2.0442933e-08,0.02685347,4
579321916,579321537,0.25763944,0.01985288,0.044536047,0.96501005,0.99963945,-3.5592995e-09,2.0442933e-08,0.02685347,4
579819778,579819273,0.2566174,0.019298064,0.044235174,0.96530735,0.99963945,-3.5592995e-09,2.0442933e-08,0.02685347,4
580317383,580317003,0.2550365,0.016908754,0.047440253,0.96561897,0.99963945,-3.5592995e-09,2.0442933e-08,0.02685347,4
580819991,580819712,0.25366637,0.017672002,0.045478445,0.9660605,0.99963945,-3.5592995e-09,2.0442933e-08,0.02685347,4
581317728,581317444,0.2521532,0.018336039,0.046114065,0.9664141,0.99963945,-3.5592995e-09,2.0442933e-08,0.02685347,4
581820562,581820153,0.25098845,0.019051468,0.045212675,0.9667459,0.99963945,-3.5592995e-09,2.0442933e-08,0.02685347,4
582318535,582317886,0.25042164,0.019336753,0.044517133,0.9669195,0.99963945,-3.5592995e-09,2.0442933e-08,0.02685347,4
582820904,582820595,0.24914221,0.018602835,0.045701757,0.96720916,0.99963945,-3.5592995e-09,2.0442933e-08,0.02685347,4
583318628,583318327,0.24848576,0.017971827,0.045554023,0.9673969,0.99963945,-3.5592995e-09,2.0442933e-08,0.02685347,4
583816364,583816059,0.24771845,0.01835402,0.04514969,0.9676054,0.99963945,-3.5592995e-09,2.0442933e-08,0.02685347,4
584319292,584318768,0.24681674,0.020931775,0.04372401,0.96784896,0.99963945,-3.5592995e-09,2.0442933e-08,0.02685347,4
584816913,584816500,0.24601583,0.022068089,0.042835046,0.9680674,0.99963945,-3.5592995e-09,2.0442933e-08,0.02685347,4
585319488,585319209,0.24509305,0.022426616,0.04271005,0.96829873,0.99963945,-3.5592995e-09,2.0442933e-08,0.02685347,4
585822301,585821918,0.24413355,0.023534816,0.042266633,0.9685342,0.99963945,-3.5592995e-09,2.0442933e-08,0.02685347,4
586320082,586319650,0.24314368,0.023979165,0.041289613,0.9688145,0.99963945,-3.5592995e-09,2.0442933e-08,0.02685347,4
586817795,586817381,0.24215174,0.023482447,0.041692752,0.9690578,0.99963945,-3.5592995e-09,2.0442933e-08,0.02685347,4
587320418,587320090,0.2412514,0.022265362,0.042673226,0.96926826,0.99963945,-3.5592995e-09,2.0442933e-08,0.02685347,4
587818094,587817821,0.24040955,0.02159638,0.042860135,0.9694844,0.99963945,-3.5592995e-09,2.0442933e-08,0.02685347,4
588320979,588320530,0.23914571,0.022403967,0.04431976,0.9697129,0.99963945,-3.5592995e-09,2.0442933e-08,0.02685347,4
588818648,588818261,0.2382699,0.02229133,0.043106373,0.9699858,0.99963945,-3.5592995e-09,2.0442933e-08,0.02685347,4
589321244,589320969,0.23722623,0.021425465,0.043097034,0.9702615,0.99963945,-3.5592995e-09,2.0442933e-08,0.02685347,4
589819009,589818701,0.23623826,0.022332307,0.041889206,0.9705349,0.99963945,-3.5592995e-09,2.0442933e-08,0.02685347,4
590316711,590316431,0.23551798,0.022724357,0.041100185,0.9707346,0.99963945,-3.5592995e-09,2.0442933e-08,0.02685347,4
590819521,590819140,0.23516634,0.021851081,0.040727105,0.97085565,0.99963945,-3.5592995e-09,2.0442933e-08,0.02685347,4
591317252,591316870,0.23473333,0.021979049,0.041362897,0.97093064,0.99963945,-3.5592995e-09,2.0442933e-08,0.02685347,4
591819913,591819578,0.23450221,0.023113228,0.041482307,0.9709551,0.99963945,-3.5592995e-09,2.0442933e-08,0.02685347,4
592317619,592317309,0.23506704,0.034286015,0.056428578,0.9697339,0.99963945,-3.5592995e-09,2.0442933e-08,0.02685347,4
592820452,592820017,0.23272006,0.028144773,0.049765006,0.97086185,0.99963945,-3.5592995e-09,2.0442933e-08,0.02685347,4
593323006,593322724,0.23187359,0.03117344,0.053861283,0.97075325,0.99963945,-3.5592995e-09,2.0442933e-08,0.02685347,4
593815855,593815477,0.2307995,0.02949827,0.051286675,0.9712009,0.99963945,-3.5592995e-09,2.0442933e-08,0.02685347,4
594318461,594318185,0.23004389,0.030610936,0.050252892,0.9713998,0.99963945,-3.5592995e-09,2.0442933e-08,0.02685347,4
594816232,594815915,0.22919394,0.031913012,0.04961764,0.97159135,0.99963945,-3.5592995e-09,2.0442933e-08,0.02685347,4
595319100,595318622,0.22853872,0.03050351,0.04975612,0.9717839,0.99963945,-3.5592995e-09,2.0442933e-08,0.02685347,4
595821610,595821329,0.22774817,0.028723612,0.049878538,0.9720174,0.99963945,-3.5592995e-09,2.0442933e-08,0.02685347,4
596319369,596319059,0.22702111,0.027875252,0.049704894,0.9722211,0.99963945,-3.5592995e-09,2.0442933e-08,0.02685347,4
596822293,596821766,0.22620033,0.026508985,0.049083993,0.97248214,0.99963945,-3.5592995e-09,2.0442933e-08,0.02685347,4
597319872,597319495,0.22531478,0.028241007,0.048201047,0.97268313,0.99963945,-3.5592995e-09,2.0442933e-08,0.02685347,4
597817621,597817224,0.22448221,0.02937477,0.047577675,0.9728727,0.99963945,-3.5592995e-09,2.0442933e-08,0.02685347,4
598320209,598319931,0.22360165,0.029898597,0.046716258,0.9731013,0.99963945,-3.5592995e-09,2.0442933e-08,0.02685347,4
598817971,598817660,0.22290449,0.029559117,0.04652068,0.9732809,0.99963945,-3.5592995e-09,2.0442933e-08,0.02685347,4
599320825,599320366,0.22216743,0.029357247,0.046369907,0.97346276,0.99963945,-3.5592995e-09,2.0442933e-08,0.02685347,4
599818480,599818096,0.22139739,0.028975455,0.04629023,0.9736533,0.99963945,-3.5592995e-09,2.0442933e-08,0.02685347,4
600321078,600320801,0.22068757,0.028613431,0.04615269,0.9738318,0.99963945,-3.5592995e-09,2.0442933e-08,0.02685347,4
600818843,600818530,0.22018385,0.02760086,0.046855263,0.9739414,0.99963945,-3.5592995e-09,2.0442933e-08,0.02685347,4
601316537,601316258,0.21961972,0.023363458,0.04975129,0.97403604,0.99963945,-3.5592995e-09,2.0442933e-08,0.02685347,4
601819376,601818964,0.21905847,0.023625597,0.0510274,0.9740901,0.99963945,-3.5592995e-09,2.0442933e-08,0.02685347,4
602317141,602316692,0.21899676,0.026980862,0.047437776,0.9741982,0.99963945,-3.5592995e-09,2.0442933e-08,0.02685347,4
602819678,602819397,0.21845719,0.027004758,0.047592968,0.9743111,0.99963945,-3.5592995e-09,2.0442933e-08,0.02685347,4
603322488,603322103,0.21799101,0.027491627,0.04741528,0.9744106,0.99963945,-3.5592995e-09,2.0442933e-08,0.02685347,4
603820226,603819831,0.21753894,0.025523873,0.048884094,0.9744926,0.99963945,-3.5592995e-09,2.0442933e-08,0.02685347,4
604317979,604317558,0.21755894,0.026237573,0.049545538,0.97443575,0.99963945,-3.5592995e-09,2.0442933e-08,0.02685347,4
604820551,604820263,0.21873173,0.029192502,0.05621676,0.97372687,0.99963945,-3.5592995e-09,2.0442933e-08,0.02685347,4
605318305,605317991,0.21652071,0.02329667,0.054448247,0.97448015,0.99963945,-3.5592995e-09,2.0442933e-08,0.02685347,4
605821240,605820695,0.21564232,0.022989774,0.05310843,0.9747561,0.99963945,-3.5592995e-09,2.0442933e-08,0.02685347,4
606318807,606318422,0.21498913,0.024044113,0.050105706,0.9750338,0.99963945,-3.5592995e-09,2.0442933e-08,0.02685347,4
606821406,606821127,0.21429566,0.024398968,0.04944766,0.97521126,0.99963945,-3.5592995e-09,2.0442933e-08,0.02685347,4
607319129,607318853,0.21367238,0.024121413,0.049132176,0.9753709,0.99963945,-3.5592995e-09,2.0442933e-08,0.02685347,4
607816864,607816580,0.2129842,0.024351642,0.04907841,0.97551835,0.99963945,-3.5592995e-09,2.0442933e-08,0.02685347,4
608319699,608319284,0.212434,0.02400435,0.048713546,0.9756653,0.99963945,-3.5592995e-09,2.0442933e-08,0.02685347,4
608817490,608817011,0.21172652,0.023710756,0.048998736,0.97581184,0.99963945,-3.5592995e-09,2.0442933e-08,0.02685347,4
609319989,609319714,0.21124089,0.022963678,0.04823737,0.97597295,0.99963945,-3.5592995e-09,2.0442933e-08,0.02685347,4
609817743,609817440,0.21062073,0.022572106,0.04818232,0.97611886,0.99963945,-3.5592995e-09,2.0442933e-08,0.02685347,4
610320734,610320144,0.20971811,0.02243107,0.049651712,0.9762427,0.99963945,-3.5592995e-09,2.0442933e-08,0.02685347,4
610818295,610817870,0.20911571,0.022595363,0.049141005,0.976394,0.99963945,-3.5592995e-09,2.0442933e-08,0.02685347,4
611316025,611315596,0.2084131,0.022607436,0.050032172,0.97649866,0.99963945,-3.5592995e-09,2.0442933e-08,0.02685347,4
611818572,611818298,0.2076691,0.021403583,0.051905766,0.9765866,0.99963945,-3.5592995e-09,2.0442933e-08,0.02685347,4
612316299,612316024,0.20706514,0.02161914,0.05278313,0.97666305,0.99963945,-3.5592995e-09,2.0442933e-08,0.02685347,4
612819164,612818727,0.20814665,0.027214307,0.058779754,0.97595054,0.99963945,-3.5592995e-09,2.0442933e-08,0.02685347,4
613321724,613321429,0.20652196,0.022254493,0.050745778,0.97687167,0.99963945,-3.5592995e-09,2.0442933e-08,0.02685347,4
613819436,613819154,0.20654592,0.02376963,0.050480854,0.97684467,0.99963945,-3.5592995e-09,2.0442933e-08,0.02685347,4
614322277,614321856,0.20586075,0.023536216,0.049509857,0.9770447,0.99963945,-3.5592995e-09,2.0442933e-08,0.02685347,4
614820167,614819583,0.20568487,0.021543678,0.050680965,0.9770676,0.99963945,-3.5592995e-09,2.0442933e-08,0.02685347,4
615317744,615317306,0.20511757,0.015902335,0.05604017,0.97700226,0.99963945,-3.5592995e-09,2.0442933e-08,0.02685347,4
615820283,615820007,0.2045691,0.015792487,0.056067508,0.9771175,0.99963945,-3.5592995e-09,2.0442933e-08,0.02685347,4
616318010,616317732,0.20410357,0.012627824,0.056007538,0.9772643,0.99963945,-3.5592995e-09,2.0442933e-08,0.02685347,4
616820849,616820433,0.20395827,0.012088268,0.055135805,0.97735095,0.99963945,-3.5592995e-09,2.0442933e-08,0.02685347,4
617318541,617318157,0.20364003,0.011303118,0.054447524,0.97746533,0.99963945,-3.5592995e-09,2.0442933e-08,0.02685347,4
617821162,617820858,0.20312506,0.013162658,0.05354297,0.9775992,0.99963945,-3.5592995e-09,2.0442933e-08,0.02685347,4
618318856,618318582,0.20273794,0.014269604,0.05270829,0.9777094,0.99963945,-3.5592995e-09,2.0442933e-08,0.02685347,4
618816579,618816306,0.20231669,0.015867136,0.051994223,0.9778102,0.99963945,-3.5592995e-09,2.0442933e-08,0.02685347,4
619319722,619319007,0.20273954,0.020823877,0.057429958,0.9773254,0.99963945,-3.5592995e-09,2.0442933e-08,0.02685347,4
619817110,619816730,0.20197177,0.020632196,0.055433214,0.9776037,0.99963945,-3.5592995e-09,2.0442933e-08,0.02685347,4
620319712,620319430,0.20136337,0.019488938,0.051767938,0.97795355,0.99963945,-3.5592995e-09,2.0442933e-08,0.02685347,4
620822563,620822130,0.20146456,0.020422556,0.050505083,0.97797966,0.99963945,-3.5592995e-09,2.0442933e-08,0.02685347,4
621320250,621319853,0.20111108,0.017036982,0.05266633,0.9780033,0.99963945,-3.5592995e-09,2.0442933e-08,0.02685347,4
621818006,621817576,0.20067511,0.01392187,0.05425101,0.9780555,0.99963945,-3.5592995e-09,2.0442933e-08,0.02685347,4
622320583,622320276,0.2006743,0.013696418,0.052536152,0.97815245,0.99963945,-3.5592995e-09,2.0442933e-08,0.02685347,4
622818280,622817998,0.2006245,0.010810387,0.05194356,0.97823054,0.99963945,-3.5592995e-09,2.0442933e-08,0.02685347,4
623321121,623320698,0.20102328,0.008157824,0.051510513,0.9781972,0.99963945,-3.5592995e-09,2.0442933e-08,0.02685347,4
623819220,623818420,0.20099714,0.0074797925,0.053941153,0.97807693,0.99963945,-3.5592995e-09,2.0442933e-08,0.02685347,4
624321393,624321119,0.20085889,0.007579301,0.054522652,0.97807246,0.99963945,-3.5592995e-09,2.0442933e-08,0.02685347,4
624819120,624818841,0.20090997,0.00862195,0.05407795,0.97807795,0.99963945,-3.5592995e-09,2.0442933e-08,0.02685347,4
625316840,625316563,0.20101748,0.011472609,0.052154727,0.97813106,0.99963945,-3.5592995e-09,2.0442933e-08,0.02685347,4
625819646,625819261,0.2011159,0.012009495,0.051808186,0.97812283,0.99963945,-3.5592995e-09,2.0442933e-08,0.02685347,4
626317392,626316983,0.20114313,0.012017558,0.05191471,0.9781114,0.99963945,-3.5592995e-09,2.0442933e-08,0.02685347,4
626819959,626819681,0.20114602,0.0112658115,0.052161887,0.9781066,0.99963945,-3.5592995e-09,2.0442933e-08,0.02685347,4
627317682,627317402,0.20116968,0.011090669,0.051432204,0.9781424,0.99963945,-3.5592995e-09,2.0442933e-08,0.02685347,4
627820501,627820100,0.20107193,0.01106341,0.050865024,0.9781925,0.99963945,-3.5592995e-09,2.0442933e-08,0.02685347,4
628323163,628322798,0.20109187,0.011165162,0.050813995,0.9781899,0.99963945,-3.5592995e-09,2.0442933e-08,0.02685347,4
628815924,628815542,0.20105049,0.01105482,0.0511742,0.9781808,0.99963945,-3.5592995e-09,2.0442933e-08,0.02685347,4
629318522,629318239,0.20099615,0.010248012,0.051940504,0.97816044,0.99963945,-3.5592995e-09,2.0442933e-08,0.02685347,4
629816246,629815960,0.2010314,0.009562328,0.052134734,0.97814983,0.99963945,-3.5592995e-09,2.0442933e-08,0.02685347,4
630319038,630318657,0.20112216,0.009855697,0.051466107,0.9781636,0.99963945,-3.5592995e-09,2.0442933e-08,0.02685347,4
630821633,630821354,0.20110314,0.010033955,0.0503262,0.978225,0.99963945,-3.5592995e-09,2.0442933e-08,0.02685347,4
631319353,631319074,0.20103565,0.009941208,0.050149284,0.97824895,0.99963945,-3.5592995e-09,2.0442933e-08,0.02685347,4
631822258,631821771,0.20095937,0.010383954,0.050262064,0.97825426,0.99963945,-3.5592995e-09,2.0442933e-08,0.02685347,4
632319934,632319491,0.20089026,0.010521118,0.05108266,0.9782244,0.99963945,-3.5592995e-09,2.0442933e-08,0.02685347,4
632817915,632817210,0.20096329,0.010998982,0.052079137,0.9781516,0.99963945,-3.5592995e-09,2.0442933e-08,0.02685347,4
633320198,633319906,0.20103082,0.010449369,0.051632877,0.9781675,0.99963945,-3.5592995e-09,2.0442933e-08,0.02685347,4
633817903,633817626,0.20108126,0.009513886,0.051091984,0.978195,0.99963945,-3.5592995e-09,2.0442933e-08,0.02685347,4
634320703,634320322,0.20111763,0.009358823,0.050157256,0.9782374,0.99963945,-3.5592995e-09,2.0442933e-08,0.02685347,4
634818515,634818040,0.20109148,0.009154029,0.050724976,0.97821546,0.99963945,-3.5592995e-09,2.0442933e-08,0.02685347,4
635321082,635320736,0.20106219,0.008591283,0.051772527,0.97817177,0.99963945,-3.5592995e-09,2.0442933e-08,0.02685347,4
635818741,635818455,0.2008865,0.00864853,0.05127334,0.9782336,0.99963945,-3.5592995e-09,2.0442933e-08,0.02685347,4
636316464,636316173,0.20099224,0.009163789,0.050804034,0.9782316,0.99963945,-3.5592995e-09,2.0442933e-08,0.02685347,4
636819252,636818869,0.20115295,0.009030261,0.04938282,0.9782726,0.99963945,-3.5592995e-09,2.0442933e-08,0.02685347,4
637317248,637316587,0.2012658,0.008793562,0.04954752,0.9782433,0.99963945,-3.5592995e-09,2.0442933e-08,0.02685347,4
637819555,637819281,0.20137647,0.008689449,0.048250243,0.9782862,0.99963945,-3.5592995e-09,2.0442933e-08,0.02685347,4
638322404,638321976,0.2015245,0.0069148517,0.05056332,0.97815305,0.99963945,-3.5592995e-09,2.0442933e-08,0.02685347,4
638820120,638819694,0.2016172,0.0073332516,0.051109638,0.97810256,0.99963945,-3.5592995e-09,2.0442933e-08,0.02685347,4
639317797,639317412,0.20156041,0.0071970467,0.04931148,0.9782076,0.99963945,-3.5592995e-09,2.0442933e-08,0.02685347,4
639820380,639820106,0.20153487,0.006245022,0.044881884,0.97843266,0.99963945,-3.5592995e-09,2.0442933e-08,0.02685347,4
640318100,640317823,0.20185882,0.0058711655,0.04584934,0.97832334,0.99963945,-3.5592995e-09,2.0442933e-08,0.02685347,4
640820963,640820517,0.20208943,0.0065699997,0.04479254,0.97832024,0.99963945,-3.5592995e-09,2.0442933e-08,0.02685347,4
641318694,641318234,0.20219837,0.0064144298,0.04448547,0.9783127,0.99963945,-3.5592995e-09,2.0442933e-08,0.02685347,4
641821289,641820928,0.20240304,0.0064525674,0.046895765,0.9781576,0.99963945,-3.5592995e-09,2.0442933e-08,0.02685347,4
642318932,642318644,0.20237923,0.0078078127,0.046445515,0.9781741,0.99963945,-3.5592995e-09,2.0442933e-08,0.02685347,4
642816671,642816361,0.2024553,0.007783776,0.045147672,0.97821933,0.99963945,-3.5592995e-09,2.0442933e-08,0.02685347,4
643319465,643319054,0.20254341,0.007863687,0.044398647,0.97823477,0.99963945,-3.5592995e-09,2.0442933e-08,0.02685347,4
643817150,643816770,0.20256676,0.007103878,0.045431074,0.97818834,0.99963945,-3.5592995e-09,2.0442933e-08,0.02685347,4
644319742,644319463,0.20253722,0.007151432,0.04727276,0.97810674,0.99963945,-3.5592995e-09,2.0442933e-08,0.02685347,4
644817459,644817179,0.2025604,0.007137799,0.048222855,0.9780558,0.99963945,-3.5592995e-09,2.0442933e-08,0.02685347,4
645320340,645319872,0.20255823,0.0070540467,0.047598235,0.97808737,0.99963945,-3.5592995e-09,2.0442933e-08,0.02685347,4
645822841,645822565,0.20267971,0.0073935604,0.046376646,0.97811836,0.99963945,-3.5592995e-09,2.0442933e-08,0.02685347,4
646316032,646315303,0.20279281,0.007467756,0.045684118,0.978127,0.99963945,-3.5592995e-09,2.0442933e-08,0.02685347,4
646818318,646817995,0.20289692,0.00695047,0.046321414,0.9780792,0.99963945,-3.5592995e-09,2.0442933e-08,0.02685347,4
647321117,647320687,0.20298323,0.0072649107,0.047150988,0.9780194,0.99963945,-3.5592995e-09,2.0442933e-08,0.02685347,4
647818942,647818402,0.20315176,0.0075087748,0.04713419,0.9779834,0.99963945,-3.5592995e-09,2.0442933e-08,0.02685347,4
648321460,648321094,0.20331913,0.007103313,0.046468686,0.9779835,0.99963945,-3.5592995e-09,2.0442933e-08,0.02685347,4
648819084,648818808,0.20343623,0.0071164,0.04619376,0.977972,0.99963945,-3.5592995e-09,2.0442933e-08,0.02685347,4
649321914,649321499,0.20356382,0.0072202263,0.04652453,0.977929,0.99963945,-3.5592995e-09,2.0442933e-08,0.02685347,4
649819612,649819214,0.20366797,0.007055996,0.04675676,0.9778975,0.99963945,-3.5592995e-09,2.0442933e-08,0.02685347,4
650317309,650316928,0.20377271,0.005510384,0.046925627,0.97787744,0.99963945,-3.5592995e-09,2.0442933e-08,0.02685347,4
650819896,650819619,0.20389463,0.00517027,0.04682121,0.97785896,0.99963945,-3.5592995e-09,2.0442933e-08,0.02685347,4
651317645,651317333,0.20402688,0.0060594445,0.046782468,0.9778281,0.99963945,-3.5592995e-09,2.0442933e-08,0.02685347,4
651820404,651820023,0.20399843,0.008173296,0.046623144,0.9778263,0.99963945,-3.5592995e-09,2.0442933e-08,0.02685347,4
652318122,652317736,0.20417447,0.0076637533,0.047005426,0.97777534,0.99963945,-3.5592995e-09,2.0442933e-08,0.02685347,4
652820741,652820426,0.20432179,0.00758394,0.046803515,0.9777549,0.99963945,-3.5592995e-09,2.0442933e-08,0.02685347,4
653318418,653318139,0.20437801,0.007671315,0.046498366,0.977757,0.99963945,-3.5592995e-09,2.0442933e-08,0.02685347,4
653816127,653815852,0.20441851,0.008182239,0.046870116,0.9777267,0.99963945,-3.5592995e-09,2.0442933e-08,0.02685347,4
654318970,654318542,0.20442627,0.008674821,0.04709384,0.97771007,0.99963945,-3.5592995e-09,2.0442933e-08,0.02685347,4
654821526,654821232,0.2044957,0.007998008,0.046903778,0.9777104,0.99963945,-3.5592995e-09,2.0442933e-08,0.02685347,4
655319240,655318944,0.20455146,0.0075758635,0.046652652,0.97771406,0.99963945,-3.5592995e-09,2.0442933e-08,0.02685347,4
655822039,655821633,0.20466016,0.0078696655,0.04690976,0.9776767,0.99963945,-3.5592995e-09,2.0442933e-08,0.02685347,4
656319880,656319345,0.20461704,0.008301372,0.047121815,0.977672,0.99963945,-3.5592995e-09,2.0442933e-08,0.02685347,4
656817438,656817057,0.20452684,0.008382728,0.047330324,0.9776801,0.99963945,-3.5592995e-09,2.0442933e-08,0.02685347,4
657320024,657319746,0.20450887,0.008691502,0.047115654,0.9776916,0.99963945,-3.5592995e-09,2.0442933e-08,0.02685347,4
657817756,657817457,0.2046047,0.008365417,0.046667945,0.97769576,0.99963945,-3.5592995e-09,2.0442933e-08,0.02685347,4
658320562,658320146,0.20465566,0.00821589,0.0463778,0.9777002,0.99963945,-3.5592995e-09,2.0442933e-08,0.02685347,4
658818275,658817859,0.20474467,0.008763447,0.04692345,0.97765076,0.99963945,-3.5592995e-09,2.0442933e-08,0.02685347,4
659320819,659320545,0.20473363,0.009304122,0.04826988,0.9775826,0.99963945,-3.5592995e-09,2.0442933e-08,0.02685347,4
659818529,659818256,0.20463556,0.0095529845,0.048441984,0.97759223,0.99963945,-3.5592995e-09,2.0442933e-08,0.02685347,4
660316271,660315967,0.20459625,0.0094121015,0.047872644,0.9776298,0.99963945,-3.5592995e-09,2.0442933e-08,0.02685347,4
660819112,660818654,0.20465685,0.008845874,0.04741805,0.9776446,0.99963945,-3.5592995e-09,2.0442933e-08,0.02685347,4
661316775,661316364,0.20455658,0.00907236,0.048106574,0.9776299,0.99963945,-3.5592995e-09,2.0442933e-08,0.02685347,4
661819358,661819052,0.20441933,0.009926847,0.048572283,0.9776273,0.99963945,-3.5592995e-09,2.0442933e-08,0.02685347,4
662322173,662321739,0.20437191,0.009896614,0.048483748,0.9776419,0.99963945,-3.5592995e-09,2.0442933e-08,0.02685347,4
662819883,662819449,0.20432664,0.009480546,0.047872193,0.9776856,0.99963945,-3.5592995e-09,2.0442933e-08,0.02685347,4
663322417,663322135,0.20426528,0.009575298,0.04777583,0.9777022,0.99963945,-3.5592995e-09,2.0442933e-08,0.02685347,4
663815246,663814868,0.20422791,0.009656143,0.04832098,0.97768235,0.99963945,-3.5592995e-09,2.0442933e-08,0.02685347,4
664317833,664317554,0.20413615,0.009578934,0.048400857,0.97769845,0.99963945,-3.5592995e-09,2.0442933e-08,0.02685347,4
664820683,664820241,0.20380522,0.01033656,0.04784361,0.9777871,0.99963945,-3.5592995e-09,2.0442933e-08,0.02685347,4
665318370,665317949,0.20360544,0.010530797,0.047676843,0.9778349,0.99963945,-3.5592995e-09,2.0442933e-08,0.02685347,4
665820914,665820635,0.20347206,0.009829717,0.04807932,0.9778502,0.99963945,-3.5592995e-09,2.0442933e-08,0.02685347,4
666318628,666318344,0.20332693,0.009251982,0.048825108,0.97784907,0.99963945,-3.5592995e-09,2.0442933e-08,0.02685347,4
666821412,666821029,0.20337552,0.009954343,0.049285285,0.97780895,0.99963945,-3.5592995e-09,2.0442933e-08,0.02685347,4
667319307,667318738,0.20344405,0.010109631,0.048392244,0.9778377,0.99963945,-3.5592995e-09,2.0442933e-08,0.02685347,4
667816832,667816446,0.20355892,0.009393111,0.047794964,0.9778503,0.99963945,-3.5592995e-09,2.0442933e-08,0.02685347,4
668319404,668319131,0.20365183,0.009537973,0.048505828,0.9777946,0.99963945,-3.5592995e-09,2.0442933e-08,0.02685347,4
668817117,668816839,0.20361994,0.009578125,0.049647473,0.97774345,0.99963945,-3.5592995e-09,2.0442933e-08,0.02685347,4
669319988,669319523,0.20368046,0.009400316,0.049368754,0.9777468,0.99963945,-3.5592995e-09,2.0442933e-08,0.02685347,4
669822718,669822207,0.20387092,0.008867978,0.0482329,0.97776866,0.99963945,-3.5592995e-09,2.0442933e-08,0.02685347,4
670320192,670319915,0.2040386,0.00892179,0.047680933,0.9777603,0.99963945,-3.5592995e-09,2.0442933e-08,0.02685347,4
670817911,670817622,0.20409243,0.009087609,0.048174642,0.97772336,0.99963945,-3.5592995e-09,2.0442933e-08,0.02685347,4
671320691,671320305,0.20408764,0.009504716,0.048763208,0.97769123,0.99963945,-3.5592995e-09,2.0442933e-08,0.02685347,4
671818395,671818012,0.20421211,0.009594601,0.04872275,0.97766644,0.99963945,-3.5592995e-09,2.0442933e-08,0.02685347,4
672320970,672320696,0.20425192,0.010098513,0.04785919,0.97769564,0.99963945,-3.5592995e-09,2.0442933e-08,0.02685347,4
672818725,672818402,0.20425788,0.009998069,0.0480205,0.97768754,0.99963945,-3.5592995e-09,2.0442933e-08,0.02685347,4
673321469,673321085,0.20435631,0.010443158,0.048831392,0.9776221,0.99963945,-3.5592995e-09,2.0442933e-08,0.02685347,4
673819285,673818791,0.20449841,0.010821683,0.04901846,0.9775789,0.99963945,-3.5592995e-09,2.0442933e-08,0.02685347,4
674316992,674316499,0.20463783,0.010226189,0.048436645,0.97758514,0.99963945,-3.5592995e-09,2.0442933e-08,0.02685347,4
674819473,674819179,0.20473869,0.009946138,0.04796602,0.9775901,0.99963945,-3.5592995e-09,2.0442933e-08,0.02685347,4
675317211,675316885,0.20487899,0.0100047095,0.048457414,0.9775359,0.99963945,-3.5592995e-09,2.0442933e-08,0.02685347,4
675819947,675819567,0.20497651,0.009588203,0.049049728,0.97749007,0.99963945,-3.5592995e-09,2.0442933e-08,0.02685347,4
676317708,676317272,0.2051171,0.009419228,0.04885348,0.9774721,0.99963945,-3.5592995e-09,2.0442933e-08,0.02685347,4
676820229,676819954,0.20523767,0.010203636,0.04797586,0.9774823,0.99963945,-3.5592995e-09,2.0442933e-08,0.02685347,4
677323071,677322635,0.2053252,0.010546988,0.04786467,0.97746575,0.99963945,-3.5592995e-09,2.0442933e-08,0.02685347,4
677815655,677815363,0.20536348,0.010448911,0.04848282,0.9774283,0.99963945,-3.5592995e-09,2.0442933e-08,0.02685347,4
678318483,678318044,0.2054771,0.009605686,0.048626292,0.977406,0.99963945,-3.5592995e-09,2.0442933e-08,0.02685347,4
678821344,678820725,0.20552096,0.010033359,0.047658928,0.97744006,0.99963945,-3.5592995e-09,2.0442933e-08,0.02685347,4
679318707,679318429,0.2055146,0.010654942,0.04725678,0.97745436,0.99963945,-3.5592995e-09,2.0442933e-08,0.02685347,4
679821554,679821110,0.20569952,0.009088408,0.04793313,0.97739834,0.99963945,-3.5592995e-09,2.0442933e-08,0.02685347,4
680319332,680318814,0.20585701,0.00741044,0.048055403,0.9773734,0.99963945,-3.5592995e-09,2.0442933e-08,0.02685347,4
680821772,680821494,0.20588978,0.007737566,0.047483783,0.97739184,0.99963945,-3.5592995e-09,2.0442933e-08,0.02685347,4
681319471,681319197,0.2059103,0.008633379,0.04718479,0.9773945,0.99963945,-3.5592995e-09,2.0442933e-08,0.02685347,4
681817177,681816900,0.20594937,0.009946859,0.046776656,0.9773935,0.99963945,-3.5592995e-09,2.0442933e-08,0.02685347,4
682319988,682319580,0.20603706,0.010194481,0.046672974,0.97737736,0.99963945,-3.5592995e-09,2.0442933e-08,0.02685347,4
682817670,682817283,0.20617095,0.0096115,0.047084417,0.9773353,0.99963945,-3.5592995e-09,2.0442933e-08,0.02685347,4
683320547,683319963,0.20635247,0.009812337,0.04742884,0.9772783,0.99963945,-3.5592995e-09,2.0442933e-08,0.02685347,4
683817940,683817665,0.20646876,0.009334847,0.047407694,0.97725946,0.99963945,-3.5592995e-09,2.0442933e-08,0.02685347,4
684320751,684320344,0.2066225,0.01004851,0.04679876,0.97724926,0.99963945,-3.5592995e-09,2.0442933e-08,0.02685347,4
684818432,684818046,0.20683034,0.010350529,0.047128174,0.97718626,0.99963945,-3.5592995e-09,2.0442933e-08,0.02685347,4
685316152,685315748,0.20683716,0.012148537,0.047336727,0.9771541,0.99963945,-3.5592995e-09,2.0442933e-08,0.02685347,4
685818710,685818427,0.20685072,0.012749363,0.047119588,0.977154,0.99963945,-3.5592995e-09,2.0442933e-08,0.02685347,4
686321498,686321105,0.2070486,0.012271239,0.04675263,0.9771359,0.99963945,-3.5592995e-09,2.0442933e-08,0.02685347,4
686819239,686818807,0.20714192,0.012267626,0.046486843,0.97712886,0.99963945,-3.5592995e-09,2.0442933e-08,0.02685347,4
687321761,687321485,0.20716235,0.0115643265,0.046499785,0.97713244,0.99963945,-3.5592995e-09,2.0442933e-08,0.02685347,4
687819490,687819186,0.20718935,0.012216638,0.04686045,0.9771016,0.99963945,-3.5592995e-09,2.0442933e-08,0.02685347,4
688317201,688316887,0.20724666,0.013464013,0.047507044,0.97704184,0.99963945,-3.5592995e-09,2.0442933e-08,0.02685347,4
688820040,688819564,0.20722279,0.014114055,0.047432058,0.9770413,0.99963945,-3.5592995e-09,2.0442933e-08,0.02685347,4
689317655,689317265,0.20734821,0.013105483,0.046896655,0.9770546,0.99963945,-3.5592995e-09,2.0442933e-08,0.02685347,4
689820250,689819942,0.20747142,0.012193838,0.046696264,0.9770499,0.99963945,-3.5592995e-09,2.0442933e-08,0.02685347,4
690317923,690317642,0.20748451,0.012714792,0.047034863,0.97702426,0.99963945,-3.5592995e-09,2.0442933e-08,0.02685347,4
690820735,690820319,0.2074611,0.012916437,0.04800457,0.9769794,0.99963945,-3.5592995e-09,2.0442933e-08,0.02685347,4
691318416,691318019,0.20750076,0.012161876,0.048462596,0.97695804,0.99963945,-3.5592995e-09,2.0442933e-08,0.02685347,4
691816103,691815719,0.20751043,0.011985924,0.04775164,0.9769932,0.99963945,-3.5592995e-09,2.0442933e-08,0.02685347,4
692318673,692318395,0.20745087,0.011855163,0.047400422,0.9770245,0.99963945,-3.5592995e-09,2.0442933e-08,0.02685347,4
692816397,692816095,0.20749903,0.011742737,0.048021328,0.9769853,0.99963945,-3.5592995e-09,2.0442933e-08,0.02685347,4
693319285,693318771,0.20751874,0.011764041,0.04850132,0.9769572,0.99963945,-3.5592995e-09,2.0442933e-08,0.02685347,4
693821732,693821447,0.2075235,0.01235508,0.04834426,0.97695667,0.99963945,-3.5592995e-09,2.0442933e-08,0.02685347,4
694319426,694319145,0.207569,0.012462052,0.048172023,0.9769541,0.99963945,-3.5592995e-09,2.0442933e-08,0.02685347,4
694822204,694821821,0.20762996,0.0123079,0.048147377,0.9769443,0.99963945,-3.5592995e-09,2.0442933e-08,0.02685347,4
695319902,695319520,0.20769815,0.012431643,0.048275627,0.9769219,0.99963945,-3.5592995e-09,2.0442933e-08,0.02685347,4
695817600,695817218,0.20774432,0.013295204,0.048279822,0.9769005,0.99963945,-3.5592995e-09,2.0442933e-08,0.02685347,4
696320172,696319893,0.20788015,0.013291493,0.048393525,0.9768661,0.99963945,-3.5592995e-09,2.0442933e-08,0.02685347,4
696817889,696817591,0.2079475,0.012815072,0.04817334,0.976869,0.99963945,-3.5592995e-09,2.0442933e-08,0.02685347,4
697320708,697320266,0.20803984,0.012764912,0.048424643,0.9768376,0.99963945,-3.5592995e-09,2.0442933e-08,0.02685347,4
697818462,697817964,0.20810135,0.012487912,0.048361816,0.9768312,0.99963945,-3.5592995e-09,2.0442933e-08,0.02685347,4
698320929,698320638,0.20808077,0.012391612,0.047899116,0.9768595,0.99963945,-3.5592995e-09,2.0442933e-08,0.02685347,4
698818613,698818336,0.20811051,0.012578317,0.047714993,0.97685987,0.99963945,-3.5592995e-09,2.0442933e-08,0.02685347,4
699316307,699316033,0.20818135,0.012994951,0.047797717,0.9768352,0.99963945,-3.5592995e-09,2.0442933e-08,0.02685347,4
699819139,699818707,0.20822473,0.012635438,0.047658432,0.9768376,0.99963945,-3.5592995e-09,2.0442933e-08,0.02685347,4
700316811,700316404,0.20824078,0.0128049385,0.04739388,0.9768447,0.99963945,-3.5592995e-09,2.0442933e-08,0.02685347,4
700819359,700819078,0.2081917,0.013127024,0.0471015,0.9768651,0.99963945,-3.5592995e-09,2.0442933e-08,0.02685347,4
701322161,701321751,0.20817727,0.013153978,0.047539327,0.97684664,0.99963945,-3.5592995e-09,2.0442933e-08,0.02685347,4
701819875,701819448,0.2081182,0.013079328,0.048002996,0.9768375,0.99963945,-3.5592995e-09,2.0442933e-08,0.02685347,4
702317845,702317144,0.20813438,0.013018665,0.04803621,0.9768332,0.99963945,-3.5592995e-09,2.0442933e-08,0.02685347,4
702820092,702819817,0.20816368,0.012504673,0.047909554,0.97683996,0.99963945,-3.5592995e-09,2.0442933e-08,0.02685347,4
703317835,703317513,0.20817675,0.0121468315,0.047684357,0.97685266,0.99963945,-3.5592995e-09,2.0442933e-08,0.02685347,4
703820569,703820186,0.20836498,0.012334562,0.047198746,0.9768338,0.99963945,-3.5592995e-09,2.0442933e-08,0.02685347,4
704318291,704317882,0.20839252,0.012463997,0.047303237,0.9768212,0.99963945,-3.5592995e-09,2.0442933e-08,0.02685347,4
704820828,704820554,0.20833558,0.0126262,0.048060868,0.97679436,0.99963945,-3.5592995e-09,2.0442933e-08,0.02685347,4
705318523,705318249,0.208257,0.012847963,0.048224263,0.97680014,0.99963945,-3.5592995e-09,2.0442933e-08,0.02685347,4
705816221,705815945,0.20824714,0.0128356805,0.04833822,0.97679675,0.99963945,-3.5592995e-09,2.0442933e-08,0.02685347,4
706319087,706318619,0.20810242,0.0143701015,0.048270874,0.9768095,0.99963945,-3.5592995e-09,2.0442933e-08,0.02685347,4
706817009,706816312,0.20804016,0.014820978,0.048461474,0.97680664,0.99963945,-3.5592995e-09,2.0442933e-08,0.02685347,4
707319263,707318983,0.20806216,0.014647934,0.04830021,0.9768125,0.99963945,-3.5592995e-09,2.0442933e-08,0.02685347,4
707822040,707821655,0.20816897,0.014628218,0.0481556,0.9767972,0.99963945,-3.5592995e-09,2.0442933e-08,0.02685347,4
708319735,708319349,0.20828645,0.014824465,0.047719013,0.9767906,0.99963945,-3.5592995e-09,2.0442933e-08,0.02685347,4
708822303,708822021,0.20839112,0.014413724,0.04739937,0.9767901,0.99963945,-3.5592995e-09,2.0442933e-08,0.02685347,4
709319993,709319715,0.20842558,0.014797467,0.04850815,0.9767225,0.99963945,-3.5592995e-09,2.0442933e-08,0.02685347,4
709817688,709817409,0.208474,0.012651173,0.04894458,0.9767206,0.99963945,-3.5592995e-09,2.0442933e-08,0.02685347,4
710320477,710320080,0.20860372,0.012105529,0.049400948,0.97667676,0.99963945,-3.5592995e-09,2.0442933e-08,0.02685347,4
710818154,710817773,0.20861068,0.012759839,0.04973144,0.97665024,0.99963945,-3.5592995e-09,2.0442933e-08,0.02685347,4
711320906,711320444,0.20865686,0.012489055,0.049719576,0.9766444,0.99963945,-3.5592995e-09,2.0442933e-08,0.02685347,4
711818423,711818137,0.208772,0.012631821,0.049015705,0.9766536,0.99963945,-3.5592995e-09,2.0442933e-08,0.02685347,4
712321186,712320808,0.20882645,0.013661827,0.04855872,0.9766509,0.99963945,-3.5592995e-09,2.0442933e-08,0.02685347,4
712818934,712818501,0.20870952,0.014192458,0.048713155,0.97666067,0.99963945,-3.5592995e-09,2.0442933e-08,0.02685347,4
713316586,713316194,0.20879178,0.012865987,0.048079614,0.9766928,0.99963945,-3.5592995e-09,2.0442933e-08,0.02685347,4
713819144,713818864,0.20872322,0.013192614,0.04812618,0.9767009,0.99963945,-3.5592995e-09,2.0442933e-08,0.02685347,4
714316831,714316556,0.20875913,0.01242195,0.048654314,0.9766771,0.99963945,-3.5592995e-09,2.0442933e-08,0.02685347,4
714819640,714819226,0.20880017,0.012306398,0.049418435,0.9766314,0.99963945,-3.5592995e-09,2.0442933e-08,0.02685347,4
715322168,715321895,0.20884737,0.011890944,0.04990319,0.97660184,0.99963945,-3.5592995e-09,2.0442933e-08,0.02685347,4
715819926,715819587,0.20889418,0.0118185785,0.049906995,0.97659254,0.99963945,-3.5592995e-09,2.0442933e-08,0.02685347,4
716317583,716317279,0.20894362,0.012219758,0.049485043,0.9765985,0.99963945,-3.5592995e-09,2.0442933e-08,0.02685347,4
716820391,716819948,0.20900661,0.011733293,0.049236413,0.9766035,0.99963945,-3.5592995e-09,2.0442933e-08,0.02685347,4
717318050,717317640,0.2090504,0.01190454,0.04908777,0.9765995,0.99963945,-3.5592995e-09,2.0442933e-08,0.02685347,4
717820581,717820309,0.20902313,0.012232068,0.04914879,0.9765982,0.99963945,-3.5592995e-09,2.0442933e-08,0.02685347,4
718318280,718318000,0.20909674,0.0125258695,0.049589645,0.97655654,0.99963945,-3.5592995e-09,2.0442933e-08,0.02685347,4
718821092,718820669,0.20921363,0.01140309,0.05020421,0.97651386,0.99963945,-3.5592995e-09,2.0442933e-08,0.02685347,4
719318792,719318360,0.2092392,0.010913254,0.049996696,0.97652453,0.99963945,-3.5592995e-09,2.0442933e-08,0.02685347,4
719816436,719816051,0.2093723,0.011418788,0.0495074,0.9765152,0.99963945,-3.5592995e-09,2.0442933e-08,0.02685347,4
720318994,720318719,0.20942086,0.01167679,0.0492371,0.9765154,0.99963945,-3.5592995e-09,2.0442933e-08,0.02685347,4
720816716,720816410,0.20940898,0.0119079705,0.04924729,0.9765146,0.99963945,-3.5592995e-09,2.0442933e-08,0.02685347,4
721319473,721319078,0.20945089,0.011888613,0.049585354,0.9764888,0.99963945,-3.5592995e-09,2.0442933e-08,0.02685347,4
721822024,721821745,0.20957842,0.011940513,0.04990365,0.9764446,0.99963945,-3.5592995e-09,2.0442933e-08,0.02685347,4
722319715,722319436,0.20970877,0.011339343,0.050160676,0.97641057,0.99963945,-3.5592995e-09,2.0442933e-08,0.02685347,4
722822487,722822103,0.20978624,0.011199833,0.049929846,0.9764074,0.99963945,-3.5592995e-09,2.0442933e-08,0.02685347,4
723320178,723319793,0.20995179,0.011394303,0.04948501,0.9763922,0.99963945,-3.5592995e-09,2.0442933e-08,0.02685347,4
723817883,723817483,0.2100387,0.011700496,0.049126543,0.97638804,0.99963945,-3.5592995e-09,2.0442933e-08,0.02685347,4
724320431,724320150,0.21008508,0.011696225,0.049209516,0.9763739,0.99963945,-3.5592995e-09,2.0442933e-08,0.02685347,4
724818116,724817840,0.2101434,0.012067216,0.049561728,0.976339,0.99963945,-3.5592995e-09,2.0442933e-08,0.02685347,4
725320931,725320506,0.2103615,0.0123100905,0.049000084,0.97631735,0.99963945,-3.5592995e-09,2.0442933e-08,0.02685347,4
725818705,725818196,0.21119753,0.009368308,0.050085187,0.97611445,0.99963945,-3.5592995e-09,2.0442933e-08,0.02685347,4
726321138,726320864,0.21149388,-0.005477523,0.05079012,0.9760434,0.99963945,-3.5592995e-09,2.0442933e-08,0.02685347,4
726818847,726818552,0.21092543,0.010994031,0.042650707,0.97650933,0.99963945,-3.5592995e-09,2.0442933e-08,0.02685347,4
727316519,727316243,0.21079342,0.014407507,0.043648854,0.97644943,0.99963945,-3.5592995e-09,2.0442933e-08,0.02685347,4
727819323,727818907,0.21971183,0.013785103,0.04719048,0.97432536,0.99963945,-3.5592995e-09,2.0442933e-08,0.02685347,4
728316976,728316596,0.22828916,0.013624938,0.047626954,0.9723323,0.99963945,-3.5592995e-09,2.0442933e-08,0.02685347,4
728819536,728819261,0.23417483,0.012916184,0.049459998,0.9708497,0.99963945,-3.5592995e-09,2.0442933e-08,0.02685347,4
729322306,729321927,0.23720478,0.013173986,0.049499173,0.9701084,0.99963945,-3.5592995e-09,2.0442933e-08,0.02685347,4
729820024,729819616,0.23997965,0.013252005,0.048602734,0.96946996,0.99963945,-3.5592995e-09,2.0442933e-08,0.02685347,4
730317801,730317304,0.2429009,0.0119984895,0.04825583,0.9687758,0.99963945,-3.5592995e-09,2.0442933e-08,0.02685347,4
730820265,730819969,0.2444747,0.011627093,0.048487246,0.9683728,0.99963945,-3.5592995e-09,2.0442933e-08,0.02685347,4
731317932,731317657,0.24547438,0.012703134,0.047969222,0.96813226,0.99963945,-3.5592995e-09,2.0442933e-08,0.02685347,4
731820705,731820322,0.24684583,0.012429704,0.04867428,0.9677518,0.99963945,-3.5592995e-09,2.0442933e-08,0.02685347,4
732318501,732318010,0.2474726,0.014087762,0.04929715,0.9675374,0.99963945,-3.5592995e-09,2.0442933e-08,0.02685347,4
732820950,732820675,0.24698839,0.013594802,0.04970868,0.9676472,0.99963945,-3.5592995e-09,2.0442933e-08,0.02685347,4
733318637,733318363,0.24752533,0.01357854,0.04868732,0.9675621,0.99963945,-3.5592995e-09,2.0442933e-08,0.02685347,4
733816326,733816051,0.24801078,0.013672794,0.04764943,0.9674881,0.99963945,-3.5592995e-09,2.0442933e-08,0.02685347,4
734319152,734318715,0.24826859,0.012791937,0.047765195,0.9674284,0.99963945,-3.5592995e-09,2.0442933e-08,0.02685347,4
734816900,734816402,0.24883324,0.012534116,0.04850073,0.96725,0.99963945,-3.5592995e-09,2.0442933e-08,0.02685347,4
735319362,735319066,0.24929601,0.01370342,0.049206294,0.96707934,0.99963945,-3.5592995e-09,2.0442933e-08,0.02685347,4
735822117,735821731,0.24912716,0.013491791,0.04972602,0.96709925,0.99963945,-3.5592995e-09,2.0442933e-08,0.02685347,4
736319833,736319418,0.2491159,0.01358438,0.049045507,0.9671356,0.99963945,-3.5592995e-09,2.0442933e-08,0.02685347,4
736822362,736822081,0.24934435,0.013133623,0.047861703,0.9671423,0.99963945,-3.5592995e-09,2.0442933e-08,0.02685347,4
737320045,737319768,0.2486634,0.013570704,0.0472132,0.96734345,0.99963945,-3.5592995e-09,2.0442933e-08,0.02685347,4
737817730,737817455,0.24833709,0.013032095,0.048034187,0.96739423,0.99963945,-3.5592995e-09,2.0442933e-08,0.02685347,4
738320522,738320118,0.24824917,0.01194027,0.049123548,0.9673762,0.99963945,-3.5592995e-09,2.0442933e-08,0.02685347,4
738818250,738817805,0.24801198,0.011759761,0.049235873,0.9674335,0.99963945,-3.5592995e-09,2.0442933e-08,0.02685347,4
739320746,739320468,0.24765977,0.01274676,0.0488831,0.9675292,0.99963945,-3.5592995e-09,2.0442933e-08,0.02685347,4
739818488,739818154,0.24802351,0.01326515,0.048204556,0.9674631,0.99963945,-3.5592995e-09,2.0442933e-08,0.02685347,4
740321257,740320817,0.24834801,0.015232509,0.047018837,0.9674092,0.99963945,-3.5592995e-09,2.0442933e-08,0.02685347,4
740818941,740818503,0.2484111,0.0153251225,0.046971537,0.9673939,0.99963945,-3.5592995e-09,2.0442933e-08,0.02685347,4
741316838,741316189,0.24880812,0.01565728,0.04769701,0.96725094,0.99963945,-3.5592995e-09,2.0442933e-08,0.02685347,4
741819210,741818852,0.24894065,0.016491642,0.048165157,0.9671798,0.99963945,-3.5592995e-09,2.0442933e-08,0.02685347,4
742316824,742316538,0.2488322,0.016570568,0.047954064,0.96721685,0.99963945,-3.5592995e-09,2.0442933e-08,0.02685347,4
742819593,742819200,0.24915439,0.015499368,0.047588754,0.9671697,0.99963945,-3.5592995e-09,2.0442933e-08,0.02685347,4
743322154,743321863,0.24948442,0.01538717,0.04701726,0.9671144,0.99963945,-3.5592995e-09,2.0442933e-08,0.02685347,4
743819844,743819548,0.24936661,0.01554201,0.04684413,0.9671506,0.99963945,-3.5592995e-09,2.0442933e-08,0.02685347,4
744317537,744317234,0.24947076,0.015623808,0.047008965,0.9671145,0.99963945,-3.5592995e-09,2.0442933e-08,0.02685347,4
744820405,744819896,0.24974878,0.01553897,0.047238257,0.96703297,0.99963945,-3.5592995e-09,2.0442933e-08,0.02685347,4
745318157,745317581,0.24959739,0.016065825,0.047383223,0.9670563,0.99963945,-3.5592995e-09,2.0442933e-08,0.02685347,4
745820561,745820243,0.24945572,0.015860012,0.04730899,0.96709996,0.99963945,-3.5592995e-09,2.0442933e-08,0.02685347,4
746318235,746317927,0.249701,0.015264808,0.04757399,0.96703315,0.99963945,-3.5592995e-09,2.0442933e-08,0.02685347,4
746821011,746820589,0.2497307,0.014919173,0.04712481,0.96705294,0.99963945,-3.5592995e-09,2.0442933e-08,0.02685347,4
747318834,747318274,0.24941032,0.014567348,0.046639998,0.9671645,0.99963945,-3.5592995e-09,2.0442933e-08,0.02685347,4
747816380,747815958,0.24925292,0.015511094,0.046543974,0.9671949,0.99963945,-3.5592995e-09,2.0442933e-08,0.02685347,4
748318917,748318620,0.24909492,0.015547069,0.047115326,0.9672075,0.99963945,-3.5592995e-09,2.0442933e-08,0.02685347,4
748816576,748816304,0.24868827,0.015594745,0.04819509,0.9672581,0.99963945,-3.5592995e-09,2.0442933e-08,0.02685347,4
749319684,749318965,0.24839357,0.014997345,0.048203453,0.9673429,0.99963945,-3.5592995e-09,2.0442933e-08,0.02685347,4
749821921,749821626,0.248247,0.014845223,0.04725014,0.9674299,0.99963945,-3.5592995e-09,2.0442933e-08,0.02685347,4
750319588,750319310,0.24786195,0.014859268,0.04613316,0.9675823,0.99963945,-3.5592995e-09,2.0442933e-08,0.02685347,4
750822362,750821971,0.24765243,0.015532995,0.046444025,0.96761054,0.99963945,-3.5592995e-09,2.0442933e-08,0.02685347,4
751320215,751319654,0.24755505,0.015675249,0.047759987,0.967569,0.99963945,-3.5592995e-09,2.0442933e-08,0.02685347,4
751817776,751817338,0.24732505,0.01538969,0.04867139,0.967587,0.99963945,-3.5592995e-09,2.0442933e-08,0.02685347,4
752320277,752319999,0.24716233,0.014422773,0.048556358,0.96764934,0.99963945,-3.5592995e-09,2.0442933e-08,0.02685347,4
752817960,752817682,0.24729358,0.013187718,0.047713127,0.96767527,0.99963945,-3.5592995e-09,2.0442933e-08,0.02685347,4
753320756,753320342,0.24716397,0.013168922,0.04678041,0.96775424,0.99963945,-3.5592995e-09,2.0442933e-08,0.02685347,4
753818826,753818025,0.24693505,0.013370183,0.046642333,0.9678166,0.99963945,-3.5592995e-09,2.0442933e-08,0.02685347,4
754321037,754320685,0.24684446,0.013561574,0.04768731,0.9677861,0.99963945,-3.5592995e-09,2.0442933e-08,0.02685347,4
754818675,754818368,0.24670428,0.012673294,0.048587766,0.9677891,0.99963945,-3.5592995e-09,2.0442933e-08,0.02685347,4
755316326,755316051,0.24651839,0.012739116,0.048232656,0.96785337,0.99963945,-3.5592995e-09,2.0442933e-08,0.02685347,4
755819092,755818711,0.24654557,0.01256674,0.047783,0.96787095,0.99963945,-3.5592995e-09,2.0442933e-08,0.02685347,4
756316778,756316393,0.24645562,0.012764339,0.047544,0.9679031,0.99963945,-3.5592995e-09,2.0442933e-08,0.02685347,4
756819328,756819053,0.24614924,0.012409843,0.04726928,0.9679991,0.99963945,-3.5592995e-09,2.0442933e-08,0.02685347,4
757322119,757321712,0.24616778,0.012088209,0.047178164,0.96800286,0.99963945,-3.5592995e-09,2.0442933e-08,0.02685347,4
757819779,757819394,0.24608153,0.012473775,0.047409758,0.96800864,0.99963945,-3.5592995e-09,2.0442933e-08,0.02685347,4
758317848,758317077,0.24580103,0.0129334,0.04793285,0.9680481,0.99963945,-3.5592995e-09,2.0442933e-08,0.02685347,4
758820045,758819736,0.245662,0.013118086,0.048164632,0.96806943,0.99963945,-3.5592995e-09,2.0442933e-08,0.02685347,4
759318042,759317418,0.24553545,0.013283215,0.04787172,0.9681138,0.99963945,-3.5592995e-09,2.0442933e-08,0.02685347,4
759820457,759820076,0.24533182,0.012092105,0.047127422,0.9682175,0.99963945,-3.5592995e-09,2.0442933e-08,0.02685347,4
760318277,760317758,0.24513327,0.012102192,0.04706893,0.96827054,0.99963945,-3.5592995e-09,2.0442933e-08,0.02685347,4
760820695,760820417,0.24489331,0.011328417,0.048124325,0.9682887,0.99963945,-3.5592995e-09,2.0442933e-08,0.02685347,4
761318397,761318098,0.24436028,0.011890921,0.048805308,0.9683826,0.99963945,-3.5592995e-09,2.0442933e-08,0.02685347,4
761816051,761815780,0.24404274,0.012496747,0.04881345,0.96845454,0.99963945,-3.5592995e-09,2.0442933e-08,0.02685347,4
762318846,762318438,0.2438082,0.014536542,0.047594946,0.9685458,0.99963945,-3.5592995e-09,2.0442933e-08,0.02685347,4
762816500,762816119,0.24341819,0.014062277,0.04755896,0.96865267,0.99963945,-3.5592995e-09,2.0442933e-08,0.02685347,4
763319082,763318777,0.24281557,0.014499333,0.048320465,0.9687598,0.99963945,-3.5592995e-09,2.0442933e-08,0.02685347,4
763821822,763821436,0.24265477,0.015046206,0.048626013,0.96877646,0.99963945,-3.5592995e-09,2.0442933e-08,0.02685347,4
764319495,764319116,0.24241093,0.015701879,0.049204413,0.96879786,0.99963945,-3.5592995e-09,2.0442933e-08,0.02685347,4
764822042,764821773,0.24161993,0.015325898,0.048434976,0.9690403,0.99963945,-3.5592995e-09,2.0442933e-08,0.02685347,4
765319734,765319454,0.2409239,0.014424314,0.048108198,0.9692437,0.99963945,-3.5592995e-09,2.0442933e-08,0.02685347,4
765817413,765817135,0.24018241,0.014319417,0.04833934,0.96941775,0.99963945,-3.5592995e-09,2.0442933e-08,0.02685347,4
766320169,766319792,0.23945183,0.0138469,0.049214322,0.96956134,0.99963945,-3.5592995e-09,2.0442933e-08,0.02685347,4
766817850,766817473,0.23881611,0.014718426,0.049624164,0.9696843,0.99963945,-3.5592995e-09,2.0442933e-08,0.02685347,4
767320403,767320130,0.23827173,0.014734275,0.04898746,0.96985036,0.99963945,-3.5592995e-09,2.0442933e-08,0.02685347,4
767818114,767817810,0.23750784,0.01440932,0.048473526,0.9700684,0.99963945,-3.5592995e-09,2.0442933e-08,0.02685347,4
768321110,768320467,0.23704857,0.0141503345,0.048720226,0.9701722,0.99963945,-3.5592995e-09,2.0442933e-08,0.02685347,4
768818560,768818147,0.23679768,0.014327447,0.04952954,0.9701899,0.99963945,-3.5592995e-09,2.0442933e-08,0.02685347,4
769316209,769315827,0.2370078,0.01457829,0.049639694,0.9701293,0.99963945,-3.5592995e-09,2.0442933e-08,0.02685347,4
769818772,769818483,0.23730995,0.014323242,0.04937856,0.97007245,0.99963945,-3.5592995e-09,2.0442933e-08,0.02685347,4
770321716,770321140,0.23771417,0.014116126,0.049333703,0.9699788,0.99963945,-3.5592995e-09,2.0442933e-08,0.02685347,4
770819228,770818819,0.23807792,0.013893863,0.049471624,0.9698858,0.99963945,-3.5592995e-09,2.0442933e-08,0.02685347,4
771321779,771321476,0.23833394,0.013731629,0.04985748,0.9698055,0.99963945,-3.5592995e-09,2.0442933e-08,0.02685347,4
771819444,771819155,0.23860824,0.013837536,0.04999439,0.9697294,0.99963945,-3.5592995e-09,2.0442933e-08,0.02685347,4
772317109,772316834,0.23899536,0.013484979,0.049670927,0.9696557,0.99963945,-3.5592995e-09,2.0442933e-08,0.02685347,4
772819979,772819490,0.23926826,0.012830237,0.04981888,0.96958977,0.99963945,-3.5592995e-09,2.0442933e-08,0.02685347,4
773317709,773317169,0.23960957,0.013236637,0.050171245,0.9694818,0.99963945,-3.5592995e-09,2.0442933e-08,0.02685347,4
773820128,773819825,0.23983224,0.013807229,0.050270274,0.9694137,0.99963945,-3.5592995e-09,2.0442933e-08,0.02685347,4
774317853,774317504,0.23999721,0.013930196,0.050147794,0.96937746,0.99963945,-3.5592995e-09,2.0442933e-08,0.02685347,4
774820567,774820160,0.24029176,0.013964988,0.04987277,0.9693181,0.99963945,-3.5592995e-09,2.0442933e-08,0.02685347,4
775323092,775322815,0.24063407,0.013796334,0.049916398,0.9692334,0.99963945,-3.5592995e-09,2.0442933e-08,0.02685347,4
775815902,775815517,0.24077146,0.014701495,0.05011798,0.9691755,0.99963945,-3.5592995e-09,2.0442933e-08,0.02685347,4
776318449,776318172,0.24088861,0.015322215,0.04995654,0.9691451,0.99963945,-3.5592995e-09,2.0442933e-08,0.02685347,4
776816124,776815851,0.24116221,0.015050244,0.0497159,0.9690938,0.99963945,-3.5592995e-09,2.0442933e-08,0.02685347,4
777319753,777318506,0.24147993,0.01489341,0.049265973,0.96904,0.99963945,-3.5592995e-09,2.0442933e-08,0.02685347,4
777821462,777821161,0.24172138,0.014699731,0.04953172,0.9689693,0.99963945,-3.5592995e-09,2.0442933e-08,0.02685347,4
778319112,778318839,0.24189028,0.015077069,0.04982804,0.9689061,0.99963945,-3.5592995e-09,2.0442933e-08,0.02685347,4
778821882,778821494,0.24195799,0.0151977865,0.049595438,0.9688992,0.99963945,-3.5592995e-09,2.0442933e-08,0.02685347,4
779319779,779319171,0.24206111,0.014902563,0.049065962,0.9689051,0.99963945,-3.5592995e-09,2.0442933e-08,0.02685347,4
779817230,779816849,0.2422571,0.014566861,0.04876054,0.9688766,0.99963945,-3.5592995e-09,2.0442933e-08,0.02685347,4
780319780,780319504,0.24242294,0.0147016365,0.048966695,0.9688227,0.99963945,-3.5592995e-09,2.0442933e-08,0.02685347,4
780817459,780817182,0.2425119,0.015353092,0.049154732,0.96878076,0.99963945,-3.5592995e-09,2.0442933e-08,0.02685347,4
781320216,781319836,0.24283068,0.014819859,0.048796866,0.9687273,0.99963945,-3.5592995e-09,2.0442933e-08,0.02685347,4
781817916,781817513,0.24304509,0.015026292,0.048759438,0.9686722,0.99963945,-3.5592995e-09,2.0442933e-08,0.02685347,4
782320504,782320168,0.24315816,0.015198071,0.048840895,0.96863705,0.99963945,-3.5592995e-09,2.0442933e-08,0.02685347,4
782818122,782817845,0.24331398,0.015689114,0.04891508,0.9685863,0.99963945,-3.5592995e-09,2.0442933e-08,0.02685347,4
783315795,783315522,0.2436407,0.015435052,0.04897399,0.96850526,0.99963945,-3.5592995e-09,2.0442933e-08,0.02685347,4
783818554,783818176,0.24376556,0.015370909,0.049236856,0.96846163,0.99963945,-3.5592995e-09,2.0442933e-08,0.02685347,4
784321145,784320830,0.24383609,0.015346287,0.049155567,0.96844834,0.99963945,-3.5592995e-09,2.0442933e-08,0.02685347,4
784818787,784818507,0.24404754,0.015735574,0.049158357,0.96838874,0.99963945,-3.5592995e-09,2.0442933e-08,0.02685347,4
785321692,785321160,0.24407819,0.015472539,0.04927184,0.9683795,0.99963945,-3.5592995e-09,2.0442933e-08,0.02685347,4
785819266,785818837,0.24406366,0.015394406,0.049243588,0.96838576,0.99963945,-3.5592995e-09,2.0442933e-08,0.02685347,4
786317138,786316516,0.24413823,0.0154633885,0.049115654,0.96837246,0.99963945,-3.5592995e-09,2.0442933e-08,0.02685347,4
786819442,786819167,0.24419363,0.015654862,0.048992522,0.96836156,0.99963945,-3.5592995e-09,2.0442933e-08,0.02685347,4
787317200,787316843,0.24415988,0.015753418,0.049036503,0.96836627,0.99963945,-3.5592995e-09,2.0442933e-08,0.02685347,4
787819891,787819496,0.24421956,0.015910285,0.048930563,0.968354,0.99963945,-3.5592995e-09,2.0442933e-08,0.02685347,4
788317576,788317173,0.24431524,0.016010437,0.04876361,0.9683367,0.99963945,-3.5592995e-09,2.0442933e-08,0.02685347,4
788820140,788819826,0.24440345,0.015160117,0.048740245,0.96832925,0.99963945,-3.5592995e-09,2.0442933e-08,0.02685347,4
789323001,789322479,0.24449031,0.01505551,0.04900703,0.9682955,0.99963945,-3.5592995e-09,2.0442933e-08,0.02685347,4
789815515,789815178,0.24461788,0.0148645425,0.04903224,0.96826494,0.99963945,-3.5592995e-09,2.0442933e-08,0.02685347,4
790318422,790317830,0.24460757,0.014582027,0.049030017,0.968272,0.99963945,-3.5592995e-09,2.0442933e-08,0.02685347,4
790820758,790820483,0.2446264,0.014605347,0.04875468,0.9682808,0.99963945,-3.5592995e-09,2.0442933e-08,0.02685347,4
791318438,791318159,0.24468271,0.01545842,0.048566837,0.9682628,0.99963945,-3.5592995e-09,2.0442933e-08,0.02685347,4
791821479,791820811,0.24471007,0.015219501,0.048681892,0.96825385,0.99963945,-3.5592995e-09,2.0442933e-08,0.02685347,4
792318954,792318487,0.24471954,0.015101436,0.048978135,0.9682383,0.99963945,-3.5592995e-09,2.0442933e-08,0.02685347,4
792821420,792821139,0.24477099,0.015094729,0.049199257,0.9682143,0.99963945,-3.5592995e-09,2.0442933e-08,0.02685347,4
793319091,793318814,0.24472599,0.01475959,0.048949234,0.9682434,0.99963945,-3.5592995e-09,2.0442933e-08,0.02685347,4
