timestamp,timestamp_sample,gyro_device_id,gyro_bias[0],gyro_bias[1],gyro_bias[2],gyro_bias_limit,gyro_bias_variance[0],gyro_bias_variance[1],gyro_bias_variance[2],accel_device_id,accel_bias[0],accel_bias[1],accel_bias[2],accel_bias_limit,accel_bias_variance[0],accel_bias_variance[1],accel_bias_variance[2],mag_device_id,mag_bias[0],mag_bias[1],mag_bias[2],mag_bias_limit,mag_bias_variance[0],mag_bias_variance[1],mag_bias_variance[2],gyro_bias_valid,gyro_bias_stable,accel_bias_valid,accel_bias_stable,mag_bias_valid,mag_bias_stable
539155286,539055036,2490378,-0.018230185,0.002152449,-0.0024440342,0.34906584,2.0517328e-07,2.0534412e-07,4.82569e-07,2490378,-0.39383736,0.3976871,-0.13219121,0.4,0.0005062862,0.00050564617,0.00050457113,396321,0.0,0.0,0.0,0.5,0.0025000002,0.0025000002,0.0025000002,1,1,1,1,1,0
540111171,540010679,2490378,-0.01823855,0.002163533,-0.0024563703,0.34906584,2.0267225e-07,2.0283034e-07,4.783439e-07,2490378,-0.39383683,0.39767668,-0.13345367,0.4,0.00050636963,0.0005057183,0.00050456956,396321,0.0,0.0,0.0,0.5,0.0025000002,0.0025000002,0.0025000002,1,1,1,1,1,0
541116240,541016093,2490378,-0.018278064,0.0021736675,-0.0024544224,0.34906584,1.996429e-07,1.9978876e-07,4.7488956e-07,2490378,-0.39383236,0.3976896,-0.13261634,0.4,0.00050645974,0.000505798,0.0005045711,396321,0.0,0.0,0.0,0.5,0.0025000002,0.0025000002,0.0025000002,1,1,1,1,1,0
542102063,542001599,2490378,-0.0182932,0.00218321,-0.0024638327,0.34906584,2.0180534e-07,2.0194013e-07,4.715027e-07,2490378,-0.39382908,0.39768583,-0.13156614,0.4,0.00050654745,0.0005058762,0.0005045699,396321,0.0,0.0,0.0,0.5,0.0025000002,0.0025000002,0.0025000002,1,1,1,1,1,0
542778720,542678512,2490378,-0.018302338,0.0021811011,-0.0024600578,0.34906584,2.0288736e-07,2.0301437e-07,4.692452e-07,2490378,-0.39382753,0.39769158,-0.13055255,0.4,0.0005066081,0.0005059306,0.0005045702,396321,0.0,0.0,0.0,0.5,0.0025000002,0.0025000002,0.0025000002,1,1,1,1,1,0
543784091,543683928,2490378,-0.018280856,0.0022049386,-0.0024641866,0.34906584,2.0246806e-07,2.0258328e-07,4.6645084e-07,2490378,-0.39382458,0.397685,-0.13054653,0.4,0.00050669734,0.00050601136,0.0005045733,396321,0.0,0.0,0.0,0.5,0.0025000002,0.0025000002,0.0025000002,1,1,1,1,1,0
544789600,544689343,2490378,-0.018241102,0.0021964172,-0.002469009,0.34906584,2.0316112e-07,2.0326587e-07,4.6291717e-07,2490378,-0.3938279,0.39767691,-0.131109,0.4,0.00050678785,0.0005060935,0.0005045712,396321,0.0,0.0,0.0,0.5,0.0025000002,0.0025000002,0.0025000002,1,1,1,1,1,0
545794891,545694759,2490378,-0.01824363,0.0022031956,-0.0024639193,0.34906584,2.0493655e-07,2.0503322e-07,4.6055803e-07,2490378,-0.39382696,0.3976823,-0.13143237,0.4,0.0005068776,0.0005061759,0.0005045746,396321,0.0,0.0,0.0,0.5,0.0025000002,0.0025000002,0.0025000002,1,1,1,1,1,0
546800407,546700175,2490378,-0.018208928,0.002209075,-0.0024697839,0.34906584,2.0529167e-07,2.0538141e-07,4.5838485e-07,2490378,-0.39382717,0.39767468,-0.13181745,0.4,0.00050696766,0.0005062593,0.000504573,396321,0.0,0.0,0.0,0.5,0.0025000002,0.0025000002,0.0025000002,1,1,1,1,1,0
547716467,547616000,2490378,-0.018178381,0.002209517,-0.0024726547,0.34906584,2.0467077e-07,2.0475653e-07,4.5641252e-07,2490378,-0.39382917,0.39767107,-0.13295704,0.4,0.00050704915,0.00050633587,0.0005045699,396321,0.0,0.0,0.0,0.5,0.0025000002,0.0025000002,0.0025000002,1,1,1,1,1,0
548313708,548213277,2490378,-0.018170588,0.0021990172,-0.002486521,0.34906584,2.0391919e-07,2.0400218e-07,4.5504294e-07,2490378,-0.39383277,0.3976638,-0.13434973,0.4,0.0005071027,0.00050638604,0.00050457014,396321,0.0,0.0,0.0,0.5,0.0025000002,0.0025000002,0.0025000002,1,1,1,1,1,0
549309282,549208739,2490378,-0.018171987,0.0022171258,-0.002493485,0.34906584,2.0446062e-07,2.0453932e-07,4.5319172e-07,2490378,-0.3938338,0.39766207,-0.13558991,0.4,0.00050719164,0.0005064692,0.00050457,396321,0.0,0.0,0.0,0.5,0.0025000002,0.0025000002,0.0025000002,1,1,1,1,1,0
550314771,550214156,2490378,-0.018193725,0.0022071342,-0.002506952,0.34906584,2.0287271e-07,2.0294733e-07,4.5069876e-07,2490378,-0.39383525,0.39765537,-0.13555603,0.4,0.0005072813,0.0005065531,0.00050456985,396321,0.0,0.0,0.0,0.5,0.0025000002,0.0025000002,0.0025000002,1,1,1,1,1,0
551319758,551219573,2490378,-0.018212453,0.0022169256,-0.002518846,0.34906584,2.0185038e-07,2.019213e-07,4.492416e-07,2490378,-0.3938335,0.39764816,-0.13463569,0.4,0.00050737115,0.0005066379,0.0005045706,396321,0.0,0.0,0.0,0.5,0.0025000002,0.0025000002,0.0025000002,1,1,1,1,1,0
552325188,552224990,2490378,-0.018214991,0.0022205722,-0.0025253545,0.34906584,2.0222754e-07,2.0229339e-07,4.479129e-07,2490378,-0.39383337,0.39764422,-0.13437028,0.4,0.00050746114,0.0005067236,0.0005045707,396321,0.0,0.0,0.0,0.5,0.0025000002,0.0025000002,0.0025000002,1,1,1,1,1,0
553330643,553230407,2490378,-0.018226448,0.002201358,-0.0025419418,0.34906584,2.0040055e-07,2.0046097e-07,4.458468e-07,2490378,-0.39383695,0.39763474,-0.13527419,0.4,0.0005075514,0.0005068095,0.00050457194,396321,0.0,0.0,0.0,0.5,0.0025000002,0.0025000002,0.0025000002,1,1,1,1,1,0
554335986,554235825,2490378,-0.018243747,0.0022133335,-0.0025566656,0.34906584,2.0090827e-07,2.0096341e-07,4.4475772e-07,2490378,-0.39383656,0.3976281,-0.13513534,0.4,0.00050764106,0.00050689536,0.0005045706,396321,0.0,0.0,0.0,0.5,0.0025000002,0.0025000002,0.0025000002,1,1,1,1,1,0
554903794,554803239,2490378,-0.018218357,0.0022776085,-0.0025641348,0.34906584,2.0148052e-07,2.015329e-07,4.4447438e-07,2490378,-0.39383164,0.39762616,-0.13413109,0.4,0.0005076917,0.0005069442,0.00050456956,396321,0.0,0.0,0.0,0.5,0.0025000002,0.0025000002,0.0025000002,1,1,1,1,1,0
555839318,555738974,2490378,-0.018227328,0.0022584312,-0.0025702287,0.34906584,2.0088756e-07,2.0093518e-07,4.4285028e-07,2490378,-0.3938323,0.3976213,-0.13311349,0.4,0.00050777616,0.00050702534,0.0005045702,396321,0.0,0.0,0.0,0.5,0.0025000002,0.0025000002,0.0025000002,1,1,1,1,1,0
556844537,556744393,2490378,-0.018203935,0.0022393246,-0.0025764715,0.34906584,2.020341e-07,2.0207825e-07,4.4201235e-07,2490378,-0.39383134,0.3976143,-0.13278301,0.4,0.00050786516,0.00050711125,0.0005045709,396321,0.0,0.0,0.0,0.5,0.0025000002,0.0025000002,0.0025000002,1,1,1,1,1,0
557511908,557411353,2490378,-0.018207386,0.0022340356,-0.002580089,0.34906584,2.0251309e-07,2.0255509e-07,4.411928e-07,2490378,-0.393832,0.39761236,-0.13174592,0.4,0.00050792523,0.00050716934,0.00050456944,396321,0.0,0.0,0.0,0.5,0.0025000002,0.0025000002,0.0025000002,1,1,1,1,1,0
558517444,558416772,2490378,-0.018186761,0.0022265173,-0.0025935173,0.34906584,2.025652e-07,2.0260508e-07,4.4049688e-07,2490378,-0.3938314,0.3976036,-0.13229647,0.4,0.0005080145,0.000507256,0.0005045686,396321,0.0,0.0,0.0,0.5,0.0025000002,0.0025000002,0.0025000002,1,1,1,1,1,0
559522336,559422190,2490378,-0.018210739,0.0022133645,-0.0026028398,0.34906584,2.0211536e-07,2.02153e-07,4.3987555e-07,2490378,-0.39383358,0.3975994,-0.13188627,0.4,0.0005081047,0.0005073436,0.0005045697,396321,0.0,0.0,0.0,0.5,0.0025000002,0.0025000002,0.0025000002,1,1,1,1,1,0
560527754,560427609,2490378,-0.018199565,0.0022029444,-0.0025968726,0.34906584,2.0265232e-07,2.026872e-07,4.3851634e-07,2490378,-0.39383388,0.39760023,-0.13256454,0.4,0.000508194,0.00050743035,0.0005045706,396321,0.0,0.0,0.0,0.5,0.0025000002,0.0025000002,0.0025000002,1,1,1,1,1,0
561533156,561433028,2490378,-0.018206397,0.0022010359,-0.002593749,0.34906584,2.034092e-07,2.0344162e-07,4.3803684e-07,2490378,-0.39383394,0.3976013,-0.13260828,0.4,0.0005082833,0.0005075179,0.00050456903,396321,0.0,0.0,0.0,0.5,0.0025000002,0.0025000002,0.0025000002,1,1,1,1,1,0
561901846,561801350,2490378,-0.01819004,0.0022149067,-0.0025864732,0.34906584,2.0205277e-07,2.0208378e-07,4.3768392e-07,2490378,-0.3938337,0.3976041,-0.13363479,0.4,0.0005083158,0.0005075498,0.0005045668,396321,0.0,0.0,0.0,0.5,0.0025000002,0.0025000002,0.0025000002,1,1,1,1,1,0
562906936,562806770,2490378,-0.018180614,0.0022125153,-0.0026350487,0.34906584,2.0409458e-07,2.0412239e-07,4.3728664e-07,2490378,-0.39383432,0.39758253,-0.13337432,0.4,0.00050840416,0.00050763634,0.00050456874,396321,0.0,0.0,0.0,0.5,0.0025000002,0.0025000002,0.0025000002,1,1,1,1,1,0
563912772,563812194,2490378,-0.018190723,0.002214902,-0.0027143585,0.34906584,2.0263137e-07,2.0265627e-07,4.3614506e-07,2490378,-0.393836,0.39754844,-0.13366996,0.4,0.00050848833,0.00050771877,0.00050455955,396321,0.0,0.0,0.0,0.5,0.0025000002,0.0025000002,0.0025000002,1,1,1,1,1,0
564917874,564817609,2490378,-0.018206086,0.0021914213,-0.0027780305,0.34906584,2.038682e-07,2.0389052e-07,4.3586215e-07,2490378,-0.39384234,0.3975242,-0.13370024,0.4,0.0005085818,0.0005078108,0.00050456304,396321,0.0,0.0,0.0,0.5,0.0025000002,0.0025000002,0.0025000002,1,1,1,1,1,0
565923305,565823029,2490378,-0.018207634,0.0021991208,-0.0028465171,0.34906584,2.036297e-07,2.0364917e-07,4.356211e-07,2490378,-0.39384297,0.39749932,-0.13367918,0.4,0.000508671,0.00050789857,0.00050456316,396321,0.0,0.0,0.0,0.5,0.0025000002,0.0025000002,0.0025000002,1,1,1,1,1,0
566928614,566828448,2490378,-0.018172653,0.0022164749,-0.0029063227,0.34906584,2.0402658e-07,2.0404323e-07,4.3542664e-07,2490378,-0.3938368,0.39747977,-0.13372426,0.4,0.0005087617,0.00050798804,0.00050456414,396321,0.0,0.0,0.0,0.5,0.0025000002,0.0025000002,0.0025000002,1,1,1,1,1,0
567934116,567833868,2490378,-0.018102828,0.0022138737,-0.002976343,0.34906584,2.0540969e-07,2.0542508e-07,4.34492e-07,2490378,-0.39382085,0.39745265,-0.13443777,0.4,0.00050885096,0.00050807634,0.0005045629,396321,0.0,0.0,0.0,0.5,0.0025000002,0.0025000002,0.0025000002,1,1,1,1,1,0
568939434,568839288,2490378,-0.018181242,0.0022227017,-0.003037398,0.34906584,2.063695e-07,2.0638473e-07,4.3437723e-07,2490378,-0.393844,0.3974362,-0.13459556,0.4,0.0005089403,0.00050816475,0.0005045647,396321,0.0,0.0,0.0,0.5,0.0025000002,0.0025000002,0.0025000002,1,1,1,0,1,0
569945276,569844708,2490378,-0.018185405,0.00217897,-0.0030893974,0.34906584,2.0551788e-07,2.0553385e-07,4.3429432e-07,2490378,-0.39384532,0.39740443,-0.13545488,0.4,0.00050902937,0.0005082529,0.0005045629,396321,0.0,0.0,0.0,0.5,0.0025000002,0.0025000002,0.0025000002,1,1,1,0,1,0
570641821,570541534,2490378,-0.018190345,0.0021731611,-0.0031304979,0.34906584,2.0810965e-07,2.0812543e-07,4.334932e-07,2490378,-0.39384803,0.3973904,-0.1344342,0.4,0.000509091,0.0005083138,0.00050456263,396321,0.0,0.0,0.0,0.5,0.0025000002,0.0025000002,0.0025000002,1,1,1,0,1,0
571647162,571546954,2490378,-0.018170735,0.0021251228,-0.0031795478,0.34906584,2.1030546e-07,2.1032092e-07,4.3346623e-07,2490378,-0.39384344,0.39735729,-0.13407727,0.4,0.00050918024,0.00050840207,0.00050456624,396321,0.0,0.0,0.0,0.5,0.0025000002,0.0025000002,0.0025000002,1,1,1,0,1,0
572652628,572552374,2490378,-0.01817503,0.002130236,-0.003231662,0.34906584,2.0957795e-07,2.095932e-07,4.3346316e-07,2490378,-0.39384612,0.39734486,-0.13355874,0.4,0.0005092691,0.00050849025,0.00050456374,396321,0.0,0.0,0.0,0.5,0.0025000002,0.0025000002,0.0025000002,1,1,1,0,1,0
573658004,573557794,2490378,-0.01820612,0.0021595228,-0.003276307,0.34906584,2.070794e-07,2.0709471e-07,4.3348115e-07,2490378,-0.39385888,0.3973447,-0.13301438,0.4,0.0005093576,0.00050857797,0.0005045674,396321,0.0,0.0,0.0,0.5,0.0025000002,0.0025000002,0.0025000002,1,1,1,0,1,0
574315810,574214801,2490378,-0.01821252,0.0021529235,-0.0033128634,0.34906584,2.0577902e-07,2.0579414e-07,4.331178e-07,2490378,-0.3938628,0.39733782,-0.13169189,0.4,0.0005094156,0.0005086349,0.00050456304,396321,0.0,0.0,0.0,0.5,0.0025000002,0.0025000002,0.0025000002,1,1,1,0,1,0
574753019,574652806,2490378,-0.018216087,0.0021478967,-0.003350412,0.34906584,2.0617816e-07,2.0619339e-07,4.3288307e-07,2490378,-0.39386532,0.39733294,-0.13066897,0.4,0.00050945394,0.0005086713,0.00050456275,396321,0.0,0.0,0.0,0.5,0.0025000002,0.0025000002,0.0025000002,1,1,1,0,1,0
575758355,575658226,2490378,-0.01819525,0.002159913,-0.0034281479,0.34906584,2.0511953e-07,2.0513806e-07,4.3294276e-07,2490378,-0.39385986,0.39732113,-0.12989171,0.4,0.0005095427,0.00050873944,0.00050456624,396321,0.0,0.0,0.0,0.5,0.0025000002,0.0025000002,0.0025000002,1,1,1,0,1,0
576764002,576663646,2490378,-0.018206796,0.002165796,-0.00350925,0.34906584,2.0682283e-07,2.0685017e-07,4.322554e-07,2490378,-0.39386487,0.3973187,-0.12941867,0.4,0.00050963205,0.0005087899,0.00050456444,396321,0.0,0.0,0.0,0.5,0.0025000002,0.0025000002,0.0025000002,1,1,1,0,1,0
577112550,577012059,2490378,-0.01821364,0.0021683315,-0.003528057,0.34906584,2.0666731e-07,2.067023e-07,4.326618e-07,2490378,-0.3938685,0.39735705,-0.12825364,0.4,0.00050966255,0.00050879706,0.0005045623,396321,0.0,0.0,0.0,0.5,0.0025000002,0.0025000002,0.0025000002,1,1,1,0,1,0
578117614,578017479,2490378,-0.018171765,0.0021641972,-0.0035860597,0.34906584,2.0781043e-07,2.0787076e-07,4.3273286e-07,2490378,-0.39385697,0.39736855,-0.12739886,0.4,0.0005097516,0.0005088104,0.000504563,396321,0.0,0.0,0.0,0.5,0.0025000002,0.0025000002,0.0025000002,1,1,1,0,1,0
578685121,578584893,2490378,-0.01817595,0.0021621154,-0.00363033,0.34906584,2.0973785e-07,2.0981096e-07,4.3228033e-07,2490378,-0.39386073,0.3973966,-0.12636131,0.4,0.00050980307,0.0005088176,0.00050456304,396321,0.0,0.0,0.0,0.5,0.0025000002,0.0025000002,0.0025000002,1,1,1,0,1,0
579690563,579590313,2490378,-0.018194677,0.0021793542,-0.003731759,0.34906584,2.0949555e-07,2.0961727e-07,4.3232836e-07,2490378,-0.39386857,0.3974142,-0.1257438,0.4,0.00050989125,0.00050878065,0.0005045652,396321,0.0,0.0,0.0,0.5,0.0025000002,0.0025000002,0.0025000002,1,1,1,0,1,0
580695998,580595732,2490378,-0.018217944,0.0021742496,-0.0038471962,0.34906584,2.1077315e-07,2.1094645e-07,4.3163158e-07,2490378,-0.39387715,0.39737096,-0.12621076,0.4,0.00050998037,0.0005087393,0.00050456374,396321,0.0,0.0,0.0,0.5,0.0025000002,0.0025000002,0.0025000002,1,1,1,0,1,0
581293516,581193011,2490378,-0.018191887,0.0021768184,-0.0039093755,0.34906584,2.0901362e-07,2.0924483e-07,4.321654e-07,2490378,-0.3938629,0.39730063,-0.12731119,0.4,0.00051003235,0.0005086865,0.00050456275,396321,0.0,0.0,0.0,0.5,0.0025000002,0.0025000002,0.0025000002,1,1,1,0,1,0
581711697,581611106,2490378,-0.018184073,0.0022250882,-0.0039629117,0.34906584,2.0856797e-07,2.0883647e-07,4.317166e-07,2490378,-0.3938548,0.39725006,-0.12838767,0.4,0.0005100686,0.00050865393,0.0005045626,396321,0.0,0.0,0.0,0.5,0.0025000002,0.0025000002,0.0025000002,1,1,1,0,1,0
582318969,582218339,2490378,-0.018182056,0.0021992717,-0.003997026,0.34906584,2.0574622e-07,2.0609704e-07,4.3155814e-07,2490378,-0.39384648,0.39712858,-0.13011664,0.4,0.00051012123,0.00050858327,0.0005045629,396321,0.0,0.0,0.0,0.5,0.0025000002,0.0025000002,0.0025000002,1,1,1,0,1,0
583324680,583223758,2490378,-0.01822905,0.0021728675,-0.0040495074,0.34906584,2.0735006e-07,2.0777979e-07,4.3160887e-07,2490378,-0.39387423,0.39716724,-0.12903444,0.4,0.0005102087,0.0005085335,0.00050456263,396321,0.0,0.0,0.0,0.5,0.0025000002,0.0025000002,0.0025000002,1,1,1,0,1,0
584110615,584010174,2490378,-0.018253075,0.0021835112,-0.0040964345,0.34906584,2.073127e-07,2.0782295e-07,4.3099914e-07,2490378,-0.39389268,0.39723754,-0.12773047,0.4,0.0005102775,0.00050848647,0.0005045635,396321,0.0,0.0,0.0,0.5,0.0025000002,0.0025000002,0.0025000002,1,1,1,0,1,0
584907232,584806545,2490378,-0.018256746,0.0021654787,-0.004135931,0.34906584,2.0632514e-07,2.0693436e-07,4.3122085e-07,2490378,-0.39390063,0.39728233,-0.12656905,0.4,0.00051034585,0.00050844136,0.00050456356,396321,0.0,0.0,0.0,0.5,0.0025000002,0.0025000002,0.0025000002,1,1,1,0,1,0
585912479,585811963,2490378,-0.018273482,0.0021945846,-0.004204608,0.34906584,2.08467e-07,2.0915196e-07,4.3056653e-07,2490378,-0.3939116,0.39730847,-0.12611927,0.4,0.00051043445,0.0005084316,0.00050456444,396321,0.0,0.0,0.0,0.5,0.0025000002,0.0025000002,0.0025000002,1,1,1,0,1,0
586917565,586817381,2490378,-0.018220939,0.0021831107,-0.0042709364,0.34906584,2.0836437e-07,2.091546e-07,4.3063082e-07,2490378,-0.39388716,0.3972728,-0.12691614,0.4,0.0005105226,0.00050842774,0.00050456583,396321,0.0,0.0,0.0,0.5,0.0025000002,0.0025000002,0.0025000002,1,1,1,0,1,0
587714271,587613751,2490378,-0.018186448,0.0021367965,-0.0043153437,0.34906584,2.0531776e-07,2.0623084e-07,4.30854e-07,2490378,-0.3938765,0.3972085,-0.12833954,0.4,0.00051059236,0.0005084316,0.00050456595,396321,0.0,0.0,0.0,0.5,0.0025000002,0.0025000002,0.0025000002,1,1,1,0,1,0
588301615,588201074,2490378,-0.018188003,0.0021331888,-0.00435728,0.34906584,2.0551737e-07,2.0648525e-07,4.3060953e-07,2490378,-0.3938808,0.39717722,-0.12934999,0.4,0.0005106443,0.00050844817,0.0005045666,396321,0.0,0.0,0.0,0.5,0.0025000002,0.0025000002,0.0025000002,1,1,1,0,1,0
589306942,589206491,2490378,-0.018166782,0.0021086577,-0.0044250325,0.34906584,2.0577743e-07,2.0683869e-07,4.3071842e-07,2490378,-0.39387923,0.3971447,-0.13048185,0.4,0.00051073334,0.0005084911,0.0005045679,396321,0.0,0.0,0.0,0.5,0.0025000002,0.0025000002,0.0025000002,1,1,1,0,1,0
590312035,590211908,2490378,-0.018146388,0.0021018253,-0.004468654,0.34906584,2.0754985e-07,2.086745e-07,4.3012292e-07,2490378,-0.39387518,0.39715633,-0.13056026,0.4,0.0005108225,0.00050854846,0.00050457,396321,0.0,0.0,0.0,0.5,0.0025000002,0.0025000002,0.0025000002,1,1,1,0,1,0
591317586,591217324,2490378,-0.018127246,0.0020949198,-0.0044755647,0.34906584,2.09831e-07,2.1101e-07,4.302953e-07,2490378,-0.39386573,0.39717317,-0.12994806,0.4,0.00051091186,0.00050861714,0.0005045712,396321,0.0,0.0,0.0,0.5,0.0025000002,0.0025000002,0.0025000002,1,1,1,0,1,0
591865084,591764828,2490378,-0.018123437,0.0020907028,-0.004481749,0.34906584,2.1030162e-07,2.1151861e-07,4.3043687e-07,2490378,-0.39385945,0.39719245,-0.12888186,0.4,0.00051095925,0.0005086551,0.0005045699,396321,0.0,0.0,0.0,0.5,0.0025000002,0.0025000002,0.0025000002,1,1,1,0,1,0
592313648,592212785,2490378,-0.018155387,0.0020981724,-0.004484537,0.34906584,2.083618e-07,2.0963606e-07,4.3031235e-07,2490378,-0.39386576,0.39721313,-0.12770776,0.4,0.0005109984,0.0005086886,0.0005045706,396321,0.0,0.0,0.0,0.5,0.0025000002,0.0025000002,0.0025000002,1,1,1,0,1,0
592910546,592810062,2490378,-0.0181973,0.0020960397,-0.004499654,0.34906584,2.098554e-07,2.1115268e-07,4.3021868e-07,2490378,-0.39387217,0.3972289,-0.12653895,0.4,0.0005110498,0.0005087339,0.00050457014,396321,0.0,0.0,0.0,0.5,0.0025000002,0.0025000002,0.0025000002,1,1,1,0,1,0
593915757,593815477,2490378,-0.018221324,0.002091637,-0.0045401147,0.34906584,2.1073363e-07,2.1208658e-07,4.3038776e-07,2490378,-0.39387777,0.3972358,-0.12582283,0.4,0.0005111365,0.0005088106,0.0005045704,396321,0.0,0.0,0.0,0.5,0.0025000002,0.0025000002,0.0025000002,1,1,1,0,1,0
594503527,594402799,2490378,-0.01828139,0.0021167684,-0.0045620683,0.34906584,2.1190162e-07,2.1327571e-07,4.3019713e-07,2490378,-0.393887,0.39725816,-0.1247887,0.4,0.00051118626,0.00050885556,0.00050457,396321,0.0,0.0,0.0,0.5,0.0025000002,0.0025000002,0.0025000002,1,1,1,0,1,0
595508673,595408213,2490378,-0.018291112,0.0021039841,-0.004597167,0.34906584,2.1020934e-07,2.1166245e-07,4.3033015e-07,2490378,-0.39390314,0.39724106,-0.12542501,0.4,0.00051126967,0.0005089316,0.0005045708,396321,0.0,0.0,0.0,0.5,0.0025000002,0.0025000002,0.0025000002,1,1,1,0,1,0
596513861,596413627,2490378,-0.018263659,0.0020573633,-0.0046446286,0.34906584,2.1182706e-07,2.133134e-07,4.297795e-07,2490378,-0.3938991,0.39722756,-0.12524691,0.4,0.00051135314,0.0005090099,0.00050457235,396321,0.0,0.0,0.0,0.5,0.0025000002,0.0025000002,0.0025000002,1,1,1,0,1,0
597519301,597419041,2490378,-0.018239494,0.002036753,-0.004682926,0.34906584,2.0925924e-07,2.108367e-07,4.2989717e-07,2490378,-0.39389175,0.39722496,-0.12495142,0.4,0.0005114334,0.00050908653,0.0005045725,396321,0.0,0.0,0.0,0.5,0.0025000002,0.0025000002,0.0025000002,1,1,1,0,1,0
598524643,598424454,2490378,-0.018221544,0.0020308343,-0.0047195805,0.34906584,2.1086282e-07,2.1248027e-07,4.3008555e-07,2490378,-0.39387727,0.3972352,-0.124041505,0.4,0.00051151554,0.0005091667,0.0005045727,396321,0.0,0.0,0.0,0.5,0.0025000002,0.0025000002,0.0025000002,1,1,1,0,1,0
599530141,599429867,2490378,-0.018205227,0.0020558338,-0.004758997,0.34906584,2.1094468e-07,2.1261572e-07,4.295021e-07,2490378,-0.39386016,0.39725107,-0.123055845,0.4,0.00051159575,0.00050924753,0.00050457154,396321,0.0,0.0,0.0,0.5,0.0025000002,0.0025000002,0.0025000002,1,1,1,0,1,0
600336613,600236187,2490378,-0.01819684,0.0020475895,-0.004780579,0.34906584,2.1065505e-07,2.1238108e-07,4.2993963e-07,2490378,-0.3938439,0.39726046,-0.12198925,0.4,0.0005116612,0.00050931476,0.0005045722,396321,0.0,0.0,0.0,0.5,0.0025000002,0.0025000002,0.0025000002,1,1,1,0,1,0
601113142,601012644,2490378,-0.018193753,0.0021045003,-0.004787802,0.34906584,2.1082465e-07,2.1259015e-07,4.2934875e-07,2490378,-0.39382455,0.3972844,-0.12062324,0.4,0.000511724,0.00050937984,0.0005045718,396321,0.0,0.0,0.0,0.5,0.0025000002,0.0025000002,0.0025000002,1,1,1,0,1,0
601501935,601400872,2490378,-0.018186532,0.0021599769,-0.0047958097,0.34906584,2.1168819e-07,2.1346588e-07,4.2944092e-07,2490378,-0.39380893,0.39730427,-0.119560234,0.4,0.0005117562,0.0005094131,0.000504572,396321,0.0,0.0,0.0,0.5,0.0025000002,0.0025000002,0.0025000002,1,1,1,0,1,0
602506532,602406283,2490378,-0.018169709,0.0021642314,-0.0047989246,0.34906584,2.1313241e-07,2.1495111e-07,4.296284e-07,2490378,-0.39380005,0.39730906,-0.119033195,0.4,0.00051184034,0.00050949934,0.00050457305,396321,0.0,0.0,0.0,0.5,0.0025000002,0.0025000002,0.0025000002,1,1,1,0,1,0
603511890,603411694,2490378,-0.018197015,0.0021487062,-0.0047961273,0.34906584,2.1322458e-07,2.151011e-07,4.2979337e-07,2490378,-0.39380527,0.39730784,-0.118967906,0.4,0.00051192543,0.00050958584,0.0005045726,396321,0.0,0.0,0.0,0.5,0.0025000002,0.0025000002,0.0025000002,1,1,1,0,1,0
604497735,604397195,2490378,-0.018202484,0.0020953796,-0.004792625,0.34906584,2.1195689e-07,2.1390498e-07,4.2974509e-07,2490378,-0.39381352,0.39729464,-0.12001782,0.4,0.0005120107,0.00050967175,0.000504572,396321,0.0,0.0,0.0,0.5,0.0025000002,0.0025000002,0.0025000002,1,1,1,0,1,0
604906017,604805331,2490378,-0.018219426,0.002093311,-0.004798648,0.34906584,2.1008196e-07,2.1207335e-07,4.292413e-07,2490378,-0.39381897,0.39728838,-0.12113967,0.4,0.000512047,0.00050970784,0.0005045726,396321,0.0,0.0,0.0,0.5,0.0025000002,0.0025000002,0.0025000002,1,1,1,0,1,0
605911195,605810741,2490378,-0.018210044,0.0020454803,-0.004816959,0.34906584,2.0884885e-07,2.1091093e-07,4.2938322e-07,2490378,-0.39381617,0.3972863,-0.12098738,0.4,0.000512135,0.00050979445,0.00050457276,396321,0.0,0.0,0.0,0.5,0.0025000002,0.0025000002,0.0025000002,1,1,1,0,1,0
606916320,606816149,2490378,-0.018219763,0.0020338285,-0.004837219,0.34906584,2.0997062e-07,2.1206985e-07,4.295714e-07,2490378,-0.39381537,0.39728248,-0.12156372,0.4,0.0005122257,0.0005098832,0.0005045742,396321,0.0,0.0,0.0,0.5,0.0025000002,0.0025000002,0.0025000002,1,1,1,0,1,0
607921877,607821558,2490378,-0.018284062,0.0019650534,-0.0048557976,0.34906584,2.0709261e-07,2.092791e-07,4.2894723e-07,2490378,-0.39381847,0.39728218,-0.12141876,0.4,0.0005123157,0.0005099707,0.0005045755,396321,0.0,0.0,0.0,0.5,0.0025000002,0.0025000002,0.0025000002,1,1,1,0,1,0
608927220,608826965,2490378,-0.018289154,0.0019454381,-0.0048770313,0.34906584,2.0665256e-07,2.0889244e-07,4.291183e-07,2490378,-0.39381868,0.39728367,-0.12137327,0.4,0.0005124075,0.00051006087,0.00050457596,396321,0.0,0.0,0.0,0.5,0.0025000002,0.0025000002,0.0025000002,1,1,1,0,1,0
609932602,609832372,2490378,-0.01832938,0.001931339,-0.0048904633,0.34906584,2.0868814e-07,2.1094075e-07,4.293359e-07,2490378,-0.3938209,0.39728707,-0.12100707,0.4,0.0005124992,0.00051015196,0.0005045808,396321,0.0,0.0,0.0,0.5,0.0025000002,0.0025000002,0.0025000002,1,1,1,0,1,0
610937957,610837779,2490378,-0.018360093,0.0019159816,-0.004908056,0.34906584,2.0665065e-07,2.0896545e-07,4.2949702e-07,2490378,-0.39381897,0.39728752,-0.12145122,0.4,0.0005125892,0.00051024224,0.00050458097,396321,0.0,0.0,0.0,0.5,0.0025000002,0.0025000002,0.0025000002,1,1,1,0,1,0
611943355,611843185,2490378,-0.018363047,0.0019136589,-0.004930647,0.34906584,2.0663745e-07,2.0897002e-07,4.289555e-07,2490378,-0.39381522,0.39728823,-0.12214132,0.4,0.0005126781,0.00051033165,0.0005045818,396321,0.0,0.0,0.0,0.5,0.0025000002,0.0025000002,0.0025000002,1,1,1,0,1,0
612948752,612848590,2490378,-0.018365422,0.0018955062,-0.004929036,0.34906584,2.0730897e-07,2.0965622e-07,4.291695e-07,2490378,-0.39382094,0.3972894,-0.12126048,0.4,0.00051276677,0.0005104221,0.0005045813,396321,0.0,0.0,0.0,0.5,0.0025000002,0.0025000002,0.0025000002,1,1,1,1,1,0
613516326,613415997,2490378,-0.01838792,0.0018734745,-0.00492302,0.34906584,2.0833811e-07,2.106779e-07,4.2880717e-07,2490378,-0.39382696,0.3972909,-0.120245226,0.4,0.00051281636,0.00051047246,0.00050457916,396321,0.0,0.0,0.0,0.5,0.0025000002,0.0025000002,0.0025000002,1,1,1,1,1,0
614521613,614421401,2490378,-0.01838796,0.0019205452,-0.0049130963,0.34906584,2.1093902e-07,2.1326476e-07,4.2905228e-07,2490378,-0.393834,0.3972943,-0.11931286,0.4,0.0005129058,0.00051056297,0.00050458155,396321,0.0,0.0,0.0,0.5,0.0025000002,0.0025000002,0.0025000002,1,1,1,1,1,0
615497440,615396942,2490378,-0.018387854,0.0019294294,-0.0048928536,0.34906584,2.0790469e-07,2.1028188e-07,4.2892745e-07,2490378,-0.39382657,0.3972895,-0.12048605,0.4,0.0005129917,0.0005106503,0.00050457986,396321,0.0,0.0,0.0,0.5,0.0025000002,0.0025000002,0.0025000002,1,1,1,1,1,0
616303740,616203255,2490378,-0.0183629,0.0019219315,-0.004873967,0.34906584,2.0706496e-07,2.094725e-07,4.293998e-07,2490378,-0.39381438,0.3972816,-0.12180633,0.4,0.00051306287,0.0005107234,0.0005045811,396321,0.0,0.0,0.0,0.5,0.0025000002,0.0025000002,0.0025000002,1,1,1,1,1,0
617308804,617208658,2490378,-0.018361023,0.0019535518,-0.0048776176,0.34906584,2.0914182e-07,2.1153767e-07,4.2889314e-07,2490378,-0.3938163,0.39728373,-0.12145081,0.4,0.00051314925,0.000510813,0.00050458236,396321,0.0,0.0,0.0,0.5,0.0025000002,0.0025000002,0.0025000002,1,1,1,1,1,0
618314338,618214060,2490378,-0.01834162,0.0019859376,-0.004892236,0.34906584,2.075914e-07,2.1003602e-07,4.2907624e-07,2490378,-0.39381763,0.3972881,-0.12121487,0.4,0.0005132303,0.0005109024,0.0005045824,396321,0.0,0.0,0.0,0.5,0.0025000002,0.0025000002,0.0025000002,1,1,1,1,1,0
618901958,618801374,2490378,-0.01836201,0.0019837928,-0.0048918454,0.34906584,2.0502661e-07,2.0752213e-07,4.2885705e-07,2490378,-0.3938352,0.3972921,-0.12005939,0.4,0.0005132742,0.00051095465,0.00050458143,396321,0.0,0.0,0.0,0.5,0.0025000002,0.0025000002,0.0025000002,1,1,1,1,1,0
619509851,619408597,2490378,-0.018364832,0.001981507,-0.004892109,0.34906584,2.0636101e-07,2.088564e-07,4.288882e-07,2490378,-0.39385095,0.3972952,-0.1190307,0.4,0.00051332236,0.0005110085,0.0005045811,396321,0.0,0.0,0.0,0.5,0.0025000002,0.0025000002,0.0025000002,1,1,1,1,1,0
620514312,620413997,2490378,-0.018364234,0.0019945316,-0.0048760935,0.34906584,2.0637563e-07,2.0890621e-07,4.2909065e-07,2490378,-0.39384153,0.39729038,-0.11971399,0.4,0.00051340356,0.0005110989,0.0005045829,396321,0.0,0.0,0.0,0.5,0.0025000002,0.0025000002,0.0025000002,1,1,1,1,1,0
620912705,620812176,2490378,-0.018352266,0.0020435196,-0.004863674,0.34906584,2.077279e-07,2.102543e-07,4.292993e-07,2490378,-0.39385763,0.39729047,-0.11864006,0.4,0.0005134358,0.0005111339,0.00050458155,396321,0.0,0.0,0.0,0.5,0.0025000002,0.0025000002,0.0025000002,1,1,1,1,1,0
621699678,621598578,2490378,-0.018347623,0.0020405059,-0.0048389225,0.34906584,2.0858567e-07,2.1112164e-07,4.2884741e-07,2490378,-0.39387333,0.3972934,-0.117429554,0.4,0.0005135007,0.0005112037,0.00050458167,396321,0.0,0.0,0.0,0.5,0.0025000002,0.0025000002,0.0025000002,1,1,1,1,1,0
622704570,622603978,2490378,-0.01835553,0.0020217597,-0.004804609,0.34906584,2.0918321e-07,2.1174974e-07,4.2905285e-07,2490378,-0.39388588,0.3972943,-0.11643047,0.4,0.0005135833,0.00051129336,0.0005045821,396321,0.0,0.0,0.0,0.5,0.0025000002,0.0025000002,0.0025000002,1,1,1,1,1,0
623709881,623609377,2490378,-0.01839409,0.0019932936,-0.0047622123,0.34906584,2.0820518e-07,2.1082376e-07,4.2923702e-07,2490378,-0.39389634,0.39729193,-0.11550899,0.4,0.0005136641,0.000511384,0.0005045832,396321,0.0,0.0,0.0,0.5,0.0025000002,0.0025000002,0.0025000002,1,1,1,1,1,0
624506291,624405732,2490378,-0.018397909,0.0019911279,-0.0047319294,0.34906584,2.0748507e-07,2.1013321e-07,4.288645e-07,2490378,-0.39391553,0.39728734,-0.11436097,0.4,0.00051372655,0.0005114565,0.00050458475,396321,0.0,0.0,0.0,0.5,0.0025000002,0.0025000002,0.0025000002,1,1,1,1,1,0
625511408,625411130,2490378,-0.01838458,0.001993019,-0.004697432,0.34906584,2.0782555e-07,2.1049482e-07,4.2907828e-07,2490378,-0.39390975,0.39728165,-0.11482403,0.4,0.0005138039,0.0005115483,0.0005045869,396321,0.0,0.0,0.0,0.5,0.0025000002,0.0025000002,0.0025000002,1,1,1,1,1,0
626516666,626416527,2490378,-0.018405465,0.001974587,-0.004660278,0.34906584,2.0943793e-07,2.1210555e-07,4.2931245e-07,2490378,-0.3939015,0.39728186,-0.11510003,0.4,0.00051388243,0.0005116401,0.00050458976,396321,0.0,0.0,0.0,0.5,0.0025000002,0.0025000002,0.0025000002,1,1,1,1,1,0
627522128,627421924,2490378,-0.018407477,0.0019416197,-0.0046254885,0.34906584,2.1153083e-07,2.141771e-07,4.288096e-07,2490378,-0.3938906,0.39728478,-0.115687564,0.4,0.00051395886,0.00051172945,0.00050459016,396321,0.0,0.0,0.0,0.5,0.0025000002,0.0025000002,0.0025000002,1,1,1,1,1,0
628527492,628427320,2490378,-0.018418109,0.0019257957,-0.004592141,0.34906584,2.1166842e-07,2.1432368e-07,4.290301e-07,2490378,-0.39387625,0.3972873,-0.11640097,0.4,0.00051403575,0.00051181915,0.0005045905,396321,0.0,0.0,0.0,0.5,0.0025000002,0.0025000002,0.0025000002,1,1,1,1,1,0
629533006,629432715,2490378,-0.01843895,0.0019206748,-0.0045615314,0.34906584,2.1060951e-07,2.1328349e-07,4.292391e-07,2490378,-0.39386585,0.39728764,-0.11675927,0.4,0.0005141127,0.00051190867,0.0005045919,396321,0.0,0.0,0.0,0.5,0.0025000002,0.0025000002,0.0025000002,1,1,1,1,1,0
630538439,630438110,2490378,-0.018455086,0.0019392566,-0.004528025,0.34906584,2.104081e-07,2.1307541e-07,4.2871943e-07,2490378,-0.3938605,0.39727902,-0.11675884,0.4,0.0005141907,0.0005119973,0.0005045899,396321,0.0,0.0,0.0,0.5,0.0025000002,0.0025000002,0.0025000002,1,1,1,1,1,0
631295126,631194644,2490378,-0.018447168,0.001987133,-0.004509249,0.34906584,2.115163e-07,2.141665e-07,4.2874328e-07,2490378,-0.3938764,0.3972592,-0.115750276,0.4,0.00051425176,0.000512065,0.0005045896,396321,0.0,0.0,0.0,0.5,0.0025000002,0.0025000002,0.0025000002,1,1,1,1,1,0
632300527,632200038,2490378,-0.018461695,0.0019986625,-0.004481158,0.34906584,2.1199104e-07,2.1462972e-07,4.2897958e-07,2490378,-0.39388338,0.39724705,-0.11466061,0.4,0.0005143339,0.0005121538,0.00050459005,396321,0.0,0.0,0.0,0.5,0.0025000002,0.0025000002,0.0025000002,1,1,1,1,1,0
633097058,632996389,2490378,-0.018451791,0.0019769694,-0.004452578,0.34906584,2.1013524e-07,2.1277981e-07,4.2862158e-07,2490378,-0.39389795,0.39724413,-0.113500394,0.4,0.0005143991,0.00051222375,0.0005045906,396321,0.0,0.0,0.0,0.5,0.0025000002,0.0025000002,0.0025000002,1,1,1,1,1,0
634102321,634001782,2490378,-0.018476587,0.0019621418,-0.0044192276,0.34906584,2.1149305e-07,2.1411245e-07,4.2887032e-07,2490378,-0.39388853,0.3972456,-0.1135408,0.4,0.0005144825,0.0005123116,0.0005045902,396321,0.0,0.0,0.0,0.5,0.0025000002,0.0025000002,0.0025000002,1,1,1,1,1,0
635107630,635007174,2490378,-0.018467238,0.0019428928,-0.004380069,0.34906584,2.1087723e-07,2.134899e-07,4.2909875e-07,2490378,-0.39389154,0.39724594,-0.11329945,0.4,0.00051456725,0.0005123998,0.0005045912,396321,0.0,0.0,0.0,0.5,0.0025000002,0.0025000002,0.0025000002,1,1,1,1,1,0
636112730,636012565,2490378,-0.018460829,0.0019538177,-0.004354249,0.34906584,2.1234695e-07,2.1493057e-07,4.2935102e-07,2490378,-0.3938964,0.3972371,-0.11273942,0.4,0.00051465357,0.00051248877,0.00050459255,396321,0.0,0.0,0.0,0.5,0.0025000002,0.0025000002,0.0025000002,1,1,1,1,1,0
637118200,637017956,2490378,-0.018472282,0.0019262568,-0.0043139984,0.34906584,2.148053e-07,2.1734172e-07,4.2886882e-07,2490378,-0.39389676,0.3972377,-0.11212317,0.4,0.0005147402,0.0005125774,0.00050459086,396321,0.0,0.0,0.0,0.5,0.0025000002,0.0025000002,0.0025000002,1,1,1,1,1,0
638123531,638023346,2490378,-0.018466577,0.0019009387,-0.0042784703,0.34906584,2.140076e-07,2.1653875e-07,4.290963e-07,2490378,-0.3938943,0.39724377,-0.11252558,0.4,0.0005148284,0.00051266706,0.00050459395,396321,0.0,0.0,0.0,0.5,0.0025000002,0.0025000002,0.0025000002,1,1,1,1,1,0
638949802,638849557,2490378,-0.018462757,0.0019008202,-0.0042509604,0.34906584,2.143472e-07,2.1686127e-07,4.290588e-07,2490378,-0.3938885,0.3972468,-0.11353071,0.4,0.00051490153,0.0005127413,0.0005045936,396321,0.0,0.0,0.0,0.5,0.0025000002,0.0025000002,0.0025000002,1,1,1,1,1,0
639547403,639446818,2490378,-0.018458595,0.0018936786,-0.004230954,0.34906584,2.1336834e-07,2.1588207e-07,4.2898245e-07,2490378,-0.3938832,0.39725217,-0.11458222,0.4,0.00051495456,0.00051279465,0.0005045946,396321,0.0,0.0,0.0,0.5,0.0025000002,0.0025000002,0.0025000002,1,1,1,1,1,0
640552388,640452207,2490378,-0.018480774,0.0018754442,-0.004187026,0.34906584,2.090857e-07,2.1163078e-07,4.291726e-07,2490378,-0.39387545,0.3972569,-0.11518364,0.4,0.00051504356,0.000512884,0.0005045998,396321,0.0,0.0,0.0,0.5,0.0025000002,0.0025000002,0.0025000002,1,1,1,1,1,0
641557742,641457595,2490378,-0.018469123,0.0018932448,-0.0041477876,0.34906584,2.0823295e-07,2.1077138e-07,4.2940223e-07,2490378,-0.3938741,0.3972583,-0.11604548,0.4,0.000515133,0.0005129729,0.00050459895,396321,0.0,0.0,0.0,0.5,0.0025000002,0.0025000002,0.0025000002,1,1,1,1,1,0
642563139,642462982,2490378,-0.018481376,0.0019099532,-0.004119913,0.34906584,2.0845557e-07,2.1096658e-07,4.288994e-07,2490378,-0.39387575,0.39724627,-0.11521845,0.4,0.0005152221,0.0005130597,0.000504603,396321,0.0,0.0,0.0,0.5,0.0025000002,0.0025000002,0.0025000002,1,1,1,1,1,0
643568609,643468369,2490378,-0.018503666,0.0019027774,-0.004092837,0.34906584,2.0865876e-07,2.1114843e-07,4.2914215e-07,2490378,-0.39387402,0.3972402,-0.11451437,0.4,0.0005153106,0.0005131455,0.0005046012,396321,0.0,0.0,0.0,0.5,0.0025000002,0.0025000002,0.0025000002,1,1,1,1,1,0
644573935,644473755,2490378,-0.018523354,0.0018711847,-0.004066578,0.34906584,2.0995522e-07,2.1240855e-07,4.293993e-07,2490378,-0.39387175,0.39723668,-0.11367654,0.4,0.0005153998,0.0005132314,0.0005045997,396321,0.0,0.0,0.0,0.5,0.0025000002,0.0025000002,0.0025000002,1,1,1,1,1,0
645579361,645479141,2490378,-0.018526684,0.001861405,-0.0040428187,0.34906584,2.0999002e-07,2.1240619e-07,4.2890284e-07,2490378,-0.39386928,0.39723977,-0.1140021,0.4,0.00051548827,0.00051331636,0.0005046019,396321,0.0,0.0,0.0,0.5,0.0025000002,0.0025000002,0.0025000002,1,1,1,1,1,0
646584679,646484526,2490378,-0.018539876,0.0018651418,-0.004011174,0.34906584,2.0887613e-07,2.1126931e-07,4.2914337e-07,2490378,-0.39386556,0.39724097,-0.11437034,0.4,0.0005155774,0.000513402,0.0005046002,396321,0.0,0.0,0.0,0.5,0.0025000002,0.0025000002,0.0025000002,1,1,1,1,1,0
647590264,647489910,2490378,-0.018527742,0.0018819082,-0.003980691,0.34906584,2.0678425e-07,2.0916005e-07,4.2937822e-07,2490378,-0.3938672,0.39723787,-0.11455065,0.4,0.00051566755,0.00051348744,0.0005045989,396321,0.0,0.0,0.0,0.5,0.0025000002,0.0025000002,0.0025000002,1,1,1,1,1,0
648595856,648495294,2490378,-0.018532943,0.001898709,-0.0039481795,0.34906584,2.0680439e-07,2.091417e-07,4.2888342e-07,2490378,-0.3938665,0.3972309,-0.114230685,0.4,0.0005157577,0.0005135744,0.000504602,396321,0.0,0.0,0.0,0.5,0.0025000002,0.0025000002,0.0025000002,1,1,1,1,1,0
649600840,649500676,2490378,-0.018551342,0.0019022858,-0.003918497,0.34906584,2.058748e-07,2.0818919e-07,4.291251e-07,2490378,-0.39386317,0.39723188,-0.11466959,0.4,0.0005158488,0.0005136627,0.0005046015,396321,0.0,0.0,0.0,0.5,0.0025000002,0.0025000002,0.0025000002,1,1,1,1,1,0
650606209,650506059,2490378,-0.01856749,0.001893744,-0.003896008,0.34906584,2.0618381e-07,2.0846812e-07,4.2937276e-07,2490378,-0.39385924,0.3972352,-0.11530925,0.4,0.00051593804,0.0005137497,0.0005046035,396321,0.0,0.0,0.0,0.5,0.0025000002,0.0025000002,0.0025000002,1,1,1,1,1,0
651611596,651511440,2490378,-0.01857858,0.001893694,-0.0038672911,0.34906584,2.0843713e-07,2.1067767e-07,4.296381e-07,2490378,-0.39385894,0.39722985,-0.11466468,0.4,0.0005160293,0.0005138393,0.00050460314,396321,0.0,0.0,0.0,0.5,0.0025000002,0.0025000002,0.0025000002,1,1,1,1,1,0
652616998,652516821,2490378,-0.018615603,0.0019397807,-0.0038434758,0.34906584,2.0440012e-07,2.066347e-07,4.2910702e-07,2490378,-0.39385432,0.3972162,-0.11370612,0.4,0.00051611976,0.0005139284,0.000504603,396321,0.0,0.0,0.0,0.5,0.0025000002,0.0025000002,0.0025000002,1,1,1,1,1,0
653622388,653522202,2490378,-0.018617144,0.0019428973,-0.0038222866,0.34906584,2.0547806e-07,2.076786e-07,4.2936102e-07,2490378,-0.39385375,0.39721662,-0.11425707,0.4,0.00051621057,0.0005140182,0.0005046057,396321,0.0,0.0,0.0,0.5,0.0025000002,0.0025000002,0.0025000002,1,1,1,1,1,0
654508656,654408130,2490378,-0.018619714,0.0019606287,-0.0038040718,0.34906584,2.0634046e-07,2.0850865e-07,4.2917796e-07,2490378,-0.3938552,0.39721063,-0.113134235,0.4,0.00051629223,0.000514099,0.0005046054,396321,0.0,0.0,0.0,0.5,0.0025000002,0.0025000002,0.0025000002,1,1,1,1,1,0
655315585,655214425,2490378,-0.01862565,0.0019660455,-0.0037926296,0.34906584,2.0859737e-07,2.1073375e-07,4.297068e-07,2490378,-0.39385566,0.39720646,-0.112047285,0.4,0.00051636546,0.0005141717,0.0005046065,396321,0.0,0.0,0.0,0.5,0.0025000002,0.0025000002,0.0025000002,1,1,1,1,1,0
656320266,656219803,2490378,-0.01864515,0.0019201947,-0.0037683167,0.34906584,2.0728106e-07,2.0939744e-07,4.291921e-07,2490378,-0.39385274,0.39721376,-0.11224967,0.4,0.00051645644,0.0005142626,0.0005046076,396321,0.0,0.0,0.0,0.5,0.0025000002,0.0025000002,0.0025000002,1,1,1,1,1,0
657325331,657225181,2490378,-0.01864238,0.001918812,-0.0037577748,0.34906584,2.062031e-07,2.0830768e-07,4.294216e-07,2490378,-0.39385346,0.3972124,-0.111724414,0.4,0.0005165461,0.0005143521,0.0005046082,396321,0.0,0.0,0.0,0.5,0.0025000002,0.0025000002,0.0025000002,1,1,1,1,1,0
658330750,658230558,2490378,-0.01863328,0.0019464553,-0.003742758,0.34906584,2.0801406e-07,2.1008881e-07,4.2967156e-07,2490378,-0.39385483,0.39720863,-0.111917466,0.4,0.0005166362,0.0005144422,0.00050460926,396321,0.0,0.0,0.0,0.5,0.0025000002,0.0025000002,0.0025000002,1,1,1,1,1,0
659336136,659235934,2490378,-0.0186423,0.0019388573,-0.0037259152,0.34906584,2.0643462e-07,2.0850105e-07,4.291467e-07,2490378,-0.39385435,0.39720923,-0.11212417,0.4,0.00051672664,0.00051453256,0.0005046106,396321,0.0,0.0,0.0,0.5,0.0025000002,0.0025000002,0.0025000002,1,1,1,1,1,0
660341503,660241310,2490378,-0.01865501,0.0019230683,-0.0037166066,0.34906584,2.0509692e-07,2.0716443e-07,4.2936512e-07,2490378,-0.39385393,0.3972107,-0.112405434,0.4,0.0005168166,0.00051462254,0.00050460885,396321,0.0,0.0,0.0,0.5,0.0025000002,0.0025000002,0.0025000002,1,1,1,1,1,0
661346848,661246685,2490378,-0.018643662,0.0019526264,-0.003711813,0.34906584,2.0860459e-07,2.1063514e-07,4.2962273e-07,2490378,-0.3938552,0.39720786,-0.112259164,0.4,0.0005169066,0.0005147125,0.0005046114,396321,0.0,0.0,0.0,0.5,0.0025000002,0.0025000002,0.0025000002,1,1,1,1,1,0
662352312,662252059,2490378,-0.01865042,0.0019430569,-0.003702863,0.34906584,2.1061824e-07,2.1261948e-07,4.2912146e-07,2490378,-0.39385527,0.3972089,-0.11207029,0.4,0.0005169974,0.0005148033,0.0005046104,396321,0.0,0.0,0.0,0.5,0.0025000002,0.0025000002,0.0025000002,1,1,1,1,1,0
663357714,663257433,2490378,-0.018645661,0.0019579397,-0.0036985262,0.34906584,2.1424196e-07,2.1620872e-07,4.293777e-07,2490378,-0.39385495,0.3972095,-0.11130648,0.4,0.00051708776,0.0005148936,0.0005046089,396321,0.0,0.0,0.0,0.5,0.0025000002,0.0025000002,0.0025000002,1,1,1,1,1,0
664362972,664262806,2490378,-0.018645113,0.0019557292,-0.0036942204,0.34906584,2.1693563e-07,2.1887745e-07,4.296242e-07,2490378,-0.39385512,0.39721054,-0.11097515,0.4,0.0005171791,0.00051498495,0.0005046128,396321,0.0,0.0,0.0,0.5,0.0025000002,0.0025000002,0.0025000002,1,1,1,1,1,0
665368513,665268179,2490378,-0.018654725,0.0018666668,-0.0036927308,0.34906584,2.1037845e-07,2.1238155e-07,4.2977925e-07,2490378,-0.39385465,0.39721498,-0.111044705,0.4,0.00051726855,0.0005150741,0.0005046105,396321,0.0,0.0,0.0,0.5,0.0025000002,0.0025000002,0.0025000002,1,1,1,1,1,0
666373692,666273551,2490378,-0.018668838,0.0018151304,-0.0036838327,0.34906584,2.1043236e-07,2.1243109e-07,4.2925214e-07,2490378,-0.39385372,0.39721766,-0.110926285,0.4,0.0005173593,0.00051516475,0.0005046139,396321,0.0,0.0,0.0,0.5,0.0025000002,0.0025000002,0.0025000002,1,1,1,1,1,0
667379055,667278921,2490378,-0.018681118,0.0018220162,-0.0036676696,0.34906584,2.1121633e-07,2.1321283e-07,4.2947727e-07,2490378,-0.39385438,0.39721897,-0.11091678,0.4,0.0005174521,0.00051525736,0.0005046148,396321,0.0,0.0,0.0,0.5,0.0025000002,0.0025000002,0.0025000002,1,1,1,1,1,0
668384451,668284291,2490378,-0.018698731,0.0017933613,-0.0036472771,0.34906584,2.1019561e-07,2.1220734e-07,4.2968693e-07,2490378,-0.39385402,0.3972216,-0.110479414,0.4,0.0005175445,0.0005153497,0.00050461636,396321,0.0,0.0,0.0,0.5,0.0025000002,0.0025000002,0.0025000002,1,1,1,1,1,0
669389931,669289661,2490378,-0.018704364,0.0017670284,-0.003626045,0.34906584,2.1116685e-07,2.1316721e-07,4.2916818e-07,2490378,-0.3938546,0.39722195,-0.11068143,0.4,0.00051763543,0.00051544065,0.00050461915,396321,0.0,0.0,0.0,0.5,0.0025000002,0.0025000002,0.0025000002,1,1,1,1,1,0
670395192,670295029,2490378,-0.018697415,0.0017619384,-0.0035987492,0.34906584,2.1212752e-07,2.1412436e-07,4.2939476e-07,2490378,-0.39385572,0.3972221,-0.11091287,0.4,0.00051772606,0.0005155313,0.000504619,396321,0.0,0.0,0.0,0.5,0.0025000002,0.0025000002,0.0025000002,1,1,1,1,1,0
671400650,671300397,2490378,-0.018679742,0.001755723,-0.0035795574,0.34906584,2.0826599e-07,2.1030317e-07,4.295762e-07,2490378,-0.39385507,0.39722377,-0.1105717,0.4,0.0005178159,0.0005156213,0.0005046172,396321,0.0,0.0,0.0,0.5,0.0025000002,0.0025000002,0.0025000002,1,1,1,1,1,0
672405937,672305764,2490378,-0.018689174,0.0017968456,-0.0035678719,0.34906584,2.0708816e-07,2.0914308e-07,4.297801e-07,2490378,-0.39385378,0.39722303,-0.11024589,0.4,0.00051790604,0.00051571155,0.00050461927,396321,0.0,0.0,0.0,0.5,0.0025000002,0.0025000002,0.0025000002,1,1,1,1,1,0
673312739,673211590,2490378,-0.018692985,0.0017895702,-0.0035485195,0.34906584,2.0649286e-07,2.0855626e-07,4.2975375e-07,2490378,-0.39385015,0.39722523,-0.108970895,0.4,0.00051798666,0.00051579234,0.0005046172,396321,0.0,0.0,0.0,0.5,0.0025000002,0.0025000002,0.0025000002,1,1,1,1,1,0
674317206,674216956,2490378,-0.018693531,0.0017816167,-0.0035266508,0.34906584,2.1007301e-07,2.1210018e-07,4.2925976e-07,2490378,-0.39384836,0.3972268,-0.10830469,0.4,0.0005180763,0.0005158821,0.0005046213,396321,0.0,0.0,0.0,0.5,0.0025000002,0.0025000002,0.0025000002,1,1,1,1,1,0
675322506,675222321,2490378,-0.018684182,0.0017874959,-0.0035026101,0.34906584,2.0881205e-07,2.1085532e-07,4.2946434e-07,2490378,-0.39384854,0.397227,-0.1082912,0.4,0.00051816646,0.0005159725,0.0005046198,396321,0.0,0.0,0.0,0.5,0.0025000002,0.0025000002,0.0025000002,1,1,1,1,1,0
676327850,676227685,2490378,-0.018666515,0.001772601,-0.0034827315,0.34906584,2.0568774e-07,2.0776363e-07,4.2965146e-07,2490378,-0.39384976,0.39722803,-0.108243845,0.4,0.0005182568,0.00051606307,0.00050461857,396321,0.0,0.0,0.0,0.5,0.0025000002,0.0025000002,0.0025000002,1,1,1,1,1,0
677333254,677233049,2490378,-0.018645428,0.0017967689,-0.0034638639,0.34906584,2.0840848e-07,2.1045669e-07,4.2914903e-07,2490378,-0.39385152,0.3972261,-0.108425,0.4,0.00051834725,0.0005161535,0.0005046216,396321,0.0,0.0,0.0,0.5,0.0025000002,0.0025000002,0.0025000002,1,1,1,1,1,0
678338670,678238412,2490378,-0.018646156,0.0017438893,-0.003448499,0.34906584,2.0852137e-07,2.1057477e-07,4.2936534e-07,2490378,-0.39385217,0.39723045,-0.10849963,0.4,0.0005184378,0.0005162442,0.0005046205,396321,0.0,0.0,0.0,0.5,0.0025000002,0.0025000002,0.0025000002,1,1,1,1,1,0
679344128,679243774,2490378,-0.01861415,0.0017773752,-0.0034396807,0.34906584,2.0649097e-07,2.0857242e-07,4.2955907e-07,2490378,-0.39385426,0.39722735,-0.10812521,0.4,0.0005185294,0.00051633583,0.0005046202,396321,0.0,0.0,0.0,0.5,0.0025000002,0.0025000002,0.0025000002,1,1,1,1,1,0
680349680,680249135,2490378,-0.018620199,0.001795153,-0.0034279497,0.34906584,2.0624229e-07,2.0832739e-07,4.2902604e-07,2490378,-0.39385536,0.3972264,-0.10839948,0.4,0.00051862194,0.0005164284,0.0005046227,396321,0.0,0.0,0.0,0.5,0.0025000002,0.0025000002,0.0025000002,1,1,1,1,1,0
681354977,681254496,2490378,-0.018603269,0.0018166811,-0.0034159103,0.34906584,2.064472e-07,2.0853935e-07,4.2924086e-07,2490378,-0.39385778,0.397225,-0.109037906,0.4,0.000518714,0.00051652046,0.00050462474,396321,0.0,0.0,0.0,0.5,0.0025000002,0.0025000002,0.0025000002,1,1,1,1,1,0
682360308,682259856,2490378,-0.018608099,0.0017857485,-0.0033981001,0.34906584,2.0716186e-07,2.0925528e-07,4.2946192e-07,2490378,-0.3938575,0.39722887,-0.10902474,0.4,0.00051880546,0.0005166119,0.0005046261,396321,0.0,0.0,0.0,0.5,0.0025000002,0.0025000002,0.0025000002,1,1,1,1,1,0
683365495,683265215,2490378,-0.018606687,0.0018261443,-0.003380707,0.34906584,2.08536e-07,2.1062255e-07,4.2969026e-07,2490378,-0.39385837,0.39722502,-0.10802521,0.4,0.000518896,0.00051670236,0.0005046283,396321,0.0,0.0,0.0,0.5,0.0025000002,0.0025000002,0.0025000002,1,1,1,1,1,0
684370807,684270574,2490378,-0.018593088,0.0018387933,-0.0033637537,0.34906584,2.0417484e-07,2.0630038e-07,4.291166e-07,2490378,-0.39385998,0.3972241,-0.10752617,0.4,0.00051898585,0.00051679224,0.00050462724,396321,0.0,0.0,0.0,0.5,0.0025000002,0.0025000002,0.0025000002,1,1,1,1,1,0
685376061,685275932,2490378,-0.018612036,0.0018403392,-0.003351197,0.34906584,2.0463892e-07,2.0676207e-07,4.2933985e-07,2490378,-0.39385825,0.39722428,-0.10712824,0.4,0.00051907595,0.0005168823,0.00050462905,396321,0.0,0.0,0.0,0.5,0.0025000002,0.0025000002,0.0025000002,1,1,1,1,1,0
686381443,686281289,2490378,-0.018607615,0.0018175932,-0.0033331702,0.34906584,2.071167e-07,2.0921793e-07,4.295834e-07,2490378,-0.3938585,0.39722732,-0.10692497,0.4,0.00051916594,0.0005169723,0.0005046282,396321,0.0,0.0,0.0,0.5,0.0025000002,0.0025000002,0.0025000002,1,1,1,1,1,0
687386869,687286646,2490378,-0.018599153,0.0018376247,-0.0033271424,0.34906584,2.0938397e-07,2.1145676e-07,4.2907988e-07,2490378,-0.39385918,0.3972256,-0.10657405,0.4,0.00051925605,0.0005170624,0.00050462637,396321,0.0,0.0,0.0,0.5,0.0025000002,0.0025000002,0.0025000002,1,1,1,1,1,0
688392290,688292002,2490378,-0.018615155,0.0018422534,-0.003315474,0.34906584,2.0943592e-07,2.1150528e-07,4.293033e-07,2490378,-0.39385808,0.39722595,-0.107173674,0.4,0.0005193454,0.0005171518,0.00050462846,396321,0.0,0.0,0.0,0.5,0.0025000002,0.0025000002,0.0025000002,1,1,1,1,1,0
689397544,689297357,2490378,-0.018596472,0.0018001527,-0.0033002414,0.34906584,2.0486013e-07,2.0696719e-07,4.294841e-07,2490378,-0.39386284,0.3972306,-0.10800382,0.4,0.00051943585,0.00051724236,0.00050462724,396321,0.0,0.0,0.0,0.5,0.0025000002,0.0025000002,0.0025000002,1,1,1,1,1,0
690144615,690043907,2490378,-0.018602088,0.0017967751,-0.0032910854,0.34906584,2.04962e-07,2.0706335e-07,4.2939294e-07,2490378,-0.39386678,0.3972317,-0.10934174,0.4,0.0005195029,0.0005173096,0.00050462666,396321,0.0,0.0,0.0,0.5,0.0025000002,0.0025000002,0.0025000002,1,1,1,1,1,0
691150421,691049261,2490378,-0.018614097,0.0017432692,-0.003279988,0.34906584,2.0499833e-07,2.070956e-07,4.2960954e-07,2490378,-0.39386535,0.39723682,-0.10910792,0.4,0.0005195935,0.00051740045,0.0005046275,396321,0.0,0.0,0.0,0.5,0.0025000002,0.0025000002,0.0025000002,1,1,1,1,1,0
692155099,692054614,2490378,-0.018615521,0.0017271354,-0.0032749178,0.34906584,2.071299e-07,2.0919867e-07,4.2909855e-07,2490378,-0.39386424,0.39723867,-0.108474955,0.4,0.000519685,0.00051749207,0.000504629,396321,0.0,0.0,0.0,0.5,0.0025000002,0.0025000002,0.0025000002,1,1,1,1,1,0
693160113,693059967,2490378,-0.018626502,0.0017178303,-0.0032683066,0.34906584,2.0804913e-07,2.1010662e-07,4.2932518e-07,2490378,-0.3938618,0.39724055,-0.10758622,0.4,0.0005197762,0.00051758357,0.00050463213,396321,0.0,0.0,0.0,0.5,0.0025000002,0.0025000002,0.0025000002,1,1,1,1,1,0
693817189,693716930,2490378,-0.018628476,0.0017181602,-0.003263202,0.34906584,2.0922788e-07,2.1127e-07,4.2910193e-07,2490378,-0.39385957,0.39724198,-0.10655588,0.4,0.0005198361,0.0005176435,0.00050463143,396321,0.0,0.0,0.0,0.5,0.0025000002,0.0025000002,0.0025000002,1,1,1,1,1,0
694345009,694244491,2490378,-0.018632252,0.0017116953,-0.0032566283,0.34906584,2.0676433e-07,2.0882496e-07,4.2906143e-07,2490378,-0.39385647,0.39724442,-0.10537726,0.4,0.0005198843,0.0005176919,0.00050463254,396321,0.0,0.0,0.0,0.5,0.0025000002,0.0025000002,0.0025000002,1,1,1,1,1,0
695350312,695249842,2490378,-0.01862891,0.0017004672,-0.0032463646,0.34906584,2.0833525e-07,2.1037955e-07,4.292956e-07,2490378,-0.39385614,0.39724752,-0.10497399,0.4,0.000519977,0.0005177848,0.0005046353,396321,0.0,0.0,0.0,0.5,0.0025000002,0.0025000002,0.0025000002,1,1,1,1,1,0
696355434,696255192,2490378,-0.018622402,0.001692383,-0.0032341422,0.34906584,2.0954631e-07,2.1157739e-07,4.2952658e-07,2490378,-0.3938549,0.39725015,-0.104318105,0.4,0.0005200682,0.0005178762,0.00050463655,396321,0.0,0.0,0.0,0.5,0.0025000002,0.0025000002,0.0025000002,1,1,1,1,1,0
697360737,697260542,2490378,-0.018605957,0.0017198597,-0.0032271468,0.34906584,2.0745667e-07,2.095047e-07,4.2972542e-07,2490378,-0.39385563,0.3972496,-0.10472827,0.4,0.0005201576,0.0005179658,0.0005046398,396321,0.0,0.0,0.0,0.5,0.0025000002,0.0025000002,0.0025000002,1,1,1,1,1,0
698366045,698265892,2490378,-0.018583262,0.0017141956,-0.0032194639,0.34906584,2.0591669e-07,2.0797255e-07,4.291809e-07,2490378,-0.39385372,0.39725098,-0.10409324,0.4,0.0005202469,0.0005180554,0.0005046367,396321,0.0,0.0,0.0,0.5,0.0025000002,0.0025000002,0.0025000002,1,1,1,1,1,0
699371429,699271240,2490378,-0.018583322,0.0017284564,-0.0032138345,0.34906584,2.067363e-07,2.0878821e-07,4.2940437e-07,2490378,-0.3938538,0.39725128,-0.10412363,0.4,0.0005203372,0.0005181458,0.00050463696,396321,0.0,0.0,0.0,0.5,0.0025000002,0.0025000002,0.0025000002,1,1,1,1,1,0
700376753,700276588,2490378,-0.018566445,0.0017383806,-0.003211259,0.34906584,2.0772828e-07,2.0977588e-07,4.2961753e-07,2490378,-0.39385363,0.3972517,-0.103870496,0.4,0.00052042713,0.00051823584,0.0005046379,396321,0.0,0.0,0.0,0.5,0.0025000002,0.0025000002,0.0025000002,1,1,1,1,1,0
701362584,701262027,2490378,-0.01856217,0.0017502557,-0.003209564,0.34906584,2.106253e-07,2.126497e-07,4.2965297e-07,2490378,-0.39385605,0.39725107,-0.104884274,0.4,0.000520516,0.0005183247,0.0005046367,396321,0.0,0.0,0.0,0.5,0.0025000002,0.0025000002,0.0025000002,1,1,1,1,1,0
702368717,702267374,2490378,-0.018554427,0.0017231283,-0.003201218,0.34906584,2.1061395e-07,2.1263862e-07,4.291087e-07,2490378,-0.39385626,0.39725196,-0.10489977,0.4,0.0005206061,0.00051841483,0.0005046367,396321,0.0,0.0,0.0,0.5,0.0025000002,0.0025000002,0.0025000002,1,1,1,1,1,0
703372935,703272720,2490378,-0.018536879,0.0017089185,-0.0031947878,0.34906584,2.1032488e-07,2.1236075e-07,4.2930947e-07,2490378,-0.3938566,0.3972519,-0.105078034,0.4,0.00052069593,0.00051850465,0.0005046365,396321,0.0,0.0,0.0,0.5,0.0025000002,0.0025000002,0.0025000002,1,1,1,1,1,0
704378261,704278066,2490378,-0.018533483,0.001730817,-0.0031868613,0.34906584,2.1086389e-07,2.1290285e-07,4.2951845e-07,2490378,-0.39385664,0.39725158,-0.10516182,0.4,0.00052078575,0.00051859446,0.00050463714,396321,0.0,0.0,0.0,0.5,0.0025000002,0.0025000002,0.0025000002,1,1,1,1,1,0
705373941,705273458,2490378,-0.018523725,0.001711641,-0.0031828813,0.34906584,2.0871266e-07,2.1078043e-07,4.2960218e-07,2490378,-0.39385647,0.39725032,-0.106830224,0.4,0.00052087393,0.00051868265,0.0005046353,396321,0.0,0.0,0.0,0.5,0.0025000002,0.0025000002,0.0025000002,1,1,1,1,1,0
706379025,706278801,2490378,-0.018516844,0.0016643311,-0.0031771397,0.34906584,2.1036351e-07,2.1241601e-07,4.290815e-07,2490378,-0.39385718,0.39725092,-0.10777428,0.4,0.0005209663,0.000518775,0.0005046384,396321,0.0,0.0,0.0,0.5,0.0025000002,0.0025000002,0.0025000002,1,1,1,1,1,0
707384319,707284145,2490378,-0.018496627,0.0016381395,-0.003167003,0.34906584,2.0815554e-07,2.1023992e-07,4.292654e-07,2490378,-0.39385763,0.3972522,-0.10716797,0.4,0.00052105746,0.0005188661,0.0005046394,396321,0.0,0.0,0.0,0.5,0.0025000002,0.0025000002,0.0025000002,1,1,1,1,1,0
708389647,708289488,2490378,-0.018486913,0.0016286187,-0.003155244,0.34906584,2.071424e-07,2.0924708e-07,4.2946274e-07,2490378,-0.39385912,0.39725253,-0.10779426,0.4,0.0005211497,0.00051895843,0.0005046434,396321,0.0,0.0,0.0,0.5,0.0025000002,0.0025000002,0.0025000002,1,1,1,1,1,0
709394989,709294830,2490378,-0.018483967,0.0016227821,-0.0031457765,0.34906584,2.0869713e-07,2.1079704e-07,4.2968756e-07,2490378,-0.39386055,0.39725387,-0.1077359,0.4,0.0005212427,0.00051905133,0.00050464534,396321,0.0,0.0,0.0,0.5,0.0025000002,0.0025000002,0.0025000002,1,1,1,1,1,0
710400391,710300172,2490378,-0.018493116,0.0015883844,-0.0031330388,0.34906584,2.1081985e-07,2.1290272e-07,4.291714e-07,2490378,-0.39385965,0.39725518,-0.10722613,0.4,0.0005213341,0.0005191428,0.000504645,396321,0.0,0.0,0.0,0.5,0.0025000002,0.0025000002,0.0025000002,1,1,1,1,1,0
711406035,711305513,2490378,-0.018488545,0.0015948071,-0.0031268245,0.34906584,2.1342264e-07,2.1548983e-07,4.2940565e-07,2490378,-0.39385822,0.39725828,-0.10624839,0.4,0.00052142463,0.0005192332,0.00050464895,396321,0.0,0.0,0.0,0.5,0.0025000002,0.0025000002,0.0025000002,1,1,1,1,1,0
712162575,712062007,2490378,-0.018485546,0.0016322151,-0.0031228731,0.34906584,2.1394816e-07,2.1601643e-07,4.2940496e-07,2490378,-0.3938572,0.39726177,-0.10517945,0.4,0.0005214924,0.0005193008,0.00050464534,396321,0.0,0.0,0.0,0.5,0.0025000002,0.0025000002,0.0025000002,1,1,1,1,1,0
713167986,713067347,2490378,-0.018479183,0.0016398665,-0.003121584,0.34906584,2.1443536e-07,2.1650953e-07,4.2961832e-07,2490378,-0.39385659,0.39726406,-0.10449977,0.4,0.0005215825,0.00051939074,0.00050464546,396321,0.0,0.0,0.0,0.5,0.0025000002,0.0025000002,0.0025000002,1,1,1,1,1,0
714172993,714072687,2490378,-0.018489612,0.0016145034,-0.003114772,0.34906584,2.153218e-07,2.1738997e-07,4.2909082e-07,2490378,-0.39385614,0.39726412,-0.104484364,0.4,0.0005216722,0.0005194803,0.00050464505,396321,0.0,0.0,0.0,0.5,0.0025000002,0.0025000002,0.0025000002,1,1,1,1,1,0
715178454,715078026,2490378,-0.018503087,0.0015630842,-0.003103121,0.34906584,2.1584263e-07,2.1791439e-07,4.2930753e-07,2490378,-0.39385593,0.39726377,-0.104626775,0.4,0.0005217622,0.0005195702,0.00050464587,396321,0.0,0.0,0.0,0.5,0.0025000002,0.0025000002,0.0025000002,1,1,1,1,1,0
716183698,716083364,2490378,-0.018510712,0.0015419204,-0.003096344,0.34906584,2.134388e-07,2.1554128e-07,4.29498e-07,2490378,-0.39385638,0.39726293,-0.10502347,0.4,0.0005218528,0.00051966077,0.00050464645,396321,0.0,0.0,0.0,0.5,0.0025000002,0.0025000002,0.0025000002,1,1,1,1,1,0
717189026,717088702,2490378,-0.01852392,0.0015477105,-0.0030881253,0.34906584,2.124298e-07,2.1454119e-07,4.289574e-07,2490378,-0.39385688,0.39726225,-0.10515387,0.4,0.00052194257,0.00051975047,0.00050464616,396321,0.0,0.0,0.0,0.5,0.0025000002,0.0025000002,0.0025000002,1,1,1,1,1,0
718194401,718094039,2490378,-0.018516669,0.0015363543,-0.003079888,0.34906584,2.1065539e-07,2.1278828e-07,4.291579e-07,2490378,-0.39385682,0.39726073,-0.10601321,0.4,0.00052203325,0.00051984104,0.0005046477,396321,0.0,0.0,0.0,0.5,0.0025000002,0.0025000002,0.0025000002,1,1,1,1,1,0
719199826,719099376,2490378,-0.018513255,0.0015327139,-0.0030747063,0.34906584,2.1185949e-07,2.1398358e-07,4.2939052e-07,2490378,-0.3938572,0.3972602,-0.10596001,0.4,0.0005221227,0.0005199305,0.0005046453,396321,0.0,0.0,0.0,0.5,0.0025000002,0.0025000002,0.0025000002,1,1,1,1,1,0
720205057,720104712,2490378,-0.018495224,0.0015362696,-0.0030658147,0.34906584,2.143282e-07,2.1643025e-07,4.2963623e-07,2490378,-0.39385733,0.39725986,-0.10616228,0.4,0.00052221294,0.0005200208,0.000504649,396321,0.0,0.0,0.0,0.5,0.0025000002,0.0025000002,0.0025000002,1,1,1,1,1,0
721210262,721110047,2490378,-0.018499954,0.0015123202,-0.0030570645,0.34906584,2.1537979e-07,2.1746547e-07,4.2912455e-07,2490378,-0.39385852,0.39726102,-0.105545565,0.4,0.000522304,0.00052011176,0.00050464727,396321,0.0,0.0,0.0,0.5,0.0025000002,0.0025000002,0.0025000002,1,1,1,1,1,0
722215656,722115382,2490378,-0.018496403,0.0014830874,-0.0030448507,0.34906584,2.1612404e-07,2.1820335e-07,4.293561e-07,2490378,-0.39385885,0.39726174,-0.10562816,0.4,0.00052239513,0.000520203,0.00050464744,396321,0.0,0.0,0.0,0.5,0.0025000002,0.0025000002,0.0025000002,1,1,1,1,1,0
723220978,723120717,2490378,-0.018490901,0.0015338087,-0.0030416024,0.34906584,2.1901228e-07,2.2106438e-07,4.296082e-07,2490378,-0.39385962,0.39726067,-0.105411015,0.4,0.00052248593,0.0005202938,0.0005046509,396321,0.0,0.0,0.0,0.5,0.0025000002,0.0025000002,0.0025000002,1,1,1,1,1,0
724226413,724126051,2490378,-0.01848391,0.0015162756,-0.003030519,0.34906584,2.1868395e-07,2.2073083e-07,4.2908593e-07,2490378,-0.39386073,0.39726165,-0.10515868,0.4,0.0005225777,0.00052038557,0.0005046499,396321,0.0,0.0,0.0,0.5,0.0025000002,0.0025000002,0.0025000002,1,1,1,1,1,0
724992712,724892493,2490378,0.0,0.0,0.0,0.34906584,0.009999999,0.009999999,0.009999999,2490378,-0.39386353,0.39726105,-0.10433111,0.4,0.00052264845,0.00052045635,0.0005046537,396321,0.0,0.0,0.0,0.5,0.0025000002,0.0025000002,0.0025000002,1,0,1,1,1,0
725371314,725270737,2490378,0.0011599448,0.0017296233,0.00010314914,0.34906584,0.009919223,0.009916854,0.009687744,2490378,-0.39386475,0.39726064,-0.103906155,0.4,0.0005226834,0.0005204913,0.0005046529,396321,0.0,0.0,0.0,0.5,0.0025000002,0.0025000002,0.0025000002,1,0,1,1,1,0
725560345,725459859,2490378,-0.0022182968,-0.003546599,0.0011221584,0.34906584,0.0092656305,0.009265318,0.009231826,2490378,-0.393865,0.3972613,-0.103752404,0.4,0.00052270055,0.00052050845,0.00050465314,396321,0.0,0.0,0.0,0.5,0.0025000002,0.0025000002,0.0025000002,1,0,1,1,1,0
725759391,725658935,2490378,0.0029081027,-0.009118898,0.0024796042,0.34906584,0.007895039,0.007897188,0.008124774,2490378,-0.39386523,0.39726147,-0.10389129,0.4,0.00052271836,0.00052052626,0.00050465314,396321,0.0,0.0,0.0,0.5,0.0025000002,0.0025000002,0.0025000002,1,0,1,1,1,0
725958629,725858011,2490378,0.0016309163,-0.018239494,0.0020546739,0.34906584,0.0065437593,0.0065459833,0.0067138257,2490378,-0.39386517,0.39726177,-0.103963405,0.4,0.00052273617,0.00052054407,0.00050465314,396321,0.0,0.0,0.0,0.5,0.0025000002,0.0025000002,0.0025000002,1,0,1,1,1,0
726167563,726067044,2490378,0.0025875308,-0.024736399,0.0028524701,0.34906584,0.0048102457,0.0048208437,0.005739691,2490378,-0.3938634,0.3972606,-0.10423393,0.4,0.0005227515,0.0005205594,0.0005046498,396321,0.0,0.0,0.0,0.5,0.0025000002,0.0025000002,0.0025000002,1,0,1,1,1,0
726366594,726266116,2490378,0.004994455,-0.013089839,0.0018539783,0.34906584,0.002439279,0.002461194,0.004421682,2490378,-0.39386427,0.39726222,-0.1047273,0.4,0.0005227735,0.0005205814,0.00050465384,396321,0.0,0.0,0.0,0.5,0.0025000002,0.0025000002,0.0025000002,1,0,1,1,1,0
726565763,726465192,2490378,0.0062169502,0.0005044969,0.001038645,0.34906584,0.0017476229,0.0017659549,0.0033677272,2490378,-0.3938646,0.3972623,-0.10455778,0.4,0.0005227913,0.00052059925,0.00050465384,396321,0.0,0.0,0.0,0.5,0.0025000002,0.0025000002,0.0025000002,1,0,1,1,1,0
726764754,726664268,2490378,0.003574503,0.0009862703,3.2205313e-05,0.34906584,0.0010275374,0.0010474082,0.0028059697,2490378,-0.3938642,0.39726225,-0.104836196,0.4,0.00052280916,0.00052061706,0.00050465384,396321,0.0,0.0,0.0,0.5,0.0025000002,0.0025000002,0.0025000002,1,0,1,1,1,0
727172861,727072373,2490378,0.002875626,0.0034936245,-8.9881505e-05,0.34906584,0.0005116564,0.0005244861,0.0016665913,2490378,-0.39386454,0.39726275,-0.104920335,0.4,0.0005228462,0.00052065414,0.00050465437,396321,0.0,0.0,0.0,0.5,0.0025000002,0.0025000002,0.0025000002,1,0,1,1,1,0
727321923,727221680,2490378,0.0028813733,0.003660983,0.0015318632,0.34906584,0.0005116544,0.00052183034,0.0014172794,2490378,-0.39386442,0.39726287,-0.10492389,0.4,0.0005228593,0.0005206672,0.0005046567,396321,0.0,0.0,0.0,0.5,0.0025000002,0.0025000002,0.0025000002,1,0,1,1,1,0
