timestamp,timestamp_sample,position_drift_rate_horizontal_m_s,position_drift_rate_vertical_m_s,filtered_horizontal_speed_m_s,checks_passed,check_fail_gps_fix,check_fail_min_sat_count,check_fail_max_pdop,check_fail_max_horz_err,check_fail_max_vert_err,check_fail_max_spd_err,check_fail_max_horz_drift,check_fail_max_vert_drift,check_fail_max_horz_spd_err,check_fail_max_vert_spd_err
540108489,539978619,0.05553048,0.17749296,0.012235897,1,0,0,0,0,0,0,0,0,0,0
541098346,540973618,0.06378787,0.17577313,0.0075520277,1,0,0,0,0,0,0,0,0,0,0
542108224,541974621,0.057103336,0.16354533,0.0022252314,1,0,0,0,0,0,0,0,0,0,0
543118081,542985612,0.056370877,0.14614537,0.0064741825,1,0,0,0,0,0,0,0,0,0,0
544108025,543982630,0.042435426,0.10481459,0.0016280686,1,0,0,0,0,0,0,0,0,0,0
545107994,544981614,0.03650835,0.07886705,0.009528589,1,0,0,0,0,0,0,0,0,0,0
546107751,545979612,0.036581397,0.05252161,0.009603955,1,0,0,0,0,0,0,0,0,0,0
547107648,546981615,0.036129665,0.016867789,0.017637597,1,0,0,0,0,0,0,0,0,0,0
548107520,547980613,0.0372159,0.008813653,0.022305649,1,0,0,0,0,0,0,0,0,0,0
549107457,548981616,0.040891003,0.024163641,0.028780982,1,0,0,0,0,0,0,0,0,0,0
550097308,549972613,0.046299867,0.041901324,0.03081104,1,0,0,0,0,0,0,0,0,0,0
551107177,550980723,0.043303926,0.046823043,0.029066728,1,0,0,0,0,0,0,0,0,0,0
552107174,551978615,0.051321615,0.076886885,0.031090725,1,0,0,0,0,0,0,0,0,0,0
553106954,552980612,0.04443644,0.10080124,0.03100225,1,0,0,0,0,0,0,0,0,0,0
554097017,553970616,0.038883824,0.106406435,0.02681077,1,0,0,0,0,0,0,0,0,0,0
555106733,554979650,0.01138837,0.10602975,0.030188456,1,0,0,0,0,0,0,0,0,0,0
556126619,555993611,0.01898116,0.107631125,0.028586311,1,0,0,0,0,0,0,0,0,0,0
557116517,556982614,0.03307157,0.09620966,0.03088609,1,0,0,0,0,0,0,0,0,0,0
558116409,557982614,0.03741391,0.08927789,0.02958876,1,0,0,0,0,0,0,0,0,0,0
559106365,558981610,0.02471279,0.07901093,0.02370564,1,0,0,0,0,0,0,0,0,0,0
560106243,559980615,0.017031677,0.079927504,0.025918197,1,0,0,0,0,0,0,0,0,0,0
561106046,560976615,0.01356348,0.059000954,0.025883589,1,0,0,0,0,0,0,0,0,0,0
562105969,561977618,0.015510537,0.056247197,0.02458882,1,0,0,0,0,0,0,0,0,0,0
563106019,562979615,nan,nan,nan,1,0,0,0,0,0,0,0,0,0,0
564115715,563985614,nan,nan,nan,1,0,0,0,0,0,0,0,0,0,0
565115598,564982615,0.016758384,0.008983375,0.0074897134,1,0,0,0,0,0,0,0,0,0,0
566125567,565992615,0.026237274,0.012152115,0.009585592,1,0,0,0,0,0,0,0,0,0,0
567105386,566980612,0.031393763,0.003720699,0.007932751,1,0,0,0,0,0,0,0,0,0,0
568105387,567974617,0.053959206,0.010009848,0.026257649,1,0,0,0,0,0,0,0,0,0,0
569105154,568975613,0.057232413,0.028003866,0.00893691,1,0,0,0,0,0,0,0,0,0,0
570115095,569983617,0.055828832,0.023583092,0.011230371,1,0,0,0,0,0,0,0,0,0,0
571114945,570982614,0.04539291,0.03897195,0.022341067,1,0,0,0,0,0,0,0,0,0,0
572114916,571981614,0.03506229,0.041406445,0.030052604,1,0,0,0,0,0,0,0,0,0,0
573114732,572982627,0.04540297,0.04237558,0.026762532,1,0,0,0,0,0,0,0,0,0,0
574124641,573991229,nan,nan,nan,1,0,0,0,0,0,0,0,0,0,0
575104509,574979614,nan,nan,nan,1,0,0,0,0,0,0,0,0,0,0
576104403,575975621,0.009319736,0.004309228,0.0046921163,1,0,0,0,0,0,0,0,0,0,0
577114351,576983613,0.015150104,0.012158041,0.005782104,1,0,0,0,0,0,0,0,0,0,0
578114157,577981619,0.020321677,0.0065994686,0.0047644423,1,0,0,0,0,0,0,0,0,0,0
579104078,578979616,0.021029057,0.0028028244,0.004676543,1,0,0,0,0,0,0,0,0,0,0
580103958,579974618,0.029566322,0.017004859,0.011287276,1,0,0,0,0,0,0,0,0,0,0
581113974,580979778,nan,nan,nan,1,0,0,0,0,0,0,0,0,0,0
582113724,581981619,nan,nan,nan,1,0,0,0,0,0,0,0,0,0,0
583113713,582982617,0.02733032,0.017180886,0.019919146,1,0,0,0,0,0,0,0,0,0,0
584113495,583981614,0.040151846,0.02906531,0.027842432,1,0,0,0,0,0,0,0,0,0,0
585113409,584982615,0.051238306,0.035891127,0.04043202,1,0,0,0,0,0,0,0,0,0,0
586103413,585976617,0.05015914,0.03179768,0.050980538,1,0,0,0,0,0,0,0,0,0,0
587103190,586972614,0.03328426,0.014453041,0.041335408,1,0,0,0,0,0,0,0,0,0,0
588093068,587968654,0.026327828,0.0125131905,0.039427727,1,0,0,0,0,0,0,0,0,0,0
589102955,588969615,0.036209445,0.003338371,0.03053855,1,0,0,0,0,0,0,0,0,0,0
590102957,589972614,0.044662002,0.024993006,0.024836512,1,0,0,0,0,0,0,0,0,0,0
591112740,590980623,0.052717242,0.04550253,0.011262147,1,0,0,0,0,0,0,0,0,0,0
592112590,591979611,nan,nan,nan,1,0,0,0,0,0,0,0,0,0,0
593107467,592972618,nan,nan,nan,1,0,0,0,0,0,0,0,0,0,0
594102374,593972614,nan,nan,nan,1,0,0,0,0,0,0,0,0,0,0
595102393,594971616,0.0087871915,0.003157115,0.003851717,1,0,0,0,0,0,0,0,0,0,0
596112179,595978613,0.013715687,0.005870888,0.018764375,1,0,0,0,0,0,0,0,0,0,0
597112115,596987617,0.012118763,0.0069999066,0.022325318,1,0,0,0,0,0,0,0,0,0,0
598111900,597981852,0.0057825125,0.010675876,0.022305038,1,0,0,0,0,0,0,0,0,0,0
599111863,598980615,0.011202634,0.028512958,0.023057297,1,0,0,0,0,0,0,0,0,0,0
600111670,599977615,0.035684586,0.04244488,0.018359864,1,0,0,0,0,0,0,0,0,0,0
601111548,600978616,nan,nan,nan,1,0,0,0,0,0,0,0,0,0,0
602101463,601969613,nan,nan,nan,1,0,0,0,0,0,0,0,0,0,0
603101347,602970616,0.0055303783,0.0087000085,0.0030686434,1,0,0,0,0,0,0,0,0,0,0
604101288,603970614,nan,nan,nan,1,0,0,0,0,0,0,0,0,0,0
605101090,604972616,nan,nan,nan,1,0,0,0,0,0,0,0,0,0,0
606101024,605968613,nan,nan,nan,1,0,0,0,0,0,0,0,0,0,0
607110848,606978612,nan,nan,nan,1,0,0,0,0,0,0,0,0,0,0
608100844,607971614,0.019420942,0.031330306,0.0024721911,1,0,0,0,0,0,0,0,0,0,0
609110743,608977617,0.031217067,0.044178367,0.008414299,1,0,0,0,0,0,0,0,0,0,0
610100498,609973614,0.04629843,0.06278739,0.0014380284,1,0,0,0,0,0,0,0,0,0,0
611100363,610970618,nan,nan,nan,1,0,0,0,0,0,0,0,0,0,0
612100309,611969615,nan,nan,nan,1,0,0,0,0,0,0,0,0,0,0
613110243,612983333,nan,nan,nan,1,0,0,0,0,0,0,0,0,0,0
614100002,613968882,nan,nan,nan,1,0,0,0,0,0,0,0,0,0,0
615099921,614969700,nan,nan,nan,1,0,0,0,0,0,0,0,0,0,0
616099761,615967613,nan,nan,nan,1,0,0,0,0,0,0,0,0,0,0
617099709,616971620,nan,nan,nan,1,0,0,0,0,0,0,0,0,0,0
618099534,617974625,nan,nan,nan,1,0,0,0,0,0,0,0,0,0,0
619099387,618968612,nan,nan,nan,1,0,0,0,0,0,0,0,0,0,0
620099327,619974617,nan,nan,nan,1,0,0,0,0,0,0,0,0,0,0
621099166,620974613,nan,nan,nan,1,0,0,0,0,0,0,0,0,0,0
622099105,621973615,nan,nan,nan,1,0,0,0,0,0,0,0,0,0,0
623108892,622977618,nan,nan,nan,1,0,0,0,0,0,0,0,0,0,0
624108768,623975612,nan,nan,nan,1,0,0,0,0,0,0,0,0,0,0
625098700,624970616,nan,nan,nan,1,0,0,0,0,0,0,0,0,0,0
626108534,625974617,0.004682258,0.0013600009,0.0029476057,1,0,0,0,0,0,0,0,0,0,0
627098400,626970628,0.009950705,0.004358921,0.008310252,1,0,0,0,0,0,0,0,0,0,0
628098358,627970618,0.014876389,0.0031322278,0.0119755585,1,0,0,0,0,0,0,0,0,0,0
629098137,628970139,0.02726882,0.006145697,0.018337129,1,0,0,0,0,0,0,0,0,0,0
630098027,629967616,0.017885536,0.030518666,0.011717371,1,0,0,0,0,0,0,0,0,0,0
631088039,630963053,0.033964437,0.05559765,0.009823757,1,0,0,0,0,0,0,0,0,0,0
632087787,631961622,0.056554783,0.07123939,0.020914722,1,0,0,0,0,0,0,0,0,0,0
633097703,632970613,0.055696253,0.062178914,0.021526696,1,0,0,0,0,0,0,0,0,0,0
634097529,633967615,0.06546221,0.06628156,0.017012663,1,0,0,0,0,0,0,0,0,0,0
635097361,634969617,0.074688725,0.079963714,0.015527368,1,0,0,0,0,0,0,0,0,0,0
636097264,635964612,0.086608626,0.10785671,0.024126787,1,0,0,0,0,0,0,0,0,0,0
637107089,636977631,0.081700325,0.12049563,0.011456107,1,0,0,0,0,0,0,0,0,0,0
638107022,637976616,0.070196986,0.11061701,0.0115843825,1,0,0,0,0,0,0,0,0,0,0
639106831,638976644,0.06903021,0.11159471,0.015814679,1,0,0,0,0,0,0,0,0,0,0
640096885,639969812,nan,nan,nan,1,0,0,0,0,0,0,0,0,0,0
641096667,640965133,0.012441536,0.015940124,0.0113434,1,0,0,0,0,0,0,0,0,0,0
642106429,641974618,0.014939041,0.036512766,0.011473799,1,0,0,0,0,0,0,0,0,0,0
643106388,642977620,0.023451284,0.009505113,0.01721033,1,0,0,0,0,0,0,0,0,0,0
644106168,643977613,0.0114113055,0.026255684,0.014411677,1,0,0,0,0,0,0,0,0,0,0
645096110,644967615,0.03570234,0.019430732,0.011091169,1,0,0,0,0,0,0,0,0,0,0
646105956,645978617,0.05793043,0.0029007972,0.012919273,1,0,0,0,0,0,0,0,0,0,0
647115754,646981617,0.071879104,0.018973062,0.008999865,1,0,0,0,0,0,0,0,0,0,0
648105614,647973612,0.07218246,0.026384754,0.011636112,1,0,0,0,0,0,0,0,0,0,0
649105552,648974615,0.07432013,0.051859003,0.011429537,1,0,0,0,0,0,0,0,0,0,0
650095354,649969615,0.093609594,0.09155673,0.0063255844,1,0,0,0,0,0,0,0,0,0,0
651105312,650979312,0.10074355,0.105945446,0.000676044,1,0,0,0,0,0,0,0,0,0,0
652115123,651981616,0.10091205,0.11638138,0.0012296289,1,0,0,0,0,0,0,0,0,0,0
653104954,652973615,0.09117353,0.12430028,0.006054331,1,0,0,0,0,0,0,0,0,0,0
654104861,653973611,0.08579324,0.12655506,0.003715791,1,0,0,0,0,0,0,0,0,0,0
655114657,654984613,0.07113701,0.095725924,0.009382499,1,0,0,0,0,0,0,0,0,0,0
656114517,655983616,0.06482549,0.08192613,0.00671364,1,0,0,0,0,0,0,0,0,0,0
657114364,656983615,0.0667138,0.0870872,0.0074326536,1,0,0,0,0,0,0,0,0,0,0
658104260,657972615,0.06847727,0.08811666,0.008894785,1,0,0,0,0,0,0,0,0,0,0
659104181,658978617,0.0703437,0.074680716,0.015839254,1,0,0,0,0,0,0,0,0,0,0
660103947,659974618,0.07633191,0.07693727,0.018619841,1,0,0,0,0,0,0,0,0,0,0
661113857,660979618,0.078307725,0.06825819,0.026691535,1,0,0,0,0,0,0,0,0,0,0
662113705,661979612,0.08181981,0.07036584,0.044988204,1,0,0,0,0,0,0,0,0,0,0
663113646,662981612,0.08832109,0.055252712,0.058259998,0,0,0,0,0,0,0,0,0,0,0
664103454,663978618,0.09393641,0.054522865,0.054315656,0,0,0,0,0,0,1,0,0,0,0
665103236,664976610,0.10372116,0.05494278,0.07121058,0,0,0,0,0,0,0,0,0,0,0
666103088,665975612,0.07872148,0.03792393,0.0416884,0,0,0,0,0,0,0,0,0,0,0
667112930,666981617,0.07252631,0.023804436,0.050572626,0,0,0,0,0,0,0,0,0,0,0
668102883,667977909,0.06330515,0.031793762,0.03978454,0,0,0,0,0,0,0,0,0,0,0
669112692,668978620,0.053223994,0.027109856,0.030843658,0,0,0,0,0,0,0,0,0,0,0
670112497,669978682,0.048888385,0.014815079,0.024645992,0,0,0,0,0,0,0,0,0,0,0
671112406,670979611,0.048392426,0.002807243,0.025135772,0,0,0,0,0,0,0,0,0,0,0
672112228,671982709,0.03547729,0.026411962,0.025962286,0,0,0,0,0,0,0,0,0,0,0
673112045,672981613,0.022794494,0.04761247,0.025531374,0,0,0,0,0,0,0,0,0,0,0
674161918,674031614,0.01956354,0.051844746,0.018142853,0,0,0,0,0,0,0,0,0,0,0
675161836,675030613,0.03088505,0.042950008,0.018517587,1,0,0,0,0,0,0,0,0,0,0
676151646,676020633,0.06677,0.026036505,0.009758458,1,0,0,0,0,0,0,0,0,0,0
677161464,677029286,0.091931425,0.007317346,0.017863711,1,0,0,0,0,0,0,0,0,0,0
678161317,678034709,0.119172804,0.00858973,0.003021692,1,0,0,0,0,0,0,0,0,0,0
679151150,679022626,0.11450909,0.011361264,0.010717056,1,0,0,0,0,0,0,0,0,0,0
680141118,680012612,0.1287119,0.0010761112,0.006191949,1,0,0,0,0,0,0,0,0,0,0
681160838,681026611,0.13449086,0.007580688,0.010900912,1,0,0,0,0,0,0,0,0,0,0
682160874,682026613,0.13390076,0.016248832,0.0055320594,1,0,0,0,0,0,0,0,0,0,0
683150582,683017617,0.11992907,0.030555038,0.0073464527,1,0,0,0,0,0,0,0,0,0,0
684140437,684012630,0.12042586,0.017630287,0.009960623,1,0,0,0,0,0,0,0,0,0,0
685150235,685025615,0.121956654,0.017197112,0.0075174086,1,0,0,0,0,0,0,0,0,0,0
686150094,686020615,0.11896631,0.023776283,0.0074788784,1,0,0,0,0,0,0,0,0,0,0
687150008,687017751,0.109198704,0.038214657,0.010710638,1,0,0,0,0,0,0,0,0,0,0
688149810,688024839,0.09175179,0.05198747,0.00825556,1,0,0,0,0,0,0,0,0,0,0
689149658,689022613,0.07965484,0.05170242,0.007709189,1,0,0,0,0,0,0,0,0,0,0
690149440,690017611,0.080183364,0.042261995,0.009616795,1,0,0,0,0,0,0,0,0,0,0
691149407,691024971,0.12815677,0.01573291,0.014080996,1,0,0,0,0,0,0,0,0,0,0
692149204,692022618,0.13442491,0.019402744,0.01503982,1,0,0,0,0,0,0,0,0,0,0
693138993,693014616,0.1406372,0.0315172,0.014403742,1,0,0,0,0,0,0,0,0,0,0
694148826,694014615,0.16214895,0.039202332,0.0138357375,1,0,0,0,0,0,0,0,0,0,0
695148647,695014614,0.17807344,0.032500602,0.014001775,1,0,0,0,0,0,0,0,0,0,0
696148565,696019618,0.18161191,0.03712713,0.010425571,1,0,0,0,0,0,0,0,0,0,0
697148333,697019618,0.19335738,0.030411333,0.0093175005,1,0,0,0,0,0,0,0,0,0,0
698158228,698027617,0.19101077,0.055555727,0.012704638,1,0,0,0,0,0,0,0,0,0,0
699158005,699031616,0.1870796,0.07334363,0.011241562,1,0,0,0,0,0,0,0,0,0,0
700167852,700034615,0.16988844,0.09927656,0.008642875,1,0,0,0,0,0,0,0,0,0,0
701167778,701038614,0.14525677,0.11017076,0.014462025,1,0,0,0,0,0,0,0,0,0,0
702167518,702040614,0.13756399,0.10864087,0.00803452,1,0,0,0,0,0,0,0,0,0,0
703167345,703034619,0.12728216,0.10421678,0.0070429733,1,0,0,0,0,0,0,0,0,0,0
704167176,704037616,0.10479569,0.09144791,0.010824535,1,0,0,0,0,0,0,0,0,0,0
705167042,705038613,0.100293264,0.086380236,0.010644524,1,0,0,0,0,0,0,0,0,0,0
706156861,706029964,0.11594138,0.066634215,0.013501112,1,0,0,0,0,0,0,0,0,0,0
707176687,707045616,0.12322353,0.069490254,0.01192568,1,0,0,0,0,0,0,0,0,0,0
708156620,708027614,0.12345081,0.051182423,0.006873594,1,0,0,0,0,0,0,0,0,0,0
709166386,709033615,0.13348472,0.04492024,0.0044386624,1,0,0,0,0,0,0,0,0,0,0
710156385,710025613,0.13137445,0.04217515,0.0073818266,1,0,0,0,0,0,0,0,0,0,0
711166024,711037623,0.113390125,0.038081825,0.0007225002,1,0,0,0,0,0,0,0,0,0,0
712155917,712030959,0.08263791,0.05313318,0.02660723,1,0,0,0,0,0,0,0,0,0,0
713165702,713034683,0.054715008,0.04798969,0.04114735,0,0,0,0,0,0,0,0,0,0,0
714155525,714028251,0.052643713,0.028390463,0.036395553,0,0,0,0,0,0,1,0,0,0,0
715167918,715035627,0.07152054,0.029771388,0.019082855,0,0,0,0,0,0,0,0,0,0,0
716165187,716031616,0.07486874,0.01719036,0.014299868,0,0,0,0,0,0,0,0,0,0,0
717175010,717046619,0.06455002,0.0015881731,0.0207452,0,0,0,0,0,0,0,0,0,0,0
718164855,718038617,0.07128098,0.0061096647,0.01744348,0,0,0,0,0,0,0,0,0,0,0
719154670,719023615,0.06546719,0.0074532535,0.017752273,0,0,0,0,0,0,0,0,0,0,0
720164562,720037615,0.056057386,0.024480514,0.024171058,0,0,0,0,0,0,1,0,0,0,0
721164340,721030612,0.059495647,0.022059476,0.016564034,0,0,0,0,0,0,0,0,0,0,0
722164264,722037617,0.0772313,0.024672618,0.0066351127,0,0,0,0,0,0,0,0,0,0,0
723163998,723038616,0.037909765,0.017543742,0.03277326,0,0,0,0,0,0,1,0,0,0,0
724173918,724043639,0.04655952,0.028305888,0.023962477,0,0,0,0,0,0,0,0,0,0,0
725163644,725036894,0.028333997,0.034422837,0.049397178,0,0,0,0,0,0,0,0,0,0,0
726163499,726038616,0.046636272,0.04943646,0.038086098,0,0,0,0,0,0,0,0,0,0,0
727173323,727046610,0.054824658,0.05917787,0.048527267,0,0,0,0,0,0,0,0,0,0,0
728163218,728038616,0.05503072,0.0570509,0.048614167,0,0,0,0,0,0,0,0,0,0,0
729173018,729045617,0.060970068,0.05123155,0.045310985,0,0,0,0,0,0,0,0,0,0,0
730172760,730038618,0.088192925,0.046366554,0.041676074,0,0,0,0,0,0,0,0,0,0,0
731172629,731039616,0.12894672,0.055834036,0.035910603,0,0,0,0,0,0,0,0,0,0,0
732162426,732029615,0.14314826,0.051901944,0.037302144,0,0,0,0,0,0,0,0,0,0,0
733122317,732997618,0.14933966,0.041768778,0.023002611,0,0,0,0,0,0,0,0,0,0,0
734132071,734001621,0.16168684,0.055379935,0.009634661,1,0,0,0,0,0,0,0,0,0,0
735121917,734992614,0.16620725,0.07921115,0.010416708,1,0,0,0,0,0,0,0,0,0,0
736121762,735990789,0.13899182,0.06526834,0.008512546,0,0,0,0,0,0,1,0,0,0,0
737121596,736994616,0.120082654,0.05117815,0.011541524,0,0,0,0,0,0,0,0,0,0,0
738121442,737996909,0.1255287,0.042686038,0.025673851,0,0,0,0,0,0,0,0,0,0,0
739131313,738997617,0.11777653,0.054869667,0.022053994,0,0,0,0,0,0,0,0,0,0,0
740131003,739997615,0.1348071,0.05629899,0.04708743,0,0,0,0,0,0,0,0,0,0,0
741120856,740989618,0.13858858,0.065004975,0.047756974,0,0,0,0,0,0,0,0,0,0,0
742130710,741997616,0.13777338,0.06617154,0.044227216,0,0,0,0,0,0,0,0,0,0,0
743130570,742998613,0.114265084,0.05040498,0.041039336,0,0,0,0,0,0,0,0,0,0,0
744130283,744000618,0.07245373,0.018479971,0.032490857,0,0,0,0,0,0,0,0,0,0,0
745110122,744985614,0.060553852,0.006550121,0.032857083,0,0,0,0,0,0,0,0,0,0,0
746119939,745993612,0.062337816,0.0040903483,0.02798665,0,0,0,0,0,0,0,0,0,0,0
747119799,746989720,0.059071757,0.0013842048,0.027497686,1,0,0,0,0,0,0,0,0,0,0
748129594,748000612,0.03825079,0.0005573382,0.019563604,1,0,0,0,0,0,0,0,0,0,0
749119391,748988617,0.038316328,0.033525743,0.014401075,1,0,0,0,0,0,0,0,0,0,0
750119212,749989614,0.058486376,0.055103716,0.019720834,1,0,0,0,0,0,0,0,0,0,0
751129026,750997637,0.07737113,0.06335066,0.018812438,1,0,0,0,0,0,0,0,0,0,0
752128936,751999614,0.06207616,0.057638876,0.020250138,1,0,0,0,0,0,0,0,0,0,0
753128676,752999618,0.05132614,0.07831873,0.022225382,1,0,0,0,0,0,0,0,0,0,0
754128519,754001615,0.064704426,0.11573348,0.020024983,1,0,0,0,0,0,0,0,0,0,0
755128301,754997719,0.09148981,0.14900717,0.026446858,1,0,0,0,0,0,0,0,0,0,0
756128191,755999616,0.09873033,0.1290559,0.023190428,1,0,0,0,0,0,0,0,0,0,0
757128046,756996613,0.10834869,0.11552225,0.01945877,1,0,0,0,0,0,0,0,0,0,0
758127806,757997616,0.11215955,0.09602096,0.021264972,1,0,0,0,0,0,0,0,0,0,0
759127564,758997622,nan,nan,nan,1,0,0,0,0,0,0,0,0,0,0
760117441,759988615,0.007864813,0.018382048,0.005532266,1,0,0,0,0,0,0,0,0,0,0
761127200,760995622,0.028899752,0.01063691,0.011298164,1,0,0,0,0,0,0,0,0,0,0
762117093,761987621,0.049402744,0.01171819,0.01876744,0,0,0,0,0,0,1,0,0,0,0
763126825,762994618,0.067173526,0.03442867,0.02962209,0,0,0,0,0,0,0,0,0,0,0
764126677,763996615,0.07298127,0.03470155,0.03327158,0,0,0,0,0,0,0,0,0,0,0
765126507,764989624,0.07575638,0.05449541,0.035891704,0,0,0,0,0,0,0,0,0,0,0
766126310,765996630,0.08589024,0.07886029,0.039394148,0,0,0,0,0,0,0,0,0,0,0
767126163,766996617,0.08988769,0.09024469,0.035206456,0,0,0,0,0,0,0,0,0,0,0
768125934,767997120,0.08344967,0.08763321,0.02660073,0,0,0,0,0,0,0,0,0,0,0
769120738,768988618,0.07589407,0.09966251,0.019098617,0,0,0,0,0,0,0,0,0,0,0
770125575,769991613,0.07793661,0.113969736,0.023111617,0,0,0,0,0,0,0,0,0,0,0
771105603,770977618,0.07697827,0.07717113,0.029547092,0,0,0,0,0,0,0,0,0,0,0
772105154,771980761,0.07867361,0.0834857,0.029330783,0,0,0,0,0,0,0,0,0,0,0
773115064,772984651,0.085207194,0.11898,0.020647954,1,0,0,0,0,0,0,0,0,0,0
774114827,773988613,0.08379933,0.12589212,0.021929704,1,0,0,0,0,0,0,0,0,0,0
775114608,774988616,0.0826429,0.12784463,0.03242075,1,0,0,0,0,0,0,0,0,0,0
776124456,775992614,0.09731243,0.16329813,0.031910412,1,0,0,0,0,0,0,0,0,0,0
777124223,776993616,0.09877961,0.18543494,0.034553856,1,0,0,0,0,0,0,0,0,0,0
778134007,778002659,0.10056319,0.20760578,0.032177877,1,0,0,0,0,0,0,0,0,0,0
779113867,778988848,0.09920832,0.23238371,0.02845501,1,0,0,0,0,0,0,0,0,0,0
780113680,779988766,0.10168362,0.27683926,0.018580226,1,0,0,0,0,0,0,0,0,0,0
781123536,780995657,0.09493682,0.28354338,0.014052544,1,0,0,0,0,0,0,0,0,0,0
782123248,781993615,0.08458885,0.27054206,0.013032453,1,0,0,0,0,0,0,0,0,0,0
783123137,782995618,0.06659976,0.23886617,0.012217526,1,0,0,0,0,0,0,0,0,0,0
784122873,783989745,0.057067927,0.21009888,0.0127570685,1,0,0,0,0,0,0,0,0,0,0
785132706,784998616,0.05689607,0.20038499,0.011600538,1,0,0,0,0,0,0,0,0,0,0
786122509,785997829,0.059755255,0.17180443,0.011512204,1,0,0,0,0,0,0,0,0,0,0
787132319,786998615,0.07074728,0.14980899,0.018753719,1,0,0,0,0,0,0,0,0,0,0
788132161,788004616,0.08503141,0.12778689,0.022497417,1,0,0,0,0,0,0,0,0,0,0
789134459,789002611,0.07521118,0.07012665,0.014539271,1,0,0,0,0,0,0,0,0,0,0
790131738,789998617,0.07681788,0.04414408,0.016035179,1,0,0,0,0,0,0,0,0,0,0
791121626,790992615,0.07409382,0.0053371736,0.016538354,1,0,0,0,0,0,0,0,0,0,0
792121392,791995066,0.08064167,0.014143918,0.014893634,1,0,0,0,0,0,0,0,0,0,0
793121141,792994618,0.08650767,0.005949378,0.014559551,1,0,0,0,0,0,0,0,0,0,0
794130961,793997630,0.100338176,0.030126717,0.014217352,1,0,0,0,0,0,0,0,0,0,0
795120965,794990616,0.11339192,0.039818425,0.015308037,1,0,0,0,0,0,0,0,0,0,0
796130653,796001612,0.10701203,0.031579997,0.008428313,1,0,0,0,0,0,0,0,0,0,0
797120359,796986615,0.10260164,0.013995501,0.0045720213,1,0,0,0,0,0,0,0,0,0,0
798140245,798012616,0.1011402,0.019240592,0.0030194677,1,0,0,0,0,0,0,0,0,0,0
799129980,799001622,0.095812395,0.002989788,0.004272804,1,0,0,0,0,0,0,0,0,0,0
800129872,799996630,0.10204111,0.017529206,0.006122907,1,0,0,0,0,0,0,0,0,0,0
801119614,800993613,0.10022992,0.031007709,0.0031821313,1,0,0,0,0,0,0,0,0,0,0
802119394,801990678,0.10307923,0.056152098,0.004612504,1,0,0,0,0,0,0,0,0,0,0
803129245,802995623,0.09813698,0.10306533,0.021236932,1,0,0,0,0,0,0,0,0,0,0
804129019,803994624,0.09939943,0.13212419,0.027763918,1,0,0,0,0,0,0,0,0,0,0
805128875,805001620,0.11445099,0.1208078,0.0068640006,1,0,0,0,0,0,0,0,0,0,0
806128606,806000615,0.11283858,0.08705582,0.010966616,1,0,0,0,0,0,0,0,0,0,0
807128463,807001623,0.10062785,0.05734254,0.013744538,1,0,0,0,0,0,0,0,0,0,0
808148189,808014620,nan,nan,nan,1,0,0,0,0,0,0,0,0,0,0
809118015,808993615,0.0015697394,0.018350333,0.0016356327,1,0,0,0,0,0,0,0,0,0,0
810117830,809991082,0.00882569,0.035377793,0.004459382,1,0,0,0,0,0,0,0,0,0,0
811137607,811010616,0.022861421,0.03483078,0.015895361,1,0,0,0,0,0,0,0,0,0,0
812127479,811999618,0.027546532,0.042645585,0.0123490775,1,0,0,0,0,0,0,0,0,0,0
813127254,813000612,0.03347038,0.04838641,0.0054706205,1,0,0,0,0,0,0,0,0,0,0
814127114,813996629,0.030379707,0.025530653,0.00398626,1,0,0,0,0,0,0,0,0,0,0
815126802,814996672,0.032459896,0.04135029,0.0029902293,1,0,0,0,0,0,0,0,0,0,0
816126643,816000617,0.030207109,0.03448193,0.00802271,1,0,0,0,0,0,0,0,0,0,0
817126404,816995612,0.030529767,0.024408085,0.0064529087,1,0,0,0,0,0,0,0,0,0,0
818136209,818009615,0.029134283,0.0125914235,0.009138055,1,0,0,0,0,0,0,0,0,0,0
819126206,818999620,0.038613867,0.005253944,0.0045047062,1,0,0,0,0,0,0,0,0,0,0
820125839,819997615,0.04034513,0.0056629227,0.006500293,1,0,0,0,0,0,0,0,0,0,0
821135712,821004618,0.044071697,4.0604855e-06,0.008089406,1,0,0,0,0,0,0,0,0,0,0
822115397,821984856,0.04503376,0.0006111149,0.009756856,1,0,0,0,0,0,0,0,0,0,0
823125235,822994611,0.051490158,0.0072266473,0.012150861,1,0,0,0,0,0,0,0,0,0,0
824125070,824000614,0.05467185,0.002524173,0.009320366,1,0,0,0,0,0,0,0,0,0,0
825124810,824999863,0.05887531,0.01163444,0.009874995,1,0,0,0,0,0,0,0,0,0,0
826124621,825998616,0.07331149,0.023949374,0.008022884,1,0,0,0,0,0,0,0,0,0,0
827124383,826993673,0.06562206,0.025994645,0.01184675,1,0,0,0,0,0,0,0,0,0,0
828134253,828008615,0.06426686,0.03700563,0.014185037,1,0,0,0,0,0,0,0,0,0,0
829134061,829003624,nan,nan,nan,1,0,0,0,0,0,0,0,0,0,0
830123850,829997614,nan,nan,nan,1,0,0,0,0,0,0,0,0,0,0
831143609,831014817,nan,nan,nan,1,0,0,0,0,0,0,0,0,0,0
832133398,832002722,0.029125731,0.039944224,0.0068431334,1,0,0,0,0,0,0,0,0,0,0
833123194,832997615,0.046279892,0.058792897,0.009215718,1,0,0,0,0,0,0,0,0,0,0
834122977,833989616,0.04525469,0.07114172,0.009557348,1,0,0,0,0,0,0,0,0,0,0
835122835,834990615,0.04631601,0.08772549,0.0032901536,1,0,0,0,0,0,0,0,0,0,0
836122549,835988632,nan,nan,nan,1,0,0,0,0,0,0,0,0,0,0
837132407,837004755,nan,nan,nan,1,0,0,0,0,0,0,0,0,0,0
838132167,838004618,nan,nan,nan,1,0,0,0,0,0,0,0,0,0,0
839172031,839043613,nan,nan,nan,1,0,0,0,0,0,0,0,0,0,0
840161755,840030620,nan,nan,nan,1,0,0,0,0,0,0,0,0,0,0
841171511,841038615,nan,nan,nan,1,0,0,0,0,0,0,0,0,0,0
842161331,842028614,nan,nan,nan,1,0,0,0,0,0,0,0,0,0,0
843151163,843023617,nan,nan,nan,1,0,0,0,0,0,0,0,0,0,0
844160922,844035617,nan,nan,nan,1,0,0,0,0,0,0,0,0,0,0
845160732,845034619,0.014279361,0.019277327,0.0060390583,1,0,0,0,0,0,0,0,0,0,0
846160507,846033623,0.02677404,0.08894062,0.0032998298,1,0,0,0,0,0,0,0,0,0,0
847160329,847034755,0.02534238,0.08173586,0.00738701,1,0,0,0,0,0,0,0,0,0,0
848170087,848037613,0.033988494,0.07012369,0.005504103,1,0,0,0,0,0,0,0,0,0,0
849149861,849023616,0.012749683,0.07282371,0.023246886,1,0,0,0,0,0,0,0,0,0,0
850169642,850039615,nan,nan,nan,1,0,0,0,0,0,0,0,0,0,0
851159489,851031632,nan,nan,nan,1,0,0,0,0,0,0,0,0,0,0
852169248,852041616,0.0024650006,0.0007999801,0.0056590843,1,0,0,0,0,0,0,0,0,0,0
853159237,853033617,0.010987854,0.025153141,0.0075309724,1,0,0,0,0,0,0,0,0,0,0
854158828,854032617,nan,nan,nan,1,0,0,0,0,0,0,0,0,0,0
855158643,855030027,nan,nan,nan,1,0,0,0,0,0,0,0,0,0,0
856150926,856023611,nan,nan,nan,1,0,0,0,0,0,0,0,0,0,0
857158168,857032791,0.021672048,0.00017009731,0.023042532,1,0,0,0,0,0,0,0,0,0,0
858178111,858048614,0.004513381,0.041879382,0.002068295,1,0,0,0,0,0,0,0,0,0,0
859167763,859033613,0.020773632,0.05752326,0.0019244646,1,0,0,0,0,0,0,0,0,0,0
860167522,860039612,0.018455593,0.03738383,0.011472838,1,0,0,0,0,0,0,0,0,0,0
861167360,861037619,0.03903528,4.448936e-05,0.010893063,1,0,0,0,0,0,0,0,0,0,0
862157110,862032612,0.048358,0.00074943074,0.005059364,1,0,0,0,0,0,0,0,0,0,0
863176942,863044614,0.06322314,0.018085426,0.00409005,1,0,0,0,0,0,0,0,0,0,0
864166701,864039613,0.07761884,0.0039918753,0.0027968187,1,0,0,0,0,0,0,0,0,0,0
865196437,865048636,0.06688382,0.012122426,0.007587061,1,0,0,0,0,0,0,0,0,0,0
866166240,866039612,0.049609635,0.043148816,0.008310285,1,0,0,0,0,0,0,0,0,0,0
867176131,867045843,nan,nan,nan,1,0,0,0,0,0,0,0,0,0,0
868175969,868041613,nan,nan,nan,1,0,0,0,0,0,0,0,0,0,0
869165583,869037614,nan,nan,nan,1,0,0,0,0,0,0,0,0,0,0
870165497,870039620,nan,nan,nan,1,0,0,0,0,0,0,0,0,0,0
871175151,871047616,nan,nan,nan,1,0,0,0,0,0,0,0,0,0,0
872174937,872046613,nan,nan,nan,1,0,0,0,0,0,0,0,0,0,0
873174793,873046613,nan,nan,nan,1,0,0,0,0,0,0,0,0,0,0
874174515,874044615,nan,nan,nan,1,0,0,0,0,0,0,0,0,0,0
875164272,875034618,nan,nan,nan,1,0,0,0,0,0,0,0,0,0,0
876194054,876057613,0.0016433332,0.0024000197,0.0006513089,1,0,0,0,0,0,0,0,0,0,0
877193890,877049047,0.012549101,0.024751866,0.00132824,1,0,0,0,0,0,0,0,0,0,0
878173668,878043615,nan,nan,nan,1,0,0,0,0,0,0,0,0,0,0
879163402,879037153,0.0024015983,0.0051580956,0.004385203,1,0,0,0,0,0,0,0,0,0,0
880173205,880041618,0.009466663,0.019626705,0.009157166,1,0,0,0,0,0,0,0,0,0,0
881173003,881045612,nan,nan,nan,1,0,0,0,0,0,0,0,0,0,0
882192765,882048617,0.015255561,0.008800005,0.0034902946,1,0,0,0,0,0,0,0,0,0,0
883175125,883045612,nan,nan,nan,1,0,0,0,0,0,0,0,0,0,0
884172314,884045797,0.0039683627,0.0014999916,0.0023479816,1,0,0,0,0,0,0,0,0,0,0
885172111,885041618,0.028943019,0.018181458,0.001289875,1,0,0,0,0,0,0,0,0,0,0
886161977,886031684,0.049421106,0.019485256,0.026841918,1,0,0,0,0,0,0,0,0,0,0
887161839,887031770,0.047361244,0.008154371,0.023326589,1,0,0,0,0,0,0,0,0,0,0
888151432,888025616,0.044839267,0.015815979,0.021874532,1,0,0,0,0,0,0,0,0,0,0
889161236,889034779,0.03088084,0.033889752,0.006820468,1,0,0,0,0,0,0,0,0,0,0
890170981,890041616,0.033480518,0.04555011,0.0014850111,1,0,0,0,0,0,0,0,0,0,0
891160825,891035809,0.038729623,0.08049799,0.0045526912,1,0,0,0,0,0,0,0,0,0,0
892170730,892037613,nan,nan,nan,1,0,0,0,0,0,0,0,0,0,0
893170311,893038613,nan,nan,nan,1,0,0,0,0,0,0,0,0,0,0
894190098,894051611,nan,nan,nan,1,0,0,0,0,0,0,0,0,0,0
895179938,895046616,0.013033039,0.0007028523,0.0068288897,1,0,0,0,0,0,0,0,0,0,0
896189698,896054805,0.0145320995,0.025622876,0.010781744,1,0,0,0,0,0,0,0,0,0,0
897179634,897045617,0.020739485,0.048708126,0.010226457,1,0,0,0,0,0,0,0,0,0,0
898189294,898051617,0.03345354,0.05132005,0.006046898,1,0,0,0,0,0,0,0,0,0,0
899188991,899047633,nan,nan,nan,1,0,0,0,0,0,0,0,0,0,0
900168773,900043797,0.008449101,0.0015999819,0.01787955,1,0,0,0,0,0,0,0,0,0,0
901138553,901012619,0.021039825,0.017371215,0.01827587,1,0,0,0,0,0,0,0,0,0,0
902168388,902035614,0.026109498,0.020898325,0.017566832,1,0,0,0,0,0,0,0,0,0,0
903158099,903028614,0.024273425,0.03038328,0.009085287,1,0,0,0,0,0,0,0,0,0,0
904167924,904034630,0.02280029,0.014726457,0.009020894,1,0,0,0,0,0,0,0,0,0,0
905157653,905026628,0.018609874,0.009539291,0.008933316,1,0,0,0,0,0,0,0,0,0,0
906147462,906017621,0.008100377,0.009421762,0.0077474187,1,0,0,0,0,0,0,0,0,0,0
907157352,907029616,0.0041064443,0.016205203,0.0072144694,1,0,0,0,0,0,0,0,0,0,0
908176981,908044616,0.011904914,0.0019962434,0.010551324,1,0,0,0,0,0,0,0,0,0,0
909156800,909031790,0.03855232,0.028116262,0.010149982,1,0,0,0,0,0,0,0,0,0,0
910156568,910023614,0.027659943,0.053009655,0.022563243,1,0,0,0,0,0,0,0,0,0,0
911146378,911013800,0.025003409,0.08777915,0.022634394,1,0,0,0,0,0,0,0,0,0,0
912136107,912007617,0.019615319,0.08999417,0.024142744,1,0,0,0,0,0,0,0,0,0,0
913095886,912966616,0.023094907,0.112319835,0.02386908,1,0,0,0,0,0,0,0,0,0,0
914105668,913971616,0.012540361,0.10076274,0.022669747,1,0,0,0,0,0,0,0,0,0,0
915105478,914979615,0.01815944,0.089766614,0.028518695,1,0,0,0,0,0,0,0,0,0,0
916095312,915970616,0.014179953,0.09554619,0.027022539,1,0,0,0,0,0,0,0,0,0,0
917115019,916981614,0.017210262,0.09008877,0.026490856,1,0,0,0,0,0,0,0,0,0,0
918104769,917971614,nan,nan,nan,1,0,0,0,0,0,0,0,0,0,0
919114580,918987610,nan,nan,nan,1,0,0,0,0,0,0,0,0,0,0
920164336,920031612,0.009363254,0.01639122,0.012337279,1,0,0,0,0,0,0,0,0,0,0
921166738,921033617,0.011475813,0.050132465,0.010688397,1,0,0,0,0,0,0,0,0,0,0
922103894,921975617,0.052639168,0.092673846,0.01790167,1,0,0,0,0,0,0,0,0,0,0
923153657,923021618,0.049119197,0.11503534,0.019487761,1,0,0,0,0,0,0,0,0,0,0
924153428,924025623,0.060527932,0.12017215,0.027631609,1,0,0,0,0,0,0,0,0,0,0
925163254,925036615,0.03148803,0.12314673,0.0025875084,1,0,0,0,0,0,0,0,0,0,0
926153141,926027617,0.03430233,0.09945226,0.010484046,1,0,0,0,0,0,0,0,0,0,0
927142817,927016617,0.040135037,0.06752724,0.02366984,1,0,0,0,0,0,0,0,0,0,0
928162523,928028814,0.0673136,0.0403467,0.03035968,1,0,0,0,0,0,0,0,0,0,0
929192388,929050622,0.070672385,0.00808041,0.035436317,1,0,0,0,0,0,0,0,0,0,0
930172118,930041622,0.07881735,0.008535801,0.04509596,1,0,0,0,0,0,0,0,0,0,0
931162040,931034616,0.07865767,0.04379166,0.041570533,1,0,0,0,0,0,0,0,0,0,0
932171693,932043614,0.058565337,0.064944595,0.034999847,1,0,0,0,0,0,0,0,0,0,0
933171408,933041613,0.039845597,0.093497105,0.031861443,1,0,0,0,0,0,0,0,0,0,0
934171199,934044613,0.018780403,0.11013509,0.02926508,1,0,0,0,0,0,0,0,0,0,0
935171034,935039617,0.015399415,0.1015152,0.026756214,1,0,0,0,0,0,0,0,0,0,0
936160890,936028854,nan,nan,nan,1,0,0,0,0,0,0,0,0,0,0
937170548,937036617,0.0027041927,0.008200018,0.0028163097,1,0,0,0,0,0,0,0,0,0,0
938160347,938028627,0.0031670951,0.014951129,0.0028009699,1,0,0,0,0,0,0,0,0,0,0
939160077,939026783,nan,nan,nan,1,0,0,0,0,0,0,0,0,0,0
940149869,940019995,0.011991838,7.565837e-05,0.008637296,1,0,0,0,0,0,0,0,0,0,0
941159753,941026611,0.01916466,0.00021049968,0.013437828,1,0,0,0,0,0,0,0,0,0,0
942149421,942021618,0.014341879,0.0017921639,0.01165887,1,0,0,0,0,0,0,0,0,0,0
943164210,943033611,0.011139315,0.0027548838,0.010745658,1,0,0,0,0,0,0,0,0,0,0
944158985,944029617,0.018677037,0.00688976,0.0057287207,1,0,0,0,0,0,0,0,0,0,0
945168768,945034617,0.016844153,0.0023243222,0.007836904,1,0,0,0,0,0,0,0,0,0,0
946168610,946040616,0.014248836,0.00076495024,0.007803663,1,0,0,0,0,0,0,0,0,0,0
947168287,947035617,0.010474089,0.035780717,0.013952001,1,0,0,0,0,0,0,0,0,0,0
948188078,948048615,0.025710436,0.02803729,0.014310662,1,0,0,0,0,0,0,0,0,0,0
949157862,949031614,0.035818577,0.024515463,0.009523947,1,0,0,0,0,0,0,0,0,0,0
950167656,950036636,0.04025075,0.002371421,0.012096565,1,0,0,0,0,0,0,0,0,0,0
951177488,951044613,0.046455536,0.016541919,0.016706245,1,0,0,0,0,0,0,0,0,0,0
952167187,952042614,0.05167731,0.03416152,0.013658529,1,0,0,0,0,0,0,0,0,0,0
953166964,953038619,0.0654931,0.068813585,0.014564245,1,0,0,0,0,0,0,0,0,0,0
954156782,954027618,0.07160431,0.089132875,0.008189713,1,0,0,0,0,0,0,0,0,0,0
955176567,955042615,0.080775,0.10003514,0.007935221,1,0,0,0,0,0,0,0,0,0,0
956156319,956030615,0.08085295,0.11290127,0.008319903,1,0,0,0,0,0,0,0,0,0,0
957156082,957030617,0.07591377,0.1150365,0.0062392512,1,0,0,0,0,0,0,0,0,0,0
958165849,958032614,0.065655254,0.10744799,0.004244443,1,0,0,0,0,0,0,0,0,0,0
959165635,959033613,0.059391093,0.10631353,0.0040417225,1,0,0,0,0,0,0,0,0,0,0
960155495,960027877,0.041417744,0.084358655,0.010059886,1,0,0,0,0,0,0,0,0,0,0
961175337,961042634,0.017527398,0.059195925,0.012360574,1,0,0,0,0,0,0,0,0,0,0
962174984,962044619,0.015436123,0.045542073,0.008635089,1,0,0,0,0,0,0,0,0,0,0
963167270,963034619,0.024298457,0.06466889,0.0022497498,1,0,0,0,0,0,0,0,0,0,0
964174525,964043619,0.026649054,0.07412758,0.004971396,1,0,0,0,0,0,0,0,0,0,0
965164428,965034618,0.019084595,0.07269838,0.005978797,1,0,0,0,0,0,0,0,0,0,0
966144127,966015617,0.016975028,0.060896084,0.004874914,1,0,0,0,0,0,0,0,0,0,0
967173865,967042616,0.0192328,0.052233923,0.006864137,1,0,0,0,0,0,0,0,0,0,0
968173655,968041615,0.025550872,0.051580943,0.009827265,1,0,0,0,0,0,0,0,0,0,0
969163529,969037614,0.019696333,0.050190225,0.008980335,1,0,0,0,0,0,0,0,0,0,0
970163333,970030766,0.01926013,0.05206533,0.007415202,1,0,0,0,0,0,0,0,0,0,0
971163049,971031615,0.02608426,0.06655202,0.010815265,1,0,0,0,0,0,0,0,0,0,0
972172764,972041628,0.024239805,0.05712979,0.0052072224,1,0,0,0,0,0,0,0,0,0,0
973162575,973033610,0.039126128,0.07663655,0.00663054,1,0,0,0,0,0,0,0,0,0,0
974162321,974032617,0.03521714,0.07445565,0.008040847,1,0,0,0,0,0,0,0,0,0,0
975172299,975042617,0.038121838,0.08941185,0.014567406,1,0,0,0,0,0,0,0,0,0,0
976191976,976046956,0.03441856,0.10300836,0.0136614805,1,0,0,0,0,0,0,0,0,0,0
977194156,977046840,0.035262868,0.11707411,0.016396033,1,0,0,0,0,0,0,0,0,0,0
978191441,978047627,0.029096805,0.117413424,0.017348906,1,0,0,0,0,0,0,0,0,0,0
979171290,979037615,0.029002387,0.12219181,0.016900424,1,0,0,0,0,0,0,0,0,0,0
980121108,979989626,0.033461116,0.12593251,0.010902713,1,0,0,0,0,0,0,0,0,0,0
981120903,980990614,0.035630733,0.123930454,0.011332873,1,0,0,0,0,0,0,0,0,0,0
982120591,981994614,0.04091871,0.12952346,0.010449375,1,0,0,0,0,0,0,0,0,0,0
983120364,982989714,0.043250997,0.1314875,0.012053073,1,0,0,0,0,0,0,0,0,0,0
984110224,983981613,0.042519867,0.13701178,0.017672388,1,0,0,0,0,0,0,0,0,0,0
985129936,984998058,0.047877334,0.12112496,0.022981912,1,0,0,0,0,0,0,0,0,0,0
986119785,985992619,0.051359616,0.091895334,0.019548211,1,0,0,0,0,0,0,0,0,0,0
987189560,987049618,0.05154217,0.074835256,0.01535876,1,0,0,0,0,0,0,0,0,0,0
988199298,988068622,0.05376452,0.06395594,0.012648103,1,0,0,0,0,0,0,0,0,0,0
988999078,988867617,0.047591325,0.057409093,0.013892856,1,0,0,0,0,0,0,0,0,0,0
990188899,990050621,0.052568406,0.047868617,0.011310181,1,0,0,0,0,0,0,0,0,0,0
991198639,991061732,0.05074419,0.035831526,0.010748439,1,0,0,0,0,0,0,0,0,0,0
991998437,991869613,0.04951476,0.03091017,0.009821791,1,0,0,0,0,0,0,0,0,0,0
993188177,993052614,0.050545253,0.021807317,0.0071584466,1,0,0,0,0,0,0,0,0,0,0
994198012,994073613,0.042250942,0.022918455,0.0074396348,1,0,0,0,0,0,0,0,0,0,0
995007780,994874611,0.0443327,0.014642193,0.010739795,1,0,0,0,0,0,0,0,0,0,0
996187528,996053614,0.05524117,0.0059902724,0.00763809,1,0,0,0,0,0,0,0,0,0,0
997167316,997041614,0.06867417,0.10398733,0.005519728,1,0,0,0,0,0,0,0,0,0,0
998127095,997997087,0.120350145,0.23684719,0.0045398944,1,0,0,0,0,0,0,0,0,0,0
999117029,998986699,0.14503159,0.26431963,0.0068772607,1,0,0,0,0,0,0,0,0,0,0
1000136664,1000004668,0.15662068,0.27373984,0.006351211,1,0,0,0,0,0,0,0,0,0,0
1001136505,1001005618,0.1716076,0.2730688,0.00288243,1,0,0,0,0,0,0,0,0,0,0
1002116362,1001991632,0.18945499,0.2746236,0.0033382645,1,0,0,0,0,0,0,0,0,0,0
1003116059,1002989617,0.19726977,0.26964393,0.0027366865,1,0,0,0,0,0,0,0,0,0,0
1004126030,1003999617,0.1851309,0.26534972,0.0010500418,1,0,0,0,0,0,0,0,0,0,0
1005115641,1004988739,0.15850675,0.25769645,0.002989254,1,0,0,0,0,0,0,0,0,0,0
1006115406,1005990618,0.14285128,0.24566986,0.0032468536,1,0,0,0,0,0,0,0,0,0,0
1007125260,1006999617,0.13551365,0.23707402,0.0010821482,1,0,0,0,0,0,0,0,0,0,0
1008114958,1007988616,0.1326048,0.22039416,0.003059418,1,0,0,0,0,0,0,0,0,0,0
1009114839,1008985615,0.113254726,0.19595325,0.004394759,1,0,0,0,0,0,0,0,0,0,0
1010134524,1010006616,0.09398916,0.17611912,0.0017959955,1,0,0,0,0,0,0,0,0,0,0
1011114329,1010988614,0.074188925,0.1409941,0.0073836464,1,0,0,0,0,0,0,0,0,0,0
1012124144,1011998615,0.063737534,0.119980894,0.007481374,1,0,0,0,0,0,0,0,0,0,0
1013123902,1012993697,0.049287893,0.09792441,0.0032569957,1,0,0,0,0,0,0,0,0,0,0
1014123737,1013993612,0.047622476,0.09124075,0.0027698337,1,0,0,0,0,0,0,0,0,0,0
1015133434,1015001614,0.046955835,0.06986121,0.0034842787,1,0,0,0,0,0,0,0,0,0,0
1016123267,1015992619,0.05259007,0.051305015,0.007019132,1,0,0,0,0,0,0,0,0,0,0
1017123032,1016990614,0.0713508,0.033683423,0.007678446,1,0,0,0,0,0,0,0,0,0,0
1018122851,1017988631,0.08424169,0.029226324,0.006582707,1,0,0,0,0,0,0,0,0,0,0
1019122681,1018992614,0.08244267,0.037493642,0.00991172,1,0,0,0,0,0,0,0,0,0,0
1020112374,1019986612,0.074257284,0.0303065,0.011976983,1,0,0,0,0,0,0,0,0,0,0
1021122157,1020995617,0.08230334,0.01648988,0.020057425,1,0,0,0,0,0,0,0,0,0,0
1022121937,1021988759,0.087932736,0.00019353622,0.012050619,1,0,0,0,0,0,0,0,0,0,0
1023121745,1022988612,0.08239525,0.0095392885,0.0147633115,1,0,0,0,0,0,0,0,0,0,0
1024121542,1023993612,0.08240265,0.018414794,0.0076853316,1,0,0,0,0,0,0,0,0,0,0
1025131360,1024997613,nan,nan,nan,1,0,0,0,0,0,0,0,0,0,0
1026121094,1025987614,0.0052920966,0.0003999921,0.0021544595,1,0,0,0,0,0,0,0,0,0,0
1027130870,1026997727,0.022243317,0.018074574,0.0037111843,1,0,0,0,0,0,0,0,0,0,0
1028130686,1027997620,0.021359954,0.0146105215,0.0075742807,1,0,0,0,0,0,0,0,0,0,0
1029110474,1028985616,0.028922979,0.026433928,0.0049986537,1,0,0,0,0,0,0,0,0,0,0
1030130253,1029998688,0.041199047,0.032398973,0.005221306,1,0,0,0,0,0,0,0,0,0,0
1031120033,1030986636,nan,nan,nan,1,0,0,0,0,0,0,0,0,0,0
1032119839,1031988616,nan,nan,nan,1,0,0,0,0,0,0,0,0,0,0
1033099746,1032972617,nan,nan,nan,1,0,0,0,0,0,0,0,0,0,0
1034119379,1033987769,nan,nan,nan,1,0,0,0,0,0,0,0,0,0,0
1035109169,1034976615,nan,nan,nan,1,0,0,0,0,0,0,0,0,0,0
1036109015,1035983617,nan,nan,nan,1,0,0,0,0,0,0,0,0,0,0
1037118817,1036990768,nan,nan,nan,1,0,0,0,0,0,0,0,0,0,0
1038108732,1037983804,nan,nan,nan,1,0,0,0,0,0,0,0,0,0,0
1039108331,1038983619,nan,nan,nan,1,0,0,0,0,0,0,0,0,0,0
1040118140,1039986731,nan,nan,nan,1,0,0,0,0,0,0,0,0,0,0
1041117964,1040986634,nan,nan,nan,1,0,0,0,0,0,0,0,0,0,0
1042127688,1041994765,nan,nan,nan,1,0,0,0,0,0,0,0,0,0,0
1043117675,1042986613,nan,nan,nan,1,0,0,0,0,0,0,0,0,0,0
1044107339,1043978615,nan,nan,nan,1,0,0,0,0,0,0,0,0,0,0
1045117060,1044983615,nan,nan,nan,1,0,0,0,0,0,0,0,0,0,0
1046116941,1045985615,nan,nan,nan,1,0,0,0,0,0,0,0,0,0,0
1047106673,1046979615,nan,nan,nan,1,0,0,0,0,0,0,0,0,0,0
1048156528,1048025615,nan,nan,nan,1,0,0,0,0,0,0,0,0,0,0
1049166217,1049033617,nan,nan,nan,1,0,0,0,0,0,0,0,0,0,0
1050201033,1050067623,nan,nan,nan,1,0,0,0,0,0,0,0,0,0,0
1051195820,1051057629,nan,nan,nan,1,0,0,0,0,0,0,0,0,0,0
1052205582,1052076612,nan,nan,nan,1,0,0,0,0,0,0,0,0,0,0
1053165491,1053040783,nan,nan,nan,1,0,0,0,0,0,0,0,0,0,0
1054165192,1054035753,nan,nan,nan,1,0,0,0,0,0,0,0,0,0,0
1055165017,1055036636,nan,nan,nan,1,0,0,0,0,0,0,0,0,0,0
1056104802,1055978614,nan,nan,nan,1,0,0,0,0,0,0,0,0,0,0
1057104679,1056974614,nan,nan,nan,1,0,0,0,0,0,0,0,0,0,0
1058174507,1058040616,nan,nan,nan,1,0,0,0,0,0,0,0,0,0,0
1059204224,1059067626,nan,nan,nan,1,0,0,0,0,0,0,0,0,0,0
1060203927,1060066623,nan,nan,nan,1,0,0,0,0,0,0,0,0,0,0
1061173720,1061039612,nan,nan,nan,1,0,0,0,0,0,0,0,0,0,0
1062183575,1062050649,nan,nan,nan,1,0,0,0,0,0,0,0,0,0,0
1063183514,1063042615,nan,nan,nan,1,0,0,0,0,0,0,0,0,0,0
1064183105,1064046622,nan,nan,nan,1,0,0,0,0,0,0,0,0,0,0
1065202925,1065066636,nan,nan,nan,1,0,0,0,0,0,0,0,0,0,0
1066192735,1066050617,nan,nan,nan,1,0,0,0,0,0,0,0,0,0,0
1067112665,1066985619,nan,nan,nan,1,0,0,0,0,0,0,0,0,0,0
1068122310,1067991612,nan,nan,nan,1,0,0,0,0,0,0,0,0,0,0
1069112097,1068986619,nan,nan,nan,1,0,0,0,0,0,0,0,0,0,0
1070121891,1069991694,nan,nan,nan,1,0,0,0,0,0,0,0,0,0,0
1071121782,1070994077,nan,nan,nan,1,0,0,0,0,0,0,0,0,0,0
1072121704,1071995618,nan,nan,nan,1,0,0,0,0,0,0,0,0,0,0
1073131342,1073002623,nan,nan,nan,1,0,0,0,0,0,0,0,0,0,0
1074121102,1073993617,nan,nan,nan,1,0,0,0,0,0,0,0,0,0,0
1075130917,1074998613,nan,nan,nan,1,0,0,0,0,0,0,0,0,0,0
1076120688,1075995713,nan,nan,nan,1,0,0,0,0,0,0,0,0,0,0
1077120699,1076994615,nan,nan,nan,1,0,0,0,0,0,0,0,0,0,0
1078120280,1077994633,nan,nan,nan,1,0,0,0,0,0,0,0,0,0,0
1079120112,1078995613,nan,nan,nan,1,0,0,0,0,0,0,0,0,0,0
1080129877,1079996615,nan,nan,nan,1,0,0,0,0,0,0,0,0,0,0
1081129720,1080999618,nan,nan,nan,1,0,0,0,0,0,0,0,0,0,0
1082119578,1081993617,nan,nan,nan,1,0,0,0,0,0,0,0,0,0,0
1083109390,1082984614,nan,nan,nan,1,0,0,0,0,0,0,0,0,0,0
1084119090,1083991621,nan,nan,nan,1,0,0,0,0,0,0,0,0,0,0
1085118959,1084993988,nan,nan,nan,1,0,0,0,0,0,0,0,0,0,0
1086118692,1085986611,nan,nan,nan,1,0,0,0,0,0,0,0,0,0,0
1087118568,1086985615,nan,nan,nan,1,0,0,0,0,0,0,0,0,0,0
1088118306,1087992616,nan,nan,nan,1,0,0,0,0,0,0,0,0,0,0
1089128157,1088994618,nan,nan,nan,1,0,0,0,0,0,0,0,0,0,0
1090117906,1089987615,nan,nan,nan,1,0,0,0,0,0,0,0,0,0,0
1091117719,1090985629,nan,nan,nan,1,0,0,0,0,0,0,0,0,0,0
1092117534,1091983617,nan,nan,nan,1,0,0,0,0,0,0,0,0,0,0
1093117387,1092983618,nan,nan,nan,1,0,0,0,0,0,0,0,0,0,0
1094117169,1093990613,nan,nan,nan,1,0,0,0,0,0,0,0,0,0,0
1095116969,1094992616,nan,nan,nan,1,0,0,0,0,0,0,0,0,0,0
1096106914,1095977078,nan,nan,nan,1,0,0,0,0,0,0,0,0,0,0
1097116585,1096988614,nan,nan,nan,1,0,0,0,0,0,0,0,0,0,0
1098106409,1097981617,nan,nan,nan,1,0,0,0,0,0,0,0,0,0,0
1099126167,1098992920,nan,nan,nan,1,0,0,0,0,0,0,0,0,0,0
1100116025,1099990614,nan,nan,nan,1,0,0,0,0,0,0,0,0,0,0
1101116003,1100988622,nan,nan,nan,1,0,0,0,0,0,0,0,0,0,0
1102115632,1101985613,nan,nan,nan,1,0,0,0,0,0,0,0,0,0,0
1103115436,1102988631,nan,nan,nan,1,0,0,0,0,0,0,0,0,0,0
1104115255,1103989718,nan,nan,nan,1,0,0,0,0,0,0,0,0,0,0
1105115059,1104987614,nan,nan,nan,1,0,0,0,0,0,0,0,0,0,0
1106115050,1105987616,nan,nan,nan,1,0,0,0,0,0,0,0,0,0,0
1107114719,1106987827,nan,nan,nan,1,0,0,0,0,0,0,0,0,0,0
1108114506,1107984616,nan,nan,nan,1,0,0,0,0,0,0,0,0,0,0
1109124290,1108990620,nan,nan,nan,1,0,0,0,0,0,0,0,0,0,0
1109984221,1109855615,nan,nan,nan,1,0,0,0,0,0,0,0,0,0,0
1111124052,1110994614,nan,nan,nan,1,0,0,0,0,0,0,0,0,0,0
1112113763,1111984616,nan,nan,nan,1,0,0,0,0,0,0,0,0,0,0
1113113569,1112985612,nan,nan,nan,1,0,0,0,0,0,0,0,0,0,0
1114123389,1113991617,nan,nan,nan,1,0,0,0,0,0,0,0,0,0,0
1115113184,1114980614,nan,nan,nan,1,0,0,0,0,0,0,0,0,0,0
1116113009,1115981615,nan,nan,nan,1,0,0,0,0,0,0,0,0,0,0
1117112826,1116985620,nan,nan,nan,1,0,0,0,0,0,0,0,0,0,0
1118112701,1117981617,nan,nan,nan,1,0,0,0,0,0,0,0,0,0,0
1119102426,1118976613,nan,nan,nan,1,0,0,0,0,0,0,0,0,0,0
1120102474,1119976617,nan,nan,nan,0,0,0,0,0,0,1,0,0,0,0
1121102217,1120969615,nan,nan,nan,0,0,0,0,0,0,0,0,0,0,0
1122091934,1121965831,nan,nan,nan,0,0,0,0,0,0,0,0,0,0,0
1123091765,1122965622,nan,nan,nan,0,0,0,0,0,0,0,0,0,0,0
1124091606,1123959613,nan,nan,nan,0,0,0,0,0,0,0,0,0,0,0
1125081485,1124955615,nan,nan,nan,0,0,0,0,0,0,0,0,0,0,0
1126081229,1125948612,nan,nan,nan,0,0,0,0,0,0,0,0,0,0,0
1127081097,1126954827,nan,nan,nan,0,0,0,0,0,0,0,0,0,0,0
1128080940,1127955899,nan,nan,nan,0,0,0,0,0,0,0,0,0,0,0
1129080722,1128953617,nan,nan,nan,0,0,0,0,0,0,0,0,0,0,0
1130080553,1129951616,nan,nan,nan,0,0,0,0,0,0,0,0,0,0,0
1131090304,1130960614,nan,nan,nan,1,0,0,0,0,0,0,0,0,0,0
1132090104,1131958623,nan,nan,nan,1,0,0,0,0,0,0,0,0,0,0
1133089976,1132958621,nan,nan,nan,0,0,0,0,0,0,0,0,0,0,0
1134099809,1133973612,nan,nan,nan,0,0,0,0,0,0,0,0,0,0,0
1135089567,1134959613,nan,nan,nan,0,0,0,0,0,0,0,0,0,0,0
1136099402,1135967645,nan,nan,nan,0,0,0,0,0,0,0,0,0,0,0
1137089232,1136963614,nan,nan,nan,0,0,0,0,0,0,0,0,0,0,0
1138099103,1137966618,nan,nan,nan,0,0,0,0,0,0,0,0,0,0,0
1139099134,1138971617,nan,nan,nan,0,0,0,0,0,0,0,0,0,0,0
1140098894,1139968652,nan,nan,nan,0,0,0,0,0,0,0,0,0,0,0
1141098668,1140968630,nan,nan,nan,0,0,0,0,0,0,0,0,0,0,0
1142088510,1141961618,nan,nan,nan,0,0,0,0,0,0,0,0,0,0,0
1143098380,1142971616,nan,nan,nan,1,0,0,0,0,0,0,0,0,0,0
1144098239,1143971616,nan,nan,nan,1,0,0,0,0,0,0,0,0,0,0
1145098052,1144965614,nan,nan,nan,1,0,0,0,0,0,0,0,0,0,0
1146097900,1145966617,nan,nan,nan,1,0,0,0,0,0,0,0,0,0,0
1147097666,1146967618,nan,nan,nan,1,0,0,0,0,0,0,0,0,0,0
1148087477,1147960615,nan,nan,nan,1,0,0,0,0,0,0,0,0,0,0
1149097340,1148966614,nan,nan,nan,1,0,0,0,0,0,0,0,0,0,0
1150097080,1149963612,nan,nan,nan,1,0,0,0,0,0,0,0,0,0,0
1151106917,1150973620,nan,nan,nan,1,0,0,0,0,0,0,0,0,0,0
1152086867,1151952617,nan,nan,nan,1,0,0,0,0,0,0,0,0,0,0
1153086681,1152954615,nan,nan,nan,1,0,0,0,0,0,0,0,0,0,0
1154096440,1153966630,nan,nan,nan,1,0,0,0,0,0,0,0,0,0,0
1155096295,1154966611,nan,nan,nan,1,0,0,0,0,0,0,0,0,0,0
1156086134,1155959615,nan,nan,nan,1,0,0,0,0,0,0,0,0,0,0
1157096101,1156967622,nan,nan,nan,1,0,0,0,0,0,0,0,0,0,0
1158086100,1157955615,nan,nan,nan,1,0,0,0,0,0,0,0,0,0,0
1159095819,1158962613,nan,nan,nan,1,0,0,0,0,0,0,0,0,0,0
1160095614,1159963617,nan,nan,nan,1,0,0,0,0,0,0,0,0,0,0
1161095445,1160964902,nan,nan,nan,1,0,0,0,0,0,0,0,0,0,0
1162095267,1161965614,nan,nan,nan,1,0,0,0,0,0,0,0,0,0,0
1163085218,1162960612,nan,nan,nan,1,0,0,0,0,0,0,0,0,0,0
1164084975,1163957619,nan,nan,nan,1,0,0,0,0,0,0,0,0,0,0
1165084830,1164955624,nan,nan,nan,1,0,0,0,0,0,0,0,0,0,0
1166084621,1165954617,nan,nan,nan,1,0,0,0,0,0,0,0,0,0,0
1167094427,1166962616,nan,nan,nan,1,0,0,0,0,0,0,0,0,0,0
1168094282,1167962614,nan,nan,nan,1,0,0,0,0,0,0,0,0,0,0
1169094178,1168969613,nan,nan,nan,1,0,0,0,0,0,0,0,0,0,0
1170084012,1169954617,nan,nan,nan,1,0,0,0,0,0,0,0,0,0,0
1171103922,1170974618,nan,nan,nan,1,0,0,0,0,0,0,0,0,0,0
1172086357,1171959155,nan,nan,nan,1,0,0,0,0,0,0,0,0,0,0
1173093551,1172962615,nan,nan,nan,1,0,0,0,0,0,0,0,0,0,0
1174083398,1173956624,nan,nan,nan,1,0,0,0,0,0,0,0,0,0,0
1175093238,1174960614,nan,nan,nan,1,0,0,0,0,0,0,0,0,0,0
1176083093,1175958611,nan,nan,nan,1,0,0,0,0,0,0,0,0,0,0
1177093001,1176960832,nan,nan,nan,1,0,0,0,0,0,0,0,0,0,0
1178082778,1177950616,nan,nan,nan,1,0,0,0,0,0,0,0,0,0,0
1179092640,1178959616,nan,nan,nan,1,0,0,0,0,0,0,0,0,0,0
1180082502,1179955616,nan,nan,nan,1,0,0,0,0,0,0,0,0,0,0
1181272285,1181141618,nan,nan,nan,1,0,0,0,0,0,0,0,0,0,0
1182082219,1181954615,nan,nan,nan,1,0,0,0,0,0,0,0,0,0,0
1183082039,1182957614,nan,nan,nan,1,0,0,0,0,0,0,0,0,0,0
1184081822,1183954614,nan,nan,nan,1,0,0,0,0,0,0,0,0,0,0
1185081669,1184956778,nan,nan,nan,1,0,0,0,0,0,0,0,0,0,0
1186091575,1185963629,nan,nan,nan,1,0,0,0,0,0,0,0,0,0,0
1187091313,1186962617,nan,nan,nan,1,0,0,0,0,0,0,0,0,0,0
1188091187,1187961616,nan,nan,nan,1,0,0,0,0,0,0,0,0,0,0
1189081012,1188952712,nan,nan,nan,0,0,0,0,0,0,0,0,0,0,0
1190090855,1189957615,nan,nan,nan,0,0,0,0,0,0,0,0,0,0,0
1191080780,1190954617,nan,nan,nan,0,0,0,0,0,0,0,0,0,0,0
1192080592,1191954621,nan,nan,nan,0,0,0,0,0,0,0,0,0,0,0
1193080409,1192953616,nan,nan,nan,0,0,0,0,0,0,0,0,0,0,0
1194090372,1193964614,nan,nan,nan,0,0,0,0,0,0,0,0,0,0,0
1195090216,1194960615,nan,nan,nan,0,0,0,0,0,0,0,0,0,0,0
1196080224,1195954613,nan,nan,nan,0,0,0,0,0,0,0,0,0,0,0
1197089917,1196959621,nan,nan,nan,0,0,0,0,0,0,0,0,0,0,0
1198089864,1197963894,nan,nan,nan,0,0,0,0,0,0,0,0,0,0,0
1199079670,1198954694,nan,nan,nan,1,0,0,0,0,0,0,0,0,0,0
1200089521,1199958616,nan,nan,nan,1,0,0,0,0,0,0,0,0,0,0
1201099431,1200970616,nan,nan,nan,1,0,0,0,0,0,0,0,0,0,0
1202089188,1201957677,nan,nan,nan,1,0,0,0,0,0,0,0,0,0,0
1203089049,1202960930,nan,nan,nan,1,0,0,0,0,0,0,0,0,0,0
1204078973,1203951614,nan,nan,nan,1,0,0,0,0,0,0,0,0,0,0
1205088921,1204960615,nan,nan,nan,1,0,0,0,0,0,0,0,0,0,0
1206088673,1205955614,nan,nan,nan,1,0,0,0,0,0,0,0,0,0,0
1207078467,1206952616,nan,nan,nan,1,0,0,0,0,0,0,0,0,0,0
1208078316,1207946613,nan,nan,nan,1,0,0,0,0,0,0,0,0,0,0
1209268152,1209142615,nan,nan,nan,1,0,0,0,0,0,0,0,0,0,0
1210078127,1209949611,nan,nan,nan,1,0,0,0,0,0,0,0,0,0,0
1211087906,1210955611,nan,nan,nan,1,0,0,0,0,0,0,0,0,0,0
1212077749,1211952807,nan,nan,nan,1,0,0,0,0,0,0,0,0,0,0
1213077595,1212946612,nan,nan,nan,1,0,0,0,0,0,0,0,0,0,0
1214087515,1213960099,nan,nan,nan,1,0,0,0,0,0,0,0,0,0,0
1215087371,1214959611,nan,nan,nan,1,0,0,0,0,0,0,0,0,0,0
1216087158,1215957617,nan,nan,nan,1,0,0,0,0,0,0,0,0,0,0
1217077021,1216951617,nan,nan,nan,1,0,0,0,0,0,0,0,0,0,0
1218086893,1217954612,nan,nan,nan,1,0,0,0,0,0,0,0,0,0,0
1219086964,1218957123,nan,nan,nan,1,0,0,0,0,0,0,0,0,0,0
1220076590,1219951635,nan,nan,nan,1,0,0,0,0,0,0,0,0,0,0
1221096437,1220962638,nan,nan,nan,1,0,0,0,0,0,0,0,0,0,0
1222096294,1221962617,nan,nan,nan,1,0,0,0,0,0,0,0,0,0,0
1223076242,1222950618,nan,nan,nan,1,0,0,0,0,0,0,0,0,0,0
1224086128,1223959617,nan,nan,nan,1,0,0,0,0,0,0,0,0,0,0
1225090900,1224963623,nan,nan,nan,1,0,0,0,0,0,0,0,0,0,0
1226085759,1225956618,nan,nan,nan,1,0,0,0,0,0,0,0,0,0,0
1227095597,1226962618,nan,nan,nan,1,0,0,0,0,0,0,0,0,0,0
1228085516,1227953618,nan,nan,nan,1,0,0,0,0,0,0,0,0,0,0
1229075412,1228950977,nan,nan,nan,1,0,0,0,0,0,0,0,0,0,0
1230075217,1229948716,nan,nan,nan,1,0,0,0,0,0,0,0,0,0,0
1231087605,1230957610,nan,nan,nan,1,0,0,0,0,0,0,0,0,0,0
1232089897,1231953617,nan,nan,nan,1,0,0,0,0,0,0,0,0,0,0
1233084862,1232952702,nan,nan,nan,1,0,0,0,0,0,0,0,0,0,0
1234074592,1233947942,nan,nan,nan,1,0,0,0,0,0,0,0,0,0,0
1235084471,1234952610,nan,nan,nan,1,0,0,0,0,0,0,0,0,0,0
1236084341,1235955611,nan,nan,nan,1,0,0,0,0,0,0,0,0,0,0
1237074183,1236945611,nan,nan,nan,1,0,0,0,0,0,0,0,0,0,0
1238084095,1237951762,nan,nan,nan,1,0,0,0,0,0,0,0,0,0,0
1239083835,1238955613,nan,nan,nan,1,0,0,0,0,0,0,0,0,0,0
1240083774,1239954611,nan,nan,nan,1,0,0,0,0,0,0,0,0,0,0
1241083544,1240952613,nan,nan,nan,1,0,0,0,0,0,0,0,0,0,0
1242093397,1241962613,nan,nan,nan,1,0,0,0,0,0,0,0,0,0,0
1243083321,1242952613,nan,nan,nan,1,0,0,0,0,0,0,0,0,0,0
1244083282,1243954613,nan,nan,nan,1,0,0,0,0,0,0,0,0,0,0
1245093078,1244959616,nan,nan,nan,1,0,0,0,0,0,0,0,0,0,0
1246092883,1245961615,nan,nan,nan,1,0,0,0,0,0,0,0,0,0,0
1247082865,1246952838,nan,nan,nan,1,0,0,0,0,0,0,0,0,0,0
1248092605,1247959616,nan,nan,nan,1,0,0,0,0,0,0,0,0,0,0
1249092493,1248958874,nan,nan,nan,1,0,0,0,0,0,0,0,0,0,0
1250082361,1249956623,nan,nan,nan,1,0,0,0,0,0,0,0,0,0,0
1251082213,1250957616,nan,nan,nan,1,0,0,0,0,0,0,0,0,0,0
1252082166,1251952616,nan,nan,nan,1,0,0,0,0,0,0,0,0,0,0
1253081957,1252957618,nan,nan,nan,1,0,0,0,0,0,0,0,0,0,0
1254081788,1253953619,nan,nan,nan,1,0,0,0,0,0,0,0,0,0,0
1255091611,1254957611,nan,nan,nan,1,0,0,0,0,0,0,0,0,0,0
1256081492,1255949618,nan,nan,nan,1,0,0,0,0,0,0,0,0,0,0
1257081347,1256955612,nan,nan,nan,0,0,0,0,0,0,0,0,0,0,0
1258081188,1257952613,nan,nan,nan,0,0,0,0,0,0,0,0,0,0,0
1259091039,1258958634,nan,nan,nan,0,0,0,0,0,0,0,0,0,0,0
1260070958,1259944615,nan,nan,nan,0,0,0,0,0,0,0,0,0,0,0
1261270748,1261141613,nan,nan,nan,0,0,0,0,0,0,0,0,0,0,0
1262090621,1261959005,nan,nan,nan,0,0,0,0,0,0,0,0,0,0,0
1263090560,1262959616,nan,nan,nan,0,0,0,0,0,0,0,0,0,0,0
1264090364,1263958618,nan,nan,nan,0,0,0,0,0,0,0,0,0,0,0
1265080225,1264950617,nan,nan,nan,0,0,0,0,0,0,0,0,0,0,0
1266080171,1265954623,nan,nan,nan,0,0,0,0,0,0,0,0,0,0,0
1267089931,1266957618,nan,nan,nan,1,0,0,0,0,0,0,0,0,0,0
1268079821,1267953618,nan,nan,nan,1,0,0,0,0,0,0,0,0,0,0
1269079671,1268952611,nan,nan,nan,1,0,0,0,0,0,0,0,0,0,0
1270079503,1269950612,nan,nan,nan,1,0,0,0,0,0,0,0,0,0,0
1271089514,1270960617,nan,nan,nan,1,0,0,0,0,0,0,0,0,0,0
1272089204,1271957616,nan,nan,nan,1,0,0,0,0,0,0,0,0,0,0
1273069080,1272943611,nan,nan,nan,1,0,0,0,0,0,0,0,0,0,0
1274268963,1274141616,nan,nan,nan,1,0,0,0,0,0,0,0,0,0,0
1275078911,1274944612,nan,nan,nan,1,0,0,0,0,0,0,0,0,0,0
1276068647,1275941706,nan,nan,nan,1,0,0,0,0,0,0,0,0,0,0
1277078523,1276946611,nan,nan,nan,1,0,0,0,0,0,0,0,0,0,0
1278268445,1278143617,nan,nan,nan,1,0,0,0,0,0,0,0,0,0,0
1279078257,1278948615,nan,nan,nan,1,0,0,0,0,0,0,0,0,0,0
1280078157,1279948615,nan,nan,nan,1,0,0,0,0,0,0,0,0,0,0
1281077958,1280945614,nan,nan,nan,1,0,0,0,0,0,0,0,0,0,0
1282087754,1281956856,nan,nan,nan,1,0,0,0,0,0,0,0,0,0,0
1283087612,1282960614,nan,nan,nan,1,0,0,0,0,0,0,0,0,0,0
1284087514,1283957650,nan,nan,nan,1,0,0,0,0,0,0,0,0,0,0
1285087323,1284959615,nan,nan,nan,1,0,0,0,0,0,0,0,0,0,1
1286087111,1285953617,nan,nan,nan,1,0,0,0,0,0,0,0,0,0,1
1287086967,1286955617,nan,nan,nan,1,0,0,0,0,0,0,0,0,0,1
1288086863,1287959146,nan,nan,nan,1,0,0,0,0,0,0,0,0,0,1
1289086717,1288957617,nan,nan,nan,1,0,0,0,0,0,0,0,0,0,1
1290076550,1289950617,nan,nan,nan,1,0,0,0,0,0,0,0,0,0,1
1291086394,1290953618,nan,nan,nan,1,0,0,0,0,0,0,0,0,0,1
1292086325,1291958626,nan,nan,nan,1,0,0,0,0,0,0,0,0,0,1
1293076143,1292947614,nan,nan,nan,1,0,0,0,0,0,0,0,0,0,1
1294076108,1293950613,nan,nan,nan,1,0,0,0,0,0,0,0,0,0,1
1295075897,1294948612,nan,nan,nan,1,0,0,0,0,0,0,0,0,0,1
1296075714,1295949614,nan,nan,nan,1,0,0,0,0,0,0,0,0,0,1
1297075556,1296944613,nan,nan,nan,1,0,0,0,0,0,0,0,0,0,1
1298075420,1297943612,nan,nan,nan,1,0,0,0,0,0,0,0,0,0,1
1299085286,1298951614,nan,nan,nan,1,0,0,0,0,0,0,0,0,0,1
1300265238,1300139616,nan,nan,nan,1,0,0,0,0,0,0,0,0,0,1
1301074989,1300949620,nan,nan,nan,1,0,0,0,0,0,0,0,0,0,1
1302074953,1301942615,nan,nan,nan,1,0,0,0,0,0,0,0,0,0,1
1303074872,1302945615,nan,nan,nan,1,0,0,0,0,0,0,0,0,0,0
1304074723,1303945615,nan,nan,nan,1,0,0,0,0,0,0,0,0,0,0
1305074545,1304946615,nan,nan,nan,1,0,0,0,0,0,0,0,0,0,0
1306074489,1305949615,nan,nan,nan,1,0,0,0,0,0,0,0,0,0,0
1307274225,1307149612,nan,nan,nan,1,0,0,0,0,0,0,0,0,0,0
1308074292,1307942616,nan,nan,nan,1,0,0,0,0,0,0,0,0,0,0
1309083961,1308953617,nan,nan,nan,1,0,0,0,0,0,0,0,0,0,0
1310273887,1310144613,nan,nan,nan,1,0,0,0,0,0,0,0,0,0,0
1311073715,1310944616,nan,nan,nan,1,0,0,0,0,0,0,0,0,0,0
1312073551,1311947617,nan,nan,nan,1,0,0,0,0,0,0,0,0,0,0
1313083534,1312949612,nan,nan,nan,1,0,0,0,0,0,0,0,0,0,0
1314083259,1313954613,nan,nan,nan,1,0,0,0,0,0,0,0,0,0,0
1315083138,1314949632,nan,nan,nan,1,0,0,0,0,0,0,0,0,0,0
1316082967,1315952612,nan,nan,nan,1,0,0,0,0,0,0,0,0,0,0
1317082827,1316951613,nan,nan,nan,1,0,0,0,0,0,0,0,0,0,0
1318092710,1317964620,nan,nan,nan,1,0,0,0,0,0,0,0,0,0,0
1319082539,1318952613,nan,nan,nan,1,0,0,0,0,0,0,0,0,0,0
1320082428,1319951749,nan,nan,nan,1,0,0,0,0,0,0,0,0,0,0
1321072410,1320944616,nan,nan,nan,1,0,0,0,0,0,0,0,0,0,0
1322082290,1321948614,nan,nan,nan,1,0,0,0,0,0,0,0,0,0,0
1323271957,1323147288,nan,nan,nan,1,0,0,0,0,0,0,0,0,0,0
1324071896,1323946994,nan,nan,nan,1,0,0,0,0,0,0,0,0,0,0
1325071726,1324946725,nan,nan,nan,1,0,0,0,0,0,0,0,0,0,0
1326071579,1325946667,nan,nan,nan,1,0,0,0,0,0,0,0,0,0,0
1327081489,1326948613,nan,nan,nan,1,0,0,0,0,0,0,0,0,0,0
1328271269,1328140616,nan,nan,nan,1,0,0,0,0,0,0,0,0,0,0
1329271187,1329146617,nan,nan,nan,1,0,0,0,0,0,0,0,0,0,0
1330071000,1329941615,nan,nan,nan,1,0,0,0,0,0,0,0,0,0,0
1331080890,1330946615,nan,nan,nan,1,0,0,0,0,0,0,0,0,0,0
1332080741,1331949616,nan,nan,nan,1,0,0,0,0,0,0,0,0,0,0
1333080699,1332950641,nan,nan,nan,1,0,0,0,0,0,0,0,0,0,0
1334080493,1333946623,nan,nan,nan,1,0,0,0,0,0,0,0,0,0,0
1335270310,1335143614,nan,nan,nan,1,0,0,0,0,0,0,0,0,0,0
1336270119,1336143615,nan,nan,nan,1,0,0,0,0,0,0,0,0,0,0
1337079998,1336947613,nan,nan,nan,1,0,0,0,0,0,0,0,0,0,0
1338069864,1337944868,nan,nan,nan,1,0,0,0,0,0,0,0,0,0,0
1339269700,1339144702,nan,nan,nan,1,0,0,0,0,0,0,0,0,0,0
1340079599,1339951717,nan,nan,nan,1,0,0,0,0,0,0,0,0,0,0
1341079503,1340948614,nan,nan,nan,1,0,0,0,0,0,0,0,0,0,0
1342079297,1341953615,nan,nan,nan,1,0,0,0,0,0,0,0,0,0,0
1343079154,1342948614,nan,nan,nan,1,0,0,0,0,0,0,0,0,0,0
1344079015,1343951620,nan,nan,nan,1,0,0,0,0,0,0,0,0,0,0
1345088883,1344955616,nan,nan,nan,1,0,0,0,0,0,0,0,0,0,0
1346088854,1345955613,nan,nan,nan,1,0,0,0,0,0,0,0,0,0,0
1347078643,1346945617,nan,nan,nan,1,0,0,0,0,0,0,0,0,0,0
1348088535,1347955616,nan,nan,nan,1,0,0,0,0,0,0,0,0,0,0
1349078316,1348952729,nan,nan,nan,1,0,0,0,0,0,0,0,0,0,0
1350078251,1349948618,nan,nan,nan,1,0,0,0,0,0,0,0,0,0,0
1351078030,1350947612,nan,nan,nan,1,0,0,0,0,0,0,0,0,0,0
1352267944,1352139615,nan,nan,nan,1,0,0,0,0,0,0,0,0,0,0
1353087768,1352955613,nan,nan,nan,1,0,0,0,0,0,0,0,0,0,0
1354087662,1353953622,nan,nan,nan,1,0,0,0,0,0,0,0,0,0,0
1355077581,1354947661,nan,nan,nan,1,0,0,0,0,0,0,0,0,0,0
1356067373,1355941616,nan,nan,nan,1,0,0,0,0,0,0,0,0,0,0
1357077198,1356947616,nan,nan,nan,1,0,0,0,0,0,0,0,0,0,0
1358077188,1357951618,nan,nan,nan,1,0,0,0,0,0,0,0,0,0,0
1359086929,1358953619,nan,nan,nan,1,0,0,0,0,0,0,0,0,0,0
1360076962,1359951799,nan,nan,nan,1,0,0,0,0,0,0,0,0,0,0
1361076644,1360950614,nan,nan,nan,1,0,0,0,0,0,0,0,0,0,0
1362086501,1361953616,nan,nan,nan,1,0,0,0,0,0,0,0,0,0,0
1363086360,1362953615,nan,nan,nan,1,0,0,0,0,0,0,0,0,0,0
1364076290,1363949020,nan,nan,nan,1,0,0,0,0,0,0,0,0,0,0
1365086162,1364952616,nan,nan,nan,1,0,0,0,0,0,0,0,0,0,0
1366085942,1365952614,nan,nan,nan,1,0,0,0,0,0,0,0,0,0,0
1367075803,1366945615,nan,nan,nan,1,0,0,0,0,0,0,0,0,0,0
1368085686,1367954616,nan,nan,nan,1,0,0,0,0,0,0,0,0,0,0
1369075596,1368948618,nan,nan,nan,1,0,0,0,0,0,0,0,0,0,0
1370075427,1369946617,nan,nan,nan,1,0,0,0,0,0,0,0,0,0,0
1371075274,1370950611,nan,nan,nan,1,0,0,0,0,0,0,0,0,0,0
1372085182,1371954613,nan,nan,nan,1,0,0,0,0,0,0,0,0,0,0
1373084970,1372954788,nan,nan,nan,1,0,0,0,0,0,0,0,0,0,0
1374084938,1373952827,nan,nan,nan,1,0,0,0,0,0,0,0,0,0,0
1375074700,1374944615,nan,nan,nan,1,0,0,0,0,0,0,0,0,0,0
1376084610,1375955615,nan,nan,nan,1,0,0,0,0,0,0,0,0,0,0
1377084461,1376953757,nan,nan,nan,1,0,0,0,0,0,0,0,0,0,0
1378074356,1377946805,nan,nan,nan,1,0,0,0,0,0,0,0,0,0,0
1379084200,1378951618,nan,nan,nan,1,0,0,0,0,0,0,0,0,0,0
1380084021,1379956623,nan,nan,nan,1,0,0,0,0,0,0,0,0,0,0
1381083899,1380952614,nan,nan,nan,1,0,0,0,0,0,0,0,0,0,0
1382073744,1381946614,nan,nan,nan,1,0,0,0,0,0,0,0,0,0,0
1383083837,1382957614,nan,nan,nan,1,0,0,0,0,0,0,0,0,0,0
1384083493,1383958615,nan,nan,nan,1,0,0,0,0,0,0,0,0,0,0
1385083342,1384957615,nan,nan,nan,1,0,0,0,0,0,0,0,0,0,0
1386083219,1385952614,nan,nan,nan,1,0,0,0,0,0,0,0,0,0,0
1387273088,1387147623,nan,nan,nan,1,0,0,0,0,0,0,0,0,0,0
1388082992,1387953616,nan,nan,nan,1,0,0,0,0,0,0,0,0,0,0
1389082823,1388953869,nan,nan,nan,1,0,0,0,0,0,0,0,0,0,0
1390092652,1389959617,nan,nan,nan,1,0,0,0,0,0,0,0,0,0,0
1391272500,1391144615,nan,nan,nan,1,0,0,0,0,0,0,0,0,0,0
1392082458,1391950173,nan,nan,nan,1,0,0,0,0,0,0,0,0,0,0
1393072294,1392944612,nan,nan,nan,1,0,0,0,0,0,0,0,0,0,0
1394082112,1393951613,nan,nan,nan,1,0,0,0,0,0,0,0,0,0,0
1395081981,1394949615,nan,nan,nan,1,0,0,0,0,0,0,0,0,0,0
1396081894,1395947630,nan,nan,nan,1,0,0,0,0,0,0,0,0,0,0
1397081880,1396948617,nan,nan,nan,1,0,0,0,0,0,0,0,0,0,0
1398081625,1397956674,nan,nan,nan,1,0,0,0,0,0,0,0,0,0,0
1399071480,1398945618,nan,nan,nan,1,0,0,0,0,0,0,0,0,0,0
1400081305,1399950618,nan,nan,nan,1,0,0,0,0,0,0,0,0,0,0
1401081190,1400955835,nan,nan,nan,1,0,0,0,0,0,0,0,0,0,0
1402081122,1401950613,nan,nan,nan,1,0,0,0,0,0,0,0,0,0,0
1403080911,1402951646,nan,nan,nan,1,0,0,0,0,0,0,0,0,0,0
1404080883,1403947614,nan,nan,nan,1,0,0,0,0,0,0,0,0,0,0
1405090652,1404961616,nan,nan,nan,1,0,0,0,0,0,0,0,0,0,0
1406070538,1405945987,nan,nan,nan,1,0,0,0,0,0,0,0,0,0,0
1407080442,1406951075,nan,nan,nan,1,0,0,0,0,0,0,0,0,0,0
1408080244,1407946612,nan,nan,nan,1,0,0,0,0,0,0,0,0,0,0
1409080113,1408950612,nan,nan,nan,1,0,0,0,0,0,0,0,0,0,0
1410080077,1409946618,nan,nan,nan,1,0,0,0,0,0,0,0,0,0,0
1411079959,1410948614,nan,nan,nan,1,0,0,0,0,0,0,0,0,0,0
1412069734,1411940622,nan,nan,nan,1,0,0,0,0,0,0,0,0,0,0
1413269736,1413141618,nan,nan,nan,1,0,0,0,0,0,0,0,0,0,0
1414069508,1413940616,nan,nan,nan,1,0,0,0,0,0,0,0,0,0,0
1415079344,1414942618,nan,nan,nan,1,0,0,0,0,0,0,0,0,0,0
1416079303,1415950612,nan,nan,nan,1,0,0,0,0,0,0,0,0,0,0
1417269073,1417141617,nan,nan,nan,1,0,0,0,0,0,0,0,0,0,0
1418268932,1418143645,nan,nan,nan,1,0,0,0,0,0,0,0,0,0,0
1419068821,1418943877,nan,nan,nan,1,0,0,0,0,0,0,0,0,0,0
1420268667,1420143667,nan,nan,nan,1,0,0,0,0,0,0,0,0,0,0
1421068573,1420940616,nan,nan,nan,1,0,0,0,0,0,0,0,0,0,0
1422078448,1421948632,nan,nan,nan,1,0,0,0,0,0,0,0,0,0,0
1423088330,1422961614,nan,nan,nan,1,0,0,0,0,0,0,0,0,0,0
1424080695,1423953616,nan,nan,nan,1,0,0,0,0,0,0,0,0,0,0
1425068180,1424940619,nan,nan,nan,1,0,0,0,0,0,0,0,0,0,0
1426077909,1425950612,nan,nan,nan,1,0,0,0,0,0,0,0,0,0,0
1427077789,1426951620,nan,nan,nan,1,0,0,0,0,0,0,0,0,0,0
1428077701,1427944640,nan,nan,nan,1,0,0,0,0,0,0,0,0,0,0
1429077540,1428947613,nan,nan,nan,1,0,0,0,0,0,0,0,0,0,0
1430077498,1429950612,nan,nan,nan,1,0,0,0,0,0,0,0,0,0,0
1431077274,1430952612,nan,nan,nan,1,0,0,0,0,0,0,0,0,0,0
1432087152,1431954616,nan,nan,nan,1,0,0,0,0,0,0,0,0,0,0
1433087106,1432955616,nan,nan,nan,1,0,0,0,0,0,0,0,0,0,0
1434066893,1433937640,nan,nan,nan,1,0,0,0,0,0,0,0,0,0,0
1435076776,1434946615,nan,nan,nan,1,0,0,0,0,0,0,0,0,0,0
1436076675,1435950615,nan,nan,nan,1,0,0,0,0,0,0,0,0,0,0
1437076524,1436944616,nan,nan,nan,1,0,0,0,0,0,0,0,0,0,0
1438066404,1437941613,nan,nan,nan,1,0,0,0,0,0,0,0,0,0,0
1439086310,1438952613,nan,nan,nan,1,0,0,0,0,0,0,0,0,0,0
1440076132,1439945615,nan,nan,nan,1,0,0,0,0,0,0,0,0,0,0
1441076099,1440949617,nan,nan,nan,1,0,0,0,0,0,0,0,0,0,0
1442085913,1441951612,nan,nan,nan,1,0,0,0,0,0,0,0,0,0,0
1443085840,1442956615,nan,nan,nan,1,0,0,0,0,0,0,0,0,0,0
1444075744,1443947615,nan,nan,nan,1,0,0,0,0,0,0,0,0,0,0
1445075545,1444949616,nan,nan,nan,1,0,0,0,0,0,0,0,0,0,0
1446075457,1445950612,nan,nan,nan,1,0,0,0,0,0,0,0,0,0,0
