timestamp,timestamp_sample,ref_timestamp,ref_lat,ref_lon,x,y,z,delta_xy[0],delta_xy[1],delta_z,vx,vy,vz,z_deriv,delta_vxy[0],delta_vxy[1],delta_vz,ax,ay,az,heading,delta_heading,ref_alt,dist_bottom,eph,epv,evh,evv,vxy_max,vz_max,hagl_min,hagl_max,xy_valid,z_valid,v_xy_valid,v_z_valid,xy_reset_counter,z_reset_counter,vxy_reset_counter,vz_reset_counter,heading_reset_counter,heading_good_for_control,xy_global,z_global,dist_bottom_valid,dist_bottom_sensor_bitfield
539792212,539791676,45936231,42.3585499,-71.08724959999999,3.5118442,-2.9675152,5.3966985,-5.0257313e-05,0.00017889676,0.0,0.047913525,0.023389442,0.022981877,0.012191707,-0.00027487415,-0.058527347,0.14861168,0.029688759,0.02094736,0.00033494507,2.5834622,0.053713392,5.8792515,0.101686954,0.62527436,0.46208912,0.20629291,0.12835236,inf,inf,inf,inf,1,1,1,1,2,0,2,1,4,0,1,1,1,0
540290057,540289407,45936231,42.3585499,-71.08724959999999,3.541905,-2.9900305,5.4030547,-5.0257313e-05,0.00017889676,0.0,0.046127535,0.021012254,0.02067075,0.011797356,-0.00027487415,-0.058527347,0.14861168,0.0031456295,-0.057964556,-0.17513685,2.5834708,0.053713392,5.8792515,0.1,0.62600464,0.4573677,0.20103776,0.12669124,inf,inf,inf,inf,1,1,1,1,2,0,2,1,4,0,1,1,1,0
540787659,540787137,45936231,42.3585499,-71.08724959999999,3.5767982,-3.0367808,5.395305,-5.0257313e-05,0.00017889676,0.0,0.04656107,0.0059301183,0.01503233,-0.0012602577,-0.00027487415,-0.058527347,0.14861168,-0.017057072,-0.033476777,0.04959156,2.5830643,0.053713392,5.8792515,0.1,0.59223914,0.44819292,0.17981604,0.12153621,inf,inf,inf,inf,1,1,1,1,2,0,2,1,4,0,1,1,1,0
541285400,541284867,45936231,42.3585499,-71.08724959999999,3.58404,-3.1120548,5.379463,-5.0257313e-05,0.00017889676,0.0,0.031431846,-0.018328061,0.012476632,-0.01661969,-0.00027487415,-0.058527347,0.14861168,-0.0052441293,-0.027703961,-0.06462224,2.5826547,0.053713392,5.8792515,0.1,0.595467,0.44819117,0.18145037,0.12159176,inf,inf,inf,inf,1,1,1,1,2,0,2,1,4,0,1,1,1,0
541783247,541782597,45936231,42.3585499,-71.08724959999999,3.5956576,-3.1761582,5.3569555,-5.0257313e-05,0.00017889676,0.0,0.021001304,-0.03332332,0.012865777,-0.02581584,-0.00027487415,-0.058527347,0.14861168,-0.019353576,-0.002384262,0.051675387,2.5825741,0.053713392,5.8792515,0.1,0.58180434,0.44677815,0.1790364,0.1209404,inf,inf,inf,inf,1,1,1,1,2,0,2,1,4,0,1,1,1,0
542290965,542290282,45936231,42.3585499,-71.08724959999999,3.6135516,-3.2264924,5.3396144,-5.0257313e-05,0.00017889676,0.0,0.01937451,-0.04354478,0.008021182,-0.033824965,-0.00027487415,-0.058527347,0.14861168,0.027012244,-0.012365674,-0.08587068,2.5821798,0.053713392,5.8792515,0.1,0.5952606,0.44814813,0.1888483,0.12288094,inf,inf,inf,inf,1,1,1,1,2,0,2,1,4,0,1,1,1,0
542788534,542788013,45936231,42.3585499,-71.08724959999999,3.6290824,-3.313023,5.3061957,-5.0257313e-05,0.00017889676,0.0,0.012172472,-0.06637495,0.0010597141,-0.04955421,-0.00027487415,-0.058527347,0.14861168,-0.006870861,-0.06640722,-0.087470554,2.5816693,0.053713392,5.8792515,0.1,0.5832948,0.44759423,0.18576446,0.12239857,inf,inf,inf,inf,1,1,1,1,2,0,2,1,4,0,1,1,1,0
543286337,543285743,45936231,42.3585499,-71.08724959999999,3.6427324,-3.3568377,5.276918,-5.0257313e-05,0.00017889676,0.0,0.008644929,-0.07050348,-0.016120058,-0.06381891,-0.00027487415,-0.058527347,0.14861168,0.016304333,0.00040072753,-0.032534737,2.581485,0.053713392,5.8792515,0.10529137,0.59235394,0.4500622,0.19064347,0.12355109,inf,inf,inf,inf,1,1,1,1,2,0,2,1,4,0,1,1,1,0
543793959,543793429,45936231,42.3585499,-71.08724959999999,3.6466334,-3.3720067,5.256283,-5.0257313e-05,0.00017889676,0.0,0.0032773754,-0.061592735,-0.017589673,-0.05412899,-0.00027487415,-0.058527347,0.14861168,-0.025507957,0.0028047354,0.05053955,2.5811696,0.053713392,5.8792515,0.10839319,0.5787019,0.4491162,0.18478687,0.12251819,inf,inf,inf,inf,1,1,1,1,2,0,2,1,4,0,1,1,1,0
544291803,544291159,45936231,42.3585499,-71.08724959999999,3.6802745,-3.3773265,5.2412686,-5.0257313e-05,0.00017889676,0.0,0.01092103,-0.04617666,-0.008201623,-0.037546713,-0.00027487415,-0.058527347,0.14861168,-0.009279236,0.003368539,-0.014778001,2.5806155,0.053713392,5.8792515,0.1,0.58944666,0.44851655,0.19086163,0.12348081,inf,inf,inf,inf,1,1,1,1,2,0,2,1,4,0,1,1,1,0
544789538,544788889,45936231,42.3585499,-71.08724959999999,3.7026477,-3.368411,5.234106,-5.0257313e-05,0.00017889676,0.0,0.019601472,-0.030843096,-0.008335724,-0.029192917,-0.00027487415,-0.058527347,0.14861168,0.011912981,-0.00038487263,-0.050116282,2.5805483,0.053713392,5.8792515,0.105796814,0.5781377,0.4481755,0.1876454,0.123037584,inf,inf,inf,inf,1,1,1,1,2,0,2,1,4,0,1,1,1,0
545287200,545286620,45936231,42.3585499,-71.08724959999999,3.7375765,-3.374973,5.2242026,-5.0257313e-05,0.00017889676,0.0,0.030781452,-0.024879785,-0.0057277484,-0.025846064,-0.00027487415,-0.058527347,0.14861168,-0.026442422,-0.021821864,-0.021355122,2.5803726,0.053713392,5.8792515,0.1,0.59521973,0.45347613,0.19762607,0.1254858,inf,inf,inf,inf,1,1,1,1,2,0,2,1,4,0,1,1,1,0
545784871,545784351,45936231,42.3585499,-71.08724959999999,3.7246149,-3.3937438,5.221432,-5.0257313e-05,0.00017889676,0.0,0.018798731,-0.0266959,-0.0073864516,-0.020036494,-0.00027487415,-0.058527347,0.14861168,-0.02167949,0.041106563,0.008558569,2.57974,0.053713392,5.8792515,0.101463795,0.5887012,0.45481884,0.1966235,0.12571251,inf,inf,inf,inf,1,1,1,1,2,0,2,1,4,0,1,1,1,0
546292725,546292036,45936231,42.3585499,-71.08724959999999,3.7327125,-3.405961,5.201522,-5.0257313e-05,0.00017889676,0.0,0.023516782,-0.020945549,-0.013722706,-0.034443755,-0.00027487415,-0.058527347,0.14861168,-0.007460619,0.019528244,-0.071124464,2.5792933,0.053713392,5.8792515,0.1,0.6031784,0.4551354,0.2016411,0.12648644,inf,inf,inf,inf,1,1,1,1,2,0,2,1,4,0,1,1,1,0
546790335,546789769,45936231,42.3585499,-71.08724959999999,3.7444003,-3.389706,5.1939163,-5.0257313e-05,0.00017889676,0.0,0.023464704,-0.009262789,-0.011989159,-0.027023854,-0.00027487415,-0.058527347,0.14861168,0.037624918,-0.092400275,-0.013114428,2.5791082,0.053713392,5.8792515,0.10769606,0.59820616,0.4570622,0.20070145,0.12681483,inf,inf,inf,inf,1,1,1,1,2,0,2,1,4,0,1,1,1,0
547288095,547287498,45936231,42.3585499,-71.08724959999999,3.7866526,-3.3519394,5.1996684,-5.0257313e-05,0.00017889676,0.0,0.03556441,0.013832194,0.0051874598,0.0027434123,-0.00027487415,-0.058527347,0.14861168,0.023867352,-0.04341459,-0.032614194,2.5786247,0.053713392,5.8792515,0.107990265,0.6152448,0.46134654,0.20724116,0.128333,inf,inf,inf,inf,1,1,1,1,2,0,2,1,4,0,1,1,1,0
547785778,547785228,45936231,42.3585499,-71.08724959999999,3.8139892,-3.3169086,5.2036,-5.0257313e-05,0.00017889676,0.0,0.040200092,0.031024659,0.0059355535,0.0054547046,-0.00027487415,-0.058527347,0.14861168,0.01920638,0.04745108,-0.14287953,2.5783644,0.053713392,5.8792515,0.10519934,0.6067968,0.46205002,0.20323485,0.12795505,inf,inf,inf,inf,1,1,1,1,2,0,2,1,4,0,1,1,1,0
548283654,548282959,45936231,42.3585499,-71.08724959999999,3.8433888,-3.3052402,5.2136617,-5.0257313e-05,0.00017889676,0.0,0.04257182,0.034176614,0.011752366,0.016262647,-0.00027487415,-0.058527347,0.14861168,0.017428616,0.09648496,0.17132404,2.578604,0.053713392,5.8792515,0.10189724,0.6180171,0.4601754,0.20508611,0.12776287,inf,inf,inf,inf,1,1,1,1,2,0,2,1,4,0,1,1,1,0
548791238,548790645,45936231,42.3585499,-71.08724959999999,3.9196036,-3.2592082,5.2336144,-5.0257313e-05,0.00017889676,0.0,0.0634371,0.049189154,0.019980893,0.02930527,-0.00027487415,-0.058527347,0.14861168,-0.00784541,0.0068864836,-0.0013566676,2.578322,0.053713392,5.8792515,0.1,0.6135529,0.4624927,0.2038593,0.12799059,inf,inf,inf,inf,1,1,1,1,2,0,2,1,4,0,1,1,1,0
549288994,549288376,45936231,42.3585499,-71.08724959999999,3.9402595,-3.232085,5.2488685,-5.0257313e-05,0.00017889676,0.0,0.057345208,0.056660242,0.022090452,0.029134326,-0.00027487415,-0.058527347,0.14861168,-0.0021363192,0.02637184,0.029859575,2.5782561,0.053713392,5.8792515,0.1,0.63159233,0.4665343,0.21048383,0.12935664,inf,inf,inf,inf,1,1,1,1,2,0,2,1,4,0,1,1,1,0
549786721,549786107,45936231,42.3585499,-71.08724959999999,3.9492393,-3.2307112,5.262121,-5.0257313e-05,0.00017889676,0.0,0.046017565,0.0540601,0.030137133,0.032562476,-0.00027487415,-0.058527347,0.14861168,0.011802738,0.019615987,0.002802005,2.5783901,0.053713392,5.8792515,0.1,0.6114582,0.46319783,0.19819972,0.12701458,inf,inf,inf,inf,1,1,1,1,2,0,2,1,4,0,1,1,1,0
550294462,550293793,45936231,42.3585499,-71.08724959999999,4.005656,-3.251176,5.258935,-5.0257313e-05,0.00017889676,0.0,0.057210315,0.040214617,0.026640499,0.0136227915,-0.00027487415,-0.058527347,0.14861168,-0.015990218,0.009138266,0.003126106,2.5782545,0.053713392,5.8792515,0.1,0.6212774,0.46119174,0.20014925,0.1267542,inf,inf,inf,inf,1,1,1,1,2,0,2,1,4,0,1,1,1,0
550792150,550791524,45936231,42.3585499,-71.08724959999999,4.0167794,-3.240971,5.2541714,-5.0257313e-05,0.00017889676,0.0,0.04418909,0.04361793,0.036170963,0.0121737635,-0.00027487415,-0.058527347,0.14861168,0.013725519,0.009182031,0.030082628,2.5779269,0.053713392,5.8792515,0.1,0.6011009,0.45733306,0.18947403,0.124420404,inf,inf,inf,inf,1,1,1,1,2,0,2,1,4,0,1,1,1,0
551289883,551289255,45936231,42.3585499,-71.08724959999999,4.024909,-3.2459068,5.2355394,-5.0257313e-05,0.00017889676,0.0,0.039930537,0.035373706,0.028102368,-0.013560015,-0.00027487415,-0.058527347,0.14861168,-0.01027968,-0.0037422732,0.0074659153,2.5779212,0.053713392,5.8792515,0.1,0.6076021,0.45794365,0.19169153,0.12464163,inf,inf,inf,inf,1,1,1,1,2,0,2,1,4,0,1,1,1,0
551787508,551786987,45936231,42.3585499,-71.08724959999999,4.04621,-3.260104,5.2141547,-5.0257313e-05,0.00017889676,0.0,0.03856303,0.025993053,0.021689972,-0.028728437,-0.00027487415,-0.058527347,0.14861168,-0.034097005,-0.010585242,0.070840806,2.5778756,0.053713392,5.8792515,0.1,0.5907691,0.45504817,0.18503089,0.1230746,inf,inf,inf,inf,1,1,1,1,2,0,2,1,4,0,1,1,1,0
552285295,552284718,45936231,42.3585499,-71.08724959999999,4.0930033,-3.2739384,5.2003355,-5.0257313e-05,0.00017889676,0.0,0.04374165,0.022570552,0.018736927,-0.03132316,-0.00027487415,-0.058527347,0.14861168,0.0021407483,0.017730858,0.005988732,2.5776687,0.053713392,5.8792515,0.1,0.6011286,0.45356113,0.1910235,0.12379154,inf,inf,inf,inf,1,1,1,1,2,0,2,1,4,0,1,1,1,0
552792994,552792404,45936231,42.3585499,-71.08724959999999,4.105725,-3.2864792,5.185441,-5.0257313e-05,0.00017889676,0.0,0.034834195,0.018822514,0.01967439,-0.02902579,-0.00027487415,-0.058527347,0.14861168,-0.005810771,0.003200268,-0.016255993,2.5778008,0.053713392,5.8792515,0.1,0.5822423,0.45009074,0.18173534,0.12168098,inf,inf,inf,inf,1,1,1,1,2,0,2,1,4,0,1,1,1,0
553290696,553290135,45936231,42.3585499,-71.08724959999999,4.123973,-3.3088138,5.1894975,-5.0257313e-05,0.00017889676,0.0,0.031658016,0.0136908535,0.02852794,-0.0070527336,-0.00027487415,-0.058527347,0.14861168,-0.00074864214,-0.016332421,-0.07996726,2.5777247,0.053713392,5.8792515,0.10177708,0.58633286,0.45010296,0.18346944,0.12187039,inf,inf,inf,inf,1,1,1,1,2,0,2,1,4,0,1,1,1,0
553788476,553787867,45936231,42.3585499,-71.08724959999999,4.162719,-3.361038,5.206116,-5.0257313e-05,0.00017889676,0.0,0.041501526,-0.0073500783,0.03391587,0.014085795,-0.00027487415,-0.058527347,0.14861168,-0.0142070055,-0.0049521946,-0.0054857307,2.5776052,0.053713392,5.8792515,0.1,0.56742465,0.44577172,0.17590328,0.11985005,inf,inf,inf,inf,1,1,1,1,2,0,2,1,4,0,1,1,1,0
554286127,554285598,45936231,42.3585499,-71.08724959999999,4.1619477,-3.3953938,5.2009144,-5.0257313e-05,0.00017889676,0.0,0.03137623,-0.016151184,0.029044876,0.0005581433,-0.00027487415,-0.058527347,0.14861168,0.02346483,0.008028307,0.052506972,2.5776412,0.053713392,5.8792515,0.1,0.5741002,0.44365844,0.18074949,0.12047064,inf,inf,inf,inf,1,1,1,1,2,0,2,1,4,0,1,1,1,0
554793864,554793284,45936231,42.3585499,-71.08724959999999,4.1468987,-3.4078798,5.1874576,-5.0257313e-05,0.00017889676,0.0,0.013763741,-0.013009529,0.034811314,-0.00468407,-0.00027487415,-0.058527347,0.14861168,0.00067839795,-0.013718742,-0.05163574,2.5777302,0.053713392,5.8792515,0.1,0.5636146,0.44372278,0.1793969,0.120420046,inf,inf,inf,inf,1,1,1,1,2,0,2,1,4,0,1,1,1,0
555291708,555291016,45936231,42.3585499,-71.08724959999999,4.0915947,-3.3439934,5.1698437,-5.0257313e-05,0.00017889676,0.0,-0.008011413,0.018110579,0.026305942,-0.021489289,-0.00027487415,-0.058527347,0.14861168,0.0005699803,0.019235821,-0.098327994,2.5773664,0.053713392,5.8792515,0.1,0.5727891,0.44644904,0.18539946,0.121974036,inf,inf,inf,inf,1,1,1,1,2,0,2,1,4,0,1,1,1,0
555789378,555788748,45936231,42.3585499,-71.08724959999999,4.0589275,-3.33742,5.150507,-5.0257313e-05,0.00017889676,0.0,-0.023034811,0.01871928,0.028176738,-0.02598345,-0.00027487415,-0.058527347,0.14861168,-0.027271934,0.012024676,0.014530408,2.5772033,0.053713392,5.8792515,0.1,0.5512218,0.43738717,0.17311378,0.118487775,inf,inf,inf,inf,1,1,1,1,2,0,2,1,4,0,1,1,1,0
556287226,556286479,45936231,42.3585499,-71.08724959999999,4.040596,-3.3176038,5.128769,-5.0257313e-05,0.00017889676,0.0,-0.030803947,0.026929935,0.020786624,-0.036138922,-0.00027487415,-0.058527347,0.14861168,-0.006810292,0.0047876947,0.031041458,2.5772762,0.053713392,5.8792515,0.1,0.56273496,0.44152007,0.18232878,0.12091266,inf,inf,inf,inf,1,1,1,1,2,0,2,1,4,0,1,1,1,0
556784759,556784211,45936231,42.3585499,-71.08724959999999,4.062973,-3.3164034,5.1166487,-5.0257313e-05,0.00017889676,0.0,-0.015409511,0.02610631,0.012742363,-0.036131654,-0.00027487415,-0.058527347,0.14861168,0.023928389,-0.0022603977,0.04113275,2.577025,0.053713392,5.8792515,0.10360241,0.5495892,0.44006565,0.17772076,0.12004177,inf,inf,inf,inf,1,1,1,1,2,0,2,1,4,0,1,1,1,0
557292449,557291898,45936231,42.3585499,-71.08724959999999,4.09144,-3.3158853,5.0970535,-5.0257313e-05,0.00017889676,0.0,-0.002886691,0.022482017,0.0046573826,-0.043981224,-0.00027487415,-0.058527347,0.14861168,-0.027994925,0.016271804,0.044992026,2.5766068,0.053713392,5.8792515,0.10220146,0.567885,0.44712925,0.19046009,0.1234812,inf,inf,inf,inf,1,1,1,1,2,0,2,1,4,0,1,1,1,0
557790343,557789629,45936231,42.3585499,-71.08724959999999,4.1076965,-3.3227165,5.073568,-5.0257313e-05,0.00017889676,0.0,-0.0026969914,0.018481206,0.00544193,-0.042967454,-0.00027487415,-0.058527347,0.14861168,-0.015770141,-0.010702717,0.035124533,2.5765889,0.053713392,5.8792515,0.10094881,0.56248,0.44539568,0.1906123,0.12358016,inf,inf,inf,inf,1,1,1,1,2,0,2,1,4,0,1,1,1,0
558287901,558287361,45936231,42.3585499,-71.08724959999999,4.12932,-3.3184867,5.0663505,-5.0257313e-05,0.00017889676,0.0,-0.0019427281,0.019851374,0.0043161158,-0.03108698,-0.00027487415,-0.058527347,0.14861168,-0.004237636,-0.018254574,0.032920945,2.5766175,0.053713392,5.8792515,0.11105585,0.57681686,0.44962233,0.19676207,0.12525946,inf,inf,inf,inf,1,1,1,1,2,0,2,1,4,0,1,1,1,0
558785624,558785093,45936231,42.3585499,-71.08724959999999,4.1625104,-3.2984796,5.0740895,-5.0257313e-05,0.00017889676,0.0,0.0077907336,0.02455009,0.0102128135,-0.010391728,-0.00027487415,-0.058527347,0.14861168,0.001416533,0.0011600507,-0.057584077,2.5765834,0.053713392,5.8792515,0.10302782,0.5648586,0.44913912,0.19053626,0.12434671,inf,inf,inf,inf,1,1,1,1,2,0,2,1,4,0,1,1,1,0
559283359,559282825,45936231,42.3585499,-71.08724959999999,4.1753883,-3.3402424,5.0654483,-5.0257313e-05,0.00017889676,0.0,0.010546899,0.00015669502,0.0060381037,-0.017721472,-0.00027487415,-0.058527347,0.14861168,-0.035905704,-0.018819638,0.0009913805,2.5766625,0.053713392,5.8792515,0.1,0.5757877,0.4520518,0.19402386,0.12526484,inf,inf,inf,inf,1,1,1,1,2,0,2,1,4,0,1,1,1,0
559791229,559790512,45936231,42.3585499,-71.08724959999999,4.182719,-3.3471875,5.0633073,-5.0257313e-05,0.00017889676,0.0,0.009639492,-0.0026197666,0.004977071,-0.012164162,-0.00027487415,-0.058527347,0.14861168,-0.038987834,0.0021070794,0.14276424,2.5764384,0.053713392,5.8792515,0.10974836,0.5652532,0.44863623,0.18911155,0.12402429,inf,inf,inf,inf,1,1,1,1,2,0,2,1,4,0,1,1,1,0
560288859,560288244,45936231,42.3585499,-71.08724959999999,4.1923256,-3.3308923,5.0766554,-5.0257313e-05,0.00017889676,0.0,0.011406819,0.0038469515,0.011067408,0.0075557926,-0.00027487415,-0.058527347,0.14861168,-0.0092281755,-0.013042278,0.049969554,2.576019,0.053713392,5.8792515,0.10088062,0.5781248,0.45209035,0.19444692,0.125285,inf,inf,inf,inf,1,1,1,1,2,0,2,1,4,0,1,1,1,0
560786531,560785977,45936231,42.3585499,-71.08724959999999,4.212639,-3.3322906,5.079363,-5.0257313e-05,0.00017889676,0.0,0.022409854,-0.0016897302,0.0037389316,-0.0025037737,-0.00027487415,-0.058527347,0.14861168,0.0120665375,-0.001509026,0.030331835,2.5756092,0.053713392,5.8792515,0.10025406,0.56911546,0.45242885,0.19106758,0.12484891,inf,inf,inf,inf,1,1,1,1,2,0,2,1,4,0,1,1,1,0
561294233,561293663,45936231,42.3585499,-71.08724959999999,4.2321744,-3.3262913,5.0829196,-5.0257313e-05,0.00017889676,0.0,0.02918454,-0.005190976,0.011546483,0.005706993,-0.00027487415,-0.058527347,0.14861168,-0.008813255,-0.022679819,0.060559347,2.5754101,0.053713392,5.8792515,0.10072756,0.5845752,0.4570453,0.19732337,0.12638345,inf,inf,inf,inf,1,1,1,1,2,0,2,1,4,0,1,1,1,0
561791977,561791396,45936231,42.3585499,-71.08724959999999,4.209579,-3.3271654,5.0908804,-5.0257313e-05,0.00017889676,0.0,0.020531867,-0.009955312,0.010564862,0.007817317,-0.00027487415,-0.058527347,0.14861168,-0.011271524,-0.007233793,0.0017021786,2.5747323,0.053713392,5.8792515,0.11155605,0.5737045,0.45283133,0.19203693,0.12497344,inf,inf,inf,inf,1,1,1,1,2,0,2,1,4,0,1,1,1,0
562289667,562289128,45936231,42.3585499,-71.08724959999999,4.1894774,-3.2949584,5.112929,-5.0257313e-05,0.00017889676,0.0,0.014046116,-4.5126944e-06,0.03275429,0.036280286,-0.00027487415,-0.058527347,0.14861168,-0.023838995,0.014028982,0.04112676,2.5743093,0.053713392,5.8792515,0.1,0.57888156,0.45293337,0.19078131,0.12452034,inf,inf,inf,inf,1,1,1,1,2,0,2,1,4,0,1,1,1,0
562787434,562786860,45936231,42.3585499,-71.08724959999999,4.186787,-3.2518055,5.11556,-5.0257313e-05,0.00017889676,0.0,0.0166786,0.011059154,0.029310435,0.021230623,-0.00027487415,-0.058527347,0.14861168,-0.035699964,0.09504967,-0.30013588,2.5753672,0.053713392,5.8792515,0.1,0.5713824,0.4534879,0.18899271,0.12434617,inf,inf,inf,inf,1,1,1,1,2,0,2,1,4,0,1,1,1,0
563285204,563284593,45936231,42.3585499,-71.08724959999999,4.167755,-3.2247844,5.108975,-5.0257313e-05,0.00017889676,0.0,0.0093285935,0.011734584,0.024426648,0.0036196632,-0.00027487415,-0.058527347,0.14861168,-0.0039438168,-0.039918095,0.031696826,2.5769372,0.053713392,5.8792515,0.1,0.585358,0.45696148,0.19512907,0.12571658,inf,inf,inf,inf,1,1,1,1,2,0,2,1,4,0,1,1,1,0
563792849,563792280,45936231,42.3585499,-71.08724959999999,4.145743,-3.19385,5.1099887,-5.0257313e-05,0.00017889676,0.0,0.0072929915,0.013379122,0.025142524,0.004504453,-0.00027487415,-0.058527347,0.14861168,0.0039214347,0.0148676615,0.00556098,2.578291,0.053713392,5.8792515,0.1,0.5768837,0.45398003,0.19238551,0.12491298,inf,inf,inf,inf,1,1,1,1,2,0,2,1,4,0,1,1,1,0
564290731,564290012,45936231,42.3585499,-71.08724959999999,4.1077256,-3.1645746,5.12366,-5.0257313e-05,0.00017889676,0.0,0.0011154544,0.0117174685,0.022660805,0.013014928,-0.00027487415,-0.058527347,0.14861168,-0.0017592362,-0.024790982,0.053899933,2.579567,0.053713392,5.8792515,0.102295876,0.58550704,0.455296,0.19406377,0.12518461,inf,inf,inf,inf,1,1,1,1,2,0,2,1,4,0,1,1,1,0
564788300,564787745,45936231,42.3585499,-71.08724959999999,4.0837746,-3.168512,5.1273227,-5.0257313e-05,0.00017889676,0.0,0.009596748,-0.005618544,0.024649538,0.011775242,-0.00027487415,-0.058527347,0.14861168,-0.032188874,0.0030386252,0.012921741,2.5808108,0.053713392,5.8792515,0.1,0.58074707,0.457034,0.19452545,0.1256545,inf,inf,inf,inf,1,1,1,1,2,0,2,1,4,0,1,1,1,0
565286014,565285478,45936231,42.3585499,-71.08724959999999,4.0266333,-3.1525276,5.13326,-5.0257313e-05,0.00017889676,0.0,-0.0048304875,-0.007309493,0.042150687,0.024254002,-0.00027487415,-0.058527347,0.14861168,-0.00649026,-0.028032506,-0.014397839,2.5821488,0.053713392,5.8792515,0.1,0.5992645,0.46178153,0.20303784,0.12760432,inf,inf,inf,inf,1,1,1,1,2,0,2,1,4,0,1,1,1,0
565783754,565783210,45936231,42.3585499,-71.08724959999999,3.9515574,-3.1353173,5.136029,-5.0257313e-05,0.00017889676,0.0,-0.014243388,-0.011241447,0.036262013,0.013973261,-0.00027487415,-0.058527347,0.14861168,0.0031895547,0.03061343,0.15135479,2.5835357,0.053713392,5.8792515,0.1,0.5850601,0.45606223,0.19455644,0.12551346,inf,inf,inf,inf,1,1,1,1,2,0,2,1,4,0,1,1,1,0
566291418,566290897,45936231,42.3585499,-71.08724959999999,3.8736904,-3.111393,5.145754,-5.0257313e-05,0.00017889676,0.0,-0.025294721,-0.01300335,0.035724513,0.016059823,-0.00027487415,-0.058527347,0.14861168,0.009665011,-0.06900928,0.026587876,2.584644,0.053713392,5.8792515,0.1,0.5966522,0.45858654,0.19715932,0.12609728,inf,inf,inf,inf,1,1,1,1,2,0,2,1,4,0,1,1,1,0
566789251,566788630,45936231,42.3585499,-71.08724959999999,3.795829,-3.050673,5.146219,-5.0257313e-05,0.00017889676,0.0,-0.041617177,0.006601947,0.034971897,0.010196755,-0.00027487415,-0.058527347,0.14861168,-0.011649278,-0.0008711482,-0.016128337,2.5858371,0.053713392,5.8792515,0.1,0.5921308,0.4600425,0.19706437,0.12640966,inf,inf,inf,inf,1,1,1,1,2,0,2,1,4,0,1,1,1,0
567286981,567286362,45936231,42.3585499,-71.08724959999999,3.763297,-2.9561276,5.156406,-5.0257313e-05,0.00017889676,0.0,-0.038799092,0.036445886,0.040003743,0.016603999,-0.00027487415,-0.058527347,0.14861168,0.0002446595,-0.09052306,-0.3199457,2.5871468,0.053713392,5.8792515,0.1,0.6084554,0.459558,0.2032448,0.12716322,inf,inf,inf,inf,1,1,1,1,2,0,2,1,4,0,1,1,1,0
567784711,567784095,45936231,42.3585499,-71.08724959999999,3.761342,-2.838095,5.175843,-5.0257313e-05,0.00017889676,0.0,-0.012372503,0.06525396,0.03645052,0.023598948,-0.00027487415,-0.058527347,0.14861168,0.02300711,0.015707683,0.063485235,2.5884032,0.053713392,5.8792515,0.10078859,0.6052416,0.46132183,0.20329477,0.12754937,inf,inf,inf,inf,1,1,1,1,2,0,2,1,4,0,1,1,1,0
568292312,568291782,45936231,42.3585499,-71.08724959999999,3.744865,-2.6994314,5.195905,-5.0257313e-05,0.00017889676,0.0,-0.00947018,0.10164105,0.054716732,0.04349365,-0.00027487415,-0.058527347,0.14861168,0.07934992,0.1325452,-0.115395315,2.5897646,0.053713392,5.8792515,0.1,0.62366104,0.46566674,0.20923987,0.12890558,inf,inf,inf,inf,1,1,1,1,2,0,2,1,4,0,1,1,1,0
568790143,568789515,45936231,42.3585499,-71.08724959999999,3.6593251,-2.6520593,5.208723,-5.0257313e-05,0.00017889676,0.0,-0.033516876,0.090795845,0.05221828,0.034602214,-0.00027487415,-0.058527347,0.14861168,0.0023728574,0.004246039,0.0011425779,2.5911167,0.053713392,5.8792515,0.1,0.6208684,0.46746638,0.20873724,0.1292144,inf,inf,inf,inf,1,1,1,1,2,0,2,1,4,0,1,1,1,0
569287937,569287248,45936231,42.3585499,-71.08724959999999,3.570967,-2.6550193,5.2225842,-5.0257313e-05,0.00017889676,0.0,-0.04890769,0.06578209,0.06138576,0.039346967,-0.00027487415,-0.058527347,0.14861168,-0.008783034,-0.013140283,-0.09620456,2.5921414,0.053713392,5.8792515,0.1,0.6386263,0.46664706,0.21380803,0.12962976,inf,inf,inf,inf,1,1,1,1,2,0,2,1,4,0,1,1,1,0
569785593,569784980,45936231,42.3585499,-71.08724959999999,3.5607367,-2.6548233,5.239045,-5.0257313e-05,0.00017889676,0.0,-0.035034094,0.038758066,0.06454244,0.04074805,-0.00027487415,-0.058527347,0.14861168,0.014524269,0.06813215,0.17960696,2.593245,0.053713392,5.8792515,0.1,0.6288037,0.46649072,0.20796224,0.12887529,inf,inf,inf,inf,1,1,1,1,2,0,2,1,4,0,1,1,1,0
570293234,570292668,45936231,42.3585499,-71.08724959999999,3.525943,-2.6011908,5.2511387,-5.0257313e-05,0.00017889676,0.0,-0.035658136,0.043238495,0.06477464,0.03320366,-0.00027487415,-0.058527347,0.14861168,-0.016455105,0.020404771,0.009841242,2.594613,0.053713392,5.8792515,0.1,0.6511296,0.47163898,0.21622945,0.13058427,inf,inf,inf,inf,1,1,1,1,2,0,2,1,4,0,1,1,1,0
570790987,570790400,45936231,42.3585499,-71.08724959999999,3.4914129,-2.574871,5.2366285,-5.0257313e-05,0.00017889676,0.0,-0.026659569,0.03100274,0.050823946,-0.0033243787,-0.00027487415,-0.058527347,0.14861168,0.03253686,-0.0069319746,0.050201587,2.595675,0.053713392,5.8792515,0.1,0.65460753,0.4753252,0.21990307,0.13173793,inf,inf,inf,inf,1,1,1,1,2,0,2,1,4,0,1,1,1,0
571288669,571288133,45936231,42.3585499,-71.08724959999999,3.5138602,-2.5207071,5.225114,-5.0257313e-05,0.00017889676,0.0,-0.0030496204,0.038061023,0.04900156,-0.009786419,-0.00027487415,-0.058527347,0.14861168,0.0703274,0.10602611,-0.09892679,2.5970159,0.053713392,5.8792515,0.1,0.67904186,0.4799814,0.2280475,0.13324997,inf,inf,inf,inf,1,1,1,1,2,0,2,1,4,0,1,1,1,0
571786390,571785866,45936231,42.3585499,-71.08724959999999,3.562762,-2.510681,5.2245607,-5.0257313e-05,0.00017889676,0.0,0.025820272,0.024188185,0.054387677,-0.00090991723,-0.00027487415,-0.058527347,0.14861168,0.015002048,-0.039459687,-0.025439754,2.5979989,0.053713392,5.8792515,0.1,0.67891115,0.47831663,0.22810039,0.13309653,inf,inf,inf,inf,1,1,1,1,2,0,2,1,4,0,1,1,1,0
572294089,572293553,45936231,42.3585499,-71.08724959999999,3.5594292,-2.4937057,5.2223935,-5.0257313e-05,0.00017889676,0.0,0.027825229,0.018834453,0.049817756,-0.0049618063,-0.00027487415,-0.058527347,0.14861168,-0.009103431,-0.057381246,0.035750277,2.5990233,0.053713392,5.8792515,0.1,0.7000151,0.48247358,0.23283012,0.13400687,inf,inf,inf,inf,1,1,1,1,2,0,2,1,4,0,1,1,1,0
572791804,572791286,45936231,42.3585499,-71.08724959999999,3.5394044,-2.4708374,5.2169185,-5.0257313e-05,0.00017889676,0.0,0.02668459,0.014107158,0.050089523,-0.0060660746,-0.00027487415,-0.058527347,0.14861168,-0.029012863,-0.09873588,-0.058983777,2.6002712,0.053713392,5.8792515,0.1,0.6852334,0.4816523,0.2237481,0.13282134,inf,inf,inf,inf,1,1,1,1,2,0,2,1,4,0,1,1,1,0
573289764,573289019,45936231,42.3585499,-71.08724959999999,3.4778051,-2.4461246,5.2051425,-5.0257313e-05,0.00017889676,0.0,0.010751184,0.013119094,0.041738186,-0.018795624,-0.00027487415,-0.058527347,0.14861168,0.035069723,0.020718606,0.045914743,2.6010385,0.053713392,5.8792515,0.1,0.7089969,0.48117855,0.23191318,0.1334283,inf,inf,inf,inf,1,1,1,1,2,0,2,1,4,0,1,1,1,0
573787328,573786751,45936231,42.3585499,-71.08724959999999,3.4102082,-2.4374108,5.2015724,-5.0257313e-05,0.00017889676,0.0,-0.00447653,0.0009066564,0.043508776,-0.013982134,-0.00027487415,-0.058527347,0.14861168,-0.04627751,0.0050499276,0.012851383,2.60192,0.053713392,5.8792515,0.1,0.6825508,0.4773695,0.21721904,0.13104078,inf,inf,inf,inf,1,1,1,1,2,0,2,1,4,0,1,1,1,0
574285011,574284484,45936231,42.3585499,-71.08724959999999,3.393833,-2.419128,5.180758,-5.0257313e-05,0.00017889676,0.0,-0.00064961944,-0.006553435,0.033513367,-0.03300959,-0.00027487415,-0.058527347,0.14861168,-0.011642694,0.0636044,0.04571208,2.6010222,0.053713392,5.8792515,0.1,0.6965398,0.47929606,0.22114588,0.13155878,inf,inf,inf,inf,1,1,1,1,2,0,2,1,4,0,1,1,1,0
574792696,574792171,45936231,42.3585499,-71.08724959999999,3.3468056,-2.3989682,5.134371,-5.0257313e-05,0.00017889676,0.0,-0.009130446,-0.016556345,0.029475082,-0.059080105,-0.00027487415,-0.058527347,0.14861168,0.023667444,0.0152757745,-0.036106583,2.6021583,0.053713392,5.8792515,0.1,0.6803407,0.47848845,0.21411596,0.13052185,inf,inf,inf,inf,1,1,1,1,2,0,2,1,4,0,1,1,1,0
575290451,575289904,45936231,42.3585499,-71.08724959999999,3.331231,-2.3690236,5.096695,-5.0257313e-05,0.00017889676,0.0,-0.0062831356,-0.01576685,0.018881427,-0.07324262,-0.00027487415,-0.058527347,0.14861168,0.14052919,-0.12887359,0.1947716,2.6039107,0.053713392,5.8792515,0.1,0.6910922,0.47527787,0.21703143,0.13018815,inf,inf,inf,inf,1,1,1,1,2,0,2,1,4,0,1,1,1,0
575788262,575787636,45936231,42.3585499,-71.08724959999999,3.2989886,-2.300093,5.089074,-5.0257313e-05,0.00017889676,0.0,-0.0020452377,-0.007376169,0.028714878,-0.04146571,-0.00027487415,-0.058527347,0.14861168,-0.016905978,-0.027489549,0.44824928,2.6056066,0.053713392,5.8792515,0.10674238,0.6675658,0.47147208,0.20633951,0.12817429,inf,inf,inf,inf,1,1,1,1,2,0,2,1,4,0,1,1,1,0
576285918,576285369,45936231,42.3585499,-71.08724959999999,3.2770925,-2.2154818,5.087524,-5.0257313e-05,0.00017889676,0.0,0.0038438935,0.012881397,0.028939877,-0.024668263,-0.00027487415,-0.058527347,0.14861168,0.14390294,0.083514504,0.044030946,2.6074004,0.053713392,5.8792515,0.11887789,0.681673,0.4738941,0.21305856,0.12931365,inf,inf,inf,inf,1,1,1,1,2,0,2,1,4,0,1,1,1,0
576783644,576783102,45936231,42.3585499,-71.08724959999999,3.2294805,-2.1696792,5.100383,-5.0257313e-05,0.00017889676,0.0,-0.004463453,0.010409236,0.022946961,-0.009942624,-0.00027487415,-0.058527347,0.14861168,-0.030213213,0.06479149,-0.17185308,2.6096582,0.053713392,5.8792515,0.10540962,0.6720717,0.47431523,0.21212119,0.12939598,inf,inf,inf,inf,1,1,1,1,2,0,2,1,4,0,1,1,1,0
577291435,577290789,45936231,42.3585499,-71.08724959999999,3.1646137,-2.1482098,5.068925,-5.0257313e-05,0.00017889676,0.0,-0.021755647,0.002126178,0.010123525,-0.043052785,-0.00027487415,-0.058527347,0.14861168,-0.09379851,-0.16070785,-0.3955316,2.611271,0.053713392,5.8792515,0.1,0.6896037,0.47381678,0.21955958,0.13020395,inf,inf,inf,inf,1,1,1,1,2,0,2,1,4,0,1,1,1,0
577789155,577788521,45936231,42.3585499,-71.08724959999999,3.1465492,-2.1150248,5.0455966,-5.0257313e-05,0.00017889676,0.0,-0.016301721,0.0018595124,0.0010438045,-0.050300863,-0.00027487415,-0.058527347,0.14861168,0.01549558,-0.043183673,0.007565466,2.6128888,0.053713392,5.8792515,0.1,0.6841698,0.47537735,0.22020546,0.13071105,inf,inf,inf,inf,1,1,1,1,2,0,2,1,4,0,1,1,1,0
578286845,578286254,45936231,42.3585499,-71.08724959999999,3.1595488,-2.0087235,5.010288,-5.0257313e-05,0.00017889676,0.0,-0.00012614342,0.032897595,-0.009145456,-0.06718198,-0.00027487415,-0.058527347,0.14861168,0.02372402,-0.024137659,-0.010319221,2.6142988,0.053713392,5.8792515,0.1,0.70073605,0.47811776,0.22594497,0.1317433,inf,inf,inf,inf,1,1,1,1,2,0,2,1,4,0,1,1,1,0
578794686,578793941,45936231,42.3585499,-71.08724959999999,3.1605897,-1.9611177,4.9552107,-5.0257313e-05,0.00017889676,0.0,0.006887004,0.032766193,-0.016702063,-0.08953804,-0.00027487415,-0.058527347,0.14861168,0.019455638,0.009679756,0.042708345,2.6162155,0.053713392,5.8792515,0.1,0.69101495,0.47467464,0.22189362,0.1308869,inf,inf,inf,inf,1,1,1,1,2,0,2,1,4,0,1,1,1,0
579292234,579291673,45936231,42.3585499,-71.08724959999999,3.1237924,-1.9260712,4.9206777,-5.0257313e-05,0.00017889676,0.0,-0.0058249934,0.03129494,-0.019798005,-0.08038354,-0.00027487415,-0.058527347,0.14861168,-0.008275581,-0.0330935,-0.001995139,2.6189153,0.053713392,5.8792515,0.11234951,0.7026342,0.4760732,0.22375813,0.13120452,inf,inf,inf,inf,1,1,1,1,2,0,2,1,4,0,1,1,1,0
579790019,579789406,45936231,42.3585499,-71.08724959999999,3.0740583,-1.8974849,4.8950233,-5.0257313e-05,0.00017889676,0.0,-0.0148905665,0.024897542,-0.02927353,-0.077855624,-0.00027487415,-0.058527347,0.14861168,-0.011265,-0.16196276,-0.12353731,2.621142,0.053713392,5.8792515,0.11315441,0.6985889,0.47784847,0.22424217,0.13168813,inf,inf,inf,inf,1,1,1,1,2,0,2,1,4,0,1,1,1,0
580287679,580287138,45936231,42.3585499,-71.08724959999999,3.0156865,-1.9029876,4.887645,-5.0257313e-05,0.00017889676,0.0,-0.032815997,0.0075546447,-0.0020243195,-0.032702852,-0.00027487415,-0.058527347,0.14861168,-0.008211064,0.0070501175,0.10269173,2.6245313,0.053713392,5.8792515,0.11594391,0.72158736,0.48188657,0.2330049,0.13321118,inf,inf,inf,inf,1,1,1,1,2,0,2,1,4,0,1,1,1,0
580785391,580784870,45936231,42.3585499,-71.08724959999999,2.9785607,-1.8709729,4.9033947,-5.0257313e-05,0.00017889676,0.0,-0.03591942,0.00788519,0.01083183,0.0042894664,-0.00027487415,-0.058527347,0.14861168,-0.03527063,-0.031306177,-0.070127465,2.6273327,0.053713392,5.8792515,0.115722656,0.70942205,0.48143667,0.22622171,0.13245907,inf,inf,inf,inf,1,1,1,1,2,0,2,1,4,0,1,1,1,0
581293422,581292557,45936231,42.3585499,-71.08724959999999,3.0147755,-1.8150321,4.9265313,-5.0257313e-05,0.00017889676,0.0,-0.0052253786,0.014389387,0.00929676,0.018020222,-0.00027487415,-0.058527347,0.14861168,0.0031688386,-0.012815067,0.016445685,2.6303926,0.053713392,5.8792515,0.12029171,0.7089275,0.47989604,0.2271647,0.13243148,inf,inf,inf,inf,1,1,1,1,2,0,2,1,4,0,1,1,1,0
581790815,581790289,45936231,42.3585499,-71.08724959999999,2.9147058,-1.6848354,4.958074,-5.0257313e-05,0.00017889676,0.0,-0.045988716,0.051088344,0.023514995,0.047416743,-0.00027487415,-0.058527347,0.14861168,0.038032148,0.0555368,0.07805781,2.6328497,0.053713392,5.8792515,0.114084244,0.7252065,0.48216277,0.23040804,0.132968,inf,inf,inf,inf,1,1,1,1,2,0,2,1,4,0,1,1,1,0
582288786,582288022,45936231,42.3585499,-71.08724959999999,2.8679237,-1.5720774,4.9970713,-5.0257313e-05,0.00017889676,0.0,-0.052772813,0.07635108,0.022899058,0.055014003,-0.00027487415,-0.058527347,0.14861168,0.025035165,0.02590548,-0.10476568,2.6339235,0.053713392,5.8792515,0.10369825,0.73469436,0.48271897,0.22969396,0.13275237,inf,inf,inf,inf,1,1,1,1,2,0,2,1,4,0,1,1,1,0
582786308,582785754,45936231,42.3585499,-71.08724959999999,2.8124454,-1.5776303,5.026074,-5.0257313e-05,0.00017889676,0.0,-0.06170109,0.053639434,0.027775401,0.054660935,-0.00027487415,-0.058527347,0.14861168,0.007099642,0.021344703,0.02796555,2.636636,0.053713392,5.8792515,0.1,0.720128,0.48155367,0.22323121,0.13184044,inf,inf,inf,inf,1,1,1,1,2,0,2,1,4,0,1,1,1,0
583284037,583283486,45936231,42.3585499,-71.08724959999999,2.772364,-1.6106297,5.0269246,-5.0257313e-05,0.00017889676,0.0,-0.06174984,0.028522108,0.016080918,0.021285763,-0.00027487415,-0.058527347,0.14861168,-0.02022047,-0.029922513,-0.035557456,2.6379597,0.053713392,5.8792515,0.1,0.7390869,0.48012507,0.23005967,0.1322667,inf,inf,inf,inf,1,1,1,1,2,0,2,1,4,0,1,1,1,0
583791777,583791172,45936231,42.3585499,-71.08724959999999,2.7279453,-1.6426518,5.001678,-5.0257313e-05,0.00017889676,0.0,-0.063546315,0.011834867,0.016973479,-0.0055713607,-0.00027487415,-0.058527347,0.14861168,-0.010239988,0.036029603,0.055545136,2.6396804,0.053713392,5.8792515,0.1,0.721207,0.47906327,0.22111054,0.13109177,inf,inf,inf,inf,1,1,1,1,2,0,2,1,4,0,1,1,1,0
584289431,584288904,45936231,42.3585499,-71.08724959999999,2.6504452,-1.6712242,4.980482,-5.0257313e-05,0.00017889676,0.0,-0.08246156,-0.0040078573,0.014361353,-0.021671042,-0.00027487415,-0.058527347,0.14861168,0.016930258,0.015587869,0.086913325,2.6412416,0.053713392,5.8792515,0.1,0.7381057,0.48179126,0.2276265,0.13212837,inf,inf,inf,inf,1,1,1,1,2,0,2,1,4,0,1,1,1,0
584787244,584786636,45936231,42.3585499,-71.08724959999999,2.6056297,-1.715184,4.958696,-5.0257313e-05,0.00017889676,0.0,-0.078048415,-0.021893367,0.018546218,-0.025594695,-0.00027487415,-0.058527347,0.14861168,0.00292067,-0.031133775,0.024858838,2.642735,0.053713392,5.8792515,0.1,0.71338165,0.47370824,0.21527848,0.12943517,inf,inf,inf,inf,1,1,1,1,2,0,2,1,4,0,1,1,1,0
585284944,585284368,45936231,42.3585499,-71.08724959999999,2.53243,-1.7721068,4.94935,-5.0257313e-05,0.00017889676,0.0,-0.09044402,-0.04304723,0.02036563,-0.019847786,-0.00027487415,-0.058527347,0.14861168,-0.014565651,-0.0039529577,0.031697575,2.6445837,0.053713392,5.8792515,0.1,0.7317653,0.47711343,0.22411719,0.13093421,inf,inf,inf,inf,1,1,1,1,2,0,2,1,4,0,1,1,1,0
585792637,585792054,45936231,42.3585499,-71.08724959999999,2.4145744,-1.8075181,4.950672,-5.0257313e-05,0.00017889676,0.0,-0.12428723,-0.05367424,0.03061911,-0.0012002375,-0.00027487415,-0.058527347,0.14861168,-0.024207624,0.0026779107,0.02263055,2.6464932,0.053713392,5.8792515,0.10451031,0.7252583,0.47925705,0.22463459,0.13145027,inf,inf,inf,inf,1,1,1,1,2,0,2,1,4,0,1,1,1,0
586290463,586289786,45936231,42.3585499,-71.08724959999999,2.3189695,-1.8230318,4.962315,-5.0257313e-05,0.00017889676,0.0,-0.14030993,-0.054526933,0.029257549,0.008100305,-0.00027487415,-0.058527347,0.14861168,0.008223715,-0.029847933,-0.07798446,2.648406,0.053713392,5.8792515,0.10637474,0.74439657,0.48281226,0.23286876,0.1328411,inf,inf,inf,inf,1,1,1,1,2,0,2,1,4,0,1,1,1,0
586788206,586787517,45936231,42.3585499,-71.08724959999999,2.280903,-1.8021414,4.9865804,-5.0257313e-05,0.00017889676,0.0,-0.13049638,-0.040598206,0.027552411,0.023331815,-0.00027487415,-0.058527347,0.14861168,-0.014536942,-0.059135433,-0.06744109,2.6505797,0.053713392,5.8792515,0.10506439,0.72547174,0.47687972,0.22432382,0.13106845,inf,inf,inf,inf,1,1,1,1,2,0,2,1,4,0,1,1,1,0
587285853,587285249,45936231,42.3585499,-71.08724959999999,2.288908,-1.7555588,5.009025,-5.0257313e-05,0.00017889676,0.0,-0.10421567,-0.020024318,0.020047888,0.024033848,-0.00027487415,-0.058527347,0.14861168,-0.02949191,-0.0006397087,0.0014591938,2.6525586,0.053713392,5.8792515,0.1,0.7449274,0.4804393,0.23286384,0.13247007,inf,inf,inf,inf,1,1,1,1,2,0,2,1,4,0,1,1,1,0
587793490,587792935,45936231,42.3585499,-71.08724959999999,2.331747,-1.7207491,5.030907,-5.0257313e-05,0.00017889676,0.0,-0.07389036,-0.004855479,0.021443823,0.03374827,-0.00027487415,-0.058527347,0.14861168,-0.009800447,0.004239614,0.0721377,2.6543736,0.053713392,5.8792515,0.112699986,0.7116914,0.47525188,0.21315618,0.12929682,inf,inf,inf,inf,1,1,1,1,2,0,2,1,4,0,1,1,1,0
588291221,588290666,45936231,42.3585499,-71.08724959999999,2.3316255,-1.7237093,5.0745206,-5.0257313e-05,0.00017889676,0.0,-0.06418258,-0.0080073485,0.02445371,0.053806167,-0.00027487415,-0.058527347,0.14861168,0.026461687,0.0055856025,-0.06470981,2.6567771,0.053713392,5.8792515,0.10342741,0.718784,0.47557682,0.2146465,0.12937461,inf,inf,inf,inf,1,1,1,1,2,0,2,1,4,0,1,1,1,0
588789080,588788397,45936231,42.3585499,-71.08724959999999,2.3316095,-1.6983078,5.094252,-5.0257313e-05,0.00017889676,0.0,-0.05034785,0.0014923696,0.031413004,0.052041028,-0.00027487415,-0.058527347,0.14861168,0.002440498,-0.0106885275,0.037030965,2.6586914,0.053713392,5.8792515,0.1,0.70574886,0.47043896,0.2114694,0.12827587,inf,inf,inf,inf,1,1,1,1,2,0,2,1,4,0,1,1,1,0
589286680,589286128,45936231,42.3585499,-71.08724959999999,2.324739,-1.6704651,5.116694,-5.0257313e-05,0.00017889676,0.0,-0.037459202,0.007833657,0.048369646,0.061685372,-0.00027487415,-0.058527347,0.14861168,-0.018301686,-0.015458213,0.01656245,2.6608484,0.053713392,5.8792515,0.1,0.71516544,0.4714583,0.21464655,0.12874332,inf,inf,inf,inf,1,1,1,1,2,0,2,1,4,0,1,1,1,0
589794373,589793814,45936231,42.3585499,-71.08724959999999,2.3314178,-1.6447662,5.132072,-5.0257313e-05,0.00017889676,0.0,-0.016416013,0.010187203,0.06631639,0.061484594,-0.00027487415,-0.058527347,0.14861168,0.02336959,-0.006336665,0.06433479,2.6628613,0.053713392,5.8792515,0.1,0.70577514,0.47226474,0.21296832,0.12877686,inf,inf,inf,inf,1,1,1,1,2,0,2,1,4,0,1,1,1,0
590292067,590291545,45936231,42.3585499,-71.08724959999999,2.3051655,-1.5997897,5.1511283,-5.0257313e-05,0.00017889676,0.0,-0.010580795,0.020944906,0.076658346,0.061801992,-0.00027487415,-0.058527347,0.14861168,0.026374409,-0.027742354,-0.05115146,2.6644125,0.053713392,5.8792515,0.1,0.7232043,0.47572985,0.22125664,0.1303293,inf,inf,inf,inf,1,1,1,1,2,0,2,1,4,0,1,1,1,0
590789823,590789276,45936231,42.3585499,-71.08724959999999,2.3153715,-1.520898,5.175124,-5.0257313e-05,0.00017889676,0.0,0.00775807,0.044635046,0.090402715,0.06772527,-0.00027487415,-0.058527347,0.14861168,0.003526416,-0.038799126,0.049242757,2.6652405,0.053713392,5.8792515,0.1,0.7262154,0.47512993,0.22784486,0.13124476,inf,inf,inf,inf,1,1,1,1,2,0,2,1,4,0,1,1,1,0
591287655,591287007,45936231,42.3585499,-71.08724959999999,2.3135657,-1.4759398,5.192599,-5.0257313e-05,0.00017889676,0.0,0.01677622,0.051870815,0.086863466,0.053830236,-0.00027487415,-0.058527347,0.14861168,-0.0031438936,0.039604057,0.15564242,2.6660829,0.053713392,5.8792515,0.1,0.7500922,0.4797208,0.23780887,0.13301398,inf,inf,inf,inf,1,1,1,1,2,0,2,1,4,0,1,1,1,0
591785284,591784737,45936231,42.3585499,-71.08724959999999,2.3060217,-1.4104024,5.192616,-5.0257313e-05,0.00017889676,0.0,0.026237167,0.06461079,0.07330247,0.022090686,-0.00027487415,-0.058527347,0.14861168,0.06552397,0.0080906125,0.0915458,2.666459,0.053713392,5.8792515,0.1,0.7329954,0.47879988,0.22874755,0.13200878,inf,inf,inf,inf,1,1,1,1,2,0,2,1,4,0,1,1,1,0
592293158,592292422,45936231,42.3585499,-71.08724959999999,2.2616684,-1.3829823,5.1737404,-5.0257313e-05,0.00017889676,0.0,0.017441884,0.058097225,0.051238928,-0.017493386,-0.00027487415,-0.058527347,0.14861168,-0.012790093,-0.029774666,0.072465725,2.6641746,0.053713392,5.8792515,0.1,0.7600511,0.48021308,0.2404232,0.13338721,inf,inf,inf,inf,1,1,1,1,2,0,2,1,4,0,1,1,1,0
592790785,592790153,45936231,42.3585499,-71.08724959999999,2.1957629,-1.3867496,5.151783,-5.0257313e-05,0.00017889676,0.0,0.00070401595,0.04430286,0.04242945,-0.032813154,-0.00027487415,-0.058527347,0.14861168,0.1438036,-0.06824757,0.090793334,2.6693783,0.053713392,5.8792515,0.1,0.7458871,0.4801012,0.23378561,0.13273692,inf,inf,inf,inf,1,1,1,1,2,0,2,1,4,0,1,1,1,0
593288430,593287883,45936231,42.3585499,-71.08724959999999,2.1205118,-1.4372412,5.1305614,-5.0257313e-05,0.00017889676,0.0,-0.018903626,0.015380836,0.02794664,-0.043567877,-0.00027487415,-0.058527347,0.14861168,-0.029203335,-0.008847387,0.00045096278,2.6701322,0.053713392,5.8792515,0.1,0.7728876,0.48499545,0.24486579,0.13446797,inf,inf,inf,inf,1,1,1,1,2,0,2,1,4,0,1,1,1,0
593786155,593785614,45936231,42.3585499,-71.08724959999999,2.0607543,-1.448764,5.1197257,-5.0257313e-05,0.00017889676,0.0,-0.023568736,0.008375837,0.024137119,-0.035964437,-0.00027487415,-0.058527347,0.14861168,0.005099659,0.031750977,0.009549385,2.6729457,0.053713392,5.8792515,0.10718298,0.76193315,0.48550028,0.23901798,0.13399403,inf,inf,inf,inf,1,1,1,1,2,0,2,1,4,0,1,1,1,0
594283901,594283344,45936231,42.3585499,-71.08724959999999,1.9971529,-1.4891645,5.1061053,-5.0257313e-05,0.00017889676,0.0,-0.03899176,-0.011461337,0.038372453,-0.020431882,-0.00027487415,-0.058527347,0.14861168,0.010773987,-0.022855617,0.043603837,2.6743655,0.053713392,5.8792515,0.1,0.7902878,0.49015045,0.24946742,0.135549,inf,inf,inf,inf,1,1,1,1,2,0,2,1,4,0,1,1,1,0
594791604,594791028,45936231,42.3585499,-71.08724959999999,1.8284255,-1.5956203,5.083813,-5.0257313e-05,0.00017889676,0.0,-0.089807004,-0.05425035,0.034360904,-0.031404383,-0.00027487415,-0.058527347,0.14861168,0.02826744,-0.011687484,0.035582613,2.6759949,0.053713392,5.8792515,0.1,0.79268765,0.4892273,0.25137505,0.13560067,inf,inf,inf,inf,1,1,1,1,2,0,2,1,4,0,1,1,1,0
595289434,595288758,45936231,42.3585499,-71.08724959999999,1.7006534,-1.6499801,5.094903,-5.0257313e-05,0.00017889676,0.0,-0.11255115,-0.07002619,0.03302941,-0.010379347,-0.00027487415,-0.058527347,0.14861168,0.036502175,-0.009752965,-0.36278543,2.6774893,0.053713392,5.8792515,0.10567236,0.80747926,0.49082822,0.2521255,0.13565247,inf,inf,inf,inf,1,1,1,1,2,0,2,1,4,0,1,1,1,0
595787113,595786488,45936231,42.3585499,-71.08724959999999,1.6677326,-1.7119988,5.1123285,-5.0257313e-05,0.00017889676,0.0,-0.09832722,-0.0863409,0.04042285,0.013792782,-0.00027487415,-0.058527347,0.14861168,0.008571863,-0.041864887,-0.10874189,2.67934,0.053713392,5.8792515,0.10602856,0.7927124,0.4904639,0.24438947,0.13485363,inf,inf,inf,inf,1,1,1,1,2,0,2,1,4,0,1,1,1,0
596294811,596294172,45936231,42.3585499,-71.08724959999999,1.6963034,-1.7830913,5.11527,-5.0257313e-05,0.00017889676,0.0,-0.06773556,-0.100692034,0.033821225,0.0044480255,-0.00027487415,-0.058527347,0.14861168,0.01876474,-0.038230762,0.05070458,2.6809785,0.053713392,5.8792515,0.1,0.8123756,0.48881552,0.24869017,0.13473333,inf,inf,inf,inf,1,1,1,1,2,0,2,1,4,0,1,1,1,0
596792525,596791902,45936231,42.3585499,-71.08724959999999,1.7164339,-1.8049462,5.115463,-5.0257313e-05,0.00017889676,0.0,-0.04470577,-0.09267378,0.033402123,0.0011998173,-0.00027487415,-0.058527347,0.14861168,-0.0043187067,-0.022902828,0.031638015,2.6828463,0.053713392,5.8792515,0.1,0.79605585,0.48802704,0.24087964,0.13385963,inf,inf,inf,inf,1,1,1,1,2,0,2,1,4,0,1,1,1,0
597290222,597289631,45936231,42.3585499,-71.08724959999999,1.7069836,-1.8256783,5.120221,-5.0257313e-05,0.00017889676,0.0,-0.034379214,-0.09053147,0.037208594,0.006112895,-0.00027487415,-0.058527347,0.14861168,0.0016948108,-0.0213189,-0.045667935,2.684476,0.053713392,5.8792515,0.1,0.81152445,0.4896405,0.24420936,0.13421765,inf,inf,inf,inf,1,1,1,1,2,0,2,1,4,0,1,1,1,0
597787941,597787361,45936231,42.3585499,-71.08724959999999,1.7035273,-1.8300269,5.109171,-5.0257313e-05,0.00017889676,0.0,-0.022499574,-0.07917679,0.030784734,-0.0096537275,-0.00027487415,-0.058527347,0.14861168,0.020622525,0.027518852,0.13354288,2.686043,0.053713392,5.8792515,0.1,0.7917347,0.48783797,0.23498943,0.13301684,inf,inf,inf,inf,1,1,1,1,2,0,2,1,4,0,1,1,1,0
598285648,598285090,45936231,42.3585499,-71.08724959999999,1.6668466,-1.8333017,5.0941935,-5.0257313e-05,0.00017889676,0.0,-0.023865705,-0.07242418,0.0230224,-0.02384954,-0.00027487415,-0.058527347,0.14861168,0.00017074058,-0.016252456,-0.0050707306,2.6878052,0.053713392,5.8792515,0.1,0.81384754,0.49096283,0.2434877,0.13420208,inf,inf,inf,inf,1,1,1,1,2,0,2,1,4,0,1,1,1,0
598793368,598792774,45936231,42.3585499,-71.08724959999999,1.6789912,-1.834137,5.067798,-5.0257313e-05,0.00017889676,0.0,-0.0053683785,-0.062901996,0.026841797,-0.030672867,-0.00027487415,-0.058527347,0.14861168,0.004888159,-0.010134059,0.0046117664,2.689328,0.053713392,5.8792515,0.1,0.80369174,0.48714024,0.23958904,0.13328436,inf,inf,inf,inf,1,1,1,1,2,0,2,1,4,0,1,1,1,0
599291096,599290503,45936231,42.3585499,-71.08724959999999,1.6533018,-1.8142399,5.0656886,-5.0257313e-05,0.00017889676,0.0,-0.005123636,-0.04895307,0.03057119,-0.016278869,-0.00027487415,-0.058527347,0.14861168,0.009908191,-0.002195154,0.022570688,2.6908455,0.053713392,5.8792515,0.10145664,0.81895685,0.48870492,0.243383,0.1337572,inf,inf,inf,inf,1,1,1,1,2,0,2,1,4,0,1,1,1,0
599788791,599788232,45936231,42.3585499,-71.08724959999999,1.6071854,-1.7860007,5.0506573,-5.0257313e-05,0.00017889676,0.0,-0.010615091,-0.031195655,0.018685548,-0.031580422,-0.00027487415,-0.058527347,0.14861168,0.00096360943,0.010441015,-0.039434664,2.6924908,0.053713392,5.8792515,0.1,0.80956346,0.48917967,0.24076027,0.13366753,inf,inf,inf,inf,1,1,1,1,2,0,2,1,4,0,1,1,1,0
600286716,600285960,45936231,42.3585499,-71.08724959999999,1.5721018,-1.7339408,5.0301127,-5.0257313e-05,0.00017889676,0.0,-0.013428251,-0.008203072,0.016416872,-0.036118876,-0.00027487415,-0.058527347,0.14861168,0.026506353,0.041854322,-0.0030842084,2.6939983,0.053713392,5.8792515,0.1,0.8264575,0.4864619,0.2456774,0.1336101,inf,inf,inf,inf,1,1,1,1,2,0,2,1,4,0,1,1,1,0
600784285,600783689,45936231,42.3585499,-71.08724959999999,1.5148252,-1.7049797,5.0013566,-5.0257313e-05,0.00017889676,0.0,-0.019438189,0.0006555139,0.0034738292,-0.052137725,-0.00027487415,-0.058527347,0.14861168,-0.0055147,-0.031531624,0.01474509,2.6951587,0.053713392,5.8792515,0.1057291,0.8156311,0.48694637,0.2429191,0.13353638,inf,inf,inf,inf,1,1,1,1,2,0,2,1,4,0,1,1,1,0
601291959,601291372,45936231,42.3585499,-71.08724959999999,1.3919843,-1.6106877,4.972292,-5.0257313e-05,0.00017889676,0.0,-0.051241424,0.03240157,-0.0095812185,-0.06560565,-0.00027487415,-0.058527347,0.14861168,0.13660826,-0.06344272,-0.0743011,2.6964633,0.053713392,5.8792515,0.1,0.8336298,0.4901392,0.24855956,0.13446155,inf,inf,inf,inf,1,1,1,1,2,0,2,1,4,0,1,1,1,0
601789781,601789100,45936231,42.3585499,-71.08724959999999,1.1532975,-1.4430637,4.920878,-5.0257313e-05,0.00017889676,0.0,-0.122458436,0.08569145,-0.019083751,-0.08623504,-0.00027487415,-0.058527347,0.14861168,0.00027345063,0.063916735,0.00568598,2.6977916,0.053713392,5.8792515,0.10037327,0.82790715,0.4919238,0.24928688,0.13494039,inf,inf,inf,inf,1,1,1,1,2,0,2,1,4,0,1,1,1,0
602287441,602286828,45936231,42.3585499,-71.08724959999999,1.0098467,-1.30566,4.8968296,-5.0257313e-05,0.00017889676,0.0,-0.14842263,0.119842105,-0.027148284,-0.07578221,-0.00027487415,-0.058527347,0.14861168,0.0011922865,0.044191528,-0.037468854,2.6976423,0.053713392,5.8792515,0.11519623,0.8502113,0.49020374,0.2570158,0.13524583,inf,inf,inf,inf,1,1,1,1,2,0,2,1,4,0,1,1,1,0
602785088,602784557,45936231,42.3585499,-71.08724959999999,0.9124285,-1.1624581,4.8851013,-5.0257313e-05,0.00017889676,0.0,-0.15374,0.14980339,-0.02408684,-0.052349094,-0.00027487415,-0.058527347,0.14861168,-0.04070272,0.0060230773,0.03768887,2.6987646,0.053713392,5.8792515,0.11831379,0.8458558,0.49213502,0.25728157,0.13568306,inf,inf,inf,inf,1,1,1,1,2,0,2,1,4,0,1,1,1,0
603292793,603292239,45936231,42.3585499,-71.08724959999999,0.7999173,-1.0608767,4.8851995,-5.0257313e-05,0.00017889676,0.0,-0.16831748,0.1600832,-0.021673046,-0.0301415,-0.00027487415,-0.058527347,0.14861168,-0.025005069,0.042588435,0.031510767,2.6996481,0.053713392,5.8792515,0.111412525,0.87062526,0.49613234,0.26458228,0.13676552,inf,inf,inf,inf,1,1,1,1,2,0,2,1,4,0,1,1,1,0
603790552,603789967,45936231,42.3585499,-71.08724959999999,0.7232231,-0.9972122,4.8760076,-5.0257313e-05,0.00017889676,0.0,-0.16635655,0.15450904,-0.024560122,-0.029972835,-0.00027487415,-0.058527347,0.14861168,-0.039187152,0.069410734,-0.1609199,2.7008488,0.053713392,5.8792515,0.11323309,0.8564832,0.49138668,0.25811797,0.1355462,inf,inf,inf,inf,1,1,1,1,2,0,2,1,4,0,1,1,1,0
604288397,604287695,45936231,42.3585499,-71.08724959999999,0.66501385,-0.9663623,4.8840466,-5.0257313e-05,0.00017889676,0.0,-0.15300365,0.14422576,-0.023808619,-0.011775328,-0.00027487415,-0.058527347,0.14861168,0.056204457,0.086985596,-0.17237319,2.7005956,0.053713392,5.8792515,0.117314816,0.8732001,0.49310786,0.26101005,0.13587351,inf,inf,inf,inf,1,1,1,1,2,0,2,1,4,0,1,1,1,0
604786054,604785422,45936231,42.3585499,-71.08724959999999,0.6911221,-0.892883,4.908848,-5.0257313e-05,0.00017889676,0.0,-0.1197699,0.14285058,-0.00983262,0.024100302,-0.00027487415,-0.058527347,0.14861168,-0.0011300386,0.025412597,0.15269835,2.6985238,0.053713392,5.8792515,0.12504244,0.8425615,0.48998234,0.24448556,0.13393363,inf,inf,inf,inf,1,1,1,1,2,0,2,1,4,0,1,1,1,0
605283723,605283150,45936231,42.3585499,-71.08724959999999,0.6984677,-0.8293432,4.9270406,-5.0257313e-05,0.00017889676,0.0,-0.09370461,0.14377417,-0.005507547,0.027668409,-0.00027487415,-0.058527347,0.14861168,-0.008436948,0.051083636,0.09915391,2.7028055,0.053713392,5.8792515,0.1,0.8588826,0.49191597,0.24956521,0.13454677,inf,inf,inf,inf,1,1,1,1,2,0,2,1,4,0,1,1,1,0
605791498,605790832,45936231,42.3585499,-71.08724959999999,0.68068534,-0.73279226,4.919573,-5.0257313e-05,0.00017889676,0.0,-0.08186029,0.15467364,-0.0016403123,0.01170338,-0.00027487415,-0.058527347,0.14861168,0.047410008,0.042117015,0.040659074,2.704782,0.053713392,5.8792515,0.10290527,0.8279081,0.48427242,0.23467836,0.13193986,inf,inf,inf,inf,1,1,1,1,2,0,2,1,4,0,1,1,1,0
606289161,606288559,45936231,42.3585499,-71.08724959999999,0.64912444,-0.6314868,4.9249015,-5.0257313e-05,0.00017889676,0.0,-0.08113685,0.1688652,-0.00021609105,0.012447383,-0.00027487415,-0.058527347,0.14861168,-0.0122356545,0.03672025,0.16872884,2.7060807,0.053713392,5.8792515,0.105600834,0.8431182,0.48639378,0.24122755,0.13282958,inf,inf,inf,inf,1,1,1,1,2,0,2,1,4,0,1,1,1,0
606786914,606786286,45936231,42.3585499,-71.08724959999999,0.64088374,-0.5499735,4.9439554,-5.0257313e-05,0.00017889676,0.0,-0.06579433,0.17622034,0.00070743915,0.02069675,-0.00027487415,-0.058527347,0.14861168,-0.009442709,0.011746608,0.08170162,2.7074616,0.053713392,5.8792515,0.1,0.8214831,0.48479557,0.23408927,0.13196602,inf,inf,inf,inf,1,1,1,1,2,0,2,1,4,0,1,1,1,0
607294531,607293967,45936231,42.3585499,-71.08724959999999,0.6007316,-0.4914433,4.9464593,-5.0257313e-05,0.00017889676,0.0,-0.060122196,0.17508578,0.008231178,0.020105198,-0.00027487415,-0.058527347,0.14861168,0.011310232,0.0001914329,-0.033490572,2.708819,0.053713392,5.8792515,0.1,0.8290234,0.48612276,0.23536439,0.13221954,inf,inf,inf,inf,1,1,1,1,2,0,2,1,4,0,1,1,1,0
607792256,607791694,45936231,42.3585499,-71.08724959999999,0.6026775,-0.53095317,4.9467087,-5.0257313e-05,0.00017889676,0.0,-0.04321882,0.14079423,0.01100957,0.013452947,-0.00027487415,-0.058527347,0.14861168,0.027991781,0.023665437,-0.046391737,2.7102103,0.053713392,5.8792515,0.1,0.8077571,0.48453957,0.22885695,0.13141286,inf,inf,inf,inf,1,1,1,1,2,0,2,1,4,0,1,1,1,0
608290040,608289421,45936231,42.3585499,-71.08724959999999,0.5929108,-0.58697855,4.939842,-5.0257313e-05,0.00017889676,0.0,-0.028130472,0.106328845,0.004560389,-0.002089059,-0.00027487415,-0.058527347,0.14861168,0.0020809406,0.024724597,0.0665565,2.7113433,0.053713392,5.8792515,0.1,0.8103581,0.47964287,0.22868778,0.13060085,inf,inf,inf,inf,1,1,1,1,2,0,2,1,4,0,1,1,1,0
608787680,608787147,45936231,42.3585499,-71.08724959999999,0.5793532,-0.5695187,4.934922,-5.0257313e-05,0.00017889676,0.0,-0.013896169,0.104195505,-0.0001739086,-0.009949669,-0.00027487415,-0.058527347,0.14861168,0.05124295,-0.0004923847,0.014809461,2.7128196,0.053713392,5.8792515,0.1,0.79308504,0.47901472,0.22505148,0.13026482,inf,inf,inf,inf,1,1,1,1,2,0,2,1,4,0,1,1,1,0
609285593,609284873,45936231,42.3585499,-71.08724959999999,0.59395397,-0.58895415,4.930892,-5.0257313e-05,0.00017889676,0.0,7.223459e-05,0.088993035,0.013003737,0.0019188261,-0.00027487415,-0.058527347,0.14861168,-0.028753372,0.05090595,0.23850204,2.7138968,0.053713392,5.8792515,0.1,0.7889448,0.47690186,0.2200501,0.12929504,inf,inf,inf,inf,1,1,1,1,2,0,2,1,4,0,1,1,1,0
609793238,609792554,45936231,42.3585499,-71.08724959999999,0.5967446,-0.62954897,4.926641,-5.0257313e-05,0.00017889676,0.0,0.00925631,0.07322138,0.0033189063,-0.006829742,-0.00027487415,-0.058527347,0.14861168,0.011501749,-0.017993402,0.061036892,2.7152586,0.053713392,5.8792515,0.105442524,0.780137,0.4747789,0.22319588,0.12956207,inf,inf,inf,inf,1,1,1,1,2,0,2,1,4,0,1,1,1,0
610290868,610290280,45936231,42.3585499,-71.08724959999999,0.56941277,-0.7032659,4.931572,-5.0257313e-05,0.00017889676,0.0,0.00442992,0.04474723,0.009777351,0.0026539292,-0.00027487415,-0.058527347,0.14861168,0.052281264,-0.046619065,-0.077101246,2.7170715,0.053713392,5.8792515,0.1,0.79136974,0.47709745,0.22929794,0.13064608,inf,inf,inf,inf,1,1,1,1,2,0,2,1,4,0,1,1,1,0
610788536,610788006,45936231,42.3585499,-71.08724959999999,0.56388456,-0.77969944,4.936229,-5.0257313e-05,0.00017889676,0.0,0.011685949,0.01948742,0.010950273,0.009877093,-0.00027487415,-0.058527347,0.14861168,0.005589968,0.004497668,0.040534697,2.7182865,0.053713392,5.8792515,0.108193874,0.75714064,0.47122324,0.21117704,0.12764989,inf,inf,inf,inf,1,1,1,1,2,0,2,1,4,0,1,1,1,0
611286310,611285732,45936231,42.3585499,-71.08724959999999,0.5515589,-0.84938055,4.948468,-5.0257313e-05,0.00017889676,0.0,0.0122606605,-0.0007131784,0.009640174,0.011856974,-0.00027487415,-0.058527347,0.14861168,0.015993189,0.019521622,0.089315265,2.7197502,0.053713392,5.8792515,0.1,0.7716709,0.47490117,0.2214077,0.129531,inf,inf,inf,inf,1,1,1,1,2,0,2,1,4,0,1,1,1,0
611784104,611783458,45936231,42.3585499,-71.08724959999999,0.54664594,-0.8864193,4.9564204,-5.0257313e-05,0.00017889676,0.0,0.015099169,0.00014158737,0.013852169,0.017636634,-0.00027487415,-0.058527347,0.14861168,0.040546026,-0.0024945824,-0.2134876,2.7213845,0.053713392,5.8792515,0.1,0.74909544,0.46800232,0.21269001,0.12755853,inf,inf,inf,inf,1,1,1,1,2,0,2,1,4,0,1,1,1,0
612291691,612291138,45936231,42.3585499,-71.08724959999999,0.5529535,-0.9371533,4.9628983,-5.0257313e-05,0.00017889676,0.0,0.026686432,-0.005583336,0.012210504,0.011903674,-0.00027487415,-0.058527347,0.14861168,-0.022950588,-0.035225127,0.18648271,2.722433,0.053713392,5.8792515,0.1,0.7556398,0.46978018,0.21553254,0.12816969,inf,inf,inf,inf,1,1,1,1,2,0,2,1,4,0,1,1,1,0
612789436,612788863,45936231,42.3585499,-71.08724959999999,0.56284,-0.9931679,4.957296,-5.0257313e-05,0.00017889676,0.0,0.033236418,-0.013035637,0.015504329,0.004404782,-0.00027487415,-0.058527347,0.14861168,-0.033123326,-0.07951997,-0.20600736,2.7190926,0.053713392,5.8792515,0.1,0.7378836,0.46845722,0.21072012,0.12749268,inf,inf,inf,inf,1,1,1,1,2,0,2,1,4,0,1,1,1,0
613287142,613286588,45936231,42.3585499,-71.08724959999999,0.61645615,-1.0895137,4.948598,-5.0257313e-05,0.00017889676,0.0,0.057194535,-0.039631628,0.0153001705,-0.0039986265,-0.00027487415,-0.058527347,0.14861168,-0.046845295,-0.055750065,0.11942223,2.723526,0.053713392,5.8792515,0.1,0.75613874,0.4734222,0.22316593,0.12986104,inf,inf,inf,inf,1,1,1,1,2,0,2,1,4,0,1,1,1,0
613794909,613794268,45936231,42.3585499,-71.08724959999999,0.6603916,-1.2111493,4.9336343,-5.0257313e-05,0.00017889676,0.0,0.07065398,-0.067893796,0.018350277,-0.0117592905,-0.00027487415,-0.058527347,0.14861168,-0.028388634,-0.07605296,-0.14889823,2.7238874,0.053713392,5.8792515,0.1,0.750137,0.47209388,0.2253705,0.13014501,inf,inf,inf,inf,1,1,1,1,2,0,2,1,4,0,1,1,1,0
614292554,614291993,45936231,42.3585499,-71.08724959999999,0.64362675,-1.2663779,4.927671,-5.0257313e-05,0.00017889676,0.0,0.057623588,-0.06467345,0.014132949,-0.013894084,-0.00027487415,-0.058527347,0.14861168,0.0034407775,-0.041944977,-0.16338998,2.724849,0.053713392,5.8792515,0.101201534,0.77306235,0.47742108,0.23783062,0.13234915,inf,inf,inf,inf,1,1,1,1,2,0,2,1,4,0,1,1,1,0
614790465,614789718,45936231,42.3585499,-71.08724959999999,0.62280643,-1.342075,4.9117856,-5.0257313e-05,0.00017889676,0.0,0.041420117,-0.07137039,0.0062803165,-0.026214462,-0.00027487415,-0.058527347,0.14861168,-0.02784286,0.029967014,-0.024258109,2.7253678,0.053713392,5.8792515,0.1,0.7653459,0.4794146,0.2367065,0.13271688,inf,inf,inf,inf,1,1,1,1,2,0,2,1,4,0,1,1,1,0
615287985,615287442,45936231,42.3585499,-71.08724959999999,0.61336595,-1.4007663,4.9226613,-5.0257313e-05,0.00017889676,0.0,0.03654952,-0.069764756,0.0012275013,-0.009406682,-0.00027487415,-0.058527347,0.14861168,0.00015247204,0.018059557,0.09790132,2.7273798,0.053713392,5.8792515,0.11112356,0.77095133,0.48022732,0.2345258,0.13249846,inf,inf,inf,inf,1,1,1,1,2,0,2,1,4,0,1,1,1,0
615785866,615785167,45936231,42.3585499,-71.08724959999999,0.62965786,-1.4539493,4.9456515,-5.0257313e-05,0.00017889676,0.0,0.043301955,-0.064596616,0.00078823767,0.010760657,-0.00027487415,-0.058527347,0.14861168,0.014170225,0.02104846,-0.09751866,2.728467,0.053713392,5.8792515,0.10935736,0.7507981,0.47447273,0.22527038,0.13064678,inf,inf,inf,inf,1,1,1,1,2,0,2,1,4,0,1,1,1,0
616293386,616292846,45936231,42.3585499,-71.08724959999999,0.6772754,-1.5002532,4.9522953,-5.0257313e-05,0.00017889676,0.0,0.061783973,-0.05784881,0.009571533,0.018879559,-0.00027487415,-0.058527347,0.14861168,0.02399048,-0.016288817,0.011986763,2.7295868,0.053713392,5.8792515,0.1,0.7612553,0.47705445,0.22794786,0.13119087,inf,inf,inf,inf,1,1,1,1,2,0,2,1,4,0,1,1,1,0
616791110,616790570,45936231,42.3585499,-71.08724959999999,0.71599644,-1.5533644,4.9680953,-5.0257313e-05,0.00017889676,0.0,0.07231829,-0.05373575,0.025142636,0.031487007,-0.00027487415,-0.058527347,0.14861168,0.066688955,0.015443763,-0.14019336,2.7299984,0.053713392,5.8792515,0.1,0.74906164,0.47776198,0.22547753,0.13110536,inf,inf,inf,inf,1,1,1,1,2,0,2,1,4,0,1,1,1,0
617288835,617288294,45936231,42.3585499,-71.08724959999999,0.71620905,-1.5976362,4.97281,-5.0257313e-05,0.00017889676,0.0,0.06670967,-0.04632327,0.04528352,0.038759217,-0.00027487415,-0.058527347,0.14861168,-0.0171118,0.068202816,0.22209415,2.7307823,0.053713392,5.8792515,0.1,0.7677035,0.4817194,0.23415838,0.1325718,inf,inf,inf,inf,1,1,1,1,2,0,2,1,4,0,1,1,1,0
617786676,617786018,45936231,42.3585499,-71.08724959999999,0.6846554,-1.6451956,4.979483,-5.0257313e-05,0.00017889676,0.0,0.051132534,-0.042912386,0.032220423,0.01619447,-0.00027487415,-0.058527347,0.14861168,0.0816873,-0.013804515,-0.19530341,2.7316513,0.053713392,5.8792515,0.1,0.76242816,0.4796167,0.23554547,0.13250364,inf,inf,inf,inf,1,1,1,1,2,0,2,1,4,0,1,1,1,0
618284445,618283741,45936231,42.3585499,-71.08724959999999,0.6413107,-1.7001636,4.982373,-5.0257313e-05,0.00017889676,0.0,0.032983594,-0.04628504,0.037070468,0.0176868,-0.00027487415,-0.058527347,0.14861168,0.029582722,-0.05216665,-0.018031776,2.732304,0.053713392,5.8792515,0.1,0.76618236,0.4796358,0.23227812,0.13197681,inf,inf,inf,inf,1,1,1,1,2,0,2,1,4,0,1,1,1,0
618792020,618791420,45936231,42.3585499,-71.08724959999999,0.6211663,-1.6780403,4.9756317,-5.0257313e-05,0.00017889676,0.0,0.026905838,-0.015209939,0.014595906,-0.014732611,-0.00027487415,-0.058527347,0.14861168,0.0081358515,-0.020111473,-0.0046236305,2.7329702,0.053713392,5.8792515,0.1,0.7470605,0.4789481,0.22396031,0.13094705,inf,inf,inf,inf,1,1,1,1,2,0,2,1,4,0,1,1,1,0
