timestamp,last_instance_change,instance_changed_count,accel_device_id,baro_device_id,gyro_device_id,mag_device_id,combined_test_ratio[0],combined_test_ratio[1],combined_test_ratio[2],combined_test_ratio[3],combined_test_ratio[4],combined_test_ratio[5],combined_test_ratio[6],combined_test_ratio[7],combined_test_ratio[8],relative_test_ratio[0],relative_test_ratio[1],relative_test_ratio[2],relative_test_ratio[3],relative_test_ratio[4],relative_test_ratio[5],relative_test_ratio[6],relative_test_ratio[7],relative_test_ratio[8],accumulated_gyro_error[0],accumulated_gyro_error[1],accumulated_gyro_error[2],accumulated_gyro_error[3],accumulated_accel_error[0],accumulated_accel_error[1],accumulated_accel_error[2],accumulated_accel_error[3],primary_instance,instances_available,healthy[0],healthy[1],healthy[2],healthy[3],healthy[4],healthy[5],healthy[6],healthy[7],healthy[8],gyro_fault_detected,accel_fault_detected
538637517,250772299,2,2490378,4028193,2490378,396321,0.026209965,0.026187051,0.026569668,0.026074354,nan,nan,nan,nan,nan,1.0,1.0,1.0,0.0,nan,nan,nan,nan,nan,0.0,0.0,nan,nan,0.0,0.0,nan,nan,3,4,1,1,1,1,0,0,0,0,0,0,0
539643056,250772299,2,2490378,4028193,2490378,396321,0.040757768,0.04110592,0.04093314,0.040955916,nan,nan,nan,nan,nan,1.0,1.0,1.0,0.0,nan,nan,nan,nan,nan,0.0,0.0,nan,nan,0.0,0.0,nan,nan,3,4,1,1,1,1,0,0,0,0,0,0,0
540648779,250772299,2,2490378,4028193,2490378,396321,0.031622738,0.033055324,0.029065324,0.030735504,nan,nan,nan,nan,nan,1.0,1.0,1.0,0.0,nan,nan,nan,nan,nan,0.0,0.0,nan,nan,0.0,0.0,nan,nan,3,4,1,1,1,1,0,0,0,0,0,0,0
541653770,250772299,2,2490378,4028193,2490378,396321,0.036153737,0.033708375,0.03614702,0.033863407,nan,nan,nan,nan,nan,1.0,1.0,1.0,0.0,nan,nan,nan,nan,nan,0.0,0.0,nan,nan,0.0,0.0,nan,nan,3,4,1,1,1,1,0,0,0,0,0,0,0
542659181,250772299,2,2490378,4028193,2490378,396321,0.0232169,0.02401248,0.024801202,0.02536475,nan,nan,nan,nan,nan,1.0,1.0,1.0,0.0,nan,nan,nan,nan,nan,0.0,0.0,nan,nan,0.0,0.0,nan,nan,3,4,1,1,1,1,0,0,0,0,0,0,0
543664663,250772299,2,2490378,4028193,2490378,396321,0.04705122,0.045659896,0.04740732,0.046188246,nan,nan,nan,nan,nan,1.0,1.0,1.0,0.0,nan,nan,nan,nan,nan,0.0,0.0,nan,nan,0.0,0.0,nan,nan,3,4,1,1,1,1,0,0,0,0,0,0,0
544670058,250772299,2,2490378,4028193,2490378,396321,0.029867753,0.028915677,0.031733487,0.03027688,nan,nan,nan,nan,nan,1.0,1.0,1.0,0.0,nan,nan,nan,nan,nan,0.0,0.0,nan,nan,0.0,0.0,nan,nan,3,4,1,1,1,1,0,0,0,0,0,0,0
545675487,250772299,2,2490378,4028193,2490378,396321,0.017358838,0.016887203,0.016617639,0.015802894,nan,nan,nan,nan,nan,1.0,1.0,1.0,0.0,nan,nan,nan,nan,nan,0.0,0.0,nan,nan,0.0,0.0,nan,nan,3,4,1,1,1,1,0,0,0,0,0,0,0
546680921,250772299,2,2490378,4028193,2490378,396321,0.030245084,0.028439207,0.029419541,0.028505621,nan,nan,nan,nan,nan,1.0,1.0,1.0,0.0,nan,nan,nan,nan,nan,0.0,0.0,nan,nan,0.0,0.0,nan,nan,3,4,1,1,1,1,0,0,0,0,0,0,0
547686276,250772299,2,2490378,4028193,2490378,396321,0.041709527,0.039488953,0.041241497,0.040153813,nan,nan,nan,nan,nan,1.0,1.0,1.0,0.0,nan,nan,nan,nan,nan,0.0,0.0,nan,nan,0.0,0.0,nan,nan,3,4,1,1,1,1,0,0,0,0,0,0,0
548691671,250772299,2,2490378,4028193,2490378,396321,0.03961242,0.038199924,0.039254952,0.038803402,nan,nan,nan,nan,nan,1.0,1.0,1.0,0.0,nan,nan,nan,nan,nan,0.0,0.0,nan,nan,0.0,0.0,nan,nan,3,4,1,1,1,1,0,0,0,0,0,0,0
549697623,250772299,2,2490378,4028193,2490378,396321,0.0338354,0.035659146,0.033127192,0.034459393,nan,nan,nan,nan,nan,1.0,1.0,1.0,0.0,nan,nan,nan,nan,nan,0.0,0.0,nan,nan,0.0,0.0,nan,nan,3,4,1,1,1,1,0,0,0,0,0,0,0
550702535,250772299,2,2490378,4028193,2490378,396321,0.025068678,0.025776204,0.024674544,0.024756454,nan,nan,nan,nan,nan,1.0,1.0,1.0,0.0,nan,nan,nan,nan,nan,0.0,0.0,nan,nan,0.0,0.0,nan,nan,3,4,1,1,1,1,0,0,0,0,0,0,0
551707961,250772299,2,2490378,4028193,2490378,396321,0.014392712,0.014956293,0.013756508,0.01345274,nan,nan,nan,nan,nan,1.0,1.0,1.0,0.0,nan,nan,nan,nan,nan,0.0,0.0,nan,nan,0.0,0.0,nan,nan,3,4,1,1,1,1,0,0,0,0,0,0,0
552713435,250772299,2,2490378,4028193,2490378,396321,0.040756382,0.0406505,0.040751457,0.038937874,nan,nan,nan,nan,nan,1.0,1.0,1.0,0.0,nan,nan,nan,nan,nan,0.0,0.0,nan,nan,0.0,0.0,nan,nan,3,4,1,1,1,1,0,0,0,0,0,0,0
553718753,250772299,2,2490378,4028193,2490378,396321,0.03247737,0.029490847,0.03217021,0.029191725,nan,nan,nan,nan,nan,1.0,1.0,1.0,0.0,nan,nan,nan,nan,nan,0.0,0.0,nan,nan,0.0,0.0,nan,nan,3,4,1,1,1,1,0,0,0,0,0,0,0
554724256,250772299,2,2490378,4028193,2490378,396321,0.022599887,0.027529167,0.02247335,0.02754253,nan,nan,nan,nan,nan,1.0,1.0,1.0,0.0,nan,nan,nan,nan,nan,0.0,0.0,nan,nan,0.0,0.0,nan,nan,3,4,1,1,1,1,0,0,0,0,0,0,0
555729580,250772299,2,2490378,4028193,2490378,396321,0.011493712,0.0114781745,0.011796746,0.011324247,nan,nan,nan,nan,nan,1.0,1.0,1.0,0.0,nan,nan,nan,nan,nan,0.0,0.0,nan,nan,0.0,0.0,nan,nan,3,4,1,1,1,1,0,0,0,0,0,0,0
556735131,250772299,2,2490378,4028193,2490378,396321,0.018072873,0.016111445,0.01747079,0.017164027,nan,nan,nan,nan,nan,1.0,1.0,1.0,0.0,nan,nan,nan,nan,nan,0.0,0.0,nan,nan,0.0,0.0,nan,nan,3,4,1,1,1,1,0,0,0,0,0,0,0
557740473,250772299,2,2490378,4028193,2490378,396321,0.02464448,0.021972327,0.024604551,0.021863941,nan,nan,nan,nan,nan,1.0,1.0,1.0,0.0,nan,nan,nan,nan,nan,0.0,0.0,nan,nan,0.0,0.0,nan,nan,3,4,1,1,1,1,0,0,0,0,0,0,0
558745833,250772299,2,2490378,4028193,2490378,396321,0.041122347,0.037477106,0.041334745,0.03711666,nan,nan,nan,nan,nan,1.0,1.0,1.0,0.0,nan,nan,nan,nan,nan,0.0,0.0,nan,nan,0.0,0.0,nan,nan,3,4,1,1,1,1,0,0,0,0,0,0,0
559751369,250772299,2,2490378,4028193,2490378,396321,0.012563139,0.014650336,0.01217441,0.014926229,nan,nan,nan,nan,nan,1.0,1.0,1.0,0.0,nan,nan,nan,nan,nan,0.0,0.0,nan,nan,0.0,0.0,nan,nan,3,4,1,1,1,1,0,0,0,0,0,0,0
560756808,250772299,2,2490378,4028193,2490378,396321,0.0305999,0.029550117,0.03046644,0.030496012,nan,nan,nan,nan,nan,1.0,1.0,1.0,0.0,nan,nan,nan,nan,nan,0.0,0.0,nan,nan,0.0,0.0,nan,nan,3,4,1,1,1,1,0,0,0,0,0,0,0
561762099,250772299,2,2490378,4028193,2490378,396321,0.025261633,0.0276431,0.025425542,0.027987752,nan,nan,nan,nan,nan,1.0,1.0,1.0,0.0,nan,nan,nan,nan,nan,0.0,0.0,nan,nan,0.0,0.0,nan,nan,3,4,1,1,1,1,0,0,0,0,0,0,0
562767516,250772299,2,2490378,4028193,2490378,396321,0.018594619,0.017923944,0.018480754,0.017336378,nan,nan,nan,nan,nan,1.0,1.0,1.0,0.0,nan,nan,nan,nan,nan,0.0,0.0,nan,nan,0.0,0.0,nan,nan,3,4,1,1,1,1,0,0,0,0,0,0,0
563772952,250772299,2,2490378,4028193,2490378,396321,0.035401255,0.036899753,0.035943,0.0364556,nan,nan,nan,nan,nan,1.0,1.0,1.0,0.0,nan,nan,nan,nan,nan,0.0,0.0,nan,nan,0.0,0.0,nan,nan,3,4,1,1,1,1,0,0,0,0,0,0,0
564778410,250772299,2,2490378,4028193,2490378,396321,0.06796554,0.069183804,0.06807648,0.068237215,nan,nan,nan,nan,nan,1.0,1.0,1.0,0.0,nan,nan,nan,nan,nan,0.0,0.0,nan,nan,0.0,0.0,nan,nan,3,4,1,1,1,1,0,0,0,0,0,0,0
565783791,250772299,2,2490378,4028193,2490378,396321,0.04432363,0.044501666,0.044103473,0.043266524,nan,nan,nan,nan,nan,1.0,1.0,1.0,0.0,nan,nan,nan,nan,nan,0.0,0.0,nan,nan,0.0,0.0,nan,nan,3,4,1,1,1,1,0,0,0,0,0,0,0
566789287,250772299,2,2490378,4028193,2490378,396321,0.07445622,0.07486955,0.07387572,0.07522151,nan,nan,nan,nan,nan,1.0,1.0,1.0,0.0,nan,nan,nan,nan,nan,0.0,0.0,nan,nan,0.0,0.0,nan,nan,3,4,1,1,1,1,0,0,0,0,0,0,0
567794701,250772299,2,2490378,4028193,2490378,396321,0.10451886,0.104680546,0.10349402,0.10503313,nan,nan,nan,nan,nan,1.0,1.0,1.0,0.0,nan,nan,nan,nan,nan,0.0,0.0,nan,nan,0.0,0.0,nan,nan,3,4,1,1,1,1,0,0,0,0,0,0,0
568800196,250772299,2,2490378,4028193,2490378,396321,0.17722687,0.17795907,0.17844257,0.17783949,nan,nan,nan,nan,nan,1.0,1.0,1.0,0.0,nan,nan,nan,nan,nan,0.0,0.0,nan,nan,0.0,0.0,nan,nan,3,4,1,1,1,1,0,0,0,0,0,0,0
569805509,250772299,2,2490378,4028193,2490378,396321,0.03477172,0.03423956,0.03526704,0.03438737,nan,nan,nan,nan,nan,1.0,1.0,1.0,0.0,nan,nan,nan,nan,nan,0.0,0.0,nan,nan,0.0,0.0,nan,nan,3,4,1,1,1,1,0,0,0,0,0,0,0
570810898,250772299,2,2490378,4028193,2490378,396321,0.037991755,0.034337997,0.03717447,0.034828413,nan,nan,nan,nan,nan,1.0,1.0,1.0,0.0,nan,nan,nan,nan,nan,0.0,0.0,nan,nan,0.0,0.0,nan,nan,3,4,1,1,1,1,0,0,0,0,0,0,0
571816288,250772299,2,2490378,4028193,2490378,396321,0.016516658,0.016790299,0.016168598,0.01660671,nan,nan,nan,nan,nan,1.0,1.0,1.0,0.0,nan,nan,nan,nan,nan,0.0,0.0,nan,nan,0.0,0.0,nan,nan,3,4,1,1,1,1,0,0,0,0,0,0,0
572821772,250772299,2,2490378,4028193,2490378,396321,0.035844333,0.041866943,0.036476668,0.041017756,nan,nan,nan,nan,nan,1.0,1.0,1.0,0.0,nan,nan,nan,nan,nan,0.0,0.0,nan,nan,0.0,0.0,nan,nan,3,4,1,1,1,1,0,0,0,0,0,0,0
573827275,250772299,2,2490378,4028193,2490378,396321,0.027216867,0.024193147,0.026648419,0.024649868,nan,nan,nan,nan,nan,1.0,1.0,1.0,0.0,nan,nan,nan,nan,nan,0.0,0.0,nan,nan,0.0,0.0,nan,nan,3,4,1,1,1,1,0,0,0,0,0,0,0
574832589,250772299,2,2490378,4028193,2490378,396321,0.03437225,0.029817596,0.035482578,0.030132517,nan,nan,nan,nan,nan,1.0,1.0,1.0,0.0,nan,nan,nan,nan,nan,0.0,0.0,nan,nan,0.0,0.0,nan,nan,3,4,1,1,1,1,0,0,0,0,0,0,0
575837974,250772299,2,2490378,4028193,2490378,396321,0.07424421,0.060464565,0.07047588,0.06068748,nan,nan,nan,nan,nan,1.0,1.0,1.0,0.0,nan,nan,nan,nan,nan,0.0,0.0,nan,nan,0.0,0.0,nan,nan,3,4,1,1,1,1,0,0,0,0,0,0,0
576843436,250772299,2,2490378,4028193,2490378,396321,0.03680955,0.042883556,0.0327015,0.042744264,nan,nan,nan,nan,nan,1.0,1.0,1.0,0.0,nan,nan,nan,nan,nan,0.0,0.0,nan,nan,0.0,0.0,nan,nan,3,4,1,1,1,1,0,0,0,0,0,0,0
577848811,250772299,2,2490378,4028193,2490378,396321,0.048890166,0.033966284,0.043112516,0.034072086,nan,nan,nan,nan,nan,1.0,1.0,1.0,0.0,nan,nan,nan,nan,nan,0.0,0.0,nan,nan,0.0,0.0,nan,nan,3,4,1,1,1,1,0,0,0,0,0,0,0
578854777,250772299,2,2490378,4028193,2490378,396321,0.024150155,0.028474517,0.019190794,0.028399395,nan,nan,nan,nan,nan,1.0,1.0,1.0,0.0,nan,nan,nan,nan,nan,0.0,0.0,nan,nan,0.0,0.0,nan,nan,3,4,1,1,1,1,0,0,0,0,0,0,0
579859649,250772299,2,2490378,4028193,2490378,396321,0.03894416,0.051162735,0.041677155,0.05118873,nan,nan,nan,nan,nan,1.0,1.0,1.0,0.0,nan,nan,nan,nan,nan,0.0,0.0,nan,nan,0.0,0.0,nan,nan,3,4,1,1,1,1,0,0,0,0,0,0,0
580865062,250772299,2,2490378,4028193,2490378,396321,0.035042346,0.013714555,0.031518165,0.016723983,nan,nan,nan,nan,nan,1.0,1.0,1.0,0.0,nan,nan,nan,nan,nan,0.0,0.0,nan,nan,0.0,0.0,nan,nan,3,4,1,1,1,1,0,0,0,0,0,0,0
581870551,250772299,2,2490378,4028193,2490378,396321,0.063016586,0.045579635,0.058254883,0.046921104,nan,nan,nan,nan,nan,1.0,1.0,1.0,0.0,nan,nan,nan,nan,nan,0.0,0.0,nan,nan,0.0,0.0,nan,nan,3,4,1,1,1,1,0,0,0,0,0,0,0
582875983,250772299,2,2490378,4028193,2490378,396321,0.016712729,0.015189388,0.017656468,0.014292639,nan,nan,nan,nan,nan,1.0,1.0,1.0,0.0,nan,nan,nan,nan,nan,0.0,0.0,nan,nan,0.0,0.0,nan,nan,3,4,1,1,1,1,0,0,0,0,0,0,0
583881334,250772299,2,2490378,4028193,2490378,396321,0.03204311,0.030520797,0.028872553,0.030278705,nan,nan,nan,nan,nan,1.0,1.0,1.0,0.0,nan,nan,nan,nan,nan,0.0,0.0,nan,nan,0.0,0.0,nan,nan,3,4,1,1,1,1,0,0,0,0,0,0,0
584886773,250772299,2,2490378,4028193,2490378,396321,0.035909258,0.039337363,0.0369384,0.03935835,nan,nan,nan,nan,nan,1.0,1.0,1.0,0.0,nan,nan,nan,nan,nan,0.0,0.0,nan,nan,0.0,0.0,nan,nan,3,4,1,1,1,1,0,0,0,0,0,0,0
585892201,250772299,2,2490378,4028193,2490378,396321,0.011533639,0.011431927,0.01334339,0.01121425,nan,nan,nan,nan,nan,1.0,1.0,1.0,0.0,nan,nan,nan,nan,nan,0.0,0.0,nan,nan,0.0,0.0,nan,nan,3,4,1,1,1,1,0,0,0,0,0,0,0
586897713,250772299,2,2490378,4028193,2490378,396321,0.044697665,0.049160004,0.039523736,0.04938855,nan,nan,nan,nan,nan,1.0,1.0,1.0,0.0,nan,nan,nan,nan,nan,0.0,0.0,nan,nan,0.0,0.0,nan,nan,3,4,1,1,1,1,0,0,0,0,0,0,0
587903297,250772299,2,2490378,4028193,2490378,396321,0.030230047,0.01889188,0.027772805,0.020019554,nan,nan,nan,nan,nan,1.0,1.0,1.0,0.0,nan,nan,nan,nan,nan,0.0,0.0,nan,nan,0.0,0.0,nan,nan,3,4,1,1,1,1,0,0,0,0,0,0,0
588908412,250772299,2,2490378,4028193,2490378,396321,0.035847664,0.030391203,0.03511365,0.031248892,nan,nan,nan,nan,nan,1.0,1.0,1.0,0.0,nan,nan,nan,nan,nan,0.0,0.0,nan,nan,0.0,0.0,nan,nan,3,4,1,1,1,1,0,0,0,0,0,0,0
589913915,250772299,2,2490378,4028193,2490378,396321,0.022751689,0.030725408,0.02433262,0.030499186,nan,nan,nan,nan,nan,1.0,1.0,1.0,0.0,nan,nan,nan,nan,nan,0.0,0.0,nan,nan,0.0,0.0,nan,nan,3,4,1,1,1,1,0,0,0,0,0,0,0
590919291,250772299,2,2490378,4028193,2490378,396321,0.06334217,0.055442233,0.062107567,0.055459652,nan,nan,nan,nan,nan,1.0,1.0,1.0,0.0,nan,nan,nan,nan,nan,0.0,0.0,nan,nan,0.0,0.0,nan,nan,3,4,1,1,1,1,0,0,0,0,0,0,0
591924827,250772299,2,2490378,4028193,2490378,396321,0.06531434,0.058930382,0.064519264,0.059020247,nan,nan,nan,nan,nan,1.0,1.0,1.0,0.0,nan,nan,nan,nan,nan,0.0,0.0,nan,nan,0.0,0.0,nan,nan,3,4,1,1,1,1,0,0,0,0,0,0,0
592930116,250772299,2,2490378,4028193,2490378,396321,0.039245136,0.046649113,0.03909553,0.04704059,nan,nan,nan,nan,nan,1.0,1.0,1.0,0.0,nan,nan,nan,nan,nan,0.0,0.0,nan,nan,0.0,0.0,nan,nan,3,4,1,1,1,1,0,0,0,0,0,0,0
593935512,250772299,2,2490378,4028193,2490378,396321,0.015796598,0.03167802,0.021593502,0.032062158,nan,nan,nan,nan,nan,1.0,1.0,1.0,0.0,nan,nan,nan,nan,nan,0.0,0.0,nan,nan,0.0,0.0,nan,nan,3,4,1,1,1,1,0,0,0,0,0,0,0
594940986,250772299,2,2490378,4028193,2490378,396321,0.07356298,0.028475065,0.06851718,0.02813808,nan,nan,nan,nan,nan,1.0,1.0,1.0,0.0,nan,nan,nan,nan,nan,0.0,0.0,nan,nan,0.0,0.0,nan,nan,3,4,1,1,1,1,0,0,0,0,0,0,0
595946337,250772299,2,2490378,4028193,2490378,396321,0.037158255,0.036739144,0.045955516,0.03658813,nan,nan,nan,nan,nan,1.0,1.0,1.0,0.0,nan,nan,nan,nan,nan,0.0,0.0,nan,nan,0.0,0.0,nan,nan,3,4,1,1,1,1,0,0,0,0,0,0,0
596952158,250772299,2,2490378,4028193,2490378,396321,0.06289766,0.023898877,0.05872099,0.02313552,nan,nan,nan,nan,nan,1.0,1.0,1.0,0.0,nan,nan,nan,nan,nan,0.0,0.0,nan,nan,0.0,0.0,nan,nan,3,4,1,1,1,1,0,0,0,0,0,0,0
597957229,250772299,2,2490378,4028193,2490378,396321,0.03808386,0.025718058,0.036422286,0.02620192,nan,nan,nan,nan,nan,1.0,1.0,1.0,0.0,nan,nan,nan,nan,nan,0.0,0.0,nan,nan,0.0,0.0,nan,nan,3,4,1,1,1,1,0,0,0,0,0,0,0
598962608,250772299,2,2490378,4028193,2490378,396321,0.044580072,0.018805938,0.04380382,0.018080203,nan,nan,nan,nan,nan,1.0,1.0,1.0,0.0,nan,nan,nan,nan,nan,0.0,0.0,nan,nan,0.0,0.0,nan,nan,3,4,1,1,1,1,0,0,0,0,0,0,0
599968075,250772299,2,2490378,4028193,2490378,396321,0.04239904,0.026812106,0.042905435,0.026022702,nan,nan,nan,nan,nan,1.0,1.0,1.0,0.0,nan,nan,nan,nan,nan,0.0,0.0,nan,nan,0.0,0.0,nan,nan,3,4,1,1,1,1,0,0,0,0,0,0,0
600973444,250772299,2,2490378,4028193,2490378,396321,0.045393303,0.03629396,0.046962462,0.035282828,nan,nan,nan,nan,nan,1.0,1.0,1.0,0.0,nan,nan,nan,nan,nan,0.0,0.0,nan,nan,0.0,0.0,nan,nan,3,4,1,1,1,1,0,0,0,0,0,0,0
601978864,250772299,2,2490378,4028193,2490378,396321,0.029890137,0.024016812,0.029314198,0.024456568,nan,nan,nan,nan,nan,1.0,1.0,1.0,0.0,nan,nan,nan,nan,nan,0.0,0.0,nan,nan,0.0,0.0,nan,nan,3,4,1,1,1,1,0,0,0,0,0,0,0
602984378,250772299,2,2490378,4028193,2490378,396321,0.0368597,0.034821462,0.03598914,0.03524232,nan,nan,nan,nan,nan,1.0,1.0,1.0,0.0,nan,nan,nan,nan,nan,0.0,0.0,nan,nan,0.0,0.0,nan,nan,3,4,1,1,1,1,0,0,0,0,0,0,0
603989661,250772299,2,2490378,4028193,2490378,396321,0.038946405,0.03556154,0.03797268,0.036022034,nan,nan,nan,nan,nan,1.0,1.0,1.0,0.0,nan,nan,nan,nan,nan,0.0,0.0,nan,nan,0.0,0.0,nan,nan,3,4,1,1,1,1,0,0,0,0,0,0,0
604995122,250772299,2,2490378,4028193,2490378,396321,0.07359853,0.06860454,0.073689796,0.06913001,nan,nan,nan,nan,nan,1.0,1.0,1.0,0.0,nan,nan,nan,nan,nan,0.0,0.0,nan,nan,0.0,0.0,nan,nan,3,4,1,1,1,1,0,0,0,0,0,0,0
606000450,250772299,2,2490378,4028193,2490378,396321,0.044077933,0.044569407,0.045086324,0.04352472,nan,nan,nan,nan,nan,1.0,1.0,1.0,0.0,nan,nan,nan,nan,nan,0.0,0.0,nan,nan,0.0,0.0,nan,nan,3,4,1,1,1,1,0,0,0,0,0,0,0
607005968,250772299,2,2490378,4028193,2490378,396321,0.013468104,0.015723258,0.013428198,0.01659435,nan,nan,nan,nan,nan,1.0,1.0,1.0,0.0,nan,nan,nan,nan,nan,0.0,0.0,nan,nan,0.0,0.0,nan,nan,3,4,1,1,1,1,0,0,0,0,0,0,0
608011320,250772299,2,2490378,4028193,2490378,396321,0.03557681,0.036201093,0.03535109,0.03757982,nan,nan,nan,nan,nan,1.0,1.0,1.0,0.0,nan,nan,nan,nan,nan,0.0,0.0,nan,nan,0.0,0.0,nan,nan,3,4,1,1,1,1,0,0,0,0,0,0,0
609016674,250772299,2,2490378,4028193,2490378,396321,0.035443228,0.029509619,0.033966944,0.030193713,nan,nan,nan,nan,nan,1.0,1.0,1.0,0.0,nan,nan,nan,nan,nan,0.0,0.0,nan,nan,0.0,0.0,nan,nan,3,4,1,1,1,1,0,0,0,0,0,0,0
610022075,250772299,2,2490378,4028193,2490378,396321,0.0772824,0.06809826,0.076368034,0.06884469,nan,nan,nan,nan,nan,1.0,1.0,1.0,0.0,nan,nan,nan,nan,nan,0.0,0.0,nan,nan,0.0,0.0,nan,nan,3,4,1,1,1,1,0,0,0,0,0,0,0
611027560,250772299,2,2490378,4028193,2490378,396321,0.04230091,0.032632414,0.0414358,0.033230584,nan,nan,nan,nan,nan,1.0,1.0,1.0,0.0,nan,nan,nan,nan,nan,0.0,0.0,nan,nan,0.0,0.0,nan,nan,3,4,1,1,1,1,0,0,0,0,0,0,0
612032924,250772299,2,2490378,4028193,2490378,396321,0.05079122,0.0398928,0.049869426,0.040746137,nan,nan,nan,nan,nan,1.0,1.0,1.0,0.0,nan,nan,nan,nan,nan,0.0,0.0,nan,nan,0.0,0.0,nan,nan,3,4,1,1,1,1,0,0,0,0,0,0,0
613038329,250772299,2,2490378,4028193,2490378,396321,0.06622079,0.067056745,0.063817024,0.06615782,nan,nan,nan,nan,nan,1.0,1.0,1.0,0.0,nan,nan,nan,nan,nan,0.0,0.0,nan,nan,0.0,0.0,nan,nan,3,4,1,1,1,1,0,0,0,0,0,0,0
614043869,250772299,2,2490378,4028193,2490378,396321,0.044665743,0.042827435,0.046760976,0.043946482,nan,nan,nan,nan,nan,1.0,1.0,1.0,0.0,nan,nan,nan,nan,nan,0.0,0.0,nan,nan,0.0,0.0,nan,nan,3,4,1,1,1,1,0,0,0,0,0,0,0
615049125,250772299,2,2490378,4028193,2490378,396321,0.02704241,0.03294877,0.028169166,0.032205038,nan,nan,nan,nan,nan,1.0,1.0,1.0,0.0,nan,nan,nan,nan,nan,0.0,0.0,nan,nan,0.0,0.0,nan,nan,3,4,1,1,1,1,0,0,0,0,0,0,0
616054707,250772299,2,2490378,4028193,2490378,396321,0.03281526,0.030929875,0.031081222,0.029618554,nan,nan,nan,nan,nan,1.0,1.0,1.0,0.0,nan,nan,nan,nan,nan,0.0,0.0,nan,nan,0.0,0.0,nan,nan,3,4,1,1,1,1,0,0,0,0,0,0,0
617060089,250772299,2,2490378,4028193,2490378,396321,0.0346473,0.030005792,0.03343336,0.029782893,nan,nan,nan,nan,nan,1.0,1.0,1.0,0.0,nan,nan,nan,nan,nan,0.0,0.0,nan,nan,0.0,0.0,nan,nan,3,4,1,1,1,1,0,0,0,0,0,0,0
618065308,250772299,2,2490378,4028193,2490378,396321,0.020364804,0.02696323,0.022805002,0.027542286,nan,nan,nan,nan,nan,1.0,1.0,1.0,0.0,nan,nan,nan,nan,nan,0.0,0.0,nan,nan,0.0,0.0,nan,nan,3,4,1,1,1,1,0,0,0,0,0,0,0
619070752,250772299,2,2490378,4028193,2490378,396321,0.022367448,0.027850954,0.023624714,0.02955669,nan,nan,nan,nan,nan,1.0,1.0,1.0,0.0,nan,nan,nan,nan,nan,0.0,0.0,nan,nan,0.0,0.0,nan,nan,3,4,1,1,1,1,0,0,0,0,0,0,0
620076111,250772299,2,2490378,4028193,2490378,396321,0.021576555,0.020242786,0.022561274,0.01953591,nan,nan,nan,nan,nan,1.0,1.0,1.0,0.0,nan,nan,nan,nan,nan,0.0,0.0,nan,nan,0.0,0.0,nan,nan,3,4,1,1,1,1,0,0,0,0,0,0,0
621081613,250772299,2,2490378,4028193,2490378,396321,0.098160625,0.09677015,0.097907074,0.09767309,nan,nan,nan,nan,nan,1.0,1.0,1.0,0.0,nan,nan,nan,nan,nan,0.0,0.0,nan,nan,0.0,0.0,nan,nan,3,4,1,1,1,1,0,0,0,0,0,0,0
622086944,250772299,2,2490378,4028193,2490378,396321,0.014721728,0.013375569,0.013527229,0.01279068,nan,nan,nan,nan,nan,1.0,1.0,1.0,0.0,nan,nan,nan,nan,nan,0.0,0.0,nan,nan,0.0,0.0,nan,nan,3,4,1,1,1,1,0,0,0,0,0,0,0
623092316,250772299,2,2490378,4028193,2490378,396321,0.016991202,0.013798078,0.016572125,0.014189715,nan,nan,nan,nan,nan,1.0,1.0,1.0,0.0,nan,nan,nan,nan,nan,0.0,0.0,nan,nan,0.0,0.0,nan,nan,3,4,1,1,1,1,0,0,0,0,0,0,0
624097822,250772299,2,2490378,4028193,2490378,396321,0.038003746,0.035950895,0.036696132,0.035146378,nan,nan,nan,nan,nan,1.0,1.0,1.0,0.0,nan,nan,nan,nan,nan,0.0,0.0,nan,nan,0.0,0.0,nan,nan,3,4,1,1,1,1,0,0,0,0,0,0,0
625103559,250772299,2,2490378,4028193,2490378,396321,0.039352704,0.049673494,0.039296985,0.04963312,nan,nan,nan,nan,nan,1.0,1.0,1.0,0.0,nan,nan,nan,nan,nan,0.0,0.0,nan,nan,0.0,0.0,nan,nan,3,4,1,1,1,1,0,0,0,0,0,0,0
626109468,250772299,2,2490378,4028193,2490378,396321,0.029511314,0.028056258,0.03283211,0.028570563,nan,nan,nan,nan,nan,1.0,1.0,1.0,0.0,nan,nan,nan,nan,nan,0.0,0.0,nan,nan,0.0,0.0,nan,nan,3,4,1,1,1,1,0,0,0,0,0,0,0
627113938,250772299,2,2490378,4028193,2490378,396321,0.0324547,0.02811026,0.031443886,0.02765521,nan,nan,nan,nan,nan,1.0,1.0,1.0,0.0,nan,nan,nan,nan,nan,0.0,0.0,nan,nan,0.0,0.0,nan,nan,3,4,1,1,1,1,0,0,0,0,0,0,0
628119307,250772299,2,2490378,4028193,2490378,396321,0.04025826,0.029261028,0.038707543,0.028878793,nan,nan,nan,nan,nan,1.0,1.0,1.0,0.0,nan,nan,nan,nan,nan,0.0,0.0,nan,nan,0.0,0.0,nan,nan,3,4,1,1,1,1,0,0,0,0,0,0,0
629124788,250772299,2,2490378,4028193,2490378,396321,0.053010486,0.030917536,0.0502448,0.030568939,nan,nan,nan,nan,nan,1.0,1.0,1.0,0.0,nan,nan,nan,nan,nan,0.0,0.0,nan,nan,0.0,0.0,nan,nan,3,4,1,1,1,1,0,0,0,0,0,0,0
630130093,250772299,2,2490378,4028193,2490378,396321,0.035807285,0.03059529,0.0407121,0.03124259,nan,nan,nan,nan,nan,1.0,1.0,1.0,0.0,nan,nan,nan,nan,nan,0.0,0.0,nan,nan,0.0,0.0,nan,nan,3,4,1,1,1,1,0,0,0,0,0,0,0
631135575,250772299,2,2490378,4028193,2490378,396321,0.046520155,0.056978896,0.04928845,0.05743146,nan,nan,nan,nan,nan,1.0,1.0,1.0,0.0,nan,nan,nan,nan,nan,0.0,0.0,nan,nan,0.0,0.0,nan,nan,3,4,1,1,1,1,0,0,0,0,0,0,0
632140885,250772299,2,2490378,4028193,2490378,396321,0.053901993,0.03882924,0.053061754,0.03864202,nan,nan,nan,nan,nan,1.0,1.0,1.0,0.0,nan,nan,nan,nan,nan,0.0,0.0,nan,nan,0.0,0.0,nan,nan,3,4,1,1,1,1,0,0,0,0,0,0,0
633146310,250772299,2,2490378,4028193,2490378,396321,0.037028626,0.04113231,0.032390155,0.04050211,nan,nan,nan,nan,nan,1.0,1.0,1.0,0.0,nan,nan,nan,nan,nan,0.0,0.0,nan,nan,0.0,0.0,nan,nan,3,4,1,1,1,1,0,0,0,0,0,0,0
634151796,250772299,2,2490378,4028193,2490378,396321,0.038255766,0.02800887,0.036038697,0.027598925,nan,nan,nan,nan,nan,1.0,1.0,1.0,0.0,nan,nan,nan,nan,nan,0.0,0.0,nan,nan,0.0,0.0,nan,nan,3,4,1,1,1,1,0,0,0,0,0,0,0
635157386,250772299,2,2490378,4028193,2490378,396321,0.031312473,0.033818185,0.030830141,0.033467054,nan,nan,nan,nan,nan,1.0,1.0,1.0,0.0,nan,nan,nan,nan,nan,0.0,0.0,nan,nan,0.0,0.0,nan,nan,3,4,1,1,1,1,0,0,0,0,0,0,0
636162564,250772299,2,2490378,4028193,2490378,396321,0.053134058,0.05526155,0.05521788,0.05564739,nan,nan,nan,nan,nan,1.0,1.0,1.0,0.0,nan,nan,nan,nan,nan,0.0,0.0,nan,nan,0.0,0.0,nan,nan,3,4,1,1,1,1,0,0,0,0,0,0,0
637167854,250772299,2,2490378,4028193,2490378,396321,0.045729842,0.047929477,0.045556646,0.047534637,nan,nan,nan,nan,nan,1.0,1.0,1.0,0.0,nan,nan,nan,nan,nan,0.0,0.0,nan,nan,0.0,0.0,nan,nan,3,4,1,1,1,1,0,0,0,0,0,0,0
638173289,250772299,2,2490378,4028193,2490378,396321,0.020473093,0.015068988,0.022409443,0.015385777,nan,nan,nan,nan,nan,1.0,1.0,1.0,0.0,nan,nan,nan,nan,nan,0.0,0.0,nan,nan,0.0,0.0,nan,nan,3,4,1,1,1,1,0,0,0,0,0,0,0
639178635,250772299,2,2490378,4028193,2490378,396321,0.025338221,0.02394582,0.026399,0.024270834,nan,nan,nan,nan,nan,1.0,1.0,1.0,0.0,nan,nan,nan,nan,nan,0.0,0.0,nan,nan,0.0,0.0,nan,nan,3,4,1,1,1,1,0,0,0,0,0,0,0
640184083,250772299,2,2490378,4028193,2490378,396321,0.05010296,0.046060473,0.04797309,0.046253882,nan,nan,nan,nan,nan,1.0,1.0,1.0,0.0,nan,nan,nan,nan,nan,0.0,0.0,nan,nan,0.0,0.0,nan,nan,3,4,1,1,1,1,0,0,0,0,0,0,0
641189625,250772299,2,2490378,4028193,2490378,396321,0.030969404,0.01896867,0.030042805,0.019216511,nan,nan,nan,nan,nan,1.0,1.0,1.0,0.0,nan,nan,nan,nan,nan,0.0,0.0,nan,nan,0.0,0.0,nan,nan,3,4,1,1,1,1,0,0,0,0,0,0,0
642194844,250772299,2,2490378,4028193,2490378,396321,0.016671343,0.021809956,0.019420475,0.021779345,nan,nan,nan,nan,nan,1.0,1.0,1.0,0.0,nan,nan,nan,nan,nan,0.0,0.0,nan,nan,0.0,0.0,nan,nan,3,4,1,1,1,1,0,0,0,0,0,0,0
643200167,250772299,2,2490378,4028193,2490378,396321,0.02970814,0.01837523,0.027149532,0.018645048,nan,nan,nan,nan,nan,1.0,1.0,1.0,0.0,nan,nan,nan,nan,nan,0.0,0.0,nan,nan,0.0,0.0,nan,nan,3,4,1,1,1,1,0,0,0,0,0,0,0
644205609,250772299,2,2490378,4028193,2490378,396321,0.034641724,0.023135345,0.03165442,0.02326877,nan,nan,nan,nan,nan,1.0,1.0,1.0,0.0,nan,nan,nan,nan,nan,0.0,0.0,nan,nan,0.0,0.0,nan,nan,3,4,1,1,1,1,0,0,0,0,0,0,0
645211072,250772299,2,2490378,4028193,2490378,396321,0.032417867,0.029426293,0.028834146,0.028087135,nan,nan,nan,nan,nan,1.0,1.0,1.0,0.0,nan,nan,nan,nan,nan,0.0,0.0,nan,nan,0.0,0.0,nan,nan,3,4,1,1,1,1,0,0,0,0,0,0,0
646216330,250772299,2,2490378,4028193,2490378,396321,0.041963756,0.034553126,0.04282337,0.035347387,nan,nan,nan,nan,nan,1.0,1.0,1.0,0.0,nan,nan,nan,nan,nan,0.0,0.0,nan,nan,0.0,0.0,nan,nan,3,4,1,1,1,1,0,0,0,0,0,0,0
647221766,250772299,2,2490378,4028193,2490378,396321,0.035534434,0.028288938,0.036830842,0.02797517,nan,nan,nan,nan,nan,1.0,1.0,1.0,0.0,nan,nan,nan,nan,nan,0.0,0.0,nan,nan,0.0,0.0,nan,nan,3,4,1,1,1,1,0,0,0,0,0,0,0
648227140,250772299,2,2490378,4028193,2490378,396321,0.03172656,0.028463732,0.031732433,0.028167512,nan,nan,nan,nan,nan,1.0,1.0,1.0,0.0,nan,nan,nan,nan,nan,0.0,0.0,nan,nan,0.0,0.0,nan,nan,3,4,1,1,1,1,0,0,0,0,0,0,0
649232561,250772299,2,2490378,4028193,2490378,396321,0.03053071,0.024756854,0.029969703,0.024349434,nan,nan,nan,nan,nan,1.0,1.0,1.0,0.0,nan,nan,nan,nan,nan,0.0,0.0,nan,nan,0.0,0.0,nan,nan,3,4,1,1,1,1,0,0,0,0,0,0,0
650237953,250772299,2,2490378,4028193,2490378,396321,0.04406529,0.039615855,0.04299394,0.039613813,nan,nan,nan,nan,nan,1.0,1.0,1.0,0.0,nan,nan,nan,nan,nan,0.0,0.0,nan,nan,0.0,0.0,nan,nan,3,4,1,1,1,1,0,0,0,0,0,0,0
651243289,250772299,2,2490378,4028193,2490378,396321,0.03287169,0.031211369,0.031681888,0.03134783,nan,nan,nan,nan,nan,1.0,1.0,1.0,0.0,nan,nan,nan,nan,nan,0.0,0.0,nan,nan,0.0,0.0,nan,nan,3,4,1,1,1,1,0,0,0,0,0,0,0
652248626,250772299,2,2490378,4028193,2490378,396321,0.026325412,0.033229303,0.026130496,0.03347473,nan,nan,nan,nan,nan,1.0,1.0,1.0,0.0,nan,nan,nan,nan,nan,0.0,0.0,nan,nan,0.0,0.0,nan,nan,3,4,1,1,1,1,0,0,0,0,0,0,0
653254104,250772299,2,2490378,4028193,2490378,396321,0.02688484,0.03251279,0.02816839,0.032553248,nan,nan,nan,nan,nan,1.0,1.0,1.0,0.0,nan,nan,nan,nan,nan,0.0,0.0,nan,nan,0.0,0.0,nan,nan,3,4,1,1,1,1,0,0,0,0,0,0,0
654259460,250772299,2,2490378,4028193,2490378,396321,0.016446738,0.022112675,0.01820835,0.022048336,nan,nan,nan,nan,nan,1.0,1.0,1.0,0.0,nan,nan,nan,nan,nan,0.0,0.0,nan,nan,0.0,0.0,nan,nan,3,4,1,1,1,1,0,0,0,0,0,0,0
655265200,250772299,2,2490378,4028193,2490378,396321,0.024092533,0.018485356,0.022905456,0.019174075,nan,nan,nan,nan,nan,1.0,1.0,1.0,0.0,nan,nan,nan,nan,nan,0.0,0.0,nan,nan,0.0,0.0,nan,nan,3,4,1,1,1,1,0,0,0,0,0,0,0
656270142,250772299,2,2490378,4028193,2490378,396321,0.022450672,0.010795793,0.023923306,0.010811249,nan,nan,nan,nan,nan,1.0,1.0,1.0,0.0,nan,nan,nan,nan,nan,0.0,0.0,nan,nan,0.0,0.0,nan,nan,3,4,1,1,1,1,0,0,0,0,0,0,0
657275525,250772299,2,2490378,4028193,2490378,396321,0.027295595,0.017205274,0.027843378,0.018035375,nan,nan,nan,nan,nan,1.0,1.0,1.0,0.0,nan,nan,nan,nan,nan,0.0,0.0,nan,nan,0.0,0.0,nan,nan,3,4,1,1,1,1,0,0,0,0,0,0,0
658280996,250772299,2,2490378,4028193,2490378,396321,0.03359381,0.027664639,0.032208398,0.028479964,nan,nan,nan,nan,nan,1.0,1.0,1.0,0.0,nan,nan,nan,nan,nan,0.0,0.0,nan,nan,0.0,0.0,nan,nan,3,4,1,1,1,1,0,0,0,0,0,0,0
659286345,250772299,2,2490378,4028193,2490378,396321,0.022788273,0.03286653,0.02255403,0.0330764,nan,nan,nan,nan,nan,1.0,1.0,1.0,0.0,nan,nan,nan,nan,nan,0.0,0.0,nan,nan,0.0,0.0,nan,nan,3,4,1,1,1,1,0,0,0,0,0,0,0
660291774,250772299,2,2490378,4028193,2490378,396321,0.019504279,0.017590456,0.017756445,0.017741866,nan,nan,nan,nan,nan,1.0,1.0,1.0,0.0,nan,nan,nan,nan,nan,0.0,0.0,nan,nan,0.0,0.0,nan,nan,3,4,1,1,1,1,0,0,0,0,0,0,0
661297081,250772299,2,2490378,4028193,2490378,396321,0.049553387,0.03762003,0.0496916,0.037456166,nan,nan,nan,nan,nan,1.0,1.0,1.0,0.0,nan,nan,nan,nan,nan,0.0,0.0,nan,nan,0.0,0.0,nan,nan,3,4,1,1,1,1,0,0,0,0,0,0,0
662302438,250772299,2,2490378,4028193,2490378,396321,0.02449486,0.03477247,0.02797493,0.0351487,nan,nan,nan,nan,nan,1.0,1.0,1.0,0.0,nan,nan,nan,nan,nan,0.0,0.0,nan,nan,0.0,0.0,nan,nan,3,4,1,1,1,1,0,0,0,0,0,0,0
663307832,250772299,2,2490378,4028193,2490378,396321,0.044635333,0.030006379,0.044601165,0.030287813,nan,nan,nan,nan,nan,1.0,1.0,1.0,0.0,nan,nan,nan,nan,nan,0.0,0.0,nan,nan,0.0,0.0,nan,nan,3,4,1,1,1,1,0,0,0,0,0,0,0
664313541,250772299,2,2490378,4028193,2490378,396321,0.09203166,0.08274541,0.09039633,0.083000325,nan,nan,nan,nan,nan,1.0,1.0,1.0,0.0,nan,nan,nan,nan,nan,0.0,0.0,nan,nan,0.0,0.0,nan,nan,3,4,1,1,1,1,0,0,0,0,0,0,0
665318594,250772299,2,2490378,4028193,2490378,396321,0.07096898,0.06877253,0.07265891,0.068453565,nan,nan,nan,nan,nan,1.0,1.0,1.0,0.0,nan,nan,nan,nan,nan,0.0,0.0,nan,nan,0.0,0.0,nan,nan,3,4,1,1,1,1,0,0,0,0,0,0,0
666323904,250772299,2,2490378,4028193,2490378,396321,0.029602244,0.011431539,0.029134478,0.010562751,nan,nan,nan,nan,nan,1.0,1.0,1.0,0.0,nan,nan,nan,nan,nan,0.0,0.0,nan,nan,0.0,0.0,nan,nan,3,4,1,1,1,1,0,0,0,0,0,0,0
667329259,250772299,2,2490378,4028193,2490378,396321,0.013384985,0.013239577,0.013780276,0.012759812,nan,nan,nan,nan,nan,1.0,1.0,1.0,0.0,nan,nan,nan,nan,nan,0.0,0.0,nan,nan,0.0,0.0,nan,nan,3,4,1,1,1,1,0,0,0,0,0,0,0
668334640,250772299,2,2490378,4028193,2490378,396321,0.018196713,0.018070979,0.017132116,0.017981654,nan,nan,nan,nan,nan,1.0,1.0,1.0,0.0,nan,nan,nan,nan,nan,0.0,0.0,nan,nan,0.0,0.0,nan,nan,3,4,1,1,1,1,0,0,0,0,0,0,0
669340036,250772299,2,2490378,4028193,2490378,396321,0.011808086,0.01187865,0.01219823,0.011865633,nan,nan,nan,nan,nan,1.0,1.0,1.0,0.0,nan,nan,nan,nan,nan,0.0,0.0,nan,nan,0.0,0.0,nan,nan,3,4,1,1,1,1,0,0,0,0,0,0,0
670345386,250772299,2,2490378,4028193,2490378,396321,0.028626947,0.021166457,0.02935691,0.02092934,nan,nan,nan,nan,nan,1.0,1.0,1.0,0.0,nan,nan,nan,nan,nan,0.0,0.0,nan,nan,0.0,0.0,nan,nan,3,4,1,1,1,1,0,0,0,0,0,0,0
671350929,250772299,2,2490378,4028193,2490378,396321,0.028655477,0.032874607,0.029834261,0.032780863,nan,nan,nan,nan,nan,1.0,1.0,1.0,0.0,nan,nan,nan,nan,nan,0.0,0.0,nan,nan,0.0,0.0,nan,nan,3,4,1,1,1,1,0,0,0,0,0,0,0
672356109,250772299,2,2490378,4028193,2490378,396321,0.023316525,0.021492038,0.022676954,0.021640942,nan,nan,nan,nan,nan,1.0,1.0,1.0,0.0,nan,nan,nan,nan,nan,0.0,0.0,nan,nan,0.0,0.0,nan,nan,3,4,1,1,1,1,0,0,0,0,0,0,0
673361472,250772299,2,2490378,4028193,2490378,396321,0.02000094,0.022849254,0.020234995,0.023001324,nan,nan,nan,nan,nan,1.0,1.0,1.0,0.0,nan,nan,nan,nan,nan,0.0,0.0,nan,nan,0.0,0.0,nan,nan,3,4,1,1,1,1,0,0,0,0,0,0,0
674367256,250772299,2,2490378,4028193,2490378,396321,0.021142522,0.019197896,0.021938622,0.019341018,nan,nan,nan,nan,nan,1.0,1.0,1.0,0.0,nan,nan,nan,nan,nan,0.0,0.0,nan,nan,0.0,0.0,nan,nan,3,4,1,1,1,1,0,0,0,0,0,0,0
675372230,250772299,2,2490378,4028193,2490378,396321,0.024561414,0.030105796,0.025136445,0.03011733,nan,nan,nan,nan,nan,1.0,1.0,1.0,0.0,nan,nan,nan,nan,nan,0.0,0.0,nan,nan,0.0,0.0,nan,nan,3,4,1,1,1,1,0,0,0,0,0,0,0
676377564,250772299,2,2490378,4028193,2490378,396321,0.037979674,0.0369214,0.039029554,0.036840465,nan,nan,nan,nan,nan,1.0,1.0,1.0,0.0,nan,nan,nan,nan,nan,0.0,0.0,nan,nan,0.0,0.0,nan,nan,3,4,1,1,1,1,0,0,0,0,0,0,0
677382939,250772299,2,2490378,4028193,2490378,396321,0.058852255,0.064463995,0.059039425,0.06441741,nan,nan,nan,nan,nan,1.0,1.0,1.0,0.0,nan,nan,nan,nan,nan,0.0,0.0,nan,nan,0.0,0.0,nan,nan,3,4,1,1,1,1,0,0,0,0,0,0,0
678388341,250772299,2,2490378,4028193,2490378,396321,0.06267978,0.06316484,0.06362311,0.06299928,nan,nan,nan,nan,nan,1.0,1.0,1.0,0.0,nan,nan,nan,nan,nan,0.0,0.0,nan,nan,0.0,0.0,nan,nan,3,4,1,1,1,1,0,0,0,0,0,0,0
679393797,250772299,2,2490378,4028193,2490378,396321,0.06347398,0.05753073,0.06372322,0.05769057,nan,nan,nan,nan,nan,1.0,1.0,1.0,0.0,nan,nan,nan,nan,nan,0.0,0.0,nan,nan,0.0,0.0,nan,nan,3,4,1,1,1,1,0,0,0,0,0,0,0
680399062,250772299,2,2490378,4028193,2490378,396321,0.065066285,0.06099193,0.065530315,0.061144162,nan,nan,nan,nan,nan,1.0,1.0,1.0,0.0,nan,nan,nan,nan,nan,0.0,0.0,nan,nan,0.0,0.0,nan,nan,3,4,1,1,1,1,0,0,0,0,0,0,0
681404445,250772299,2,2490378,4028193,2490378,396321,0.06608655,0.06147557,0.06690018,0.06162467,nan,nan,nan,nan,nan,1.0,1.0,1.0,0.0,nan,nan,nan,nan,nan,0.0,0.0,nan,nan,0.0,0.0,nan,nan,3,4,1,1,1,1,0,0,0,0,0,0,0
682409798,250772299,2,2490378,4028193,2490378,396321,0.031496637,0.038945474,0.03285003,0.038434707,nan,nan,nan,nan,nan,1.0,1.0,1.0,0.0,nan,nan,nan,nan,nan,0.0,0.0,nan,nan,0.0,0.0,nan,nan,3,4,1,1,1,1,0,0,0,0,0,0,0
683415113,250772299,2,2490378,4028193,2490378,396321,0.052582383,0.046921507,0.053368077,0.04704923,nan,nan,nan,nan,nan,1.0,1.0,1.0,0.0,nan,nan,nan,nan,nan,0.0,0.0,nan,nan,0.0,0.0,nan,nan,3,4,1,1,1,1,0,0,0,0,0,0,0
684420889,250772299,2,2490378,4028193,2490378,396321,0.043028824,0.030871818,0.044578496,0.030128319,nan,nan,nan,nan,nan,1.0,1.0,1.0,0.0,nan,nan,nan,nan,nan,0.0,0.0,nan,nan,0.0,0.0,nan,nan,3,4,1,1,1,1,0,0,0,0,0,0,0
685425875,250772299,2,2490378,4028193,2490378,396321,0.036151744,0.030604338,0.03665395,0.03067343,nan,nan,nan,nan,nan,1.0,1.0,1.0,0.0,nan,nan,nan,nan,nan,0.0,0.0,nan,nan,0.0,0.0,nan,nan,3,4,1,1,1,1,0,0,0,0,0,0,0
686431173,250772299,2,2490378,4028193,2490378,396321,0.055835336,0.06400764,0.0554747,0.063932694,nan,nan,nan,nan,nan,1.0,1.0,1.0,0.0,nan,nan,nan,nan,nan,0.0,0.0,nan,nan,0.0,0.0,nan,nan,3,4,1,1,1,1,0,0,0,0,0,0,0
687436522,250772299,2,2490378,4028193,2490378,396321,0.018906323,0.028282115,0.018626293,0.028192751,nan,nan,nan,nan,nan,1.0,1.0,1.0,0.0,nan,nan,nan,nan,nan,0.0,0.0,nan,nan,0.0,0.0,nan,nan,3,4,1,1,1,1,0,0,0,0,0,0,0
688441998,250772299,2,2490378,4028193,2490378,396321,0.03516628,0.028674375,0.03509392,0.02868528,nan,nan,nan,nan,nan,1.0,1.0,1.0,0.0,nan,nan,nan,nan,nan,0.0,0.0,nan,nan,0.0,0.0,nan,nan,3,4,1,1,1,1,0,0,0,0,0,0,0
689447361,250772299,2,2490378,4028193,2490378,396321,0.028235633,0.026652835,0.027629737,0.026458526,nan,nan,nan,nan,nan,1.0,1.0,1.0,0.0,nan,nan,nan,nan,nan,0.0,0.0,nan,nan,0.0,0.0,nan,nan,3,4,1,1,1,1,0,0,0,0,0,0,0
690452629,250772299,2,2490378,4028193,2490378,396321,0.037970815,0.04576747,0.03827843,0.04579861,nan,nan,nan,nan,nan,1.0,1.0,1.0,0.0,nan,nan,nan,nan,nan,0.0,0.0,nan,nan,0.0,0.0,nan,nan,3,4,1,1,1,1,0,0,0,0,0,0,0
691457944,250772299,2,2490378,4028193,2490378,396321,0.041123904,0.037740838,0.04024681,0.037557587,nan,nan,nan,nan,nan,1.0,1.0,1.0,0.0,nan,nan,nan,nan,nan,0.0,0.0,nan,nan,0.0,0.0,nan,nan,3,4,1,1,1,1,0,0,0,0,0,0,0
692463351,250772299,2,2490378,4028193,2490378,396321,0.036141176,0.044755556,0.037182912,0.044832528,nan,nan,nan,nan,nan,1.0,1.0,1.0,0.0,nan,nan,nan,nan,nan,0.0,0.0,nan,nan,0.0,0.0,nan,nan,3,4,1,1,1,1,0,0,0,0,0,0,0
693469126,250772299,2,2490378,4028193,2490378,396321,0.027404163,0.03561784,0.028490767,0.035699237,nan,nan,nan,nan,nan,1.0,1.0,1.0,0.0,nan,nan,nan,nan,nan,0.0,0.0,nan,nan,0.0,0.0,nan,nan,3,4,1,1,1,1,0,0,0,0,0,0,0
694474056,250772299,2,2490378,4028193,2490378,396321,0.046708494,0.049534623,0.047245074,0.04968521,nan,nan,nan,nan,nan,1.0,1.0,1.0,0.0,nan,nan,nan,nan,nan,0.0,0.0,nan,nan,0.0,0.0,nan,nan,3,4,1,1,1,1,0,0,0,0,0,0,0
695479458,250772299,2,2490378,4028193,2490378,396321,0.049374886,0.045173544,0.048611544,0.044293877,nan,nan,nan,nan,nan,1.0,1.0,1.0,0.0,nan,nan,nan,nan,nan,0.0,0.0,nan,nan,0.0,0.0,nan,nan,3,4,1,1,1,1,0,0,0,0,0,0,0
696484703,250772299,2,2490378,4028193,2490378,396321,0.04366385,0.04661052,0.04428491,0.04678461,nan,nan,nan,nan,nan,1.0,1.0,1.0,0.0,nan,nan,nan,nan,nan,0.0,0.0,nan,nan,0.0,0.0,nan,nan,3,4,1,1,1,1,0,0,0,0,0,0,0
697490125,250772299,2,2490378,4028193,2490378,396321,0.038858775,0.044300348,0.039615165,0.044515975,nan,nan,nan,nan,nan,1.0,1.0,1.0,0.0,nan,nan,nan,nan,nan,0.0,0.0,nan,nan,0.0,0.0,nan,nan,3,4,1,1,1,1,0,0,0,0,0,0,0
698495438,250772299,2,2490378,4028193,2490378,396321,0.059735283,0.05886462,0.0599097,0.0576924,nan,nan,nan,nan,nan,1.0,1.0,1.0,0.0,nan,nan,nan,nan,nan,0.0,0.0,nan,nan,0.0,0.0,nan,nan,3,4,1,1,1,1,0,0,0,0,0,0,0
699500811,250772299,2,2490378,4028193,2490378,396321,0.049245317,0.04410465,0.048943844,0.043876432,nan,nan,nan,nan,nan,1.0,1.0,1.0,0.0,nan,nan,nan,nan,nan,0.0,0.0,nan,nan,0.0,0.0,nan,nan,3,4,1,1,1,1,0,0,0,0,0,0,0
700506093,250772299,2,2490378,4028193,2490378,396321,0.04133352,0.04158491,0.041590456,0.041185305,nan,nan,nan,nan,nan,1.0,1.0,1.0,0.0,nan,nan,nan,nan,nan,0.0,0.0,nan,nan,0.0,0.0,nan,nan,3,4,1,1,1,1,0,0,0,0,0,0,0
701511442,250772299,2,2490378,4028193,2490378,396321,0.03414527,0.03815531,0.034099534,0.03863834,nan,nan,nan,nan,nan,1.0,1.0,1.0,0.0,nan,nan,nan,nan,nan,0.0,0.0,nan,nan,0.0,0.0,nan,nan,3,4,1,1,1,1,0,0,0,0,0,0,0
702516845,250772299,2,2490378,4028193,2490378,396321,0.027639614,0.023357097,0.02756923,0.023535274,nan,nan,nan,nan,nan,1.0,1.0,1.0,0.0,nan,nan,nan,nan,nan,0.0,0.0,nan,nan,0.0,0.0,nan,nan,3,4,1,1,1,1,0,0,0,0,0,0,0
703522241,250772299,2,2490378,4028193,2490378,396321,0.019558258,0.020140626,0.019651592,0.019687898,nan,nan,nan,nan,nan,1.0,1.0,1.0,0.0,nan,nan,nan,nan,nan,0.0,0.0,nan,nan,0.0,0.0,nan,nan,3,4,1,1,1,1,0,0,0,0,0,0,0
704527750,250772299,2,2490378,4028193,2490378,396321,0.01888996,0.013275202,0.018937942,0.013356034,nan,nan,nan,nan,nan,1.0,1.0,1.0,0.0,nan,nan,nan,nan,nan,0.0,0.0,nan,nan,0.0,0.0,nan,nan,3,4,1,1,1,1,0,0,0,0,0,0,0
705532883,250772299,2,2490378,4028193,2490378,396321,0.03127798,0.030745372,0.031237178,0.031077884,nan,nan,nan,nan,nan,1.0,1.0,1.0,0.0,nan,nan,nan,nan,nan,0.0,0.0,nan,nan,0.0,0.0,nan,nan,3,4,1,1,1,1,0,0,0,0,0,0,0
706538308,250772299,2,2490378,4028193,2490378,396321,0.03402197,0.03425244,0.034107856,0.033603314,nan,nan,nan,nan,nan,1.0,1.0,1.0,0.0,nan,nan,nan,nan,nan,0.0,0.0,nan,nan,0.0,0.0,nan,nan,3,4,1,1,1,1,0,0,0,0,0,0,0
707543532,250772299,2,2490378,4028193,2490378,396321,0.027805237,0.025034286,0.02719652,0.024863837,nan,nan,nan,nan,nan,1.0,1.0,1.0,0.0,nan,nan,nan,nan,nan,0.0,0.0,nan,nan,0.0,0.0,nan,nan,3,4,1,1,1,1,0,0,0,0,0,0,0
708548900,250772299,2,2490378,4028193,2490378,396321,0.023064286,0.023611521,0.022946093,0.023638988,nan,nan,nan,nan,nan,1.0,1.0,1.0,0.0,nan,nan,nan,nan,nan,0.0,0.0,nan,nan,0.0,0.0,nan,nan,3,4,1,1,1,1,0,0,0,0,0,0,0
709554252,250772299,2,2490378,4028193,2490378,396321,0.037988476,0.034963973,0.036649413,0.03496523,nan,nan,nan,nan,nan,1.0,1.0,1.0,0.0,nan,nan,nan,nan,nan,0.0,0.0,nan,nan,0.0,0.0,nan,nan,3,4,1,1,1,1,0,0,0,0,0,0,0
710559599,250772299,2,2490378,4028193,2490378,396321,0.022045678,0.027230585,0.020849146,0.027952086,nan,nan,nan,nan,nan,1.0,1.0,1.0,0.0,nan,nan,nan,nan,nan,0.0,0.0,nan,nan,0.0,0.0,nan,nan,3,4,1,1,1,1,0,0,0,0,0,0,0
711565226,250772299,2,2490378,4028193,2490378,396321,0.029770441,0.02383881,0.028823283,0.02389457,nan,nan,nan,nan,nan,1.0,1.0,1.0,0.0,nan,nan,nan,nan,nan,0.0,0.0,nan,nan,0.0,0.0,nan,nan,3,4,1,1,1,1,0,0,0,0,0,0,0
712570219,250772299,2,2490378,4028193,2490378,396321,0.02086917,0.03030003,0.021856036,0.03125454,nan,nan,nan,nan,nan,1.0,1.0,1.0,0.0,nan,nan,nan,nan,nan,0.0,0.0,nan,nan,0.0,0.0,nan,nan,3,4,1,1,1,1,0,0,0,0,0,0,0
713575974,250772299,2,2490378,4028193,2490378,396321,0.022148192,0.027857898,0.022872876,0.028678643,nan,nan,nan,nan,nan,1.0,1.0,1.0,0.0,nan,nan,nan,nan,nan,0.0,0.0,nan,nan,0.0,0.0,nan,nan,3,4,1,1,1,1,0,0,0,0,0,0,0
714580904,250772299,2,2490378,4028193,2490378,396321,0.024795933,0.02874089,0.02579424,0.029171646,nan,nan,nan,nan,nan,1.0,1.0,1.0,0.0,nan,nan,nan,nan,nan,0.0,0.0,nan,nan,0.0,0.0,nan,nan,3,4,1,1,1,1,0,0,0,0,0,0,0
715586413,250772299,2,2490378,4028193,2490378,396321,0.012386344,0.012524237,0.01249949,0.012604751,nan,nan,nan,nan,nan,1.0,1.0,1.0,0.0,nan,nan,nan,nan,nan,0.0,0.0,nan,nan,0.0,0.0,nan,nan,3,4,1,1,1,1,0,0,0,0,0,0,0
716591642,250772299,2,2490378,4028193,2490378,396321,0.018911095,0.020700607,0.019224022,0.020707931,nan,nan,nan,nan,nan,1.0,1.0,1.0,0.0,nan,nan,nan,nan,nan,0.0,0.0,nan,nan,0.0,0.0,nan,nan,3,4,1,1,1,1,0,0,0,0,0,0,0
717597066,250772299,2,2490378,4028193,2490378,396321,0.0183824,0.016386224,0.018903207,0.016004927,nan,nan,nan,nan,nan,1.0,1.0,1.0,0.0,nan,nan,nan,nan,nan,0.0,0.0,nan,nan,0.0,0.0,nan,nan,3,4,1,1,1,1,0,0,0,0,0,0,0
718602348,250772299,2,2490378,4028193,2490378,396321,0.020888768,0.024771847,0.02062241,0.02531573,nan,nan,nan,nan,nan,1.0,1.0,1.0,0.0,nan,nan,nan,nan,nan,0.0,0.0,nan,nan,0.0,0.0,nan,nan,3,4,1,1,1,1,0,0,0,0,0,0,0
719607721,250772299,2,2490378,4028193,2490378,396321,0.02226848,0.026905246,0.021711513,0.027689368,nan,nan,nan,nan,nan,1.0,1.0,1.0,0.0,nan,nan,nan,nan,nan,0.0,0.0,nan,nan,0.0,0.0,nan,nan,3,4,1,1,1,1,0,0,0,0,0,0,0
720612929,250772299,2,2490378,4028193,2490378,396321,0.028194655,0.02076167,0.02749731,0.021471243,nan,nan,nan,nan,nan,1.0,1.0,1.0,0.0,nan,nan,nan,nan,nan,0.0,0.0,nan,nan,0.0,0.0,nan,nan,3,4,1,1,1,1,0,0,0,0,0,0,0
721618261,250772299,2,2490378,4028193,2490378,396321,0.027180303,0.031556927,0.026339604,0.032348353,nan,nan,nan,nan,nan,1.0,1.0,1.0,0.0,nan,nan,nan,nan,nan,0.0,0.0,nan,nan,0.0,0.0,nan,nan,3,4,1,1,1,1,0,0,0,0,0,0,0
722623599,250772299,2,2490378,4028193,2490378,396321,0.03659864,0.035110895,0.037058093,0.034685683,nan,nan,nan,nan,nan,1.0,1.0,1.0,0.0,nan,nan,nan,nan,nan,0.0,0.0,nan,nan,0.0,0.0,nan,nan,3,4,1,1,1,1,0,0,0,0,0,0,0
723629074,250772299,2,2490378,4028193,2490378,396321,0.010600172,0.0127884,0.011721873,0.012366986,nan,nan,nan,nan,nan,1.0,1.0,1.0,0.0,nan,nan,nan,nan,nan,0.0,0.0,nan,nan,0.0,0.0,nan,nan,3,4,1,1,1,1,0,0,0,0,0,0,0
724634273,250772299,2,2490378,4028193,2490378,396321,0.015764084,0.016398631,0.015442889,0.016632754,nan,nan,nan,nan,nan,1.0,1.0,1.0,0.0,nan,nan,nan,nan,nan,0.0,0.0,nan,nan,0.0,0.0,nan,nan,3,4,1,1,1,1,0,0,0,0,0,0,0
725639592,250772299,2,2490378,4028193,2490378,396321,0.035233125,0.025348254,0.03403471,0.02626215,nan,nan,nan,nan,nan,1.0,1.0,1.0,0.0,nan,nan,nan,nan,nan,0.0,0.0,nan,nan,0.0,0.0,nan,nan,3,4,1,1,1,1,0,0,0,0,0,0,0
726645011,250772299,2,2490378,4028193,2490378,396321,0.049254015,0.055126652,0.04957893,0.055572253,nan,nan,nan,nan,nan,1.0,1.0,1.0,0.0,nan,nan,nan,nan,nan,0.0,0.0,nan,nan,0.0,0.0,nan,nan,3,4,1,1,1,1,0,0,0,0,0,0,0
727650361,250772299,2,2490378,4028193,2490378,396321,0.028243897,0.022758376,0.028737482,0.022659738,nan,nan,nan,nan,nan,1.0,1.0,1.0,0.0,nan,nan,nan,nan,nan,0.0,0.0,nan,nan,0.0,0.0,nan,nan,3,4,1,1,1,1,0,0,0,0,0,0,0
728655706,250772299,2,2490378,4028193,2490378,396321,0.023925425,0.026268601,0.022854675,0.026229758,nan,nan,nan,nan,nan,1.0,1.0,1.0,0.0,nan,nan,nan,nan,nan,0.0,0.0,nan,nan,0.0,0.0,nan,nan,3,4,1,1,1,1,0,0,0,0,0,0,0
729660974,250772299,2,2490378,4028193,2490378,396321,0.049987495,0.048676856,0.050060276,0.0490277,nan,nan,nan,nan,nan,1.0,1.0,1.0,0.0,nan,nan,nan,nan,nan,0.0,0.0,nan,nan,0.0,0.0,nan,nan,3,4,1,1,1,1,0,0,0,0,0,0,0
730666253,250772299,2,2490378,4028193,2490378,396321,0.035208203,0.030776344,0.034540582,0.030878756,nan,nan,nan,nan,nan,1.0,1.0,1.0,0.0,nan,nan,nan,nan,nan,0.0,0.0,nan,nan,0.0,0.0,nan,nan,3,4,1,1,1,1,0,0,0,0,0,0,0
731671579,250772299,2,2490378,4028193,2490378,396321,0.047567897,0.044869572,0.047821004,0.04461669,nan,nan,nan,nan,nan,1.0,1.0,1.0,0.0,nan,nan,nan,nan,nan,0.0,0.0,nan,nan,0.0,0.0,nan,nan,3,4,1,1,1,1,0,0,0,0,0,0,0
732676928,250772299,2,2490378,4028193,2490378,396321,0.08148457,0.08757625,0.08136089,0.087861046,nan,nan,nan,nan,nan,1.0,1.0,1.0,0.0,nan,nan,nan,nan,nan,0.0,0.0,nan,nan,0.0,0.0,nan,nan,3,4,1,1,1,1,0,0,0,0,0,0,0
733682537,250772299,2,2490378,4028193,2490378,396321,0.037361585,0.043535,0.037658054,0.043802164,nan,nan,nan,nan,nan,1.0,1.0,1.0,0.0,nan,nan,nan,nan,nan,0.0,0.0,nan,nan,0.0,0.0,nan,nan,3,4,1,1,1,1,0,0,0,0,0,0,0
734687658,250772299,2,2490378,4028193,2490378,396321,0.05698167,0.05942844,0.056969233,0.059899457,nan,nan,nan,nan,nan,1.0,1.0,1.0,0.0,nan,nan,nan,nan,nan,0.0,0.0,nan,nan,0.0,0.0,nan,nan,3,4,1,1,1,1,0,0,0,0,0,0,0
735692907,250772299,2,2490378,4028193,2490378,396321,0.053176366,0.05029609,0.05308713,0.049706705,nan,nan,nan,nan,nan,1.0,1.0,1.0,0.0,nan,nan,nan,nan,nan,0.0,0.0,nan,nan,0.0,0.0,nan,nan,3,4,1,1,1,1,0,0,0,0,0,0,0
736698228,250772299,2,2490378,4028193,2490378,396321,0.03953836,0.03529501,0.038676817,0.03547825,nan,nan,nan,nan,nan,1.0,1.0,1.0,0.0,nan,nan,nan,nan,nan,0.0,0.0,nan,nan,0.0,0.0,nan,nan,3,4,1,1,1,1,0,0,0,0,0,0,0
737703559,250772299,2,2490378,4028193,2490378,396321,0.037785776,0.0268456,0.036587805,0.025857734,nan,nan,nan,nan,nan,1.0,1.0,1.0,0.0,nan,nan,nan,nan,nan,0.0,0.0,nan,nan,0.0,0.0,nan,nan,3,4,1,1,1,1,0,0,0,0,0,0,0
738708916,250772299,2,2490378,4028193,2490378,396321,0.04317013,0.039124284,0.042931944,0.038610183,nan,nan,nan,nan,nan,1.0,1.0,1.0,0.0,nan,nan,nan,nan,nan,0.0,0.0,nan,nan,0.0,0.0,nan,nan,3,4,1,1,1,1,0,0,0,0,0,0,0
739714499,250772299,2,2490378,4028193,2490378,396321,0.08027971,0.08695804,0.08053355,0.0876322,nan,nan,nan,nan,nan,1.0,1.0,1.0,0.0,nan,nan,nan,nan,nan,0.0,0.0,nan,nan,0.0,0.0,nan,nan,3,4,1,1,1,1,0,0,0,0,0,0,0
740719905,250772299,2,2490378,4028193,2490378,396321,0.05617929,0.042993296,0.05645354,0.041411866,nan,nan,nan,nan,nan,1.0,1.0,1.0,0.0,nan,nan,nan,nan,nan,0.0,0.0,nan,nan,0.0,0.0,nan,nan,3,4,1,1,1,1,0,0,0,0,0,0,0
741725250,250772299,2,2490378,4028193,2490378,396321,0.043962155,0.030386703,0.04422941,0.029131282,nan,nan,nan,nan,nan,1.0,1.0,1.0,0.0,nan,nan,nan,nan,nan,0.0,0.0,nan,nan,0.0,0.0,nan,nan,3,4,1,1,1,1,0,0,0,0,0,0,0
742731193,250772299,2,2490378,4028193,2490378,396321,0.042429373,0.042562302,0.04381791,0.041817263,nan,nan,nan,nan,nan,1.0,1.0,1.0,0.0,nan,nan,nan,nan,nan,0.0,0.0,nan,nan,0.0,0.0,nan,nan,3,4,1,1,1,1,0,0,0,0,0,0,0
743735653,250772299,2,2490378,4028193,2490378,396321,0.0112895435,0.011589207,0.011386568,0.011420134,nan,nan,nan,nan,nan,1.0,1.0,1.0,0.0,nan,nan,nan,nan,nan,0.0,0.0,nan,nan,0.0,0.0,nan,nan,3,4,1,1,1,1,0,0,0,0,0,0,0
744740897,250772299,2,2490378,4028193,2490378,396321,0.016713036,0.01799979,0.017247116,0.017254746,nan,nan,nan,nan,nan,1.0,1.0,1.0,0.0,nan,nan,nan,nan,nan,0.0,0.0,nan,nan,0.0,0.0,nan,nan,3,4,1,1,1,1,0,0,0,0,0,0,0
745746185,250772299,2,2490378,4028193,2490378,396321,0.012117099,0.010905832,0.012102089,0.010130489,nan,nan,nan,nan,nan,1.0,1.0,1.0,0.0,nan,nan,nan,nan,nan,0.0,0.0,nan,nan,0.0,0.0,nan,nan,3,4,1,1,1,1,0,0,0,0,0,0,0
746751516,250772299,2,2490378,4028193,2490378,396321,0.017590689,0.0131872855,0.017359862,0.012384195,nan,nan,nan,nan,nan,1.0,1.0,1.0,0.0,nan,nan,nan,nan,nan,0.0,0.0,nan,nan,0.0,0.0,nan,nan,3,4,1,1,1,1,0,0,0,0,0,0,0
747756847,250772299,2,2490378,4028193,2490378,396321,0.022334008,0.025189718,0.022544684,0.026325159,nan,nan,nan,nan,nan,1.0,1.0,1.0,0.0,nan,nan,nan,nan,nan,0.0,0.0,nan,nan,0.0,0.0,nan,nan,3,4,1,1,1,1,0,0,0,0,0,0,0
748762154,250772299,2,2490378,4028193,2490378,396321,0.04497156,0.043613136,0.04502999,0.043384206,nan,nan,nan,nan,nan,1.0,1.0,1.0,0.0,nan,nan,nan,nan,nan,0.0,0.0,nan,nan,0.0,0.0,nan,nan,3,4,1,1,1,1,0,0,0,0,0,0,0
749767464,250772299,2,2490378,4028193,2490378,396321,0.048394963,0.0506773,0.049327426,0.051683433,nan,nan,nan,nan,nan,1.0,1.0,1.0,0.0,nan,nan,nan,nan,nan,0.0,0.0,nan,nan,0.0,0.0,nan,nan,3,4,1,1,1,1,0,0,0,0,0,0,0
750772875,250772299,2,2490378,4028193,2490378,396321,0.03628474,0.038506605,0.036506794,0.039416842,nan,nan,nan,nan,nan,1.0,1.0,1.0,0.0,nan,nan,nan,nan,nan,0.0,0.0,nan,nan,0.0,0.0,nan,nan,3,4,1,1,1,1,0,0,0,0,0,0,0
751778132,250772299,2,2490378,4028193,2490378,396321,0.03243693,0.031922936,0.032405898,0.031636022,nan,nan,nan,nan,nan,1.0,1.0,1.0,0.0,nan,nan,nan,nan,nan,0.0,0.0,nan,nan,0.0,0.0,nan,nan,3,4,1,1,1,1,0,0,0,0,0,0,0
752783612,250772299,2,2490378,4028193,2490378,396321,0.036543578,0.03866156,0.037333716,0.03958983,nan,nan,nan,nan,nan,1.0,1.0,1.0,0.0,nan,nan,nan,nan,nan,0.0,0.0,nan,nan,0.0,0.0,nan,nan,3,4,1,1,1,1,0,0,0,0,0,0,0
753789130,250772299,2,2490378,4028193,2490378,396321,0.03223903,0.034875162,0.03233978,0.036024936,nan,nan,nan,nan,nan,1.0,1.0,1.0,0.0,nan,nan,nan,nan,nan,0.0,0.0,nan,nan,0.0,0.0,nan,nan,3,4,1,1,1,1,0,0,0,0,0,0,0
754794095,250772299,2,2490378,4028193,2490378,396321,0.03393136,0.03633815,0.034716185,0.03559043,nan,nan,nan,nan,nan,1.0,1.0,1.0,0.0,nan,nan,nan,nan,nan,0.0,0.0,nan,nan,0.0,0.0,nan,nan,3,4,1,1,1,1,0,0,0,0,0,0,0
755799371,250772299,2,2490378,4028193,2490378,396321,0.056679443,0.059836037,0.05681683,0.06094662,nan,nan,nan,nan,nan,1.0,1.0,1.0,0.0,nan,nan,nan,nan,nan,0.0,0.0,nan,nan,0.0,0.0,nan,nan,3,4,1,1,1,1,0,0,0,0,0,0,0
756804720,250772299,2,2490378,4028193,2490378,396321,0.043185405,0.042241834,0.0431692,0.042645693,nan,nan,nan,nan,nan,1.0,1.0,1.0,0.0,nan,nan,nan,nan,nan,0.0,0.0,nan,nan,0.0,0.0,nan,nan,3,4,1,1,1,1,0,0,0,0,0,0,0
757810049,250772299,2,2490378,4028193,2490378,396321,0.04570649,0.04308878,0.04585414,0.04253141,nan,nan,nan,nan,nan,1.0,1.0,1.0,0.0,nan,nan,nan,nan,nan,0.0,0.0,nan,nan,0.0,0.0,nan,nan,3,4,1,1,1,1,0,0,0,0,0,0,0
758815380,250772299,2,2490378,4028193,2490378,396321,0.04277319,0.0455755,0.04324118,0.046824634,nan,nan,nan,nan,nan,1.0,1.0,1.0,0.0,nan,nan,nan,nan,nan,0.0,0.0,nan,nan,0.0,0.0,nan,nan,3,4,1,1,1,1,0,0,0,0,0,0,0
759820681,250772299,2,2490378,4028193,2490378,396321,0.039448526,0.03713335,0.03975818,0.036067706,nan,nan,nan,nan,nan,1.0,1.0,1.0,0.0,nan,nan,nan,nan,nan,0.0,0.0,nan,nan,0.0,0.0,nan,nan,3,4,1,1,1,1,0,0,0,0,0,0,0
760826025,250772299,2,2490378,4028193,2490378,396321,0.07081491,0.071198285,0.07130945,0.070207134,nan,nan,nan,nan,nan,1.0,1.0,1.0,0.0,nan,nan,nan,nan,nan,0.0,0.0,nan,nan,0.0,0.0,nan,nan,3,4,1,1,1,1,0,0,0,0,0,0,0
761831365,250772299,2,2490378,4028193,2490378,396321,0.039403602,0.036834672,0.039097212,0.036376484,nan,nan,nan,nan,nan,1.0,1.0,1.0,0.0,nan,nan,nan,nan,nan,0.0,0.0,nan,nan,0.0,0.0,nan,nan,3,4,1,1,1,1,0,0,0,0,0,0,0
762836931,250772299,2,2490378,4028193,2490378,396321,0.049741216,0.04499674,0.0486788,0.043438263,nan,nan,nan,nan,nan,1.0,1.0,1.0,0.0,nan,nan,nan,nan,nan,0.0,0.0,nan,nan,0.0,0.0,nan,nan,3,4,1,1,1,1,0,0,0,0,0,0,0
763842125,250772299,2,2490378,4028193,2490378,396321,0.048462734,0.05318129,0.049715705,0.05408955,nan,nan,nan,nan,nan,1.0,1.0,1.0,0.0,nan,nan,nan,nan,nan,0.0,0.0,nan,nan,0.0,0.0,nan,nan,3,4,1,1,1,1,0,0,0,0,0,0,0
764847257,250772299,2,2490378,4028193,2490378,396321,0.036273293,0.03229392,0.034984507,0.030685313,nan,nan,nan,nan,nan,1.0,1.0,1.0,0.0,nan,nan,nan,nan,nan,0.0,0.0,nan,nan,0.0,0.0,nan,nan,3,4,1,1,1,1,0,0,0,0,0,0,0
765852615,250772299,2,2490378,4028193,2490378,396321,0.03752984,0.0395078,0.037729308,0.0411601,nan,nan,nan,nan,nan,1.0,1.0,1.0,0.0,nan,nan,nan,nan,nan,0.0,0.0,nan,nan,0.0,0.0,nan,nan,3,4,1,1,1,1,0,0,0,0,0,0,0
766857855,250772299,2,2490378,4028193,2490378,396321,0.072496496,0.07578741,0.07415263,0.076694086,nan,nan,nan,nan,nan,1.0,1.0,1.0,0.0,nan,nan,nan,nan,nan,0.0,0.0,nan,nan,0.0,0.0,nan,nan,3,4,1,1,1,1,0,0,0,0,0,0,0
767863312,250772299,2,2490378,4028193,2490378,396321,0.055503637,0.058853053,0.056882843,0.05961169,nan,nan,nan,nan,nan,1.0,1.0,1.0,0.0,nan,nan,nan,nan,nan,0.0,0.0,nan,nan,0.0,0.0,nan,nan,3,4,1,1,1,1,0,0,0,0,0,0,0
768868530,250772299,2,2490378,4028193,2490378,396321,0.031804506,0.033172965,0.031984508,0.03124386,nan,nan,nan,nan,nan,1.0,1.0,1.0,0.0,nan,nan,nan,nan,nan,0.0,0.0,nan,nan,0.0,0.0,nan,nan,3,4,1,1,1,1,0,0,0,0,0,0,0
769873805,250772299,2,2490378,4028193,2490378,396321,0.04026237,0.040065795,0.04034022,0.04158446,nan,nan,nan,nan,nan,1.0,1.0,1.0,0.0,nan,nan,nan,nan,nan,0.0,0.0,nan,nan,0.0,0.0,nan,nan,3,4,1,1,1,1,0,0,0,0,0,0,0
770879204,250772299,2,2490378,4028193,2490378,396321,0.06153691,0.06300876,0.06210078,0.06343007,nan,nan,nan,nan,nan,1.0,1.0,1.0,0.0,nan,nan,nan,nan,nan,0.0,0.0,nan,nan,0.0,0.0,nan,nan,3,4,1,1,1,1,0,0,0,0,0,0,0
771884427,250772299,2,2490378,4028193,2490378,396321,0.042999808,0.038916033,0.042926304,0.03836248,nan,nan,nan,nan,nan,1.0,1.0,1.0,0.0,nan,nan,nan,nan,nan,0.0,0.0,nan,nan,0.0,0.0,nan,nan,3,4,1,1,1,1,0,0,0,0,0,0,0
772889903,250772299,2,2490378,4028193,2490378,396321,0.027257659,0.024303831,0.027719412,0.024798194,nan,nan,nan,nan,nan,1.0,1.0,1.0,0.0,nan,nan,nan,nan,nan,0.0,0.0,nan,nan,0.0,0.0,nan,nan,3,4,1,1,1,1,0,0,0,0,0,0,0
773895300,250772299,2,2490378,4028193,2490378,396321,0.03293224,0.03211862,0.033604786,0.03117039,nan,nan,nan,nan,nan,1.0,1.0,1.0,0.0,nan,nan,nan,nan,nan,0.0,0.0,nan,nan,0.0,0.0,nan,nan,3,4,1,1,1,1,0,0,0,0,0,0,0
774900413,250772299,2,2490378,4028193,2490378,396321,0.039391067,0.03625056,0.039743833,0.034699187,nan,nan,nan,nan,nan,1.0,1.0,1.0,0.0,nan,nan,nan,nan,nan,0.0,0.0,nan,nan,0.0,0.0,nan,nan,3,4,1,1,1,1,0,0,0,0,0,0,0
775905685,250772299,2,2490378,4028193,2490378,396321,0.037749566,0.04351624,0.037458554,0.04482787,nan,nan,nan,nan,nan,1.0,1.0,1.0,0.0,nan,nan,nan,nan,nan,0.0,0.0,nan,nan,0.0,0.0,nan,nan,3,4,1,1,1,1,0,0,0,0,0,0,0
776911020,250772299,2,2490378,4028193,2490378,396321,0.072931126,0.06752259,0.07200487,0.06838286,nan,nan,nan,nan,nan,1.0,1.0,1.0,0.0,nan,nan,nan,nan,nan,0.0,0.0,nan,nan,0.0,0.0,nan,nan,3,4,1,1,1,1,0,0,0,0,0,0,0
777916395,250772299,2,2490378,4028193,2490378,396321,0.04018888,0.046325896,0.03995601,0.047590196,nan,nan,nan,nan,nan,1.0,1.0,1.0,0.0,nan,nan,nan,nan,nan,0.0,0.0,nan,nan,0.0,0.0,nan,nan,3,4,1,1,1,1,0,0,0,0,0,0,0
778921721,250772299,2,2490378,4028193,2490378,396321,0.043893177,0.04315179,0.043974735,0.042896487,nan,nan,nan,nan,nan,1.0,1.0,1.0,0.0,nan,nan,nan,nan,nan,0.0,0.0,nan,nan,0.0,0.0,nan,nan,3,4,1,1,1,1,0,0,0,0,0,0,0
779926912,250772299,2,2490378,4028193,2490378,396321,0.048101954,0.047918167,0.048198182,0.04764007,nan,nan,nan,nan,nan,1.0,1.0,1.0,0.0,nan,nan,nan,nan,nan,0.0,0.0,nan,nan,0.0,0.0,nan,nan,3,4,1,1,1,1,0,0,0,0,0,0,0
780932532,250772299,2,2490378,4028193,2490378,396321,0.021021962,0.024205852,0.021147508,0.024916138,nan,nan,nan,nan,nan,1.0,1.0,1.0,0.0,nan,nan,nan,nan,nan,0.0,0.0,nan,nan,0.0,0.0,nan,nan,3,4,1,1,1,1,0,0,0,0,0,0,0
781937559,250772299,2,2490378,4028193,2490378,396321,0.023310388,0.019047331,0.02264557,0.020226678,nan,nan,nan,nan,nan,1.0,1.0,1.0,0.0,nan,nan,nan,nan,nan,0.0,0.0,nan,nan,0.0,0.0,nan,nan,3,4,1,1,1,1,0,0,0,0,0,0,0
782943147,250772299,2,2490378,4028193,2490378,396321,0.019928979,0.014155657,0.019352973,0.014815867,nan,nan,nan,nan,nan,1.0,1.0,1.0,0.0,nan,nan,nan,nan,nan,0.0,0.0,nan,nan,0.0,0.0,nan,nan,3,4,1,1,1,1,0,0,0,0,0,0,0
783948250,250772299,2,2490378,4028193,2490378,396321,0.02358568,0.022307081,0.024156278,0.022182725,nan,nan,nan,nan,nan,1.0,1.0,1.0,0.0,nan,nan,nan,nan,nan,0.0,0.0,nan,nan,0.0,0.0,nan,nan,3,4,1,1,1,1,0,0,0,0,0,0,0
784953450,250772299,2,2490378,4028193,2490378,396321,0.016887523,0.021046631,0.017027982,0.020083902,nan,nan,nan,nan,nan,1.0,1.0,1.0,0.0,nan,nan,nan,nan,nan,0.0,0.0,nan,nan,0.0,0.0,nan,nan,3,4,1,1,1,1,0,0,0,0,0,0,0
785958751,250772299,2,2490378,4028193,2490378,396321,0.038183726,0.03753341,0.03837221,0.03734887,nan,nan,nan,nan,nan,1.0,1.0,1.0,0.0,nan,nan,nan,nan,nan,0.0,0.0,nan,nan,0.0,0.0,nan,nan,3,4,1,1,1,1,0,0,0,0,0,0,0
786964168,250772299,2,2490378,4028193,2490378,396321,0.03298539,0.031933457,0.033229876,0.031676643,nan,nan,nan,nan,nan,1.0,1.0,1.0,0.0,nan,nan,nan,nan,nan,0.0,0.0,nan,nan,0.0,0.0,nan,nan,3,4,1,1,1,1,0,0,0,0,0,0,0
787969493,250772299,2,2490378,4028193,2490378,396321,0.030190483,0.036327444,0.030853335,0.03520879,nan,nan,nan,nan,nan,1.0,1.0,1.0,0.0,nan,nan,nan,nan,nan,0.0,0.0,nan,nan,0.0,0.0,nan,nan,3,4,1,1,1,1,0,0,0,0,0,0,0
788974791,250772299,2,2490378,4028193,2490378,396321,0.05699675,0.05825065,0.056344997,0.059088983,nan,nan,nan,nan,nan,1.0,1.0,1.0,0.0,nan,nan,nan,nan,nan,0.0,0.0,nan,nan,0.0,0.0,nan,nan,3,4,1,1,1,1,0,0,0,0,0,0,0
789979981,250772299,2,2490378,4028193,2490378,396321,0.034779035,0.032979965,0.035528827,0.03166768,nan,nan,nan,nan,nan,1.0,1.0,1.0,0.0,nan,nan,nan,nan,nan,0.0,0.0,nan,nan,0.0,0.0,nan,nan,3,4,1,1,1,1,0,0,0,0,0,0,0
790985299,250772299,2,2490378,4028193,2490378,396321,0.042423204,0.04122108,0.042560592,0.041038133,nan,nan,nan,nan,nan,1.0,1.0,1.0,0.0,nan,nan,nan,nan,nan,0.0,0.0,nan,nan,0.0,0.0,nan,nan,3,4,1,1,1,1,0,0,0,0,0,0,0
791990719,250772299,2,2490378,4028193,2490378,396321,0.044305462,0.04471845,0.044653207,0.045466784,nan,nan,nan,nan,nan,1.0,1.0,1.0,0.0,nan,nan,nan,nan,nan,0.0,0.0,nan,nan,0.0,0.0,nan,nan,3,4,1,1,1,1,0,0,0,0,0,0,0
792996292,250772299,2,2490378,4028193,2490378,396321,0.022612058,0.027138771,0.023362976,0.029061051,nan,nan,nan,nan,nan,1.0,1.0,1.0,0.0,nan,nan,nan,nan,nan,0.0,0.0,nan,nan,0.0,0.0,nan,nan,3,4,1,1,1,1,0,0,0,0,0,0,0
794001395,250772299,2,2490378,4028193,2490378,396321,0.036294628,0.039435655,0.036494613,0.04027205,nan,nan,nan,nan,nan,1.0,1.0,1.0,0.0,nan,nan,nan,nan,nan,0.0,0.0,nan,nan,0.0,0.0,nan,nan,3,4,1,1,1,1,0,0,0,0,0,0,0
795006589,250772299,2,2490378,4028193,2490378,396321,0.04192536,0.0402827,0.04205259,0.03925451,nan,nan,nan,nan,nan,1.0,1.0,1.0,0.0,nan,nan,nan,nan,nan,0.0,0.0,nan,nan,0.0,0.0,nan,nan,3,4,1,1,1,1,0,0,0,0,0,0,0
796011815,250772299,2,2490378,4028193,2490378,396321,0.056019835,0.059462044,0.05597204,0.060493004,nan,nan,nan,nan,nan,1.0,1.0,1.0,0.0,nan,nan,nan,nan,nan,0.0,0.0,nan,nan,0.0,0.0,nan,nan,3,4,1,1,1,1,0,0,0,0,0,0,0
797017195,250772299,2,2490378,4028193,2490378,396321,0.023805708,0.021988034,0.023905762,0.02171005,nan,nan,nan,nan,nan,1.0,1.0,1.0,0.0,nan,nan,nan,nan,nan,0.0,0.0,nan,nan,0.0,0.0,nan,nan,3,4,1,1,1,1,0,0,0,0,0,0,0
798022441,250772299,2,2490378,4028193,2490378,396321,0.029528927,0.023600146,0.0289887,0.02434756,nan,nan,nan,nan,nan,1.0,1.0,1.0,0.0,nan,nan,nan,nan,nan,0.0,0.0,nan,nan,0.0,0.0,nan,nan,3,4,1,1,1,1,0,0,0,0,0,0,0
799027752,250772299,2,2490378,4028193,2490378,396321,0.025595423,0.025054157,0.025591034,0.02471089,nan,nan,nan,nan,nan,1.0,1.0,1.0,0.0,nan,nan,nan,nan,nan,0.0,0.0,nan,nan,0.0,0.0,nan,nan,3,4,1,1,1,1,0,0,0,0,0,0,0
800033042,250772299,2,2490378,4028193,2490378,396321,0.031092282,0.027557388,0.031276397,0.02722865,nan,nan,nan,nan,nan,1.0,1.0,1.0,0.0,nan,nan,nan,nan,nan,0.0,0.0,nan,nan,0.0,0.0,nan,nan,3,4,1,1,1,1,0,0,0,0,0,0,0
801038341,250772299,2,2490378,4028193,2490378,396321,0.04798689,0.042127587,0.048152283,0.040413547,nan,nan,nan,nan,nan,1.0,1.0,1.0,0.0,nan,nan,nan,nan,nan,0.0,0.0,nan,nan,0.0,0.0,nan,nan,3,4,1,1,1,1,0,0,0,0,0,0,0
802043709,250772299,2,2490378,4028193,2490378,396321,0.04609716,0.04613471,0.0460954,0.045858294,nan,nan,nan,nan,nan,1.0,1.0,1.0,0.0,nan,nan,nan,nan,nan,0.0,0.0,nan,nan,0.0,0.0,nan,nan,3,4,1,1,1,1,0,0,0,0,0,0,0
803049252,250772299,2,2490378,4028193,2490378,396321,0.0826028,0.085340075,0.082671404,0.08602744,nan,nan,nan,nan,nan,1.0,1.0,1.0,0.0,nan,nan,nan,nan,nan,0.0,0.0,nan,nan,0.0,0.0,nan,nan,3,4,1,1,1,1,0,0,0,0,0,0,0
804054429,250772299,2,2490378,4028193,2490378,396321,0.042330597,0.044304296,0.04279623,0.04525301,nan,nan,nan,nan,nan,1.0,1.0,1.0,0.0,nan,nan,nan,nan,nan,0.0,0.0,nan,nan,0.0,0.0,nan,nan,3,4,1,1,1,1,0,0,0,0,0,0,0
805059580,250772299,2,2490378,4028193,2490378,396321,0.09639966,0.09747072,0.09638779,0.09646326,nan,nan,nan,nan,nan,1.0,1.0,1.0,0.0,nan,nan,nan,nan,nan,0.0,0.0,nan,nan,0.0,0.0,nan,nan,3,4,1,1,1,1,0,0,0,0,0,0,0
806064899,250772299,2,2490378,4028193,2490378,396321,0.03536895,0.036550708,0.035092488,0.03544914,nan,nan,nan,nan,nan,1.0,1.0,1.0,0.0,nan,nan,nan,nan,nan,0.0,0.0,nan,nan,0.0,0.0,nan,nan,3,4,1,1,1,1,0,0,0,0,0,0,0
807070114,250772299,2,2490378,4028193,2490378,396321,0.036168635,0.03599749,0.036775608,0.036987834,nan,nan,nan,nan,nan,1.0,1.0,1.0,0.0,nan,nan,nan,nan,nan,0.0,0.0,nan,nan,0.0,0.0,nan,nan,3,4,1,1,1,1,0,0,0,0,0,0,0
808075513,250772299,2,2490378,4028193,2490378,396321,0.03799395,0.03668844,0.03881842,0.037541695,nan,nan,nan,nan,nan,1.0,1.0,1.0,0.0,nan,nan,nan,nan,nan,0.0,0.0,nan,nan,0.0,0.0,nan,nan,3,4,1,1,1,1,0,0,0,0,0,0,0
809080771,250772299,2,2490378,4028193,2490378,396321,0.01542788,0.016374547,0.016638963,0.016374663,nan,nan,nan,nan,nan,1.0,1.0,1.0,0.0,nan,nan,nan,nan,nan,0.0,0.0,nan,nan,0.0,0.0,nan,nan,3,4,1,1,1,1,0,0,0,0,0,0,0
810086048,250772299,2,2490378,4028193,2490378,396321,0.024152912,0.02682015,0.023627646,0.025854707,nan,nan,nan,nan,nan,1.0,1.0,1.0,0.0,nan,nan,nan,nan,nan,0.0,0.0,nan,nan,0.0,0.0,nan,nan,3,4,1,1,1,1,0,0,0,0,0,0,0
811091312,250772299,2,2490378,4028193,2490378,396321,0.030237123,0.02908077,0.029816551,0.027513493,nan,nan,nan,nan,nan,1.0,1.0,1.0,0.0,nan,nan,nan,nan,nan,0.0,0.0,nan,nan,0.0,0.0,nan,nan,3,4,1,1,1,1,0,0,0,0,0,0,0
812096671,250772299,2,2490378,4028193,2490378,396321,0.015575372,0.014579255,0.015254838,0.014105052,nan,nan,nan,nan,nan,1.0,1.0,1.0,0.0,nan,nan,nan,nan,nan,0.0,0.0,nan,nan,0.0,0.0,nan,nan,3,4,1,1,1,1,0,0,0,0,0,0,0
813102108,250772299,2,2490378,4028193,2490378,396321,0.019549772,0.02068015,0.019649418,0.022236656,nan,nan,nan,nan,nan,1.0,1.0,1.0,0.0,nan,nan,nan,nan,nan,0.0,0.0,nan,nan,0.0,0.0,nan,nan,3,4,1,1,1,1,0,0,0,0,0,0,0
814107511,250772299,2,2490378,4028193,2490378,396321,0.063547954,0.061643157,0.0635323,0.059519876,nan,nan,nan,nan,nan,1.0,1.0,1.0,0.0,nan,nan,nan,nan,nan,0.0,0.0,nan,nan,0.0,0.0,nan,nan,3,4,1,1,1,1,0,0,0,0,0,0,0
815112498,250772299,2,2490378,4028193,2490378,396321,0.029181767,0.02355213,0.02881192,0.025351733,nan,nan,nan,nan,nan,1.0,1.0,1.0,0.0,nan,nan,nan,nan,nan,0.0,0.0,nan,nan,0.0,0.0,nan,nan,3,4,1,1,1,1,0,0,0,0,0,0,0
