timestamp,time_utc_usec,device_id,lat,lon,alt,alt_ellipsoid,s_variance_m_s,c_variance_rad,eph,epv,hdop,vdop,noise_per_ms,jamming_indicator,vel_m_s,vel_n_m_s,vel_e_m_s,vel_d_m_s,cog_rad,timestamp_time_relative,heading,heading_offset,heading_accuracy,automatic_gain_control,fix_type,jamming_state,vel_ned_valid,satellites_used
540093618,1683118854399770,11010053,423585836,-710872897,7770,-25383,0.35300002,0.7619299,1.9700001,2.082,0.71,1.15,82,12,0.048,0.048,0.002,0.096,4.0069685,0,nan,0.0,0.0,156,3,0,1,15
541088614,1683118855399771,11010053,423585844,-710872911,7931,-25222,0.43400002,0.7619966,1.9280001,2.062,0.71,1.15,77,12,0.07,0.006,-0.07,-0.014,4.0069685,0,nan,0.0,0.0,156,3,0,1,15
542089619,1683118856399771,11010053,423585840,-710872915,7980,-25173,0.527,0.76208293,1.9060001,2.025,0.71,1.15,77,12,0.14500001,-0.029000001,-0.142,-0.069000006,4.0069685,0,nan,0.0,0.0,156,3,0,1,15
543100613,1683118857399772,11010053,423585838,-710872925,7966,-25187,0.467,0.7621666,1.8950001,2.02,0.71,1.15,77,12,0.186,-0.163,-0.09,0.006,4.0069685,0,nan,0.0,0.0,156,3,0,1,15
544097627,1683118858399773,11010053,423585830,-710872919,7684,-25470,0.47300002,0.76224774,1.8790001,2.0070002,0.71,1.15,77,15,0.117000006,0.028,0.11400001,-0.010000001,4.0069685,0,nan,0.0,0.0,156,3,0,1,15
545096613,1683118859399774,11010053,423585827,-710872918,7516,-25637,0.503,0.7623398,1.8870001,2.0340002,0.71,1.15,77,14,0.16000001,0.14600001,0.067,0.037,4.0069685,0,nan,0.0,0.0,156,3,0,1,15
546094613,1683118860399774,11010053,423585830,-710872921,7320,-25833,0.46300003,0.7624324,1.9070001,2.0770001,0.71,1.15,77,14,0.037,0.035,0.012,-0.006,4.0069685,0,nan,0.0,0.0,156,3,0,1,15
547096613,1683118861399775,11010053,423585844,-710872909,6999,-26154,0.559,0.76253015,1.9210001,2.1100001,0.71,1.15,77,13,0.149,0.030000001,0.14600001,0.15,4.0069685,0,nan,0.0,0.0,156,3,0,1,15
548095613,1683118862399776,11010053,423585851,-710872903,6746,-26407,0.49600002,0.76262105,1.9380001,2.1430001,0.71,1.15,77,14,0.16700001,0.148,0.07700001,0.165,4.0069685,0,nan,0.0,0.0,156,3,0,1,15
549096614,1683118863399777,11010053,423585859,-710872900,6575,-26578,0.536,0.76272124,1.963,2.197,0.71,1.15,77,10,0.1,-0.1,-0.0050000004,0.18,4.0069685,0,nan,0.0,0.0,156,3,0,1,15
550087614,1683118864399777,11010053,423585868,-710872900,6368,-26785,0.448,0.76280296,1.9480001,2.209,0.71,1.15,76,12,0.13900001,0.13700001,0.026,0.10700001,4.0069685,0,nan,0.0,0.0,156,3,0,1,15
551095720,1683118865399778,11010053,423585868,-710872907,6275,-26878,0.492,0.7628825,1.9190001,2.2010002,0.71,1.15,76,14,0.071,-0.014,0.07,0.035,4.0069685,0,nan,0.0,0.0,156,3,0,1,15
552093613,1683118866399779,11010053,423585877,-710872918,5915,-27238,0.48000002,0.7629642,1.9070001,2.2,0.71,1.15,76,11,0.116000004,0.116000004,0.006,0.017,4.0069685,0,nan,0.0,0.0,156,3,0,1,15
553095612,1683118867399780,11010053,423585872,-710872925,5586,-27567,0.42700002,0.76303786,1.8790001,2.1850002,0.74,1.15,76,15,0.108,0.068,0.08400001,0.075,4.0069685,0,nan,0.0,0.0,156,3,0,1,14
554085613,1683118868399780,11010053,423585869,-710872928,5426,-27728,0.397,0.7631122,1.848,2.1460001,0.74,1.15,76,10,0.147,-0.147,0.002,0.035,4.0069685,0,nan,0.0,0.0,156,3,0,1,14
555094649,1683118869399781,11010053,423585853,-710872907,5326,-27828,0.416,0.4898209,1.825,2.095,0.74,1.15,76,14,0.185,0.17300001,-0.067,0.13800001,2.7751052,0,nan,0.0,0.0,156,3,0,1,14
556108612,1683118870399782,11010053,423585861,-710872910,5200,-27953,0.509,0.48993835,1.8000001,2.0670002,0.74,1.15,76,11,0.09900001,0.043,-0.089,-0.029000001,2.7751052,0,nan,0.0,0.0,156,3,0,1,14
557097612,1683118871399783,11010053,423585876,-710872913,5210,-27943,0.60700005,0.49007463,1.8030001,2.055,0.74,1.15,76,12,0.24400002,-0.065000005,0.23600002,0.064,2.7751052,0,nan,0.0,0.0,156,3,0,1,14
558097614,1683118872399783,11010053,423585884,-710872905,5189,-27964,0.44200003,0.4902169,1.8100001,2.069,0.71,1.15,76,9,0.109000005,0.044000003,0.1,0.116000004,2.7751052,0,nan,0.0,0.0,156,3,0,1,15
559096612,1683118873399784,11010053,423585875,-710872910,5208,-27945,0.43400002,0.4903443,1.7990001,2.079,0.71,1.15,76,12,0.124000005,0.019000001,-0.12200001,-0.054,2.7751052,0,nan,0.0,0.0,156,3,0,1,15
560095613,1683118874399785,11010053,423585870,-710872898,5119,-28034,0.52400005,0.4904752,1.802,2.094,0.71,1.15,76,12,0.16800001,0.120000005,-0.117000006,0.004,2.7751052,0,nan,0.0,0.0,156,3,0,1,15
561091615,1683118875399786,11010053,423585867,-710872894,5256,-27897,0.49400002,0.49061152,1.8140001,2.0900002,0.71,1.15,81,13,0.163,-0.07,-0.148,-0.012,2.7751052,0,nan,0.0,0.0,156,3,0,1,15
562092614,1683118876399786,11010053,423585862,-710872884,5226,-27927,0.379,0.49073824,1.817,2.0740001,0.71,1.15,82,12,0.014,-0.014,0.003,0.023000002,2.7751052,0,nan,0.0,0.0,156,3,0,1,15
563094614,1683118877399787,11010053,423585851,-710872858,5138,-28015,0.48600003,0.49087924,1.8270001,2.091,0.71,1.15,82,14,0.14600001,-0.048,-0.13800001,0.083000004,2.7751052,0,nan,0.0,0.0,156,3,0,1,15
564100615,1683118878399788,11010053,423585831,-710872845,5169,-27984,0.42400002,0.49101135,1.8290001,2.065,0.71,1.15,87,10,0.12100001,0.11400001,-0.041,0.08800001,2.7751052,0,nan,0.0,0.0,156,3,0,1,15
565097612,1683118879399789,11010053,423585816,-710872851,5262,-27891,0.573,0.4911665,1.8520001,2.0570002,0.71,1.15,87,12,0.091000006,0.002,0.091000006,0.08400001,2.7751052,0,nan,0.0,0.0,156,3,0,1,15
566107613,1683118880399789,11010053,423585805,-710872843,5307,-27846,0.39100003,0.49130058,1.8770001,2.056,0.71,1.15,88,11,0.071,-0.07,-0.012,0.14,2.7751052,0,nan,0.0,0.0,156,3,0,1,15
567095613,1683118881399790,11010053,423585806,-710872818,5156,-27998,0.505,0.49145156,1.9070001,2.0670002,0.71,1.15,88,12,0.08800001,0.041,0.078,0.141,2.7751052,0,nan,0.0,0.0,156,3,0,1,15
568089614,1683118882399791,11010053,423585804,-710872781,5087,-28066,0.49,0.49161175,1.945,2.0990002,0.75,1.1899999,88,12,0.117000006,-0.11400001,-0.025,0.119,2.7751052,0,nan,0.0,0.0,156,3,0,1,14
569090614,1683118883399792,11010053,423585792,-710872778,4892,-28262,0.48700002,0.7285245,1.9860001,2.1320002,0.75,1.1899999,88,13,0.094000004,0.091000006,0.020000001,0.261,3.3105078,0,nan,0.0,0.0,156,3,0,1,14
570098614,1683118884399792,11010053,423585790,-710872774,4905,-28248,0.65800005,0.7286327,2.019,2.1620002,0.75,1.1899999,88,9,0.257,-0.061000004,0.25,0.11400001,3.3105078,0,nan,0.0,0.0,156,3,0,1,14
571097613,1683118885399793,11010053,423585798,-710872775,4719,-28434,0.632,0.72876483,2.072,2.2240002,0.75,1.1899999,94,11,0.109000005,0.101,0.040000003,0.23300001,3.3105078,0,nan,0.0,0.0,156,3,0,1,14
572096614,1683118886399794,11010053,423585801,-710872782,4658,-28496,0.57000005,0.72889155,2.1060002,2.288,0.75,1.1899999,94,12,0.19500001,-0.15400001,0.119,0.15,3.3105078,0,nan,0.0,0.0,156,3,0,1,14
573097623,1683118887399794,11010053,423585790,-710872771,4605,-28549,0.702,0.72901034,2.135,2.3300002,0.71,1.15,94,12,0.14400001,0.035,-0.14,0.062000003,3.3105078,0,nan,0.0,0.0,156,3,0,1,15
574106227,1683118888399795,11010053,423585779,-710872739,4533,-28621,0.535,0.72911316,2.121,2.3230002,0.71,1.15,94,12,0.16000001,-0.018000001,-0.15900001,0.054,3.3105078,0,nan,0.0,0.0,156,3,0,1,15
575094615,1683118889399796,11010053,423585776,-710872735,4444,-28709,0.518,0.72921497,2.114,2.298,0.74,1.16,94,10,0.060000002,-0.056,-0.019000001,-0.040000003,3.3105078,0,nan,0.0,0.0,156,3,0,1,14
576090619,1683118890399797,11010053,423585771,-710872722,4321,-28832,0.578,0.7293132,2.114,2.295,0.74,1.16,94,11,0.08800001,0.08800001,0.002,0.10300001,3.3105078,0,nan,0.0,0.0,156,3,0,1,14
577098613,1683118891399797,11010053,423585763,-710872719,4489,-28665,0.56100005,0.7294259,2.1390002,2.335,0.74,1.16,94,9,0.034,-0.003,-0.034,-0.10300001,3.3105078,0,nan,0.0,0.0,156,3,0,1,14
578096615,1683118892399798,11010053,423585774,-710872705,4440,-28713,0.63900006,0.72954464,2.164,2.3850002,0.74,1.16,93,11,0.106000006,0.034,-0.101,-0.041,3.3105078,0,nan,0.0,0.0,156,3,0,1,14
579094614,1683118893399799,11010053,423585770,-710872702,4347,-28806,0.47000003,0.72965425,2.183,2.4150002,0.74,1.15,87,10,0.035,-0.035,0.0050000004,0.048,3.3105078,0,nan,0.0,0.0,156,3,0,1,14
580089619,1683118894399800,11010053,423585757,-710872695,4202,-28951,0.74300003,0.72978234,2.24,2.4620001,0.74,1.15,87,13,0.157,-0.087000005,0.13100001,0.061000004,3.3105078,0,nan,0.0,0.0,156,3,0,1,14
581094776,1683118895399800,11010053,423585766,-710872675,3684,-29470,0.70600003,0.7299033,2.292,2.4870002,0.74,1.15,81,10,0.275,0.272,-0.037,0.148,3.3105078,0,nan,0.0,0.0,156,3,0,1,14
582096620,1683118896399801,11010053,423585745,-710872656,3330,-29823,0.514,0.6453899,2.308,2.4850001,0.74,1.15,81,12,0.14500001,-0.108,0.097,0.13900001,2.9659169,0,nan,0.0,0.0,312,3,0,1,14
583097614,1683118897399802,11010053,423585731,-710872693,3557,-29596,0.58400005,0.6455358,2.3270001,2.513,0.71,1.15,82,5,0.164,-0.064,-0.15,-0.097,2.9659169,0,nan,0.0,0.0,156,4,0,1,15
584096614,1683118898399803,11010053,423585724,-710872710,3697,-29456,0.647,0.64565927,2.3170002,2.522,0.71,1.15,82,3,0.45900002,-0.44000003,-0.132,-0.14,2.9659169,0,nan,0.0,0.0,312,4,0,1,15
585097612,1683118899399803,11010053,423585721,-710872729,3796,-29358,0.70600003,0.6457842,2.3130002,2.5170002,0.71,1.15,87,4,0.432,-0.388,-0.19000001,0.023000002,2.9659169,0,nan,0.0,0.0,312,4,0,1,15
586091615,1683118900399804,11010053,423585705,-710872720,3790,-29363,0.697,0.64592606,2.306,2.505,0.71,1.15,87,4,0.172,-0.163,0.055000003,0.069000006,2.9659169,0,nan,0.0,0.0,312,4,0,1,15
587087614,1683118901399805,11010053,423585707,-710872698,3641,-29512,0.68,0.6460561,2.311,2.5210001,0.78,1.31,88,2,0.185,0.17600001,0.057000004,0.117000006,2.9659169,0,nan,0.0,0.0,312,4,0,1,14
588083651,1683118902399806,11010053,423585711,-710872697,3635,-29518,0.49300003,0.64615875,2.3200002,2.536,0.78,1.31,88,4,0.128,-0.128,0.0,0.18200001,2.9659169,0,nan,0.0,0.0,312,4,0,1,14
589084615,1683118903399806,11010053,423585697,-710872677,3484,-29669,0.57500005,0.6462799,2.3370001,2.5440001,0.78,1.31,88,7,0.22100002,0.044000003,-0.216,0.101,2.9659169,0,nan,0.0,0.0,312,4,0,1,14
590087611,1683118904399807,11010053,423585687,-710872668,3258,-29896,0.55200005,0.64640707,2.352,2.5540001,0.78,1.31,88,3,0.13700001,-0.036000002,0.132,0.29200003,2.9659169,0,nan,0.0,0.0,312,4,0,1,14
591095622,1683118905399808,11010053,423585679,-710872653,3022,-30132,0.65500003,0.6465708,2.3760002,2.568,0.78,1.31,99,5,0.148,0.064,0.134,0.192,2.9659169,0,nan,0.0,0.0,312,4,0,1,14
592094613,1683118906399809,11010053,423585672,-710872635,2592,-30562,0.73,0.6467112,2.374,2.552,0.78,1.31,99,5,0.27800003,-0.22900002,-0.158,-0.023000002,2.9659169,0,nan,0.0,0.0,312,4,0,1,14
593087615,1683118907399809,11010053,423585661,-710872667,2787,-30366,0.83800006,0.64686245,2.407,2.5660002,0.71,1.14,98,8,0.29900002,-0.074,-0.29000002,-0.022000002,2.9659169,0,nan,0.0,0.0,468,4,0,1,15
594087614,1683118908399810,11010053,423585656,-710872677,2722,-30431,0.776,0.64701796,2.466,2.614,0.71,1.14,98,7,0.305,-0.215,-0.216,0.07700001,2.9659169,0,nan,0.0,0.0,312,4,0,1,15
595086613,1683118909399811,11010053,423585627,-710872696,2548,-30605,0.68500006,0.64717555,2.506,2.674,0.71,1.14,98,9,0.20300001,-0.143,-0.14400001,0.17600001,2.9659169,0,nan,0.0,0.0,312,4,0,1,15
596093613,1683118910399812,11010053,423585639,-710872712,2459,-30694,0.58100003,0.6473173,2.5430002,2.7020001,0.71,1.14,98,3,0.072000004,0.055000003,0.046000004,0.133,2.9659169,0,nan,0.0,0.0,312,4,0,1,15
597102614,1683118911399812,11010053,423585638,-710872712,2589,-30564,0.72800004,0.64745396,2.5700002,2.7410002,0.71,1.14,98,3,0.039,0.039,0.0,0.003,2.9659169,0,nan,0.0,0.0,312,4,0,1,15
598096852,1683118912399813,11010053,423585632,-710872705,2637,-30517,0.75600004,0.64759445,2.5990002,2.789,0.71,1.14,98,2,0.094000004,0.093,0.017,0.063,2.9659169,0,nan,0.0,0.0,312,4,0,1,15
599095612,1683118913399814,11010053,423585625,-710872696,2825,-30328,0.758,0.6477381,2.64,2.844,0.71,1.14,98,3,0.165,-0.165,-0.0050000004,-0.018000001,2.9659169,0,nan,0.0,0.0,234,4,0,1,15
600092614,1683118914399815,11010053,423585611,-710872667,2996,-30157,0.628,0.64788383,2.65,2.8980002,0.71,1.14,91,3,0.006,-0.001,-0.006,-0.046000004,2.9659169,0,nan,0.0,0.0,390,3,0,1,15
601093613,1683118915399815,11010053,423585590,-710872638,3201,-29953,0.712,0.6480294,2.627,2.9,0.78,1.31,91,5,0.54700005,-0.507,0.20400001,-0.354,2.9659169,0,nan,0.0,0.0,390,3,0,1,14
602084613,1683118916399816,11010053,423585563,-710872599,3293,-29861,0.708,0.6481954,2.664,2.9570003,0.78,1.31,91,8,0.18800001,0.010000001,0.187,-0.102000006,2.9659169,0,nan,0.0,0.0,390,3,0,1,14
603085613,1683118917399817,11010053,423585550,-710872571,3405,-29748,0.735,0.6483645,2.7120001,3.0170002,0.82,1.3199999,91,5,0.157,-0.10300001,-0.119,-0.102000006,2.9659169,0,nan,0.0,0.0,390,3,0,1,13
604085614,1683118918399818,11010053,423585554,-710872568,3215,-29938,0.651,0.64851403,2.7540002,3.0530002,0.82,1.3199999,91,4,0.162,0.018000001,-0.16100001,0.136,2.9659169,0,nan,0.0,0.0,390,3,0,1,13
605087613,1683118919399818,11010053,423585558,-710872550,2933,-30220,0.65400004,0.6486518,2.7400002,3.0240002,0.76,1.15,91,5,0.586,0.569,-0.13900001,-0.134,2.9659169,0,nan,0.0,0.0,390,3,0,1,13
606083613,1683118920399819,11010053,423585553,-710872554,2809,-30344,0.657,0.64878196,2.709,2.9840002,0.76,1.15,91,10,0.102000006,-0.102000006,0.001,0.0050000004,2.9659169,0,nan,0.0,0.0,390,3,0,1,13
607093614,1683118921399820,11010053,423585543,-710872577,3038,-30115,0.453,0.648915,2.6790001,2.907,0.74,1.14,91,11,0.015000001,0.006,0.014,0.056,2.9659169,0,nan,0.0,0.0,390,3,0,1,14
608086613,1683118922399820,11010053,423585539,-710872601,3360,-29794,0.67600006,0.6490371,2.641,2.8360002,0.74,1.14,91,8,0.112,-0.07700001,0.082,-0.036000002,2.9659169,0,nan,0.0,0.0,390,3,0,1,14
609092613,1683118923399821,11010053,423585547,-710872618,3523,-29630,0.50100005,0.6491546,2.6090002,2.7870002,0.74,1.14,92,8,0.042000003,0.012,0.041,-0.009000001,2.9659169,0,nan,0.0,0.0,390,3,0,1,14
610088613,1683118924399822,11010053,423585540,-710872641,3756,-29397,0.568,0.6492921,2.578,2.707,0.74,1.14,92,8,0.054,-0.054,-0.002,0.027,2.9659169,0,nan,0.0,0.0,390,3,0,1,14
611085614,1683118925399823,11010053,423585541,-710872656,3885,-29268,0.629,0.64940995,2.552,2.6360002,0.71999997,1.14,92,9,0.108,-0.057000004,0.09200001,0.068,2.9659169,0,nan,0.0,0.0,390,3,0,1,15
612084615,1683118926399823,11010053,423585537,-710872670,3949,-29204,0.462,0.64951676,2.525,2.594,0.71999997,1.14,92,6,0.116000004,0.053000003,0.104,-0.064,2.9659169,0,nan,0.0,0.0,390,3,0,1,15
613098330,1683118927399824,11010053,423585554,-710872684,3955,-29198,0.698,0.6496454,2.5010002,2.5830002,0.71999997,1.14,92,5,0.39000002,0.27800003,-0.273,-0.18800001,2.9659169,0,nan,0.0,0.0,390,3,0,1,15
614083882,1683118928399825,11010053,423585551,-710872701,4060,-29093,0.763,0.6497948,2.492,2.618,0.71999997,1.14,92,5,0.19500001,-0.172,0.09200001,-0.037,2.9659169,0,nan,0.0,0.0,312,3,0,1,15
615084698,1683118929399826,11010053,423585550,-710872713,3944,-29209,0.49400002,0.64992464,2.4720001,2.653,0.71999997,1.14,92,11,0.066,-0.014,0.064,0.16600001,2.9659169,0,nan,0.0,0.0,468,3,0,1,15
616082615,1683118930399826,11010053,423585550,-710872731,4115,-29039,0.56,0.6500407,2.4420002,2.637,0.71999997,1.14,92,4,0.059000004,0.052,0.028,0.087000005,2.9659169,0,nan,0.0,0.0,468,3,0,1,15
617086620,1683118931399827,11010053,423585545,-710872734,4176,-28977,0.70600003,0.65017736,2.433,2.6650002,0.71999997,1.14,92,5,0.055000003,0.052,-0.017,0.031000001,2.9659169,0,nan,0.0,0.0,312,3,0,1,15
618089622,1683118932399828,11010053,423585535,-710872730,4159,-28995,0.532,0.65031195,2.437,2.676,0.71999997,1.14,92,3,0.05,-0.05,0.004,0.058000002,2.9659169,0,nan,0.0,0.0,312,3,0,1,15
619083613,1683118933399829,11010053,423585540,-710872722,4255,-28898,0.58900005,0.65042293,2.3820002,2.64,0.71999997,1.14,92,4,0.069000006,0.052,-0.045,-0.20300001,2.9659169,0,nan,0.0,0.0,312,3,0,1,15
620089614,1683118934399829,11010053,423585553,-710872706,4205,-28948,0.638,0.65054876,2.3560002,2.663,0.71999997,1.14,91,3,0.126,-0.021000002,0.125,0.097,2.9659169,0,nan,0.0,0.0,312,3,0,1,15
621089615,1683118935399830,11010053,423585528,-710872677,4292,-28862,0.601,0.61865133,2.3560002,2.683,0.71999997,1.14,91,3,0.112,-0.048,0.101,-0.07,2.7326655,0,nan,0.0,0.0,312,3,0,1,15
622088614,1683118936399831,11010053,423585526,-710872672,4449,-28705,0.63500005,0.6187932,2.351,2.729,0.71999997,1.14,91,4,0.135,-0.018000001,0.134,-0.001,2.7326655,0,nan,0.0,0.0,468,3,0,1,15
623092615,1683118937399832,11010053,423585527,-710872682,4723,-28430,0.623,0.6189342,2.374,2.7830002,0.71999997,1.14,91,8,0.119,0.119,0.002,-0.057000004,2.7326655,0,nan,0.0,0.0,468,3,0,1,15
624090613,1683118938399832,11010053,423585523,-710872705,5078,-28075,0.45000002,0.61905956,2.38,2.8260002,0.71999997,1.14,91,5,0.116000004,0.062000003,0.098000005,0.001,2.7326655,0,nan,0.0,0.0,390,3,0,1,15
625085614,1683118939399833,11010053,423585526,-710872707,4986,-28167,0.518,0.61919165,2.365,2.8860002,0.71999997,1.14,91,7,0.287,0.054,0.282,0.065000005,2.7326655,0,nan,0.0,0.0,390,3,0,1,15
626089614,1683118940399834,11010053,423585517,-710872695,4976,-28177,0.73200005,0.6193407,2.371,2.976,0.75,1.1899999,92,4,0.316,-0.21400002,0.23200001,0.054,2.7326655,0,nan,0.0,0.0,390,3,0,1,14
627085628,1683118941399835,11010053,423585527,-710872705,4921,-28232,0.73600006,0.6195025,2.3890002,3.0770001,0.75,1.1899999,92,3,0.132,0.128,-0.032,-0.076000005,2.7326655,0,nan,0.0,0.0,390,3,0,1,14
628085615,1683118942399835,11010053,423585532,-710872708,4929,-28224,0.81100005,0.6196723,2.421,3.18,0.71999997,1.14,92,3,0.179,0.163,-0.075,0.087000005,2.7326655,0,nan,0.0,0.0,390,3,0,1,15
629085140,1683118943399836,11010053,423585538,-710872726,4894,-28260,0.53800005,0.61981666,2.4250002,3.216,0.71999997,1.14,92,6,0.096,-0.029000001,-0.091000006,0.132,2.7326655,0,nan,0.0,0.0,390,3,0,1,15
630082615,1683118944399837,11010053,423585512,-710872721,5269,-27885,0.648,0.6199622,2.426,3.2500002,0.71999997,1.14,92,2,0.155,-0.13100001,0.08400001,-0.042000003,2.7326655,0,nan,0.0,0.0,390,3,0,1,15
631078050,1683118945399838,11010053,423585490,-710872713,5564,-27589,0.81500006,0.6201282,2.457,3.308,0.71999997,1.14,92,6,0.448,-0.22200002,0.39000002,-0.15,2.7326655,0,nan,0.0,0.0,390,3,0,1,15
632076619,1683118946399838,11010053,423585465,-710872710,5787,-27366,0.68100005,0.6202992,2.4950001,3.3660002,0.71999997,1.14,92,3,0.13800001,0.086,-0.108,-0.23900001,2.7326655,0,nan,0.0,0.0,390,3,0,1,15
633085614,1683118947399839,11010053,423585463,-710872728,5765,-27389,0.499,0.62044847,2.525,3.4350002,0.71999997,1.14,92,5,0.17600001,0.069000006,0.162,-0.105000004,2.7326655,0,nan,0.0,0.0,390,3,0,1,15
634082613,1683118948399840,11010053,423585454,-710872747,5863,-27290,0.748,0.62061477,2.536,3.4700003,0.71999997,1.14,92,4,0.079,0.022000002,-0.075,-0.165,2.7326655,0,nan,0.0,0.0,390,3,0,1,15
635084613,1683118949399840,11010053,423585439,-710872750,6067,-27086,0.772,0.62077516,2.5530002,3.5100002,0.71999997,1.14,92,4,0.09,0.07700001,-0.047000002,-0.102000006,2.7326655,0,nan,0.0,0.0,390,3,0,1,15
636079613,1683118950399841,11010053,423585418,-710872742,6439,-26714,0.813,0.62094486,2.5800002,3.571,0.71999997,1.14,92,3,0.34500003,-0.08800001,0.33400002,0.013,2.7326655,0,nan,0.0,0.0,390,3,0,1,15
637092630,1683118951399842,11010053,423585414,-710872740,6679,-26475,0.92300004,0.621145,2.6160002,3.6420002,0.71999997,1.14,92,3,0.275,0.24000001,-0.134,-0.120000005,2.7326655,0,nan,0.0,0.0,390,3,0,1,15
638091613,1683118952399843,11010053,423585418,-710872743,6701,-26452,0.87600005,0.6213169,2.6390002,3.6840003,0.84,1.23,92,3,0.096,-0.081,0.051000003,0.009000001,2.7326655,0,nan,0.0,0.0,390,3,0,1,14
639091646,1683118953399843,11010053,423585411,-710872735,6829,-26325,0.785,0.62149286,2.6420002,3.6950002,0.71999997,1.31,92,4,0.075,0.022000002,0.072000004,0.147,2.7326655,0,nan,0.0,0.0,546,3,0,1,14
640084812,1683118954399844,11010053,423585408,-710872731,6734,-26419,0.365,0.6216276,2.6260002,3.6820002,0.71999997,1.31,92,5,0.113000005,-0.026,-0.11000001,-0.015000001,2.7326655,0,nan,0.0,0.0,390,3,0,1,14
641080130,1683118955399845,11010053,423585396,-710872725,6984,-26169,0.47400004,0.6217795,2.608,3.69,0.76,1.14,92,6,0.066,-0.066,-0.009000001,0.058000002,2.7326655,0,nan,0.0,0.0,546,3,0,1,14
642089614,1683118956399846,11010053,423585401,-710872718,7217,-25936,0.679,0.6219025,2.5630002,3.6280003,0.71999997,1.14,92,3,0.14400001,-0.051000003,0.135,-0.014,2.7326655,0,nan,0.0,0.0,312,3,0,1,15
643092621,1683118957399846,11010053,423585406,-710872706,6973,-26180,0.523,0.6220334,2.5300002,3.5870001,0.71999997,1.14,92,5,0.060000002,-0.047000002,-0.037,-0.039,2.7326655,0,nan,0.0,0.0,312,3,0,1,15
644092613,1683118958399847,11010053,423585410,-710872723,7155,-25998,0.689,0.62217146,2.519,3.5830002,0.71999997,1.14,92,8,0.12900001,0.037,-0.124000005,-0.040000003,2.7326655,0,nan,0.0,0.0,234,3,0,1,15
645082614,1683118959399848,11010053,423585435,-710872723,7114,-26040,0.60700005,0.6223125,2.503,3.607,0.71999997,1.14,92,10,0.117000006,0.089,-0.076000005,-0.002,2.7326655,0,nan,0.0,0.0,234,3,0,1,15
646093615,1683118960399849,11010053,423585459,-710872717,6955,-26199,0.63900006,0.62244564,2.4720001,3.6080003,0.71999997,1.14,91,6,0.112,-0.101,0.049000002,-0.12200001,2.7326655,0,nan,0.0,0.0,234,3,0,1,15
647096619,1683118961399849,11010053,423585477,-710872711,6728,-26425,0.388,0.6225619,2.4380002,3.581,0.71999997,1.14,91,4,0.041,0.020000001,0.036000002,-0.025,2.7326655,0,nan,0.0,0.0,234,3,0,1,15
648088613,1683118962399850,11010053,423585481,-710872696,6633,-26520,0.508,0.6226827,2.404,3.5230002,0.72999996,1.14,88,6,0.087000005,0.011000001,0.086,-0.027,2.7326655,0,nan,0.0,0.0,234,3,0,1,14
649089614,1683118963399851,11010053,423585486,-710872683,6344,-26809,0.48400003,0.62279505,2.365,3.443,0.71999997,1.14,88,4,0.072000004,0.006,0.071,-0.041,2.7326655,0,nan,0.0,0.0,234,3,0,1,15
650084613,1683118964399852,11010053,423585508,-710872668,5878,-27276,0.526,0.6229186,2.3170002,3.351,0.84,1.22,88,6,0.081,-0.030000001,0.076000005,-0.13800001,2.7326655,0,nan,0.0,0.0,234,3,0,1,14
651094309,1683118965399852,11010053,423585525,-710872669,5634,-27519,0.57600003,0.6230387,2.288,3.1950002,0.84,1.22,88,3,0.039,0.036000002,-0.015000001,-0.001,2.7326655,0,nan,0.0,0.0,234,3,0,1,14
652096613,1683118966399853,11010053,423585534,-710872666,5419,-27735,0.4,0.6231542,2.256,3.1030002,0.84,1.22,88,4,0.085,0.082,-0.021000002,-0.035,2.7326655,0,nan,0.0,0.0,234,3,0,1,14
653088612,1683118967399854,11010053,423585526,-710872645,5225,-27928,0.58900005,0.6232656,2.213,3.0070002,0.84,1.22,88,2,0.11800001,0.10700001,-0.048,0.086,2.7326655,0,nan,0.0,0.0,234,3,0,1,14
654088612,1683118968399855,11010053,423585527,-710872639,5073,-28080,0.586,0.6233824,2.1880002,2.9380002,0.84,1.22,88,4,0.08400001,0.083000004,-0.013,0.018000001,2.7326655,0,nan,0.0,0.0,234,3,0,1,14
655099612,1683118969399855,11010053,423585513,-710872629,5265,-27888,0.78900003,0.62352896,2.1820002,2.901,0.71999997,1.14,88,4,0.076000005,-0.065000005,0.039,-0.036000002,2.7326655,0,nan,0.0,0.0,234,3,0,1,15
656098615,1683118970399856,11010053,423585519,-710872637,5314,-27839,0.388,0.6728509,2.2,2.9210002,0.71999997,1.14,88,3,0.036000002,0.025,0.026,-0.030000001,3.9798942,0,nan,0.0,0.0,234,3,0,1,15
657098613,1683118971399857,11010053,423585525,-710872631,5181,-27972,0.632,0.67296296,2.206,2.9320002,0.71999997,1.14,88,3,0.108,-0.054,0.093,-0.05,3.9798942,0,nan,0.0,0.0,234,3,0,1,15
658087613,1683118972399858,11010053,423585521,-710872611,5087,-28066,0.64000005,0.6730942,2.209,2.9390001,0.71999997,1.14,88,6,0.15200001,-0.136,0.068,0.07300001,3.9798942,0,nan,0.0,0.0,234,3,0,1,15
659093614,1683118973399858,11010053,423585519,-710872596,5140,-28013,0.40500003,0.6732161,2.204,2.9390001,0.71999997,1.14,88,2,0.030000001,-0.014,-0.027,0.025,3.9798942,0,nan,0.0,0.0,234,3,0,1,15
660089615,1683118974399859,11010053,423585526,-710872583,5044,-28109,0.651,0.67333645,2.1850002,2.936,0.71999997,1.14,89,5,0.078,-0.074,0.025,-0.022000002,3.9798942,0,nan,0.0,0.0,234,3,0,1,15
661094620,1683118975399860,11010053,423585532,-710872574,5053,-28100,0.836,0.67346233,2.177,2.943,0.71999997,1.14,89,5,0.393,-0.24100001,0.31,-0.053000003,3.9798942,0,nan,0.0,0.0,234,3,0,1,15
662094613,1683118976399860,11010053,423585514,-710872548,4965,-28189,0.47500002,0.5087027,2.219,2.96,0.71999997,1.14,89,5,0.018000001,-0.008,-0.016,0.011000001,3.0686212,0,nan,0.0,0.0,234,3,0,1,15
663096613,1683118977399861,11010053,423585498,-710872527,5052,-28102,0.90900004,0.50895876,2.2770002,2.993,0.71999997,1.14,89,5,0.231,-0.20300001,0.11100001,-0.272,3.0686212,0,nan,0.0,0.0,234,3,0,1,15
664093614,1683118978399862,11010053,423585496,-710872509,5005,-28148,1.1600001,0.68173224,2.331,3.0230002,0.71999997,1.14,88,7,0.031000001,-0.027,0.017,-0.003,3.9871018,0,nan,0.0,0.0,234,3,0,1,15
665091612,1683118979399863,11010053,423585481,-710872486,4944,-28209,0.324,0.41227084,2.4060001,3.061,0.71999997,1.14,88,6,0.041,0.020000001,0.035,-0.022000002,2.9626844,0,nan,0.0,0.0,78,3,0,1,15
666090613,1683118980399863,11010053,423585507,-710872505,5063,-28090,0.623,0.5804076,2.421,3.071,0.71999997,1.14,88,4,0.030000001,-0.029000001,-0.009000001,-0.087000005,3.9050884,0,nan,0.0,0.0,234,4,0,1,15
667096618,1683118981399864,11010053,423585499,-710872502,5170,-27984,0.82800007,0.58058095,2.42,3.0600002,0.71999997,1.14,88,5,0.18400002,-0.16000001,0.09,0.054,3.9050884,0,nan,0.0,0.0,234,4,0,1,15
668092909,1683118982399865,11010053,423585506,-710872506,5066,-28087,0.61600006,0.5807396,2.426,3.065,0.76,1.14,89,2,0.086,-0.082,-0.025,-0.037,3.9050884,0,nan,0.0,0.0,234,4,0,1,14
669093620,1683118983399866,11010053,423585514,-710872514,5080,-28073,0.859,0.5809079,2.4380002,3.0660002,0.76,1.14,89,3,0.086,0.081,-0.029000001,0.029000001,3.9050884,0,nan,0.0,0.0,234,4,0,1,14
670093682,1683118984399866,11010053,423585522,-710872518,5180,-27973,0.703,0.5810941,2.447,3.0630002,0.76,1.14,89,3,0.065000005,-0.047000002,0.045,-0.123,3.9050884,0,nan,0.0,0.0,234,4,0,1,14
671094611,1683118985399867,11010053,423585528,-710872517,5347,-27807,0.62700003,0.58124137,2.433,3.055,0.76,1.14,89,1,0.033,0.027,-0.019000001,0.048,3.9050884,0,nan,0.0,0.0,234,4,0,1,14
672097709,1683118986399868,11010053,423585524,-710872526,5597,-27556,0.43100002,0.5813735,2.3850002,3.009,0.76,1.14,89,5,0.125,-0.123,-0.020000001,0.041,3.9050884,0,nan,0.0,0.0,234,4,0,1,14
673096613,1683118987399869,11010053,423585519,-710872536,5849,-27304,0.523,0.5815158,2.3500001,2.9620001,0.76,1.14,89,4,0.083000004,0.044000003,-0.07,-0.064,3.9050884,0,nan,0.0,0.0,234,4,0,1,14
673945614,1683118988199869,11010053,423585520,-710872544,5920,-27233,0.763,0.5816399,2.329,2.9340003,0.71999997,1.14,89,3,0.16800001,0.12200001,-0.115,-0.11100001,3.9050884,0,nan,0.0,0.0,234,4,0,1,15
674936613,1683118989199870,11010053,423585532,-710872553,5951,-27202,0.53000003,0.5817748,2.3070002,2.9220002,0.71999997,1.14,89,4,0.037,-0.036000002,0.011000001,0.132,3.9050884,0,nan,0.0,0.0,234,4,0,1,15
676135633,1683118990399871,11010053,423585569,-710872586,5768,-27385,0.66700006,0.5819263,2.2810001,2.9290001,0.71999997,1.14,89,4,0.272,0.23200001,-0.142,0.067,3.9050884,0,nan,0.0,0.0,234,4,0,1,15
676956616,1683118991199871,11010053,423585593,-710872600,5594,-27560,0.637,0.5820418,2.265,2.9280002,0.71999997,1.14,89,4,0.22800002,-0.21400002,0.079,0.054,3.9050884,0,nan,0.0,0.0,234,4,0,1,15
677947613,1683118992199872,11010053,423585615,-710872624,5589,-27564,0.55300003,0.5821973,2.2410002,2.884,0.71999997,1.14,89,5,0.026,0.026,-0.001,0.020000001,3.9050884,0,nan,0.0,0.0,234,4,0,1,15
679137627,1683118993399873,11010053,423585630,-710872632,5659,-27494,0.34,0.5823544,2.2120001,2.8470001,0.74,1.23,89,4,0.079,0.052,0.059000004,-0.002,3.9050884,0,nan,0.0,0.0,234,4,0,1,14
680127614,1683118994399874,11010053,423585653,-710872640,5563,-27590,0.569,0.5824961,2.2020001,2.8260002,0.71999997,1.14,89,4,0.033,0.018000001,-0.028,0.08800001,3.9050884,0,nan,0.0,0.0,234,4,0,1,15
680938681,1683118995199874,11010053,423585668,-710872641,5634,-27520,0.665,0.58260465,2.1880002,2.8170002,0.74,1.23,89,2,0.071,0.061000004,-0.036000002,0.045,3.9050884,0,nan,0.0,0.0,234,4,0,1,14
681943614,1683118996199875,11010053,423585677,-710872650,5694,-27459,0.65300006,0.58274794,2.176,2.8060002,0.71999997,1.14,89,4,0.21700001,0.185,-0.11400001,0.017,3.9050884,0,nan,0.0,0.0,234,4,0,1,15
683132613,1683118997399876,11010053,423585680,-710872649,5897,-27256,0.68200004,0.5829237,2.1650002,2.801,0.71999997,1.14,89,4,0.066,-0.032,0.058000002,-0.0050000004,3.9050884,0,nan,0.0,0.0,234,4,0,1,15
684127628,1683118998399877,11010053,423585690,-710872655,5798,-27355,0.72800004,0.5830677,2.1590002,2.7940001,0.71999997,1.14,89,3,0.125,-0.09900001,0.076000005,-0.065000005,3.9050884,0,nan,0.0,0.0,234,4,0,1,15
684940615,1683118999199877,11010053,423585702,-710872659,5791,-27362,0.53000003,0.58315516,2.161,2.7930002,0.7,1.12,89,5,0.081,0.024,-0.07700001,-0.143,3.9050884,0,nan,0.0,0.0,234,4,0,1,16
686135614,1683119000399878,11010053,423585710,-710872662,5886,-27268,0.46,0.58332586,2.161,2.778,0.7,1.12,89,4,0.102000006,0.003,0.102000006,-0.080000006,3.9050884,0,nan,0.0,0.0,234,4,0,1,16
687132751,1683119001399879,11010053,423585713,-710872658,6062,-27091,0.597,0.5783719,2.174,2.811,0.7,1.12,89,6,0.14600001,-0.049000002,0.13700001,0.081,4.8250747,0,nan,0.0,0.0,234,4,0,1,16
687934697,1683119002199880,11010053,423585712,-710872659,6216,-26937,0.44900003,0.63026786,2.1790001,2.8040001,0.7,1.12,89,4,0.069000006,-0.062000003,-0.030000001,0.046000004,5.294804,0,nan,0.0,0.0,234,4,0,1,16
689137613,1683119003399880,11010053,423585704,-710872655,6289,-26864,0.29500002,0.63043386,2.1780002,2.802,0.7,1.12,89,4,0.095000006,0.062000003,0.072000004,0.007,5.294804,0,nan,0.0,0.0,234,4,0,1,16
690132613,1683119004399881,11010053,423585711,-710872659,6242,-26911,0.535,0.63055426,2.161,2.788,0.7,1.12,89,4,0.055000003,0.055000003,-0.007,0.314,5.294804,0,nan,0.0,0.0,234,4,0,1,16
691139967,1683119005399882,11010053,423585756,-710872695,6017,-27136,0.42000002,0.6306782,2.131,2.759,0.7,1.12,89,4,0.034,-0.028,0.018000001,-0.052,5.294804,0,nan,0.0,0.0,234,4,0,1,16
692137615,1683119006399883,11010053,423585770,-710872710,6064,-27090,0.68100005,0.6308136,2.1160002,2.7410002,0.7,1.12,89,6,0.24300002,0.21900001,-0.105000004,-0.064,5.294804,0,nan,0.0,0.0,234,4,0,1,16
693129614,1683119007399883,11010053,423585783,-710872729,6210,-26943,0.73600006,0.6309529,2.1230001,2.732,0.75,1.13,89,7,0.20600002,-0.194,0.071,-0.071,5.294804,0,nan,0.0,0.0,234,4,0,1,15
694129614,1683119008399884,11010053,423585807,-710872760,6328,-26825,0.44700003,0.63109183,2.13,2.719,0.75,1.13,89,6,0.086,-0.074,-0.045,-0.12900001,5.294804,0,nan,0.0,0.0,234,4,0,1,15
695129613,1683119009399885,11010053,423585833,-710872781,6293,-26860,0.79300004,0.6312353,2.1320002,2.706,0.75,1.13,89,6,0.059000004,-0.055000003,0.022000002,-0.037,5.294804,0,nan,0.0,0.0,234,4,0,1,15
696134619,1683119010399886,11010053,423585849,-710872796,6372,-26782,0.859,0.7735125,2.1450002,2.6880002,0.75,1.13,89,4,0.289,0.24300002,-0.157,0.0,5.460299,0,nan,0.0,0.0,234,4,0,1,15
697134614,1683119011399886,11010053,423585873,-710872815,6339,-26815,0.509,0.77360445,2.147,2.6720002,0.75,1.13,88,3,0.039,-0.030000001,-0.025,-0.07300001,5.460299,0,nan,0.0,0.0,234,4,0,1,15
697940615,1683119012199887,11010053,423585878,-710872830,6595,-26558,0.71400005,0.7736948,2.151,2.6460001,0.75,1.13,88,3,0.041,-0.037,0.019000001,-0.003,5.460299,0,nan,0.0,0.0,234,4,0,1,15
698945614,1683119013199888,11010053,423585892,-710872850,6832,-26322,0.64000005,0.7737999,2.1490002,2.615,0.75,1.13,88,3,0.026,-0.025,0.003,-0.016,5.460299,0,nan,0.0,0.0,234,4,0,1,15
699946614,1683119014199888,11010053,423585888,-710872865,7154,-25999,0.537,0.7739003,2.1450002,2.591,0.75,1.13,88,4,0.065000005,0.010000001,-0.065000005,0.025,5.460299,0,nan,0.0,0.0,234,4,0,1,15
700942614,1683119015199889,11010053,423585875,-710872867,7416,-25737,0.83900005,0.6905651,2.164,2.582,0.75,1.12,88,4,0.15900001,0.149,-0.053000003,0.006,3.859279,0,nan,0.0,0.0,234,4,0,1,15
701955615,1683119016199890,11010053,423585870,-710872871,7491,-25662,0.80300003,0.45725828,2.1820002,2.5890002,0.7,1.12,88,4,0.135,0.127,-0.046000004,-0.004,3.0707662,0,nan,0.0,0.0,234,4,0,1,16
702950621,1683119017199891,11010053,423585876,-710872880,7554,-25599,0.642,0.4574644,2.186,2.591,0.7,1.12,88,4,0.104,-0.060000002,0.085,0.09,3.0707662,0,nan,0.0,0.0,234,4,0,1,16
703957614,1683119018199891,11010053,423585866,-710872876,7526,-25628,0.85400003,0.45768815,2.2,2.582,0.71999997,1.12,88,4,0.15100001,-0.135,0.068,-0.009000001,3.0707662,0,nan,0.0,0.0,234,4,0,1,15
704953614,1683119019199892,11010053,423585862,-710872884,7593,-25560,0.84200007,0.45790738,2.2180002,2.578,0.71999997,1.12,88,6,0.091000006,-0.072000004,0.056,-0.016,3.0707662,0,nan,0.0,0.0,234,4,0,1,15
705952614,1683119020199893,11010053,423585878,-710872901,7527,-25627,0.597,0.47042784,2.2340002,2.581,0.71999997,1.12,88,6,0.022000002,0.021000002,0.0050000004,0.149,4.31751,0,nan,0.0,0.0,234,4,0,1,15
706951614,1683119021199894,11010053,423585894,-710872914,7531,-25622,0.36400002,0.4706294,2.239,2.5730002,0.71999997,1.12,88,6,0.094000004,0.056,0.075,-0.080000006,4.31751,0,nan,0.0,0.0,234,4,0,1,15
707944614,1683119022199894,11010053,423585909,-710872918,7500,-25653,0.60200006,0.47081545,2.23,2.5630002,0.71999997,1.12,88,7,0.1,-0.066,0.075,0.061000004,4.31751,0,nan,0.0,0.0,234,4,0,1,15
708947613,1683119023199895,11010053,423585927,-710872926,7442,-25711,0.772,0.47100082,2.23,2.559,0.71999997,1.12,88,8,0.23600002,0.231,-0.049000002,0.065000005,4.31751,0,nan,0.0,0.0,234,4,0,1,15
709951613,1683119024199896,11010053,423585938,-710872932,7535,-25618,0.68100005,0.471201,2.2440002,2.5960002,0.71999997,1.12,88,8,0.24900001,0.10300001,-0.22600001,-0.044000003,4.31751,0,nan,0.0,0.0,234,4,0,1,15
710952689,1683119025199897,11010053,423585938,-710872922,7493,-25660,0.94500005,0.4714502,2.2640002,2.6460001,0.71999997,1.12,88,5,0.27600002,0.23500001,-0.14600001,0.027,4.31751,0,nan,0.0,0.0,234,4,0,1,15
711953613,1683119026199897,11010053,423585932,-710872916,7569,-25584,0.96500003,0.52459306,2.289,2.7,0.71999997,1.12,88,8,0.614,-0.55600005,0.26000002,-0.326,3.595929,0,nan,0.0,0.0,234,4,0,1,15
712944614,1683119027199898,11010053,423585912,-710872893,7672,-25481,1.0,0.7653112,2.3460002,2.795,0.78,1.12,88,11,0.25,-0.201,0.149,-0.337,3.2924006,0,nan,0.0,0.0,78,4,0,1,14
713934284,1683119028199899,11010053,423585919,-710872886,7532,-25621,1.085,0.76546615,2.4080002,2.868,0.78,1.12,88,4,0.11000001,-0.097,0.051000003,-0.007,3.2924006,0,nan,0.0,0.0,78,4,0,1,14
714949634,1683119029199900,11010053,423585933,-710872900,7546,-25607,1.1110001,0.7656342,2.4550002,2.9190001,0.71999997,1.12,88,3,0.126,0.11000001,-0.061000004,0.002,3.2924006,0,nan,0.0,0.0,78,4,0,1,15
715947615,1683119030199900,11010053,423585946,-710872909,7442,-25712,0.63100004,0.7657946,2.5040002,2.956,0.71999997,1.12,88,4,0.032,-0.013,-0.030000001,-0.07700001,3.2924006,0,nan,0.0,0.0,78,4,0,1,15
716953612,1683119031199901,11010053,423585944,-710872905,7301,-25852,0.841,0.7659243,2.512,2.9720001,0.71999997,1.12,88,7,0.372,-0.347,0.134,-0.093,3.2924006,0,nan,0.0,0.0,78,4,0,1,15
717955691,1683119032199902,11010053,423585950,-710872907,7244,-25909,0.74700004,0.7660444,2.509,2.983,0.71999997,1.12,88,4,0.053000003,0.040000003,-0.035,0.089,3.2924006,0,nan,0.0,0.0,78,4,0,1,15
719138613,1683119033399903,11010053,423585957,-710872904,7190,-25963,0.628,0.7662224,2.5310001,3.0260003,0.71999997,1.12,87,6,0.102000006,-0.094000004,-0.039,-0.013,3.2924006,0,nan,0.0,0.0,78,4,0,1,15
719954623,1683119034199903,11010053,423585957,-710872895,6970,-26183,0.80300003,0.7673001,2.535,3.0460002,0.71999997,1.12,87,6,0.15300001,0.15200001,-0.014,0.006,3.0009317,0,nan,0.0,0.0,78,4,0,1,15
720945614,1683119035199904,11010053,423585960,-710872891,7019,-26135,1.141,0.76746833,2.5740001,3.061,0.75,1.2099999,87,4,0.18400002,0.148,-0.11000001,0.010000001,3.0009317,0,nan,0.0,0.0,78,4,0,1,14
721955613,1683119036199905,11010053,423585980,-710872905,6964,-26189,1.093,0.7676373,2.6100001,3.058,0.7,1.11,87,5,0.45100003,0.372,-0.25500003,0.026,3.0009317,0,nan,0.0,0.0,234,4,0,1,16
722953614,1683119037199905,11010053,423585961,-710872895,7018,-26135,1.133,0.60972166,2.654,3.0670002,0.7,1.11,86,4,0.22200002,-0.21700001,0.049000002,-0.082,2.8703418,0,nan,0.0,0.0,156,4,0,1,16
723965614,1683119038199906,11010053,423585965,-710872892,6880,-26273,0.97800004,0.78029615,2.696,3.048,0.7,1.11,80,4,0.26500002,0.21000001,-0.162,-0.08400001,3.908582,0,nan,0.0,0.0,156,4,0,1,16
724953013,1683119039199907,11010053,423585958,-710872887,6823,-26330,0.99000007,0.33017054,2.6890001,2.97,0.68,1.11,75,4,0.335,-0.32000002,0.1,-0.060000002,2.9268937,0,nan,0.0,0.0,156,4,0,1,17
725946614,1683119040199908,11010053,423585966,-710872888,6696,-26457,0.785,0.33047268,2.67,2.9620001,0.68,1.11,81,6,0.20400001,0.16700001,-0.117000006,0.024,2.9268937,0,nan,0.0,0.0,156,4,0,1,17
726944180,1683119041199908,11010053,423585984,-710872893,6494,-26659,0.71000004,0.3307591,2.64,2.966,0.68,1.1,86,5,0.083000004,-0.065000005,0.053000003,0.042000003,2.9268937,0,nan,0.0,0.0,156,4,0,1,17
727963780,1683119042199909,11010053,423585992,-710872895,6395,-26758,0.72300005,0.33104566,2.6190002,2.9710002,0.68,1.1,86,3,0.033,-0.020000001,0.026,-0.035,2.9268937,0,nan,0.0,0.0,156,4,0,1,17
728960614,1683119043199910,11010053,423585996,-710872905,6441,-26712,0.818,0.33136383,2.601,2.9780002,0.68,1.1,86,4,0.12200001,-0.10300001,0.065000005,-0.032,2.9268937,0,nan,0.0,0.0,312,4,0,1,17
729958613,1683119044199911,11010053,423586019,-710872928,6386,-26767,0.716,0.3316614,2.5740001,2.989,0.68,1.1,86,3,0.09900001,0.062000003,-0.07700001,0.072000004,2.9268937,0,nan,0.0,0.0,312,4,0,1,17
730945613,1683119045199911,11010053,423586060,-710872959,6314,-26839,0.39800003,0.33192495,2.5410001,2.999,0.68,1.1,86,3,0.066,0.009000001,0.065000005,0.010000001,2.9268937,0,nan,0.0,0.0,312,4,0,1,17
731956615,1683119046199912,11010053,423586086,-710872979,6285,-26868,0.73600006,0.33219078,2.516,3.0170002,0.68,1.1,86,10,0.19700001,-0.16100001,0.11400001,0.044000003,2.9268937,0,nan,0.0,0.0,312,4,0,1,17
733112614,1683119047399913,11010053,423586103,-710872996,6304,-26849,0.629,0.70049155,2.6990001,3.1330001,0.71999997,1.11,87,10,0.060000002,-0.057000004,0.018000001,-0.123,3.444941,0,nan,0.0,0.0,312,4,0,1,16
734116619,1683119048399914,11010053,423586125,-710873010,6122,-27031,0.55,0.34878537,2.6780002,3.1390002,0.71999997,1.11,86,8,0.020000001,0.020000001,0.001,-0.09900001,5.2458897,0,nan,0.0,0.0,312,4,0,1,16
735107613,1683119049399914,11010053,423586148,-710873004,5817,-27336,0.82000005,0.6279326,2.6650002,3.1380002,0.71999997,1.11,80,9,0.287,0.21300001,-0.193,-0.038000003,5.3520155,0,nan,0.0,0.0,312,4,0,1,16
736105785,1683119050399915,11010053,423586140,-710872994,5875,-27278,1.2290001,0.6281197,2.664,3.131,0.71999997,1.11,80,9,0.156,0.14600001,-0.056,0.034,5.3520155,0,nan,0.0,0.0,312,4,0,1,16
737109614,1683119051399916,11010053,423586136,-710872990,5954,-27199,0.79600006,0.5779583,2.693,3.1360002,0.68,1.1,80,9,0.18400002,-0.18400002,-0.003,-0.18,3.8850393,0,nan,0.0,0.0,312,4,0,1,17
738111909,1683119052399917,11010053,423586149,-710873003,5995,-27158,0.665,0.57810676,2.6850002,3.1260002,0.68,1.1,79,10,0.20700002,0.149,-0.14400001,-0.20400001,3.8850393,0,nan,0.0,0.0,312,4,0,1,17
739112613,1683119053399917,11010053,423586154,-710873002,5822,-27331,0.89300007,0.5782974,2.68,3.1100001,0.68,1.1,74,8,0.093,-0.069000006,0.062000003,-0.034,3.8850393,0,nan,0.0,0.0,312,4,0,1,17
740112614,1683119054399918,11010053,423586176,-710873026,5758,-27395,0.712,0.37872893,2.6750002,3.107,0.71999997,1.11,73,8,0.036000002,0.025,-0.027,0.009000001,5.532838,0,nan,0.0,0.0,312,4,0,1,16
741104614,1683119055399919,11010053,423586185,-710873048,5608,-27546,0.44700003,0.37889576,2.6350002,3.058,0.71999997,1.11,73,8,0.087000005,0.013,-0.086,0.019000001,5.532838,0,nan,0.0,0.0,312,4,0,1,16
742112613,1683119056399920,11010053,423586190,-710873068,5540,-27613,0.657,0.37906823,2.551,2.9250002,0.71999997,1.11,73,8,0.036000002,-0.029000001,0.022000002,-0.022000002,5.532838,0,nan,0.0,0.0,312,4,0,1,16
743113613,1683119057399920,11010053,423586182,-710873061,5634,-27520,0.536,0.3792227,2.4780002,2.8290002,0.71999997,1.11,74,7,0.058000002,-0.033,0.048,-0.053000003,5.532838,0,nan,0.0,0.0,312,4,0,1,16
744115614,1683119058399921,11010053,423586156,-710873043,5915,-27239,0.46800002,0.3794274,2.4220002,2.7870002,0.71999997,1.11,74,5,0.14,0.11100001,-0.08400001,-0.112,5.532838,0,nan,0.0,0.0,312,4,0,1,16
745100613,1683119059399922,11010053,423586153,-710873037,6021,-27132,0.56,0.37962288,2.3690002,2.7700002,0.68,1.1,79,5,0.046000004,0.030000001,-0.036000002,0.015000001,5.532838,0,nan,0.0,0.0,312,4,0,1,17
746108614,1683119060399923,11010053,423586155,-710873049,6037,-27116,0.53400004,0.3798262,2.3390002,2.742,0.68,1.1,79,7,0.037,-0.029000001,0.023000002,0.038000003,5.532838,0,nan,0.0,0.0,312,4,0,1,17
747104719,1683119061399923,11010053,423586151,-710873059,6064,-27089,0.68100005,0.38007075,2.3230002,2.736,0.68,1.1,79,8,0.052,-0.047000002,0.022000002,0.001,5.532838,0,nan,0.0,0.0,312,4,0,1,17
748115614,1683119062399924,11010053,423586124,-710873055,6072,-27081,0.64400005,0.7496566,2.305,2.7170002,0.68,1.1,79,9,0.12200001,-0.119,-0.030000001,-0.23400001,4.994598,0,nan,0.0,0.0,312,4,0,1,17
749103614,1683119063399925,11010053,423586101,-710873053,6418,-26735,0.65500003,0.7497824,2.3040001,2.7710001,0.68,1.1,79,9,0.165,0.101,-0.13000001,-0.006,4.994598,0,nan,0.0,0.0,312,4,0,1,17
750104614,1683119064399926,11010053,423586071,-710873054,6675,-26479,0.68700004,0.7499051,2.305,2.8130002,0.68,1.1,79,9,0.18300001,-0.18300001,-0.011000001,-0.108,4.994598,0,nan,0.0,0.0,312,4,0,1,17
751112634,1683119065399926,11010053,423586044,-710873048,6811,-26342,0.55300003,0.750028,2.3070002,2.858,0.68,1.1,79,9,0.12900001,0.128,0.015000001,-0.42800003,4.994598,0,nan,0.0,0.0,312,4,0,1,17
752114613,1683119066399927,11010053,423586051,-710873045,6818,-26335,0.588,0.75014997,2.312,2.8760002,0.77,1.14,79,6,0.079,-0.079,0.010000001,-0.123,4.994598,0,nan,0.0,0.0,312,4,0,1,16
753114614,1683119067399928,11010053,423586054,-710873036,7086,-26067,0.58900005,0.7502336,2.2640002,2.8040001,0.71999997,1.11,79,9,0.093,-0.09,0.026,-0.031000001,4.994598,0,nan,0.0,0.0,156,4,0,1,16
754116613,1683119068399928,11010053,423586036,-710873026,7557,-25596,0.47000003,0.75031406,2.2240002,2.7510002,0.71999997,1.11,79,7,0.080000006,0.029000001,-0.075,-0.095000006,4.994598,0,nan,0.0,0.0,156,4,0,1,16
755112721,1683119069399929,11010053,423586005,-710873028,8026,-25127,0.384,0.7503901,2.193,2.6890001,0.71999997,1.11,79,8,0.081,-0.061000004,-0.054,-0.004,4.994598,0,nan,0.0,0.0,156,4,0,1,16
756114613,1683119070399930,11010053,423585990,-710873016,7972,-25181,0.33800003,0.7504739,2.171,2.6460001,0.71999997,1.11,79,3,0.035,0.017,0.030000001,-0.024,4.994598,0,nan,0.0,0.0,156,4,0,1,16
757111613,1683119071399931,11010053,423585973,-710873005,7962,-25191,0.497,0.7505678,2.1560001,2.63,0.71999997,1.11,79,5,0.109000005,0.109000005,-0.001,-0.044000003,4.994598,0,nan,0.0,0.0,156,4,0,1,16
758112613,1683119072399931,11010053,423585961,-710872995,7876,-25277,0.48400003,0.75066817,2.147,2.5930002,0.71999997,1.11,79,3,0.079,-0.078,-0.016,0.004,4.994598,0,nan,0.0,0.0,156,4,0,1,16
759112618,1683119073399932,11010053,423585949,-710872980,7700,-25453,0.55700004,0.75076973,2.135,2.5730002,0.71999997,1.11,79,4,0.15900001,-0.155,0.035,0.075,4.994598,0,nan,0.0,0.0,156,4,0,1,16
760103614,1683119074399933,11010053,423585957,-710872962,7258,-25895,0.522,0.7508649,2.13,2.558,0.78999996,1.27,79,8,0.031000001,0.011000001,0.029000001,0.24700001,4.994598,0,nan,0.0,0.0,312,4,0,1,15
761110618,1683119075399934,11010053,423585931,-710872939,7316,-25837,0.771,0.7509923,2.157,2.6020002,0.75,1.26,79,5,0.37800002,-0.28,0.254,-0.120000005,4.994598,0,nan,0.0,0.0,312,4,0,1,16
762102619,1683119076399934,11010053,423585911,-710872925,7300,-25853,1.013,0.5242615,2.204,2.6550002,0.75,1.26,79,2,0.537,-0.49300003,0.21200001,0.05,3.475237,0,nan,0.0,0.0,312,4,0,1,16
763109614,1683119077399935,11010053,423585900,-710872899,7054,-26099,0.943,0.52451104,2.252,2.676,0.75,1.26,79,6,0.407,-0.32500002,0.245,0.045,3.475237,0,nan,0.0,0.0,312,4,0,1,16
764111614,1683119078399936,11010053,423585897,-710872881,7019,-26134,0.586,0.52471805,2.272,2.7140002,0.68,1.1,79,6,0.067,0.020000001,-0.064,-0.16700001,3.475237,0,nan,0.0,0.0,312,4,0,1,17
765104620,1683119079399937,11010053,423585903,-710872861,6778,-26375,0.86200005,0.52491003,2.2810001,2.7480001,0.68,1.1,74,6,0.18400002,-0.17500001,0.055000003,-0.018000001,3.475237,0,nan,0.0,0.0,312,4,0,1,17
766111630,1683119080399937,11010053,423585911,-710872833,6472,-26682,0.514,0.52507114,2.2670002,2.7170002,0.68,1.1,74,11,0.08400001,-0.046000004,0.07,0.098000005,3.475237,0,nan,0.0,0.0,312,4,0,1,17
767111614,1683119081399938,11010053,423585918,-710872815,6279,-26874,0.725,0.5252586,2.252,2.693,0.68,1.1,74,11,0.28300002,-0.201,0.2,0.025,3.475237,0,nan,0.0,0.0,312,4,0,1,17
768112120,1683119082399939,11010053,423585927,-710872811,6215,-26938,0.938,0.5254657,2.273,2.7220001,0.68,1.1,74,9,0.26200002,-0.23900001,0.10700001,-0.101,3.475237,0,nan,0.0,0.0,312,4,0,1,17
769103614,1683119083399940,11010053,423585941,-710872812,6003,-27150,0.499,0.5256246,2.2940001,2.7500002,0.68,1.1,85,7,0.141,0.017,0.14,0.062000003,3.475237,0,nan,0.0,0.0,312,4,0,1,17
770106612,1683119084399940,11010053,423585954,-710872804,5751,-27402,0.582,0.5257895,2.2900002,2.785,0.68,1.1,85,6,0.097,0.031000001,-0.09200001,0.049000002,3.475237,0,nan,0.0,0.0,312,4,0,1,17
771092615,1683119085399941,11010053,423585960,-710872798,6007,-27146,0.61600006,0.52594936,2.2910001,2.8270001,0.7,1.1,85,6,0.143,-0.109000005,-0.093,-0.518,3.475237,0,nan,0.0,0.0,312,4,0,1,16
772095761,1683119086399942,11010053,423585973,-710872794,5872,-27281,0.652,0.52612114,2.295,2.878,0.68,1.1,85,6,0.024,-0.015000001,-0.018000001,-0.136,3.475237,0,nan,0.0,0.0,312,4,0,1,17
773099648,1683119087399943,11010053,423585988,-710872786,5416,-27737,0.521,0.52627593,2.292,2.9190001,0.68,1.1,85,8,0.072000004,-0.059000004,-0.041,0.136,3.475237,0,nan,0.0,0.0,312,4,0,1,17
774103614,1683119088399943,11010053,423585992,-710872779,5223,-27931,0.42600003,0.5264196,2.275,2.9340003,0.65999997,1.05,85,9,0.19700001,-0.179,-0.082,-0.001,3.475237,0,nan,0.0,0.0,312,4,0,1,18
775103614,1683119089399944,11010053,423585972,-710872756,5085,-28069,0.63500005,0.52658325,2.2480001,2.963,0.65999997,1.05,85,7,0.029000001,-0.029000001,-0.003,-0.071,3.475237,0,nan,0.0,0.0,312,4,0,1,18
776107614,1683119090399945,11010053,423585975,-710872727,4584,-28569,0.605,0.5267409,2.233,3.0030003,0.65999997,1.05,84,8,0.037,0.029000001,-0.023000002,-0.116000004,3.475237,0,nan,0.0,0.0,468,4,0,1,18
777108614,1683119091399946,11010053,423585976,-710872713,4186,-28967,0.532,0.5268816,2.223,3.0260003,0.65999997,1.05,84,8,0.097,0.065000005,-0.072000004,-0.057000004,3.475237,0,nan,0.0,0.0,468,4,0,1,18
778117661,1683119092399946,11010053,423585981,-710872700,3767,-29386,0.573,0.5270243,2.1990001,3.0100002,0.65999997,1.05,79,8,0.149,-0.133,0.067,0.010000001,3.475237,0,nan,0.0,0.0,312,4,0,1,18
779103849,1683119093399947,11010053,423585983,-710872690,3306,-29847,0.508,0.5271711,2.184,3.012,0.65999997,1.05,78,9,0.098000005,0.087000005,-0.044000003,-0.066,3.475237,0,nan,0.0,0.0,312,4,0,1,18
780103764,1683119094399948,11010053,423586003,-710872684,2603,-30551,0.45200002,0.5273203,2.18,3.0370002,0.65999997,1.05,78,7,0.141,0.040000003,0.135,0.017,3.475237,0,nan,0.0,0.0,312,4,0,1,18
781110653,1683119095399948,11010053,423586012,-710872686,2252,-30901,0.59400004,0.52749133,2.181,3.062,0.65999997,1.05,78,7,0.020000001,-0.002,0.020000001,0.064,3.475237,0,nan,0.0,0.0,312,4,0,1,18
782108615,1683119096399949,11010053,423586012,-710872688,2107,-31046,0.577,0.5276331,2.16,3.019,0.65999997,1.05,78,9,0.12900001,-0.125,0.030000001,0.0,3.475237,0,nan,0.0,0.0,312,4,0,1,18
783110614,1683119097399950,11010053,423585996,-710872691,2166,-30987,0.33400002,0.52776206,2.1430001,2.9540002,0.65999997,1.05,78,5,0.051000003,-0.043,-0.028,0.033,3.475237,0,nan,0.0,0.0,312,4,0,1,18
784104745,1683119098399951,11010053,423585976,-710872690,2231,-30922,0.335,0.5278706,2.118,2.867,0.65999997,1.05,78,7,0.039,-0.019000001,-0.034,-0.022000002,3.475237,0,nan,0.0,0.0,312,4,0,1,18
785113614,1683119099399951,11010053,423585961,-710872686,2123,-31030,0.446,0.528012,2.0930002,2.815,0.65999997,1.05,78,6,0.095000006,0.039,-0.087000005,-0.009000001,3.475237,0,nan,0.0,0.0,312,4,0,1,18
786112825,1683119100399952,11010053,423585945,-710872684,2220,-30934,0.531,0.5281436,2.071,2.786,0.65999997,1.05,78,4,0.037,0.028,-0.024,-0.14600001,3.475237,0,nan,0.0,0.0,312,4,0,1,18
787113615,1683119101399953,11010053,423585927,-710872676,2279,-30874,0.623,0.5282965,2.0600002,2.7770002,0.65999997,1.05,78,9,0.162,-0.13100001,0.096,-0.17500001,3.475237,0,nan,0.0,0.0,312,4,0,1,18
788119614,1683119102399954,11010053,423585913,-710872657,2357,-30796,0.615,0.5284518,2.048,2.7640002,0.69,1.09,78,4,0.065000005,-0.065000005,0.011000001,-0.132,3.475237,0,nan,0.0,0.0,312,4,0,1,17
789117613,1683119103399954,11010053,423585907,-710872669,2830,-30324,0.284,0.3583791,2.0400002,2.7440002,0.69,1.09,78,5,0.089,-0.042000003,-0.079,0.053000003,5.000308,0,nan,0.0,0.0,312,4,0,1,17
790113616,1683119104399955,11010053,423585901,-710872661,3028,-30125,0.379,0.35857648,2.0240002,2.697,0.66999996,1.05,78,6,0.071,0.009000001,0.071,0.05,5.000308,0,nan,0.0,0.0,312,4,0,1,17
791107614,1683119105399956,11010053,423585892,-710872668,3498,-29655,0.565,0.35876882,2.015,2.697,0.66999996,1.05,78,8,0.15300001,0.116000004,-0.1,-0.11000001,5.000308,0,nan,0.0,0.0,312,4,0,1,17
792110063,1683119106399957,11010053,423585883,-710872655,3601,-29553,0.68600005,0.359039,2.0370002,2.746,0.65999997,1.05,78,6,0.13100001,0.10700001,-0.075,-0.042000003,5.000308,0,nan,0.0,0.0,312,4,0,1,18
793109620,1683119107399957,11010053,423585876,-710872639,3403,-29750,0.411,0.5925035,2.043,2.7240002,0.65999997,1.05,78,2,0.041,0.035,-0.020000001,-0.055000003,5.2175117,0,nan,0.0,0.0,312,4,0,1,18
794112629,1683119108399958,11010053,423585863,-710872616,3153,-30000,0.45800003,0.592637,2.039,2.7170002,0.65999997,1.05,78,3,0.067,-0.042000003,0.052,0.018000001,5.2175117,0,nan,0.0,0.0,312,4,0,1,18
795105614,1683119109399959,11010053,423585847,-710872597,3019,-30134,0.59000003,0.59274536,2.028,2.729,0.65999997,1.05,78,7,0.043,0.020000001,0.039,0.142,5.2175117,0,nan,0.0,0.0,312,4,0,1,18
796116613,1683119110399960,11010053,423585845,-710872591,3063,-30091,0.582,0.5928822,2.029,2.766,0.69,1.09,78,10,0.017,-0.003,0.016,0.071,5.2175117,0,nan,0.0,0.0,312,4,0,1,17
797101614,1683119111399960,11010053,423585838,-710872591,3214,-29939,0.53400004,0.59300786,2.0240002,2.7930002,0.69,1.09,78,8,0.11800001,0.096,-0.068,-0.022000002,5.2175117,0,nan,0.0,0.0,312,4,0,1,17
798127614,1683119112399961,11010053,423585830,-710872587,3141,-30013,0.609,0.5931313,2.0180001,2.821,0.69,1.09,78,6,0.09900001,0.09900001,-0.003,0.075,5.2175117,0,nan,0.0,0.0,312,4,0,1,17
799116619,1683119113399962,11010053,423585824,-710872589,3293,-29860,0.49300003,0.5932538,2.009,2.828,0.65999997,1.05,78,3,0.20300001,-0.18300001,0.086,0.040000003,5.2175117,0,nan,0.0,0.0,312,4,0,1,18
800111626,1683119114399963,11010053,423585809,-710872584,3502,-29651,0.48800004,0.59337425,2.0,2.835,0.65999997,1.05,78,8,0.054,0.007,-0.053000003,0.055000003,5.2175117,0,nan,0.0,0.0,312,4,0,1,18
801108613,1683119115399963,11010053,423585799,-710872588,3662,-29491,0.21000001,0.59347963,1.9980001,2.845,0.65999997,1.05,78,9,0.011000001,0.0050000004,0.010000001,-0.002,5.2175117,0,nan,0.0,0.0,312,4,0,1,18
802105677,1683119116399964,11010053,423585784,-710872595,3953,-29200,0.35500002,0.5935999,2.0010002,2.857,0.65999997,1.05,78,9,0.060000002,0.052,0.031000001,-0.035,5.2175117,0,nan,0.0,0.0,312,4,0,1,18
803110620,1683119117399965,11010053,423585775,-710872613,4493,-28661,0.555,0.48396006,1.9840001,2.815,0.65999997,1.05,78,8,0.272,0.22000001,-0.16000001,-0.12200001,5.476974,0,nan,0.0,0.0,312,4,0,1,18
804109620,1683119118399966,11010053,423585764,-710872624,4902,-28252,0.43500003,0.65185255,1.9660001,2.7510002,0.65999997,1.05,77,9,0.066,-0.036000002,-0.055000003,-0.089,5.5422773,0,nan,0.0,0.0,312,4,0,1,18
805116620,1683119119399966,11010053,423585743,-710872603,4920,-28233,0.58100003,0.6519721,1.937,2.5830002,0.69,1.05,77,10,0.29900002,-0.20500001,0.21800001,0.097,5.5422773,0,nan,0.0,0.0,468,4,0,1,17
806115614,1683119120399967,11010053,423585737,-710872586,4691,-28462,0.44900003,0.65209824,1.932,2.4610002,0.65999997,1.05,77,17,0.024,-0.007,0.023000002,0.066,5.5422773,0,nan,0.0,0.0,312,4,0,1,18
807116620,1683119121399968,11010053,423585738,-710872589,4463,-28691,0.637,0.6522112,1.9150001,2.338,0.65999997,1.05,77,25,0.13800001,-0.089,0.105000004,-0.041,5.5422773,0,nan,0.0,0.0,312,4,0,1,18
808129622,1683119122399968,11010053,423585738,-710872592,4289,-28864,0.63500005,0.65232486,1.9110001,2.265,0.65999997,1.05,77,13,0.141,0.13700001,-0.032,0.025,5.5422773,0,nan,0.0,0.0,312,4,0,1,18
809108614,1683119123399969,11010053,423585740,-710872596,4089,-29065,0.42800003,0.6524266,1.909,2.196,0.65999997,1.05,77,10,0.08400001,-0.079,-0.029000001,-0.009000001,5.5422773,0,nan,0.0,0.0,312,4,0,1,18
810106080,1683119124399970,11010053,423585732,-710872592,3895,-29258,0.409,0.652522,1.886,2.16,0.62,1.04,77,15,0.14500001,-0.082,0.120000005,0.11400001,5.5422773,0,nan,0.0,0.0,312,4,0,1,19
811125614,1683119125399971,11010053,423585720,-710872582,3863,-29290,0.558,0.6526194,1.8650001,2.1230001,0.62,1.04,77,12,0.29000002,-0.21300001,0.19700001,-0.034,5.5422773,0,nan,0.0,0.0,312,4,0,1,19
812114614,1683119126399971,11010053,423585715,-710872576,3749,-29404,0.537,0.6527303,1.8390001,2.101,0.62,1.04,77,10,0.059000004,0.053000003,-0.026,0.046000004,5.5422773,0,nan,0.0,0.0,312,4,0,1,19
813115614,1683119127399972,11010053,423585706,-710872576,3646,-29507,0.68,0.65284735,1.8270001,2.092,0.62,1.04,77,10,0.22800002,0.208,-0.093,0.065000005,5.5422773,0,nan,0.0,0.0,312,4,0,1,19
814111629,1683119128399973,11010053,423585705,-710872587,3835,-29318,0.82800007,0.42459896,1.8420001,2.058,0.62,1.04,77,10,0.51500005,-0.462,0.22900002,-0.124000005,2.2619038,0,nan,0.0,0.0,312,4,0,1,19
815111670,1683119129399974,11010053,423585700,-710872586,3647,-29506,0.58000004,0.42477316,1.8360001,2.038,0.62,1.04,76,21,0.07300001,0.053000003,-0.05,0.061000004,2.2619038,0,nan,0.0,0.0,312,4,0,1,19
816115613,1683119130399974,11010053,423585699,-710872589,3675,-29478,0.54200006,0.42494366,1.8370001,2.0540001,0.62,1.04,76,13,0.07700001,0.076000005,0.014,0.025,2.2619038,0,nan,0.0,0.0,312,4,0,1,19
817110614,1683119131399975,11010053,423585697,-710872600,3744,-29409,0.485,0.42510933,1.8320001,2.0760002,0.62,1.04,76,11,0.12100001,0.07,-0.09900001,-0.036000002,2.2619038,0,nan,0.0,0.0,312,4,0,1,19
818124615,1683119132399976,11010053,423585697,-710872606,3843,-29310,0.59300005,0.71959645,1.8220001,2.107,0.62,1.04,76,14,0.298,0.25300002,-0.158,0.21800001,1.5318072,0,nan,0.0,0.0,312,4,0,1,19
819114619,1683119133399977,11010053,423585685,-710872607,3908,-29246,0.35500002,0.7196987,1.8180001,2.1420002,0.62,1.04,76,11,0.060000002,-0.020000001,-0.057000004,0.043,1.5318072,0,nan,0.0,0.0,312,4,0,1,19
820112613,1683119134399977,11010053,423585679,-710872603,3898,-29255,0.425,0.7197872,1.812,2.193,0.62,1.04,76,10,0.027,-0.024,-0.011000001,-0.0050000004,1.5318072,0,nan,0.0,0.0,312,4,0,1,19
821119615,1683119135399978,11010053,423585672,-710872605,3951,-29202,0.46500003,0.71989787,1.8160001,2.256,0.62,1.04,76,11,0.147,0.003,0.147,0.13800001,1.5318072,0,nan,0.0,0.0,468,4,0,1,19
822099854,1683119136399979,11010053,423585667,-710872604,3946,-29207,0.58500004,0.7200045,1.8100001,2.306,0.62,1.04,76,13,0.082,0.082,-0.002,0.062000003,1.5318072,0,nan,0.0,0.0,468,4,0,1,19
823109613,1683119137399980,11010053,423585657,-710872607,4030,-29123,0.47700003,0.72009504,1.7980001,2.3490002,0.65,1.0799999,76,12,0.058000002,0.045,0.036000002,0.046000004,1.5318072,0,nan,0.0,0.0,468,4,0,1,18
824115614,1683119138399980,11010053,423585649,-710872605,3991,-29162,0.49,0.7201933,1.7900001,2.3630002,0.65,1.0799999,76,19,0.041,0.025,-0.032,-0.002,1.5318072,0,nan,0.0,0.0,468,4,0,1,18
825114862,1683119139399981,11010053,423585640,-710872601,4086,-29067,0.223,0.7202684,1.7860001,2.3720002,0.68,1.0799999,76,12,0.018000001,-0.009000001,-0.015000001,0.001,1.5318072,0,nan,0.0,0.0,312,4,0,1,17
826113615,1683119140399982,11010053,423585621,-710872600,4228,-28926,0.574,0.720367,1.7870001,2.388,0.65,1.0799999,76,21,0.071,0.064,-0.030000001,0.075,1.5318072,0,nan,0.0,0.0,312,4,0,1,18
827108670,1683119141399983,11010053,423585622,-710872608,4271,-28882,0.546,0.7204762,1.797,2.41,0.68,1.0799999,76,24,0.032,-0.008,0.031000001,0.067,1.5318072,0,nan,0.0,0.0,312,4,0,1,17
828123612,1683119142399983,11010053,423585618,-710872614,4411,-28742,0.563,0.72058374,1.807,2.4320002,0.65,1.0799999,76,10,0.026,0.012,-0.024,-0.09900001,1.5318072,0,nan,0.0,0.0,312,4,0,1,18
829118626,1683119143399984,11010053,423585610,-710872615,4561,-28592,0.41000003,0.72067267,1.802,2.4290001,0.65,1.0799999,76,13,0.109000005,0.001,-0.109000005,-0.002,1.5318072,0,nan,0.0,0.0,312,4,0,1,18
830112614,1683119144399985,11010053,423585605,-710872611,4720,-28433,0.615,0.7207787,1.792,2.4580002,0.62,1.04,76,13,0.09200001,0.075,-0.054,0.09900001,1.5318072,0,nan,0.0,0.0,312,4,0,1,19
831129817,1683119145399986,11010053,423585602,-710872609,4830,-28323,0.439,0.72087973,1.7820001,2.509,0.62,1.04,76,7,0.13100001,-0.027,0.128,0.060000002,1.5318072,0,nan,0.0,0.0,312,4,0,1,19
832117722,1683119146399986,11010053,423585626,-710872621,4439,-28714,0.56700003,0.49892312,1.7530001,2.49,0.62,1.04,76,15,0.48800004,-0.41500002,0.257,-0.021000002,2.2456944,0,nan,0.0,0.0,234,4,0,1,19
833112614,1683119147399987,11010053,423585639,-710872640,4201,-28953,0.573,0.38337293,1.748,2.44,0.62,1.04,76,16,0.056,-0.056,0.009000001,0.043,6.123922,0,nan,0.0,0.0,390,4,0,1,19
834104614,1683119148399988,11010053,423585640,-710872645,4012,-29141,0.615,0.3835682,1.751,2.4160001,0.65,1.04,76,12,0.17400001,0.116000004,-0.12900001,-0.039,6.123922,0,nan,0.0,0.0,234,4,0,1,18
835105613,1683119149399988,11010053,423585644,-710872649,3773,-29380,0.583,0.6220003,1.7470001,2.358,0.65999997,1.13,76,24,0.36400002,-0.323,0.16900001,0.13700001,0.6179511,0,nan,0.0,0.0,234,4,0,1,17
836103628,1683119150399989,11010053,423585643,-710872658,3735,-29419,0.70500004,0.6221346,1.7540001,2.3030002,0.63,1.13,76,11,0.12900001,0.081,-0.1,-0.012,0.6179511,0,nan,0.0,0.0,234,4,0,1,18
837119757,1683119151399990,11010053,423585630,-710872667,4028,-29125,0.64100003,0.6222596,1.7720001,2.2840002,0.63,1.13,76,24,0.141,-0.123,0.068,-0.025,0.6179511,0,nan,0.0,0.0,390,4,0,1,18
838119619,1683119152399991,11010053,423585619,-710872665,4106,-29048,0.684,0.6223926,1.7900001,2.286,0.63,1.13,76,25,0.148,-0.115,0.094000004,-0.038000003,0.6179511,0,nan,0.0,0.0,390,4,0,1,18
838973614,1683119153199991,11010053,423585640,-710872690,4198,-28955,0.98800004,0.42846733,1.835,2.355,0.63,1.13,72,14,0.179,0.16000001,-0.081,-0.119,6.077856,0,nan,0.0,0.0,390,3,0,1,18
839954614,1683119154199992,11010053,423585635,-710872694,4265,-28888,0.795,0.4026092,1.9070001,2.4280002,0.65,1.04,72,16,0.32700002,0.208,-0.252,0.125,1.2417461,0,nan,0.0,0.0,234,3,0,1,18
840952613,1683119155199993,11010053,423585645,-710872709,4401,-28752,0.804,0.40286052,1.945,2.476,0.65,1.04,72,11,0.324,0.305,-0.11100001,-0.019000001,1.2417461,0,nan,0.0,0.0,234,3,0,1,18
841955613,1683119156199994,11010053,423585648,-710872713,4468,-28685,0.81200004,0.4031417,1.9850001,2.528,0.62,1.04,72,8,0.16100001,0.148,-0.064,-0.09,1.2417461,0,nan,0.0,0.0,234,3,0,1,19
843138615,1683119157399994,11010053,423585659,-710872720,4445,-28708,0.72300005,0.4034243,2.009,2.559,0.62,1.04,72,11,0.272,0.25800002,-0.087000005,0.021000002,1.2417461,0,nan,0.0,0.0,234,3,0,1,19
843939781,1683119158199995,11010053,423585674,-710872738,4679,-28474,0.651,0.5414657,2.0110002,2.568,0.62,1.04,72,9,0.289,0.23600002,-0.16700001,-0.066,1.7239931,0,nan,0.0,0.0,390,3,0,1,19
844952815,1683119159199996,11010053,423585712,-710872764,4931,-28222,0.39100003,0.5415678,1.96,2.436,0.62,1.04,73,16,0.17400001,-0.16000001,-0.068,-0.094000004,1.7239931,0,nan,0.0,0.0,390,3,0,1,19
