timestamp,timestamp_sample,q[0],q[1],q[2],q[3],delta_q_reset[0],delta_q_reset[1],delta_q_reset[2],delta_q_reset[3],quat_reset_counter
539374091,539373583,0.27521667,0.012105305,0.009079939,0.96126324,0.99963945,-3.5592995e-09,2.0442933e-08,0.02685347,6
539378870,539378561,0.27521673,0.012096774,0.009097162,0.96126306,0.99963945,-3.5592995e-09,2.0442933e-08,0.02685347,6
539423831,539423356,0.27523598,0.012060392,0.009166231,0.96125734,0.99963945,-3.5592995e-09,2.0442933e-08,0.02685347,6
539478796,539478106,0.2752576,0.0120124845,0.009210379,0.9612514,0.99963945,-3.5592995e-09,2.0442933e-08,0.02685347,6
539523450,539522902,0.27527675,0.012027566,0.009190066,0.9612459,0.99963945,-3.5592995e-09,2.0442933e-08,0.02685347,6
539573093,539572675,0.27531332,0.0121045355,0.008922916,0.961237,0.99963945,-3.5592995e-09,2.0442933e-08,0.02685347,6
539622908,539622449,0.2753262,0.012244593,0.008768819,0.9612329,0.99963945,-3.5592995e-09,2.0442933e-08,0.02685347,6
539677500,539677202,0.27533463,0.012470307,0.008589789,0.96122926,0.99963945,-3.5592995e-09,2.0442933e-08,0.02685347,6
539727267,539726971,0.27532816,0.01269569,0.008526463,0.9612287,0.99963945,-3.5592995e-09,2.0442933e-08,0.02685347,6
539772225,539771767,0.27531114,0.012886342,0.008524598,0.9612311,0.99963945,-3.5592995e-09,2.0442933e-08,0.02685347,6
539826847,539826518,0.27529863,0.013023638,0.008610192,0.96123207,0.99963945,-3.5592995e-09,2.0442933e-08,0.02685347,6
539876596,539876291,0.27528638,0.013044088,0.008752625,0.961234,0.99963945,-3.5592995e-09,2.0442933e-08,0.02685347,6
539926361,539926064,0.27528033,0.012976518,0.00893166,0.9612349,0.99963945,-3.5592995e-09,2.0442933e-08,0.02685347,6
539971294,539970859,0.27527875,0.012848961,0.009157797,0.96123505,0.99963945,-3.5592995e-09,2.0442933e-08,0.02685347,6
540025971,540025610,0.27528653,0.012733451,0.009276853,0.96123314,0.99963945,-3.5592995e-09,2.0442933e-08,0.02685347,6
540075721,540075383,0.27528867,0.01268898,0.009261443,0.9612333,0.99963945,-3.5592995e-09,2.0442933e-08,0.02685347,6
540125457,540125156,0.27528927,0.012763302,0.009131929,0.9612334,0.99963945,-3.5592995e-09,2.0442933e-08,0.02685347,6
540175223,540174929,0.27529055,0.012958349,0.009032137,0.96123135,0.99963945,-3.5592995e-09,2.0442933e-08,0.02685347,6
540225019,540224702,0.27529305,0.013170952,0.0088931965,0.961229,0.99963945,-3.5592995e-09,2.0442933e-08,0.02685347,6
540274791,540274475,0.275296,0.013318837,0.008752403,0.9612274,0.99963945,-3.5592995e-09,2.0442933e-08,0.02685347,6
540324550,540324248,0.27529323,0.013352811,0.008644191,0.9612288,0.99963945,-3.5592995e-09,2.0442933e-08,0.02685347,6
540374306,540374021,0.27528906,0.013311616,0.008686477,0.96123016,0.99963945,-3.5592995e-09,2.0442933e-08,0.02685347,6
540424095,540423794,0.27530095,0.01318356,0.00879269,0.96122754,0.99963945,-3.5592995e-09,2.0442933e-08,0.02685347,6
540473858,540473567,0.27532148,0.012965265,0.008913371,0.96122354,0.99963945,-3.5592995e-09,2.0442933e-08,0.02685347,6
540528722,540528317,0.27536008,0.012733279,0.009019358,0.9612146,0.99963945,-3.5592995e-09,2.0442933e-08,0.02685347,6
540573397,540573113,0.27539092,0.012567076,0.009021816,0.96120787,0.99963945,-3.5592995e-09,2.0442933e-08,0.02685347,6
540623281,540622886,0.27541733,0.012378994,0.008964459,0.96120334,0.99963945,-3.5592995e-09,2.0442933e-08,0.02685347,6
540672975,540672659,0.2754543,0.012180778,0.008843637,0.96119636,0.99963945,-3.5592995e-09,2.0442933e-08,0.02685347,6
540727843,540727409,0.27549118,0.012052023,0.008728121,0.9611885,0.99963945,-3.5592995e-09,2.0442933e-08,0.02685347,6
540777619,540777182,0.27551204,0.012003206,0.008661895,0.9611837,0.99963945,-3.5592995e-09,2.0442933e-08,0.02685347,6
540822288,540821978,0.275534,0.011982409,0.008678571,0.96117747,0.99963945,-3.5592995e-09,2.0442933e-08,0.02685347,6
540877120,540876728,0.27555987,0.011917111,0.008813212,0.96116966,0.99963945,-3.5592995e-09,2.0442933e-08,0.02685347,6
540926897,540926501,0.27557656,0.011803752,0.008965978,0.9611649,0.99963945,-3.5592995e-09,2.0442933e-08,0.02685347,6
540976727,540976274,0.2756047,0.011693493,0.009159107,0.9611563,0.99963945,-3.5592995e-09,2.0442933e-08,0.02685347,6
541021357,541021070,0.27562812,0.011583578,0.009306964,0.96114945,0.99963945,-3.5592995e-09,2.0442933e-08,0.02685347,6
541076222,541075820,0.27566513,0.0115263555,0.009383995,0.9611389,0.99963945,-3.5592995e-09,2.0442933e-08,0.02685347,6
541126037,541125593,0.27569407,0.011606003,0.009353106,0.96112984,0.99963945,-3.5592995e-09,2.0442933e-08,0.02685347,6
541175795,541175366,0.27570766,0.01170274,0.009269783,0.9611256,0.99963945,-3.5592995e-09,2.0442933e-08,0.02685347,6
541225578,541225140,0.27571157,0.011822933,0.009244444,0.96112335,0.99963945,-3.5592995e-09,2.0442933e-08,0.02685347,6
541275360,541274912,0.2757098,0.011897814,0.009216527,0.96112317,0.99963945,-3.5592995e-09,2.0442933e-08,0.02685347,6
541325080,541324686,0.27570552,0.01193603,0.0093086185,0.96112305,0.99963945,-3.5592995e-09,2.0442933e-08,0.02685347,6
541374910,541374459,0.27569982,0.011972443,0.00946912,0.96112263,0.99963945,-3.5592995e-09,2.0442933e-08,0.02685347,6
541424715,541424232,0.27569762,0.012008496,0.009623176,0.9611213,0.99963945,-3.5592995e-09,2.0442933e-08,0.02685347,6
541474413,541474005,0.27569115,0.012006895,0.009808339,0.96112126,0.99963945,-3.5592995e-09,2.0442933e-08,0.02685347,6
541524188,541523778,0.27569756,0.01194779,0.009932709,0.9611189,0.99963945,-3.5592995e-09,2.0442933e-08,0.02685347,6
541578822,541578530,0.27570587,0.01190232,0.009940669,0.96111697,0.99963945,-3.5592995e-09,2.0442933e-08,0.02685347,6
541623729,541623324,0.27572298,0.011938544,0.009853757,0.96111256,0.99963945,-3.5592995e-09,2.0442933e-08,0.02685347,6
541673502,541673097,0.27573264,0.012040945,0.009691938,0.9611101,0.99963945,-3.5592995e-09,2.0442933e-08,0.02685347,6
541723417,541722870,0.2757315,0.01215603,0.009517019,0.9611107,0.99963945,-3.5592995e-09,2.0442933e-08,0.02685347,6
541777932,541777620,0.27573916,0.01231245,0.009333107,0.9611084,0.99963945,-3.5592995e-09,2.0442933e-08,0.02685347,6
541822942,541822416,0.27574125,0.012475235,0.009224846,0.96110666,0.99963945,-3.5592995e-09,2.0442933e-08,0.02685347,6
541872667,541872189,0.27573994,0.01264491,0.009172198,0.9611054,0.99963945,-3.5592995e-09,2.0442933e-08,0.02685347,6
541927262,541926939,0.2757386,0.012786468,0.009221493,0.96110344,0.99963945,-3.5592995e-09,2.0442933e-08,0.02685347,6
541977008,541976712,0.27575207,0.01285862,0.009324763,0.96109754,0.99963945,-3.5592995e-09,2.0442933e-08,0.02685347,6
542026770,542026485,0.27577364,0.012896364,0.009418686,0.96109,0.99963945,-3.5592995e-09,2.0442933e-08,0.02685347,6
542071728,542071281,0.27579448,0.012946103,0.009448841,0.96108305,0.99963945,-3.5592995e-09,2.0442933e-08,0.02685347,6
542126321,542126031,0.27581483,0.013037522,0.009385899,0.9610766,0.99963945,-3.5592995e-09,2.0442933e-08,0.02685347,6
542176090,542175804,0.2758451,0.013123718,0.009286544,0.9610677,0.99963945,-3.5592995e-09,2.0442933e-08,0.02685347,6
542225867,542225577,0.27587184,0.01324377,0.009228365,0.9610589,0.99963945,-3.5592995e-09,2.0442933e-08,0.02685347,6
542275699,542275350,0.2759046,0.013345722,0.0091944225,0.9610484,0.99963945,-3.5592995e-09,2.0442933e-08,0.02685347,6
542325448,542325124,0.27593216,0.013377838,0.009187081,0.9610401,0.99963945,-3.5592995e-09,2.0442933e-08,0.02685347,6
542375186,542374897,0.2759474,0.013367398,0.009247719,0.9610353,0.99963945,-3.5592995e-09,2.0442933e-08,0.02685347,6
542424971,542424670,0.2759734,0.013285788,0.009290203,0.9610286,0.99963945,-3.5592995e-09,2.0442933e-08,0.02685347,6
542474748,542474443,0.2760032,0.013154623,0.009330566,0.9610215,0.99963945,-3.5592995e-09,2.0442933e-08,0.02685347,6
542524502,542524216,0.27603093,0.012988137,0.009386333,0.96101516,0.99963945,-3.5592995e-09,2.0442933e-08,0.02685347,6
542574285,542573989,0.27606338,0.01282922,0.009420838,0.9610077,0.99963945,-3.5592995e-09,2.0442933e-08,0.02685347,6
542629138,542628739,0.27609468,0.012708105,0.0094506955,0.96099997,0.99963945,-3.5592995e-09,2.0442933e-08,0.02685347,6
542673840,542673535,0.27611342,0.012641193,0.009473839,0.9609952,0.99963945,-3.5592995e-09,2.0442933e-08,0.02685347,6
542723622,542723308,0.27613854,0.012636898,0.009474845,0.96098804,0.99963945,-3.5592995e-09,2.0442933e-08,0.02685347,6
542773364,542773081,0.27616462,0.012702093,0.009400162,0.9609805,0.99963945,-3.5592995e-09,2.0442933e-08,0.02685347,6
542828472,542827831,0.27617794,0.012813842,0.009358293,0.9609755,0.99963945,-3.5592995e-09,2.0442933e-08,0.02685347,6
542873017,542872627,0.2761773,0.012878906,0.009327899,0.9609752,0.99963945,-3.5592995e-09,2.0442933e-08,0.02685347,6
542922709,542922400,0.27618062,0.012899733,0.009295011,0.9609743,0.99963945,-3.5592995e-09,2.0442933e-08,0.02685347,6
542977567,542977150,0.2761914,0.01288574,0.009214125,0.9609721,0.99963945,-3.5592995e-09,2.0442933e-08,0.02685347,6
543027370,543026923,0.27620563,0.012851221,0.009116537,0.96096945,0.99963945,-3.5592995e-09,2.0442933e-08,0.02685347,6
543077116,543076696,0.27621868,0.012787421,0.009073571,0.960967,0.99963945,-3.5592995e-09,2.0442933e-08,0.02685347,6
543121850,543121493,0.2762306,0.012697766,0.009067225,0.9609648,0.99963945,-3.5592995e-09,2.0442933e-08,0.02685347,6
543176647,543176242,0.27623627,0.0126117505,0.009127847,0.96096367,0.99963945,-3.5592995e-09,2.0442933e-08,0.02685347,6
543226426,543226016,0.27625278,0.01252926,0.00921405,0.96095926,0.99963945,-3.5592995e-09,2.0442933e-08,0.02685347,6
543276182,543275789,0.27625954,0.0124535505,0.00927932,0.9609576,0.99963945,-3.5592995e-09,2.0442933e-08,0.02685347,6
543326096,543325562,0.27627215,0.01236239,0.009296623,0.96095496,0.99963945,-3.5592995e-09,2.0442933e-08,0.02685347,6
543375759,543375335,0.27628195,0.01229423,0.009258591,0.9609535,0.99963945,-3.5592995e-09,2.0442933e-08,0.02685347,6
543425560,543425108,0.27628455,0.0122311525,0.0091489265,0.96095455,0.99963945,-3.5592995e-09,2.0442933e-08,0.02685347,6
543475338,543474881,0.2763054,0.012162084,0.009067292,0.9609502,0.99963945,-3.5592995e-09,2.0442933e-08,0.02685347,6
543525056,543524654,0.27632758,0.012030911,0.008929014,0.9609468,0.99963945,-3.5592995e-09,2.0442933e-08,0.02685347,6
543574833,543574427,0.27635312,0.011860387,0.008823403,0.9609425,0.99963945,-3.5592995e-09,2.0442933e-08,0.02685347,6
543624598,543624200,0.27637336,0.011745183,0.008733569,0.96093893,0.99963945,-3.5592995e-09,2.0442933e-08,0.02685347,6
543674372,543673973,0.27639157,0.011710554,0.008666996,0.9609347,0.99963945,-3.5592995e-09,2.0442933e-08,0.02685347,6
543724144,543723746,0.27640182,0.011683613,0.008638596,0.9609324,0.99963945,-3.5592995e-09,2.0442933e-08,0.02685347,6
543773915,543773519,0.27642423,0.0116283875,0.00863901,0.96092653,0.99963945,-3.5592995e-09,2.0442933e-08,0.02685347,6
543823743,543823292,0.27645344,0.011563897,0.008655583,0.96091884,0.99963945,-3.5592995e-09,2.0442933e-08,0.02685347,6
543878345,543878043,0.27648944,0.011478374,0.008669163,0.9609093,0.99963945,-3.5592995e-09,2.0442933e-08,0.02685347,6
543923229,543922838,0.2765179,0.011417308,0.008629486,0.9609023,0.99963945,-3.5592995e-09,2.0442933e-08,0.02685347,6
543973095,543972611,0.2765468,0.01137137,0.008597501,0.96089476,0.99963945,-3.5592995e-09,2.0442933e-08,0.02685347,6
544027670,544027362,0.2765752,0.011353642,0.008613027,0.96088666,0.99963945,-3.5592995e-09,2.0442933e-08,0.02685347,6
544077424,544077135,0.27660567,0.011377992,0.0086796135,0.96087706,0.99963945,-3.5592995e-09,2.0442933e-08,0.02685347,6
544122327,544121930,0.27663383,0.011402113,0.008640147,0.9608689,0.99963945,-3.5592995e-09,2.0442933e-08,0.02685347,6
544172137,544171704,0.2766592,0.011480495,0.008574941,0.9608613,0.99963945,-3.5592995e-09,2.0442933e-08,0.02685347,6
544226773,544226454,0.27668226,0.011551069,0.0084596155,0.9608548,0.99963945,-3.5592995e-09,2.0442933e-08,0.02685347,6
544276568,544276227,0.27669978,0.01165249,0.008371381,0.9608494,0.99963945,-3.5592995e-09,2.0442933e-08,0.02685347,6
544326301,544326000,0.27670953,0.011753396,0.00826844,0.9608462,0.99963945,-3.5592995e-09,2.0442933e-08,0.02685347,6
544376058,544375773,0.2767186,0.011890148,0.008242363,0.96084213,0.99963945,-3.5592995e-09,2.0442933e-08,0.02685347,6
544425833,544425546,0.27672482,0.012001438,0.008241882,0.9608389,0.99963945,-3.5592995e-09,2.0442933e-08,0.02685347,6
544475610,544475319,0.2767252,0.012086765,0.008284381,0.96083736,0.99963945,-3.5592995e-09,2.0442933e-08,0.02685347,6
544525468,544525092,0.27672812,0.012135977,0.008332708,0.9608355,0.99963945,-3.5592995e-09,2.0442933e-08,0.02685347,6
544575197,544574865,0.2767211,0.012192921,0.008502815,0.96083534,0.99963945,-3.5592995e-09,2.0442933e-08,0.02685347,6
544624927,544624638,0.276711,0.012235173,0.008689097,0.96083605,0.99963945,-3.5592995e-09,2.0442933e-08,0.02685347,6
544674704,544674411,0.27671167,0.012290954,0.008835194,0.9608338,0.99963945,-3.5592995e-09,2.0442933e-08,0.02685347,6
544724476,544724184,0.27671286,0.012312167,0.008795265,0.9608336,0.99963945,-3.5592995e-09,2.0442933e-08,0.02685347,6
544774251,544773958,0.27671477,0.012313294,0.008712265,0.9608337,0.99963945,-3.5592995e-09,2.0442933e-08,0.02685347,6
544824019,544823731,0.276723,0.012273634,0.008535108,0.9608335,0.99963945,-3.5592995e-09,2.0442933e-08,0.02685347,6
544873789,544873504,0.27672973,0.012243927,0.008352653,0.9608335,0.99963945,-3.5592995e-09,2.0442933e-08,0.02685347,6
544928709,544928254,0.27673057,0.012249673,0.008179313,0.9608347,0.99963945,-3.5592995e-09,2.0442933e-08,0.02685347,6
544973338,544973050,0.27672812,0.0122808255,0.008121385,0.96083546,0.99963945,-3.5592995e-09,2.0442933e-08,0.02685347,6
545023118,545022823,0.27672255,0.012340172,0.008150104,0.9608361,0.99963945,-3.5592995e-09,2.0442933e-08,0.02685347,6
545078244,545077573,0.27672148,0.012380677,0.008235045,0.96083516,0.99963945,-3.5592995e-09,2.0442933e-08,0.02685347,6
545128053,545127346,0.27672234,0.012413851,0.00842352,0.96083283,0.99963945,-3.5592995e-09,2.0442933e-08,0.02685347,6
545172432,545172142,0.27674127,0.012441214,0.0085701505,0.9608257,0.99963945,-3.5592995e-09,2.0442933e-08,0.02685347,6
545222205,545221915,0.27676225,0.012416962,0.008649741,0.96081936,0.99963945,-3.5592995e-09,2.0442933e-08,0.02685347,6
545277062,545276665,0.27679855,0.012350985,0.008647106,0.9608097,0.99963945,-3.5592995e-09,2.0442933e-08,0.02685347,6
545326896,545326439,0.27683622,0.012282453,0.008518272,0.9608008,0.99963945,-3.5592995e-09,2.0442933e-08,0.02685347,6
545376747,545376212,0.2768725,0.0122697,0.00834421,0.9607922,0.99963945,-3.5592995e-09,2.0442933e-08,0.02685347,6
545426446,545425985,0.2769064,0.012292302,0.008187722,0.96078336,0.99963945,-3.5592995e-09,2.0442933e-08,0.02685347,6
545476229,545475758,0.27692315,0.012277986,0.007988702,0.9607805,0.99963945,-3.5592995e-09,2.0442933e-08,0.02685347,6
545525977,545525531,0.27694884,0.012232206,0.007858998,0.96077466,0.99963945,-3.5592995e-09,2.0442933e-08,0.02685347,6
545575701,545575304,0.27696788,0.0121672265,0.007948477,0.96076924,0.99963945,-3.5592995e-09,2.0442933e-08,0.02685347,6
545625469,545625077,0.27698418,0.012089034,0.008204827,0.96076345,0.99963945,-3.5592995e-09,2.0442933e-08,0.02685347,6
545675321,545674850,0.27702034,0.012032384,0.008307386,0.9607528,0.99963945,-3.5592995e-09,2.0442933e-08,0.02685347,6
545725063,545724623,0.27706227,0.011982377,0.0085884,0.96073896,0.99963945,-3.5592995e-09,2.0442933e-08,0.02685347,6
545774810,545774396,0.27710277,0.011941141,0.008672268,0.96072704,0.99963945,-3.5592995e-09,2.0442933e-08,0.02685347,6
545824622,545824169,0.27716652,0.0118555855,0.008526985,0.960711,0.99963945,-3.5592995e-09,2.0442933e-08,0.02685347,6
545874337,545873942,0.27720937,0.011751283,0.0084714275,0.9607004,0.99963945,-3.5592995e-09,2.0442933e-08,0.02685347,6
545924109,545923715,0.27724105,0.011685528,0.008270578,0.96069384,0.99963945,-3.5592995e-09,2.0442933e-08,0.02685347,6
545973935,545973489,0.27725944,0.011639475,0.008064209,0.9606908,0.99963945,-3.5592995e-09,2.0442933e-08,0.02685347,6
546023693,546023261,0.2772795,0.011668772,0.007933123,0.9606857,0.99963945,-3.5592995e-09,2.0442933e-08,0.02685347,6
546073467,546073035,0.27729273,0.011741032,0.007913325,0.96068126,0.99963945,-3.5592995e-09,2.0442933e-08,0.02685347,6
546128089,546127785,0.27729714,0.011837627,0.008069653,0.9606774,0.99963945,-3.5592995e-09,2.0442933e-08,0.02685347,6
546178012,546177558,0.2773061,0.011914368,0.008253466,0.96067226,0.99963945,-3.5592995e-09,2.0442933e-08,0.02685347,6
546222859,546222354,0.2773149,0.011939866,0.008289392,0.9606692,0.99963945,-3.5592995e-09,2.0442933e-08,0.02685347,6
546272754,546272127,0.27732444,0.0119666075,0.008565321,0.9606637,0.99963945,-3.5592995e-09,2.0442933e-08,0.02685347,6
546327167,546326877,0.2773309,0.012020309,0.00851466,0.9606616,0.99963945,-3.5592995e-09,2.0442933e-08,0.02685347,6
546376940,546376650,0.27734265,0.012136239,0.008220751,0.9606593,0.99963945,-3.5592995e-09,2.0442933e-08,0.02685347,6
546421897,546421446,0.277346,0.012267105,0.007981682,0.96065867,0.99963945,-3.5592995e-09,2.0442933e-08,0.02685347,6
546476488,546476196,0.27733985,0.012468057,0.007695552,0.9606602,0.99963945,-3.5592995e-09,2.0442933e-08,0.02685347,6
546526262,546525970,0.27734354,0.012630184,0.0074503087,0.96065897,0.99963945,-3.5592995e-09,2.0442933e-08,0.02685347,6
546576044,546575743,0.2773279,0.012819265,0.007439283,0.96066105,0.99963945,-3.5592995e-09,2.0442933e-08,0.02685347,6
546625838,546625516,0.27732715,0.012998176,0.0074239243,0.96065897,0.99963945,-3.5592995e-09,2.0442933e-08,0.02685347,6
546675642,546675289,0.27734384,0.013114865,0.0075188,0.9606519,0.99963945,-3.5592995e-09,2.0442933e-08,0.02685347,6
546725352,546725062,0.27736422,0.0131696835,0.0076258034,0.96064436,0.99963945,-3.5592995e-09,2.0442933e-08,0.02685347,6
546775261,546774835,0.27739263,0.013148375,0.007740247,0.96063554,0.99963945,-3.5592995e-09,2.0442933e-08,0.02685347,6
546824930,546824608,0.2774266,0.0131325135,0.007813548,0.9606253,0.99963945,-3.5592995e-09,2.0442933e-08,0.02685347,6
546874674,546874381,0.2774721,0.013076923,0.007688908,0.960614,0.99963945,-3.5592995e-09,2.0442933e-08,0.02685347,6
546924455,546924154,0.27750415,0.013010184,0.00753334,0.9606068,0.99963945,-3.5592995e-09,2.0442933e-08,0.02685347,6
546974215,546973927,0.2775328,0.01293221,0.0073610013,0.960601,0.99963945,-3.5592995e-09,2.0442933e-08,0.02685347,6
547023992,547023700,0.27755645,0.012888499,0.0071586524,0.96059626,0.99963945,-3.5592995e-09,2.0442933e-08,0.02685347,6
547073794,547073480,0.27757788,0.012879745,0.0071467054,0.96059024,0.99963945,-3.5592995e-09,2.0442933e-08,0.02685347,6
547123541,547123246,0.2775984,0.012911399,0.00712054,0.96058404,0.99963945,-3.5592995e-09,2.0442933e-08,0.02685347,6
547178397,547177997,0.27761716,0.013013922,0.007105517,0.9605774,0.99963945,-3.5592995e-09,2.0442933e-08,0.02685347,6
547228171,547227770,0.2776337,0.013122024,0.0071260356,0.960571,0.99963945,-3.5592995e-09,2.0442933e-08,0.02685347,6
547272850,547272566,0.2776406,0.013204566,0.0070558824,0.9605684,0.99963945,-3.5592995e-09,2.0442933e-08,0.02685347,6
547322678,547322339,0.2776448,0.013266908,0.007112659,0.96056587,0.99963945,-3.5592995e-09,2.0442933e-08,0.02685347,6
547377798,547377089,0.27765417,0.013269103,0.007114129,0.9605631,0.99963945,-3.5592995e-09,2.0442933e-08,0.02685347,6
547427286,547426862,0.2776591,0.013238783,0.00713307,0.960562,0.99963945,-3.5592995e-09,2.0442933e-08,0.02685347,6
547471948,547471658,0.27766848,0.013198885,0.00720719,0.9605593,0.99963945,-3.5592995e-09,2.0442933e-08,0.02685347,6
547526807,547526408,0.27768636,0.01315751,0.007288443,0.960554,0.99963945,-3.5592995e-09,2.0442933e-08,0.02685347,6
547576574,547576181,0.27771536,0.013162759,0.007345818,0.96054524,0.99963945,-3.5592995e-09,2.0442933e-08,0.02685347,6
547626378,547625955,0.27773365,0.013169027,0.007365154,0.9605396,0.99963945,-3.5592995e-09,2.0442933e-08,0.02685347,6
547676131,547675728,0.27774873,0.013186355,0.007348004,0.96053517,0.99963945,-3.5592995e-09,2.0442933e-08,0.02685347,6
547725937,547725501,0.27775618,0.013197554,0.007295665,0.96053326,0.99963945,-3.5592995e-09,2.0442933e-08,0.02685347,6
547775718,547775274,0.27776608,0.013176258,0.0072162747,0.9605313,0.99963945,-3.5592995e-09,2.0442933e-08,0.02685347,6
547825468,547825047,0.2777636,0.013182971,0.007112118,0.96053267,0.99963945,-3.5592995e-09,2.0442933e-08,0.02685347,6
547875231,547874820,0.2777553,0.013172507,0.0070636114,0.9605356,0.99963945,-3.5592995e-09,2.0442933e-08,0.02685347,6
547925020,547924593,0.27773824,0.013143005,0.0070639057,0.96054095,0.99963945,-3.5592995e-09,2.0442933e-08,0.02685347,6
547974813,547974366,0.2777282,0.013107315,0.0071652527,0.96054363,0.99963945,-3.5592995e-09,2.0442933e-08,0.02685347,6
548024542,548024143,0.2777112,0.01309834,0.00733088,0.9605474,0.99963945,-3.5592995e-09,2.0442933e-08,0.02685347,6
548074309,548073912,0.2776912,0.013077717,0.0074918554,0.9605522,0.99963945,-3.5592995e-09,2.0442933e-08,0.02685347,6
548124116,548123686,0.27767983,0.013032041,0.0076052803,0.96055526,0.99963945,-3.5592995e-09,2.0442933e-08,0.02685347,6
548173862,548173465,0.27766845,0.012972881,0.007650205,0.9605589,0.99963945,-3.5592995e-09,2.0442933e-08,0.02685347,6
548228512,548228209,0.2776583,0.012905117,0.0076805605,0.9605625,0.99963945,-3.5592995e-09,2.0442933e-08,0.02685347,6
548273429,548273005,0.27765206,0.012877637,0.0077910516,0.96056384,0.99963945,-3.5592995e-09,2.0442933e-08,0.02685347,6
548323174,548322778,0.27765274,0.012834172,0.0077059357,0.960565,0.99963945,-3.5592995e-09,2.0442933e-08,0.02685347,6
548372962,548372551,0.27766067,0.012780542,0.0076789465,0.96056354,0.99963945,-3.5592995e-09,2.0442933e-08,0.02685347,6
548427639,548427301,0.27767733,0.012745846,0.007592708,0.9605599,0.99963945,-3.5592995e-09,2.0442933e-08,0.02685347,6
548477663,548477074,0.27770364,0.012750075,0.007305532,0.9605545,0.99963945,-3.5592995e-09,2.0442933e-08,0.02685347,6
548522357,548521870,0.27770728,0.0127888275,0.007294684,0.96055293,0.99963945,-3.5592995e-09,2.0442933e-08,0.02685347,6
548576913,548576621,0.2777241,0.012826727,0.0071572624,0.96054864,0.99963945,-3.5592995e-09,2.0442933e-08,0.02685347,6
548626684,548626394,0.27773872,0.012849097,0.0070887124,0.96054465,0.99963945,-3.5592995e-09,2.0442933e-08,0.02685347,6
548676467,548676167,0.27775604,0.012833023,0.0071443697,0.96053934,0.99963945,-3.5592995e-09,2.0442933e-08,0.02685347,6
548721361,548720963,0.27776393,0.012826573,0.0072663007,0.9605363,0.99963945,-3.5592995e-09,2.0442933e-08,0.02685347,6
548775999,548775713,0.2777892,0.012859387,0.00732656,0.9605281,0.99963945,-3.5592995e-09,2.0442933e-08,0.02685347,6
548825775,548825486,0.2777974,0.012900867,0.0075609493,0.96052337,0.99963945,-3.5592995e-09,2.0442933e-08,0.02685347,6
548875546,548875259,0.27780992,0.012962404,0.007660457,0.96051806,0.99963945,-3.5592995e-09,2.0442933e-08,0.02685347,6
548925320,548925032,0.2778213,0.013049532,0.00773745,0.960513,0.99963945,-3.5592995e-09,2.0442933e-08,0.02685347,6
548975118,548974805,0.27782643,0.013142338,0.0076515023,0.96051097,0.99963945,-3.5592995e-09,2.0442933e-08,0.02685347,6
549024923,549024579,0.2778322,0.013191515,0.0075582103,0.9605093,0.99963945,-3.5592995e-09,2.0442933e-08,0.02685347,6
549074676,549074352,0.27783096,0.013212512,0.0074451603,0.96051025,0.99963945,-3.5592995e-09,2.0442933e-08,0.02685347,6
549124447,549124125,0.27782524,0.013224142,0.007325238,0.96051276,0.99963945,-3.5592995e-09,2.0442933e-08,0.02685347,6
549174215,549173898,0.27782458,0.013237266,0.0073148645,0.9605129,0.99963945,-3.5592995e-09,2.0442933e-08,0.02685347,6
549223994,549223671,0.27781764,0.013228554,0.0073701288,0.96051455,0.99963945,-3.5592995e-09,2.0442933e-08,0.02685347,6
549278821,549278421,0.27781442,0.013212316,0.007470658,0.9605149,0.99963945,-3.5592995e-09,2.0442933e-08,0.02685347,6
549323509,549323217,0.27781427,0.013196204,0.0075665284,0.9605144,0.99963945,-3.5592995e-09,2.0442933e-08,0.02685347,6
549373275,549372990,0.2777998,0.013181683,0.0076382267,0.96051824,0.99963945,-3.5592995e-09,2.0442933e-08,0.02685347,6
549423052,549422763,0.27778855,0.013158603,0.007680168,0.9605215,0.99963945,-3.5592995e-09,2.0442933e-08,0.02685347,6
549477939,549477514,0.27777112,0.013121336,0.0077033867,0.9605268,0.99963945,-3.5592995e-09,2.0442933e-08,0.02685347,6
549527754,549527287,0.27775672,0.013088867,0.007707481,0.9605314,0.99963945,-3.5592995e-09,2.0442933e-08,0.02685347,6
549572372,549572083,0.27774793,0.013090456,0.007749266,0.9605336,0.99963945,-3.5592995e-09,2.0442933e-08,0.02685347,6
549627574,549626833,0.27774557,0.013106474,0.0078071817,0.9605335,0.99963945,-3.5592995e-09,2.0442933e-08,0.02685347,6
549677032,549676606,0.27774626,0.013131184,0.007842841,0.9605327,0.99963945,-3.5592995e-09,2.0442933e-08,0.02685347,6
549726781,549726379,0.27774432,0.013156706,0.00789112,0.96053255,0.99963945,-3.5592995e-09,2.0442933e-08,0.02685347,6
549771467,549771175,0.27774593,0.013170717,0.0079548,0.9605314,0.99963945,-3.5592995e-09,2.0442933e-08,0.02685347,6
549826341,549825926,0.27774483,0.013170493,0.007970902,0.96053153,0.99963945,-3.5592995e-09,2.0442933e-08,0.02685347,6
549876092,549875699,0.2777396,0.013143506,0.007962185,0.9605335,0.99963945,-3.5592995e-09,2.0442933e-08,0.02685347,6
549925882,549925472,0.27773666,0.013091681,0.007957312,0.96053505,0.99963945,-3.5592995e-09,2.0442933e-08,0.02685347,6
549975642,549975245,0.2777392,0.013023808,0.007961791,0.9605352,0.99963945,-3.5592995e-09,2.0442933e-08,0.02685347,6
550025431,550025018,0.27774158,0.012990329,0.007991826,0.9605348,0.99963945,-3.5592995e-09,2.0442933e-08,0.02685347,6
550075196,550074791,0.27774444,0.012940807,0.008027405,0.9605343,0.99963945,-3.5592995e-09,2.0442933e-08,0.02685347,6
550124997,550124564,0.27775225,0.012871503,0.008064086,0.96053267,0.99963945,-3.5592995e-09,2.0442933e-08,0.02685347,6
550174792,550174337,0.27776998,0.0127725825,0.008089087,0.9605287,0.99963945,-3.5592995e-09,2.0442933e-08,0.02685347,6
550224592,550224110,0.2777906,0.0126960855,0.0080884695,0.96052366,0.99963945,-3.5592995e-09,2.0442933e-08,0.02685347,6
550274298,550273883,0.27781713,0.012619017,0.008045571,0.9605174,0.99963945,-3.5592995e-09,2.0442933e-08,0.02685347,6
550328955,550328634,0.27783325,0.01256978,0.007988555,0.9605139,0.99963945,-3.5592995e-09,2.0442933e-08,0.02685347,6
550373860,550373430,0.2778515,0.012561786,0.0079446975,0.9605091,0.99963945,-3.5592995e-09,2.0442933e-08,0.02685347,6
550423633,550423203,0.27786645,0.012571056,0.007918773,0.96050483,0.99963945,-3.5592995e-09,2.0442933e-08,0.02685347,6
550473372,550472976,0.2778806,0.012593967,0.007893764,0.96050066,0.99963945,-3.5592995e-09,2.0442933e-08,0.02685347,6
550528019,550527726,0.27789137,0.012649278,0.007875665,0.960497,0.99963945,-3.5592995e-09,2.0442933e-08,0.02685347,6
550572929,550572522,0.27790436,0.01271851,0.007887555,0.96049213,0.99963945,-3.5592995e-09,2.0442933e-08,0.02685347,6
550622693,550622295,0.27791876,0.012795051,0.007898558,0.96048695,0.99963945,-3.5592995e-09,2.0442933e-08,0.02685347,6
550677381,550677046,0.27793598,0.012886081,0.007882004,0.9604808,0.99963945,-3.5592995e-09,2.0442933e-08,0.02685347,6
550727404,550726819,0.2779569,0.012976513,0.007848035,0.9604739,0.99963945,-3.5592995e-09,2.0442933e-08,0.02685347,6
550776898,550776592,0.27796918,0.013070669,0.007825589,0.96046925,0.99963945,-3.5592995e-09,2.0442933e-08,0.02685347,6
550821820,550821388,0.27798516,0.0131457085,0.007813045,0.96046364,0.99963945,-3.5592995e-09,2.0442933e-08,0.02685347,6
550876447,550876138,0.27800086,0.013253671,0.0077996235,0.9604578,0.99963945,-3.5592995e-09,2.0442933e-08,0.02685347,6
550926197,550925911,0.2780092,0.013368791,0.0077943234,0.9604538,0.99963945,-3.5592995e-09,2.0442933e-08,0.02685347,6
550975971,550975684,0.27800414,0.013475533,0.007816474,0.9604536,0.99963945,-3.5592995e-09,2.0442933e-08,0.02685347,6
551025749,551025458,0.27800655,0.013556128,0.007890315,0.9604512,0.99963945,-3.5592995e-09,2.0442933e-08,0.02685347,6
551075517,551075231,0.2780046,0.013598674,0.007966148,0.9604505,0.99963945,-3.5592995e-09,2.0442933e-08,0.02685347,6
551125295,551125004,0.27800265,0.013601105,0.008001731,0.9604507,0.99963945,-3.5592995e-09,2.0442933e-08,0.02685347,6
551175062,551174777,0.27799407,0.01356962,0.007956432,0.96045405,0.99963945,-3.5592995e-09,2.0442933e-08,0.02685347,6
551224841,551224550,0.27798074,0.013519051,0.007892734,0.9604592,0.99963945,-3.5592995e-09,2.0442933e-08,0.02685347,6
551274675,551274323,0.27797085,0.013463397,0.0078516565,0.96046305,0.99963945,-3.5592995e-09,2.0442933e-08,0.02685347,6
551324422,551324096,0.27796048,0.01341756,0.00785717,0.96046674,0.99963945,-3.5592995e-09,2.0442933e-08,0.02685347,6
551374158,551373870,0.27795276,0.01338252,0.007921304,0.96046895,0.99963945,-3.5592995e-09,2.0442933e-08,0.02685347,6
551423939,551423643,0.27794805,0.013354319,0.0080159735,0.9604699,0.99963945,-3.5592995e-09,2.0442933e-08,0.02685347,6
551473710,551473416,0.2779568,0.013343403,0.008096189,0.9604668,0.99963945,-3.5592995e-09,2.0442933e-08,0.02685347,6
551523516,551523189,0.277969,0.013337954,0.008168684,0.96046275,0.99963945,-3.5592995e-09,2.0442933e-08,0.02685347,6
551578529,551577939,0.27797592,0.013305795,0.0081793545,0.9604611,0.99963945,-3.5592995e-09,2.0442933e-08,0.02685347,6
551623060,551622735,0.27798364,0.013263283,0.008162831,0.9604596,0.99963945,-3.5592995e-09,2.0442933e-08,0.02685347,6
551672793,551672508,0.2779912,0.013184937,0.008150184,0.9604585,0.99963945,-3.5592995e-09,2.0442933e-08,0.02685347,6
551727761,551727259,0.2780009,0.0130787445,0.008197416,0.96045685,0.99963945,-3.5592995e-09,2.0442933e-08,0.02685347,6
551777433,551777032,0.27799588,0.012957421,0.008266281,0.9604593,0.99963945,-3.5592995e-09,2.0442933e-08,0.02685347,6
551827359,551826805,0.27800018,0.012868468,0.0083684465,0.96045846,0.99963945,-3.5592995e-09,2.0442933e-08,0.02685347,6
551871982,551871601,0.27800003,0.012796943,0.00844763,0.96045876,0.99963945,-3.5592995e-09,2.0442933e-08,0.02685347,6
551926769,551926351,0.2780053,0.0127480915,0.008497931,0.9604573,0.99963945,-3.5592995e-09,2.0442933e-08,0.02685347,6
551976521,551976124,0.278021,0.012717397,0.008476203,0.96045345,0.99963945,-3.5592995e-09,2.0442933e-08,0.02685347,6
552026368,552025897,0.27802223,0.012749416,0.008428292,0.9604531,0.99963945,-3.5592995e-09,2.0442933e-08,0.02685347,6
552076082,552075671,0.27803215,0.012777796,0.008380318,0.96045023,0.99963945,-3.5592995e-09,2.0442933e-08,0.02685347,6
552125839,552125444,0.27805468,0.012777283,0.008382118,0.9604437,0.99963945,-3.5592995e-09,2.0442933e-08,0.02685347,6
552175672,552175217,0.27806264,0.012746771,0.008419455,0.96044147,0.99963945,-3.5592995e-09,2.0442933e-08,0.02685347,6
552225451,552224990,0.27807844,0.012704999,0.008492941,0.96043676,0.99963945,-3.5592995e-09,2.0442933e-08,0.02685347,6
552275174,552274763,0.2780928,0.012671988,0.008565933,0.96043247,0.99963945,-3.5592995e-09,2.0442933e-08,0.02685347,6
552324985,552324536,0.2781051,0.012650064,0.0085721845,0.9604292,0.99963945,-3.5592995e-09,2.0442933e-08,0.02685347,6
552374709,552374309,0.2781168,0.012669459,0.008511717,0.960426,0.99963945,-3.5592995e-09,2.0442933e-08,0.02685347,6
552424507,552424083,0.27812162,0.012678553,0.008431184,0.96042526,0.99963945,-3.5592995e-09,2.0442933e-08,0.02685347,6
552474384,552473856,0.2781124,0.012674553,0.00839932,0.96042824,0.99963945,-3.5592995e-09,2.0442933e-08,0.02685347,6
552524028,552523629,0.27810317,0.012716378,0.008394466,0.9604304,0.99963945,-3.5592995e-09,2.0442933e-08,0.02685347,6
552573804,552573402,0.27809632,0.012748051,0.008378575,0.9604321,0.99963945,-3.5592995e-09,2.0442933e-08,0.02685347,6
552628441,552628152,0.27808222,0.012774655,0.008425084,0.96043545,0.99963945,-3.5592995e-09,2.0442933e-08,0.02685347,6
552673411,552672948,0.27806643,0.012761753,0.008470345,0.96043974,0.99963945,-3.5592995e-09,2.0442933e-08,0.02685347,6
552723167,552722721,0.27804813,0.012727825,0.008528931,0.96044505,0.99963945,-3.5592995e-09,2.0442933e-08,0.02685347,6
552777793,552777472,0.27803695,0.012679254,0.008565035,0.9604485,0.99963945,-3.5592995e-09,2.0442933e-08,0.02685347,6
552827533,552827245,0.27802995,0.012636481,0.008560321,0.9604512,0.99963945,-3.5592995e-09,2.0442933e-08,0.02685347,6
552872467,552872041,0.27802587,0.01259743,0.008524063,0.96045315,0.99963945,-3.5592995e-09,2.0442933e-08,0.02685347,6
552922394,552921814,0.2780068,0.012566134,0.008484351,0.9604594,0.99963945,-3.5592995e-09,2.0442933e-08,0.02685347,6
552977160,552976564,0.27800545,0.012564039,0.008425419,0.9604604,0.99963945,-3.5592995e-09,2.0442933e-08,0.02685347,6
553026673,553026337,0.2780118,0.012583385,0.008387536,0.96045864,0.99963945,-3.5592995e-09,2.0442933e-08,0.02685347,6
553076398,553076110,0.27802333,0.0126327695,0.00840853,0.9604545,0.99963945,-3.5592995e-09,2.0442933e-08,0.02685347,6
553126176,553125884,0.27803516,0.012668978,0.008428656,0.96045035,0.99963945,-3.5592995e-09,2.0442933e-08,0.02685347,6
553175948,553175657,0.2780453,0.012727239,0.008413769,0.96044683,0.99963945,-3.5592995e-09,2.0442933e-08,0.02685347,6
553225720,553225430,0.2780555,0.012775277,0.008360137,0.9604437,0.99963945,-3.5592995e-09,2.0442933e-08,0.02685347,6
553275491,553275203,0.27806646,0.012806799,0.008324308,0.9604404,0.99963945,-3.5592995e-09,2.0442933e-08,0.02685347,6
553325265,553324976,0.27808478,0.012782231,0.0082726255,0.96043587,0.99963945,-3.5592995e-09,2.0442933e-08,0.02685347,6
553375037,553374749,0.27809095,0.012668717,0.008267265,0.9604356,0.99963945,-3.5592995e-09,2.0442933e-08,0.02685347,6
553424841,553424523,0.27809832,0.012563204,0.008300296,0.9604346,0.99963945,-3.5592995e-09,2.0442933e-08,0.02685347,6
553474581,553474296,0.27808967,0.012436851,0.008307594,0.96043867,0.99963945,-3.5592995e-09,2.0442933e-08,0.02685347,6
553524413,553524069,0.27808884,0.012363458,0.008399851,0.96043915,0.99963945,-3.5592995e-09,2.0442933e-08,0.02685347,6
553574164,553573842,0.27809173,0.012292897,0.008454175,0.9604387,0.99963945,-3.5592995e-09,2.0442933e-08,0.02685347,6
553623916,553623615,0.27809808,0.012222087,0.008477603,0.96043754,0.99963945,-3.5592995e-09,2.0442933e-08,0.02685347,6
553673685,553673388,0.27810585,0.012156994,0.008525505,0.9604357,0.99963945,-3.5592995e-09,2.0442933e-08,0.02685347,6
553723450,553723161,0.27812234,0.012103401,0.008570956,0.9604312,0.99963945,-3.5592995e-09,2.0442933e-08,0.02685347,6
553773232,553772935,0.27813315,0.012069114,0.008632861,0.9604279,0.99963945,-3.5592995e-09,2.0442933e-08,0.02685347,6
553828118,553827685,0.27814943,0.012033453,0.00867681,0.96042323,0.99963945,-3.5592995e-09,2.0442933e-08,0.02685347,6
553877911,553877458,0.27816343,0.01199486,0.008682215,0.9604196,0.99963945,-3.5592995e-09,2.0442933e-08,0.02685347,6
553922569,553922254,0.27816352,0.011959723,0.008687151,0.96042,0.99963945,-3.5592995e-09,2.0442933e-08,0.02685347,6
553972361,553972029,0.27816886,0.011915761,0.008694683,0.960419,0.99963945,-3.5592995e-09,2.0442933e-08,0.02685347,6
554027176,554026778,0.27817753,0.011901912,0.00868158,0.96041673,0.99963945,-3.5592995e-09,2.0442933e-08,0.02685347,6
554077116,554076551,0.27817908,0.011902023,0.008632713,0.96041673,0.99963945,-3.5592995e-09,2.0442933e-08,0.02685347,6
554121732,554121347,0.27818453,0.011930904,0.008598781,0.9604151,0.99963945,-3.5592995e-09,2.0442933e-08,0.02685347,6
554176571,554176097,0.278172,0.011971661,0.008578154,0.96041834,0.99963945,-3.5592995e-09,2.0442933e-08,0.02685347,6
554226299,554225870,0.2781561,0.011968853,0.008553503,0.96042323,0.99963945,-3.5592995e-09,2.0442933e-08,0.02685347,6
554276065,554275643,0.27813017,0.011901221,0.008553278,0.9604316,0.99963945,-3.5592995e-09,2.0442933e-08,0.02685347,6
554325851,554325417,0.2781086,0.011796365,0.008562591,0.960439,0.99963945,-3.5592995e-09,2.0442933e-08,0.02685347,6
554375590,554375190,0.2780863,0.011676695,0.008596629,0.96044666,0.99963945,-3.5592995e-09,2.0442933e-08,0.02685347,6
554425408,554424963,0.27807403,0.011534487,0.008627929,0.9604517,0.99963945,-3.5592995e-09,2.0442933e-08,0.02685347,6
554475132,554474736,0.2780633,0.011368703,0.008638412,0.9604566,0.99963945,-3.5592995e-09,2.0442933e-08,0.02685347,6
554524920,554524510,0.27806142,0.011221064,0.008665337,0.96045876,0.99963945,-3.5592995e-09,2.0442933e-08,0.02685347,6
554574731,554574282,0.27806547,0.01110987,0.008675161,0.9604587,0.99963945,-3.5592995e-09,2.0442933e-08,0.02685347,6
554624453,554624055,0.27807537,0.011091554,0.008706559,0.96045583,0.99963945,-3.5592995e-09,2.0442933e-08,0.02685347,6
554674258,554673829,0.27807397,0.011186431,0.008741114,0.96045476,0.99963945,-3.5592995e-09,2.0442933e-08,0.02685347,6
554724094,554723605,0.27807942,0.011357508,0.008713355,0.9604514,0.99963945,-3.5592995e-09,2.0442933e-08,0.02685347,6
554773779,554773375,0.27808225,0.011566152,0.008693506,0.9604483,0.99963945,-3.5592995e-09,2.0442933e-08,0.02685347,6
554823622,554823148,0.27808893,0.011790483,0.008685458,0.9604438,0.99963945,-3.5592995e-09,2.0442933e-08,0.02685347,6
554878205,554877899,0.27809864,0.012060757,0.008665789,0.9604378,0.99963945,-3.5592995e-09,2.0442933e-08,0.02685347,6
554927966,554927673,0.27810606,0.012362366,0.008629357,0.9604321,0.99963945,-3.5592995e-09,2.0442933e-08,0.02685347,6
554972886,554972468,0.27812076,0.012634873,0.00852171,0.9604252,0.99963945,-3.5592995e-09,2.0442933e-08,0.02685347,6
555022754,555022241,0.27813694,0.012861709,0.008381054,0.9604188,0.99963945,-3.5592995e-09,2.0442933e-08,0.02685347,6
555077339,555076991,0.2781586,0.013023278,0.008262842,0.9604114,0.99963945,-3.5592995e-09,2.0442933e-08,0.02685347,6
555127096,555126765,0.27817535,0.013047861,0.008155865,0.960407,0.99963945,-3.5592995e-09,2.0442933e-08,0.02685347,6
555176941,555176538,0.2781927,0.012985376,0.008151276,0.960403,0.99963945,-3.5592995e-09,2.0442933e-08,0.02685347,6
555226891,555226311,0.2782112,0.012901209,0.008210418,0.9603982,0.99963945,-3.5592995e-09,2.0442933e-08,0.02685347,6
555276396,555276084,0.278233,0.012815489,0.0083371475,0.96039194,0.99963945,-3.5592995e-09,2.0442933e-08,0.02685347,6
555326169,555325857,0.27825898,0.012746445,0.0085234335,0.9603837,0.99963945,-3.5592995e-09,2.0442933e-08,0.02685347,6
555375915,555375630,0.27828258,0.012726365,0.008801919,0.96037465,0.99963945,-3.5592995e-09,2.0442933e-08,0.02685347,6
555425693,555425403,0.27831113,0.012783167,0.009100257,0.96036285,0.99963945,-3.5592995e-09,2.0442933e-08,0.02685347,6
555475465,555475177,0.27832603,0.012883709,0.00925241,0.96035564,0.99963945,-3.5592995e-09,2.0442933e-08,0.02685347,6
555525241,555524950,0.27834266,0.012989765,0.009290477,0.96034914,0.99963945,-3.5592995e-09,2.0442933e-08,0.02685347,6
555575048,555574723,0.27834636,0.013076301,0.009273911,0.960347,0.99963945,-3.5592995e-09,2.0442933e-08,0.02685347,6
555624785,555624496,0.27834782,0.0131163625,0.00914591,0.96034724,0.99963945,-3.5592995e-09,2.0442933e-08,0.02685347,6
555674555,555674269,0.27834782,0.013146955,0.009015024,0.9603481,0.99963945,-3.5592995e-09,2.0442933e-08,0.02685347,6
555724337,555724042,0.2783315,0.013189254,0.008872694,0.96035355,0.99963945,-3.5592995e-09,2.0442933e-08,0.02685347,6
555774162,555773816,0.27831137,0.01325542,0.0088390615,0.96035886,0.99963945,-3.5592995e-09,2.0442933e-08,0.02685347,6
555823998,555823589,0.27830106,0.013328679,0.008882786,0.96036035,0.99963945,-3.5592995e-09,2.0442933e-08,0.02685347,6
555873657,555873362,0.27829924,0.013379292,0.008954668,0.96035945,0.99963945,-3.5592995e-09,2.0442933e-08,0.02685347,6
555928524,555928113,0.2782996,0.0134620285,0.009086079,0.96035707,0.99963945,-3.5592995e-09,2.0442933e-08,0.02685347,6
555973196,555972908,0.2782938,0.013512893,0.00917586,0.9603571,0.99963945,-3.5592995e-09,2.0442933e-08,0.02685347,6
556022986,556022682,0.2782769,0.0135194985,0.009195308,0.9603617,0.99963945,-3.5592995e-09,2.0442933e-08,0.02685347,6
556072747,556072455,0.2782693,0.013455193,0.009161886,0.9603651,0.99963945,-3.5592995e-09,2.0442933e-08,0.02685347,6
556127780,556127205,0.2782819,0.013300471,0.009132492,0.9603639,0.99963945,-3.5592995e-09,2.0442933e-08,0.02685347,6
556177439,556176978,0.27828348,0.013081357,0.009037064,0.9603674,0.99963945,-3.5592995e-09,2.0442933e-08,0.02685347,6
556222112,556221774,0.27828476,0.012940287,0.008994938,0.9603693,0.99963945,-3.5592995e-09,2.0442933e-08,0.02685347,6
556277024,556276525,0.2782803,0.012903096,0.009035013,0.9603707,0.99963945,-3.5592995e-09,2.0442933e-08,0.02685347,6
556327450,556326298,0.27827767,0.012919313,0.0090640895,0.9603711,0.99963945,-3.5592995e-09,2.0442933e-08,0.02685347,6
556376761,556376071,0.27828062,0.012901026,0.009155082,0.9603696,0.99963945,-3.5592995e-09,2.0442933e-08,0.02685347,6
556421154,556420867,0.27829224,0.012857735,0.009247076,0.96036595,0.99963945,-3.5592995e-09,2.0442933e-08,0.02685347,6
556476019,556475619,0.2782975,0.012848216,0.009267506,0.96036434,0.99963945,-3.5592995e-09,2.0442933e-08,0.02685347,6
556525811,556525391,0.2783052,0.012902036,0.0092575615,0.9603615,0.99963945,-3.5592995e-09,2.0442933e-08,0.02685347,6
556575559,556575164,0.27831367,0.01296231,0.009168252,0.96035904,0.99963945,-3.5592995e-09,2.0442933e-08,0.02685347,6
556625337,556624937,0.27833104,0.012990481,0.009101523,0.96035427,0.99963945,-3.5592995e-09,2.0442933e-08,0.02685347,6
556675115,556674710,0.27834922,0.012983466,0.00905101,0.9603495,0.99963945,-3.5592995e-09,2.0442933e-08,0.02685347,6
556724880,556724483,0.27836752,0.012936385,0.00898058,0.9603455,0.99963945,-3.5592995e-09,2.0442933e-08,0.02685347,6
556774666,556774256,0.27839527,0.01287873,0.0088724485,0.9603393,0.99963945,-3.5592995e-09,2.0442933e-08,0.02685347,6
556824452,556824030,0.2784329,0.012837109,0.008722249,0.96033037,0.99963945,-3.5592995e-09,2.0442933e-08,0.02685347,6
556874223,556873803,0.27846664,0.012833622,0.008556668,0.96032214,0.99963945,-3.5592995e-09,2.0442933e-08,0.02685347,6
556924093,556923576,0.27849942,0.0128349075,0.008405354,0.9603139,0.99963945,-3.5592995e-09,2.0442933e-08,0.02685347,6
556978619,556978327,0.27852875,0.012840644,0.008419316,0.9603052,0.99963945,-3.5592995e-09,2.0442933e-08,0.02685347,6
557023523,557023124,0.27855092,0.012844581,0.008493579,0.96029806,0.99963945,-3.5592995e-09,2.0442933e-08,0.02685347,6
557073288,557072896,0.2785763,0.0128282895,0.008540654,0.96029043,0.99963945,-3.5592995e-09,2.0442933e-08,0.02685347,6
557123069,557122669,0.27859062,0.012776656,0.008581632,0.9602866,0.99963945,-3.5592995e-09,2.0442933e-08,0.02685347,6
557177712,557177419,0.27859965,0.012695025,0.008545692,0.9602855,0.99963945,-3.5592995e-09,2.0442933e-08,0.02685347,6
557227491,557227192,0.27860823,0.012624038,0.008465484,0.96028465,0.99963945,-3.5592995e-09,2.0442933e-08,0.02685347,6
557272383,557271988,0.27861083,0.012552105,0.008339372,0.9602859,0.99963945,-3.5592995e-09,2.0442933e-08,0.02685347,6
557327034,557326739,0.278614,0.012523132,0.008191619,0.96028656,0.99963945,-3.5592995e-09,2.0442933e-08,0.02685347,6
557376801,557376512,0.2786151,0.01252329,0.00809645,0.9602871,0.99963945,-3.5592995e-09,2.0442933e-08,0.02685347,6
557426683,557426289,0.27861872,0.012585983,0.008068383,0.9602854,0.99963945,-3.5592995e-09,2.0442933e-08,0.02685347,6
557471651,557471081,0.27862093,0.012659813,0.008067518,0.96028394,0.99963945,-3.5592995e-09,2.0442933e-08,0.02685347,6
557526137,557525832,0.2786218,0.01283048,0.00810999,0.96028095,0.99963945,-3.5592995e-09,2.0442933e-08,0.02685347,6
557575891,557575605,0.27862176,0.013023022,0.008153257,0.9602781,0.99963945,-3.5592995e-09,2.0442933e-08,0.02685347,6
557625667,557625378,0.27862182,0.013195946,0.008194725,0.96027535,0.99963945,-3.5592995e-09,2.0442933e-08,0.02685347,6
557675448,557675151,0.2786186,0.01328238,0.008271048,0.9602744,0.99963945,-3.5592995e-09,2.0442933e-08,0.02685347,6
557725225,557724924,0.27861506,0.013292733,0.008238682,0.9602756,0.99963945,-3.5592995e-09,2.0442933e-08,0.02685347,6
557775013,557774698,0.2786127,0.013283785,0.008189202,0.9602768,0.99963945,-3.5592995e-09,2.0442933e-08,0.02685347,6
557824761,557824471,0.27860245,0.013334664,0.008131831,0.9602796,0.99963945,-3.5592995e-09,2.0442933e-08,0.02685347,6
557874553,557874244,0.27858412,0.013431929,0.0080861375,0.9602839,0.99963945,-3.5592995e-09,2.0442933e-08,0.02685347,6
557924306,557924017,0.2785606,0.013530935,0.00812186,0.96028906,0.99963945,-3.5592995e-09,2.0442933e-08,0.02685347,6
557974076,557973790,0.2785502,0.013615395,0.008213442,0.9602901,0.99963945,-3.5592995e-09,2.0442933e-08,0.02685347,6
558028969,558028541,0.27854478,0.013771481,0.008286841,0.96028876,0.99963945,-3.5592995e-09,2.0442933e-08,0.02685347,6
558073662,558073337,0.27854323,0.013952409,0.008264508,0.96028686,0.99963945,-3.5592995e-09,2.0442933e-08,0.02685347,6
558123400,558123110,0.27854922,0.01418431,0.008239769,0.96028185,0.99963945,-3.5592995e-09,2.0442933e-08,0.02685347,6
558173172,558172883,0.27855763,0.014358525,0.008157449,0.96027756,0.99963945,-3.5592995e-09,2.0442933e-08,0.02685347,6
558228080,558227634,0.27856186,0.014447188,0.00803484,0.96027607,0.99963945,-3.5592995e-09,2.0442933e-08,0.02685347,6
558272719,558272429,0.2785718,0.0144872265,0.00794597,0.96027327,0.99963945,-3.5592995e-09,2.0442933e-08,0.02685347,6
558322487,558322203,0.27857545,0.014532196,0.007913427,0.9602718,0.99963945,-3.5592995e-09,2.0442933e-08,0.02685347,6
558377405,558376953,0.2785745,0.014592392,0.00794851,0.9602709,0.99963945,-3.5592995e-09,2.0442933e-08,0.02685347,6
558427127,558426726,0.27857137,0.014687398,0.008066482,0.96026945,0.99963945,-3.5592995e-09,2.0442933e-08,0.02685347,6
558476909,558476500,0.27857432,0.014749984,0.008200967,0.96026635,0.99963945,-3.5592995e-09,2.0442933e-08,0.02685347,6
558521581,558521295,0.27858022,0.014785169,0.008340196,0.960263,0.99963945,-3.5592995e-09,2.0442933e-08,0.02685347,6
558576679,558576046,0.27857378,0.014812328,0.008351616,0.9602644,0.99963945,-3.5592995e-09,2.0442933e-08,0.02685347,6
558626592,558625819,0.27857256,0.0147970775,0.0082640555,0.96026564,0.99963945,-3.5592995e-09,2.0442933e-08,0.02685347,6
558676395,558675592,0.27857035,0.014746191,0.008141242,0.9602682,0.99963945,-3.5592995e-09,2.0442933e-08,0.02685347,6
558725764,558725366,0.2785749,0.014629336,0.008028605,0.9602695,0.99963945,-3.5592995e-09,2.0442933e-08,0.02685347,6
558775530,558775139,0.2785902,0.014491265,0.008026247,0.9602672,0.99963945,-3.5592995e-09,2.0442933e-08,0.02685347,6
558825355,558824912,0.2785988,0.014351956,0.008106208,0.96026623,0.99963945,-3.5592995e-09,2.0442933e-08,0.02685347,6
558875082,558874685,0.27861387,0.014276343,0.008277569,0.9602614,0.99963945,-3.5592995e-09,2.0442933e-08,0.02685347,6
558924899,558924458,0.2786164,0.014236269,0.00841351,0.96026015,0.99963945,-3.5592995e-09,2.0442933e-08,0.02685347,6
558974681,558974232,0.27862254,0.014145648,0.008491083,0.960259,0.99963945,-3.5592995e-09,2.0442933e-08,0.02685347,6
559024397,559024005,0.27862665,0.014005293,0.0085133,0.9602597,0.99963945,-3.5592995e-09,2.0442933e-08,0.02685347,6
559079049,559078755,0.2786173,0.013812922,0.008437385,0.9602659,0.99963945,-3.5592995e-09,2.0442933e-08,0.02685347,6
559124002,559123551,0.278608,0.013636477,0.008379942,0.96027154,0.99963945,-3.5592995e-09,2.0442933e-08,0.02685347,6
559173755,559173324,0.27859092,0.013432059,0.008337163,0.9602797,0.99963945,-3.5592995e-09,2.0442933e-08,0.02685347,6
559223534,559223098,0.27858546,0.013225586,0.008376351,0.9602839,0.99963945,-3.5592995e-09,2.0442933e-08,0.02685347,6
559278154,559277848,0.27857527,0.01305361,0.008461228,0.9602884,0.99963945,-3.5592995e-09,2.0442933e-08,0.02685347,6
559323040,559322644,0.27857435,0.012979889,0.008533493,0.96028906,0.99963945,-3.5592995e-09,2.0442933e-08,0.02685347,6
559372830,559372417,0.27856946,0.013007442,0.008659397,0.960289,0.99963945,-3.5592995e-09,2.0442933e-08,0.02685347,6
559427462,559427168,0.27856982,0.013110681,0.008719781,0.9602869,0.99963945,-3.5592995e-09,2.0442933e-08,0.02685347,6
559477232,559476941,0.2785807,0.0132415965,0.008690051,0.9602823,0.99963945,-3.5592995e-09,2.0442933e-08,0.02685347,6
559527027,559526719,0.27859867,0.013349577,0.008631347,0.9602761,0.99963945,-3.5592995e-09,2.0442933e-08,0.02685347,6
559572001,559571510,0.27861178,0.013414232,0.008485485,0.96027267,0.99963945,-3.5592995e-09,2.0442933e-08,0.02685347,6
559626573,559626261,0.27862197,0.01351043,0.008299123,0.96027,0.99963945,-3.5592995e-09,2.0442933e-08,0.02685347,6
559676495,559676034,0.27863878,0.013586688,0.008209268,0.9602648,0.99963945,-3.5592995e-09,2.0442933e-08,0.02685347,6
559726551,559725807,0.2786571,0.013602915,0.008229314,0.96025914,0.99963945,-3.5592995e-09,2.0442933e-08,0.02685347,6
559775932,559775580,0.27867207,0.013602809,0.008278583,0.9602544,0.99963945,-3.5592995e-09,2.0442933e-08,0.02685347,6
559825661,559825353,0.27868006,0.0135476645,0.008337621,0.9602523,0.99963945,-3.5592995e-09,2.0442933e-08,0.02685347,6
559875414,559875127,0.27869081,0.013515503,0.008412969,0.9602489,0.99963945,-3.5592995e-09,2.0442933e-08,0.02685347,6
559925188,559924900,0.27869958,0.013514162,0.008436392,0.9602462,0.99963945,-3.5592995e-09,2.0442933e-08,0.02685347,6
559974961,559974673,0.27870813,0.013554402,0.008389508,0.9602436,0.99963945,-3.5592995e-09,2.0442933e-08,0.02685347,6
560024758,560024446,0.27872106,0.013604424,0.008291143,0.96024,0.99963945,-3.5592995e-09,2.0442933e-08,0.02685347,6
560074523,560074220,0.2787371,0.0136698615,0.008114364,0.9602359,0.99963945,-3.5592995e-09,2.0442933e-08,0.02685347,6
560124282,560123993,0.27876544,0.013766715,0.00795683,0.96022755,0.99963945,-3.5592995e-09,2.0442933e-08,0.02685347,6
560174052,560173766,0.27879086,0.013853295,0.007849915,0.96021986,0.99963945,-3.5592995e-09,2.0442933e-08,0.02685347,6
560223871,560223539,0.27882072,0.013926778,0.007814182,0.9602104,0.99963945,-3.5592995e-09,2.0442933e-08,0.02685347,6
560273661,560273312,0.2788611,0.013988636,0.007839258,0.96019757,0.99963945,-3.5592995e-09,2.0442933e-08,0.02685347,6
560328538,560328063,0.27890635,0.014078897,0.007888511,0.9601828,0.99963945,-3.5592995e-09,2.0442933e-08,0.02685347,6
560373169,560372859,0.2789334,0.014176294,0.007901225,0.9601733,0.99963945,-3.5592995e-09,2.0442933e-08,0.02685347,6
560422917,560422632,0.27895164,0.014305892,0.0078843245,0.9601662,0.99963945,-3.5592995e-09,2.0442933e-08,0.02685347,6
560477789,560477383,0.27896607,0.014451157,0.00784737,0.96016014,0.99963945,-3.5592995e-09,2.0442933e-08,0.02685347,6
560527549,560527156,0.27897847,0.0145506365,0.007798623,0.96015555,0.99963945,-3.5592995e-09,2.0442933e-08,0.02685347,6
560572237,560571952,0.27899075,0.0146190645,0.007802262,0.9601508,0.99963945,-3.5592995e-09,2.0442933e-08,0.02685347,6
560622013,560621725,0.2789996,0.014628861,0.007830969,0.9601479,0.99963945,-3.5592995e-09,2.0442933e-08,0.02685347,6
560676870,560676475,0.27901518,0.014565979,0.007836102,0.9601442,0.99963945,-3.5592995e-09,2.0442933e-08,0.02685347,6
560726651,560726249,0.27903762,0.014429607,0.007812588,0.96014005,0.99963945,-3.5592995e-09,2.0442933e-08,0.02685347,6
560776421,560776022,0.2790625,0.014216204,0.007855052,0.9601356,0.99963945,-3.5592995e-09,2.0442933e-08,0.02685347,6
560826378,560825795,0.2790848,0.013977202,0.007892177,0.9601323,0.99963945,-3.5592995e-09,2.0442933e-08,0.02685347,6
560876044,560875568,0.2791024,0.0137863895,0.007902174,0.9601299,0.99963945,-3.5592995e-09,2.0442933e-08,0.02685347,6
560926150,560925342,0.27910465,0.013633749,0.0078328885,0.96013194,0.99963945,-3.5592995e-09,2.0442933e-08,0.02685347,6
560975592,560975115,0.27910146,0.013569326,0.007731685,0.9601346,0.99963945,-3.5592995e-09,2.0442933e-08,0.02685347,6
561025314,561024888,0.2790968,0.013564358,0.0075783296,0.96013725,0.99963945,-3.5592995e-09,2.0442933e-08,0.02685347,6
561075091,561074661,0.2790906,0.013610133,0.0074634156,0.9601394,0.99963945,-3.5592995e-09,2.0442933e-08,0.02685347,6
561124851,561124434,0.27909833,0.013652905,0.007431322,0.9601367,0.99963945,-3.5592995e-09,2.0442933e-08,0.02685347,6
561174600,561174208,0.27910936,0.013663743,0.0075040893,0.96013284,0.99963945,-3.5592995e-09,2.0442933e-08,0.02685347,6
561224382,561223981,0.27912685,0.013645404,0.007673986,0.9601267,0.99963945,-3.5592995e-09,2.0442933e-08,0.02685347,6
561274151,561273754,0.27915567,0.013564132,0.007866533,0.9601178,0.99963945,-3.5592995e-09,2.0442933e-08,0.02685347,6
561323926,561323527,0.27918983,0.013449133,0.008097163,0.9601077,0.99963945,-3.5592995e-09,2.0442933e-08,0.02685347,6
561378578,561378278,0.27922398,0.01332505,0.008322183,0.96009755,0.99963945,-3.5592995e-09,2.0442933e-08,0.02685347,6
561423499,561423074,0.27925318,0.013225142,0.0084203025,0.96008956,0.99963945,-3.5592995e-09,2.0442933e-08,0.02685347,6
561473281,561472847,0.2792919,0.013159413,0.00844219,0.960079,0.99963945,-3.5592995e-09,2.0442933e-08,0.02685347,6
561527892,561527598,0.27932042,0.01311657,0.008344035,0.96007216,0.99963945,-3.5592995e-09,2.0442933e-08,0.02685347,6
561577664,561577371,0.27934763,0.013093094,0.008258567,0.96006525,0.99963945,-3.5592995e-09,2.0442933e-08,0.02685347,6
561622591,561622167,0.2793783,0.013072048,0.0081579285,0.96005756,0.99963945,-3.5592995e-09,2.0442933e-08,0.02685347,6
561672414,561671940,0.27941546,0.013035518,0.008083653,0.96004784,0.99963945,-3.5592995e-09,2.0442933e-08,0.02685347,6
561726981,561726691,0.27945554,0.012955614,0.0081161745,0.96003693,0.99963945,-3.5592995e-09,2.0442933e-08,0.02685347,6
561776761,561776464,0.27949557,0.012866532,0.008147512,0.96002626,0.99963945,-3.5592995e-09,2.0442933e-08,0.02685347,6
561826559,561826237,0.27953443,0.012786576,0.008206888,0.9600155,0.99963945,-3.5592995e-09,2.0442933e-08,0.02685347,6
561876318,561876011,0.27956957,0.01271993,0.008325733,0.96000516,0.99963945,-3.5592995e-09,2.0442933e-08,0.02685347,6
561926134,561925783,0.279599,0.012723811,0.008395759,0.9599959,0.99963945,-3.5592995e-09,2.0442933e-08,0.02685347,6
561976173,561975557,0.27961448,0.012814311,0.008432825,0.9599899,0.99963945,-3.5592995e-09,2.0442933e-08,0.02685347,6
562025644,562025330,0.27963454,0.01292146,0.008417037,0.9599827,0.99963945,-3.5592995e-09,2.0442933e-08,0.02685347,6
562075423,562075103,0.27965477,0.013020107,0.008396559,0.95997566,0.99963945,-3.5592995e-09,2.0442933e-08,0.02685347,6
562125192,562124876,0.27967137,0.013103397,0.008425277,0.95996946,0.99963945,-3.5592995e-09,2.0442933e-08,0.02685347,6
562174938,562174650,0.27968532,0.013167098,0.00853702,0.95996356,0.99963945,-3.5592995e-09,2.0442933e-08,0.02685347,6
562224710,562224423,0.2796926,0.013190512,0.008658224,0.95996,0.99963945,-3.5592995e-09,2.0442933e-08,0.02685347,6
562274488,562274196,0.279697,0.013231289,0.008804159,0.9599568,0.99963945,-3.5592995e-09,2.0442933e-08,0.02685347,6
562324257,562323969,0.27970007,0.013274885,0.008871127,0.9599547,0.99963945,-3.5592995e-09,2.0442933e-08,0.02685347,6
562374031,562373742,0.27968994,0.013367726,0.008876941,0.95995635,0.99963945,-3.5592995e-09,2.0442933e-08,0.02685347,6
562423805,562423516,0.27966958,0.01348137,0.008837063,0.959961,0.99963945,-3.5592995e-09,2.0442933e-08,0.02685347,6
562473577,562473289,0.2796509,0.0135979885,0.008773288,0.95996535,0.99963945,-3.5592995e-09,2.0442933e-08,0.02685347,6
562523407,562523062,0.2796107,0.0137076145,0.008634963,0.95997685,0.99963945,-3.5592995e-09,2.0442933e-08,0.02685347,6
562578245,562577813,0.2795476,0.01374618,0.00848967,0.9599959,0.99963945,-3.5592995e-09,2.0442933e-08,0.02685347,6
562627988,562627586,0.2794812,0.013773425,0.008392872,0.9600158,0.99963945,-3.5592995e-09,2.0442933e-08,0.02685347,6
562672694,562672382,0.27938098,0.013727631,0.008333287,0.96004605,0.99963945,-3.5592995e-09,2.0442933e-08,0.02685347,6
562722443,562722155,0.2793095,0.013439333,0.008465738,0.9600698,0.99963945,-3.5592995e-09,2.0442933e-08,0.02685347,6
562777311,562776906,0.27922136,0.01366048,0.008361057,0.96009326,0.99963945,-3.5592995e-09,2.0442933e-08,0.02685347,6
562827083,562826679,0.2791226,0.013675128,0.008511734,0.9601204,0.99963945,-3.5592995e-09,2.0442933e-08,0.02685347,6
562871767,562871475,0.27905756,0.013696299,0.008680253,0.9601375,0.99963945,-3.5592995e-09,2.0442933e-08,0.02685347,6
562926626,562926227,0.27896807,0.0137728285,0.008824437,0.96016103,0.99963945,-3.5592995e-09,2.0442933e-08,0.02685347,6
562976417,562975999,0.2788996,0.01375373,0.008807624,0.9601815,0.99963945,-3.5592995e-09,2.0442933e-08,0.02685347,6
563026276,563025772,0.27882454,0.013736335,0.008732896,0.9602042,0.99963945,-3.5592995e-09,2.0442933e-08,0.02685347,6
563076087,563075545,0.27874324,0.013690884,0.008618687,0.96022946,0.99963945,-3.5592995e-09,2.0442933e-08,0.02685347,6
563126060,563125318,0.27865404,0.013648192,0.00851178,0.9602569,0.99963945,-3.5592995e-09,2.0442933e-08,0.02685347,6
563175557,563175092,0.27857724,0.013591132,0.008453632,0.9602804,0.99963945,-3.5592995e-09,2.0442933e-08,0.02685347,6
563225293,563224865,0.278513,0.013524005,0.008429736,0.9603003,0.99963945,-3.5592995e-09,2.0442933e-08,0.02685347,6
563275063,563274638,0.27844802,0.013450811,0.0084558325,0.96031994,0.99963945,-3.5592995e-09,2.0442933e-08,0.02685347,6
563324957,563324411,0.27839488,0.0133956205,0.008553122,0.9603352,0.99963945,-3.5592995e-09,2.0442933e-08,0.02685347,6
563374579,563374185,0.2783452,0.013304428,0.008657306,0.9603499,0.99963945,-3.5592995e-09,2.0442933e-08,0.02685347,6
563424353,563423958,0.27828988,0.013224985,0.008741451,0.9603663,0.99963945,-3.5592995e-09,2.0442933e-08,0.02685347,6
563474124,563473731,0.27822998,0.013171559,0.00877531,0.9603841,0.99963945,-3.5592995e-09,2.0442933e-08,0.02685347,6
563523929,563523504,0.27816427,0.013154617,0.008715879,0.9604039,0.99963945,-3.5592995e-09,2.0442933e-08,0.02685347,6
563573691,563573278,0.2780907,0.013155807,0.00860448,0.9604263,0.99963945,-3.5592995e-09,2.0442933e-08,0.02685347,6
563628318,563628028,0.278022,0.013146547,0.008478529,0.9604474,0.99963945,-3.5592995e-09,2.0442933e-08,0.02685347,6
563678118,563677801,0.2779472,0.0131966835,0.008363525,0.96046937,0.99963945,-3.5592995e-09,2.0442933e-08,0.02685347,6
563723193,563722597,0.27787742,0.013235408,0.00827122,0.9604898,0.99963945,-3.5592995e-09,2.0442933e-08,0.02685347,6
563772769,563772371,0.2778168,0.013266259,0.00826286,0.9605069,0.99963945,-3.5592995e-09,2.0442933e-08,0.02685347,6
563827415,563827121,0.2777532,0.013236608,0.008341224,0.9605251,0.99963945,-3.5592995e-09,2.0442933e-08,0.02685347,6
563877170,563876894,0.27769098,0.013175737,0.008427471,0.96054316,0.99963945,-3.5592995e-09,2.0442933e-08,0.02685347,6
563922088,563921690,0.2776377,0.013074271,0.008478883,0.9605595,0.99963945,-3.5592995e-09,2.0442933e-08,0.02685347,6
563976740,563976441,0.27757066,0.012956906,0.008574637,0.96057963,0.99963945,-3.5592995e-09,2.0442933e-08,0.02685347,6
564026523,564026214,0.27750325,0.012819327,0.008532986,0.9606013,0.99963945,-3.5592995e-09,2.0442933e-08,0.02685347,6
564076276,564075987,0.27744687,0.012705468,0.008448577,0.9606199,0.99963945,-3.5592995e-09,2.0442933e-08,0.02685347,6
564126059,564125761,0.27738658,0.012662361,0.008300496,0.9606392,0.99963945,-3.5592995e-09,2.0442933e-08,0.02685347,6
564175869,564175534,0.27731812,0.01267476,0.008075005,0.96066064,0.99963945,-3.5592995e-09,2.0442933e-08,0.02685347,6
564225929,564225307,0.27726987,0.012715211,0.007903958,0.9606754,0.99963945,-3.5592995e-09,2.0442933e-08,0.02685347,6
564275394,564275080,0.2772062,0.01276834,0.007840533,0.96069366,0.99963945,-3.5592995e-09,2.0442933e-08,0.02685347,6
564325141,564324854,0.2771506,0.012782136,0.007854905,0.9607094,0.99963945,-3.5592995e-09,2.0442933e-08,0.02685347,6
564374949,564374627,0.27710816,0.012706797,0.008040757,0.9607211,0.99963945,-3.5592995e-09,2.0442933e-08,0.02685347,6
564424741,564424400,0.27705038,0.012545109,0.008194034,0.9607386,0.99963945,-3.5592995e-09,2.0442933e-08,0.02685347,6
564474463,564474173,0.27699727,0.012380593,0.008337636,0.9607548,0.99963945,-3.5592995e-09,2.0442933e-08,0.02685347,6
564524231,564523947,0.27695316,0.012143632,0.008487779,0.9607693,0.99963945,-3.5592995e-09,2.0442933e-08,0.02685347,6
564574016,564573720,0.27690032,0.011841837,0.0086323945,0.960787,0.99963945,-3.5592995e-09,2.0442933e-08,0.02685347,6
564623798,564623494,0.27683648,0.011562513,0.00872123,0.9608079,0.99963945,-3.5592995e-09,2.0442933e-08,0.02685347,6
