timestamp,timestamp_sample,device_id,magnetometer_ga[0],magnetometer_ga[1],magnetometer_ga[2],calibration_count
539751990,539751018,396809,-0.2268729,0.022802845,0.3350833,3
540349669,540348673,396809,-0.22634326,0.020155694,0.32636237,3
540798180,540797206,396809,-0.23115197,0.01909009,0.32829782,3
541246274,541245279,396809,-0.2345706,0.022133987,0.3311751,3
541843908,541842936,396809,-0.22514358,0.028163679,0.3233167,3
542291926,542290950,396809,-0.22963881,0.028568648,0.3284781,3
542740319,542739328,396809,-0.23129354,0.026941791,0.32432985,3
543338061,543337088,396809,-0.22678438,0.028925635,0.31916934,3
543786171,543785145,396809,-0.23308218,0.0286275,0.32095546,3
544234539,544233567,396809,-0.22533512,0.028123531,0.3192957,3
544832392,544831400,396809,-0.23330264,0.029566552,0.3329199,3
545280334,545279362,396809,-0.22069864,0.029891703,0.31337315,3
545728751,545727779,396809,-0.22292207,0.02989177,0.31316957,3
546326366,546325394,396809,-0.23039636,0.026668627,0.32279193,3
546774530,546773554,396809,-0.22392997,0.026355464,0.31464297,3
547350924,547296763,396809,-0.22720063,0.027854746,0.32004282,3
547820567,547819597,396809,-0.2385673,0.026302423,0.32759923,3
548268653,548267681,396809,-0.22393268,0.02841935,0.32023668,3
548845248,548790992,396809,-0.22283767,0.027575165,0.32016766,3
549314976,549314004,396809,-0.23650944,0.02558368,0.3237666,3
549763007,549762022,396809,-0.22413959,0.025141496,0.3265602,3
550339769,550285563,396809,-0.22274435,0.02311908,0.32029843,3
550809894,550808922,396809,-0.23083043,0.02040638,0.32590082,3
551258364,551257393,396809,-0.22762123,0.023233186,0.3246118,3
551834521,551780211,396809,-0.22524121,0.02891746,0.32124835,3
552304128,552303157,396809,-0.22783494,0.02831643,0.32618728,3
552752703,552751729,396809,-0.22834855,0.0279647,0.32454136,3
553350367,553349378,396809,-0.22234684,0.027576111,0.31954688,3
553798476,553797503,396809,-0.22582853,0.026450332,0.31761286,3
554246511,554245505,396809,-0.23632273,0.025670916,0.327793,3
554844646,554843675,396809,-0.22115836,0.026914902,0.31645423,3
555292752,555291781,396809,-0.22309312,0.028379261,0.31948468,3
555740740,555739768,396809,-0.23575756,0.025570888,0.32384783,3
556338824,556337852,396809,-0.22498244,0.030032966,0.32727075,3
556786939,556785922,396809,-0.22317278,0.028872509,0.31465748,3
557235093,557234121,396809,-0.23155633,0.029069562,0.32583818,3
557833209,557832237,396809,-0.22682261,0.02989551,0.31910706,3
558281208,558280236,396809,-0.2251518,0.031527225,0.32327715,3
558729288,558728316,396809,-0.22867274,0.030047655,0.3269301,3
559327372,559326399,396809,-0.22983204,0.027896069,0.32440978,3
559775384,559774413,396809,-0.22490849,0.02880565,0.32169685,3
560351396,560297163,396809,-0.23020959,0.0299234,0.32704043,3
560821649,560820677,396809,-0.22711316,0.028247893,0.32625502,3
561269682,561268709,396809,-0.2217654,0.02846526,0.3203534,3
561845731,561791484,396809,-0.22794533,0.029345475,0.32322848,3
562315836,562314863,396809,-0.23541002,0.029992275,0.32622868,3
562763835,562762864,396809,-0.23152635,0.027624901,0.31514052,3
563339999,563285695,396809,-0.2311582,0.028715208,0.31946206,3
563809802,563808830,396809,-0.2330962,0.029536653,0.32059112,3
564258239,564257239,396809,-0.23064154,0.026427962,0.31358698,3
564834228,564779996,396809,-0.23058198,0.028411113,0.31478268,3
565304072,565303100,396809,-0.2358956,0.024481244,0.31861183,3
565752645,565751672,396809,-0.2292785,0.027663328,0.3192259,3
566349971,566349000,396809,-0.22798255,0.02918091,0.31534052,3
566798562,566797571,396809,-0.23290251,0.025700714,0.31329495,3
567246976,567246002,396809,-0.23043284,0.026174989,0.31194857,3
567844249,567843272,396809,-0.22815333,0.030393366,0.31696168,3
568292704,568291732,396809,-0.23207755,0.029160295,0.31818587,3
568741325,568740353,396809,-0.22490413,0.029624179,0.31007808,3
569338686,569337714,396809,-0.2343032,0.028387945,0.31794944,3
569787187,569786216,396809,-0.23413655,0.029248282,0.32196677,3
570235212,570234239,396809,-0.22887418,0.02963841,0.31689376,3
570832986,570832014,396809,-0.23784631,0.027668588,0.32159424,3
571281430,571280458,396809,-0.23089676,0.029308602,0.315067,3
571729579,571728604,396809,-0.23586711,0.031954195,0.32339227,3
572327180,572326207,396809,-0.23615333,0.029683296,0.32017773,3
572775658,572774686,396809,-0.23509042,0.029192373,0.31785616,3
573351692,573297403,396809,-0.22730099,0.03425303,0.31557554,3
573821465,573820493,396809,-0.2340338,0.03364342,0.3164092,3
574269981,574269008,396809,-0.23250678,0.056277625,0.3225454,3
574846003,574791662,396809,-0.22559723,0.061859198,0.3190174,3
575315897,575314925,396809,-0.23125201,0.060669214,0.3194088,3
575764349,575763377,396809,-0.23367906,0.061645765,0.33114868,3
576340405,576286103,396809,-0.22465812,0.06489901,0.31619683,3
576810218,576809246,396809,-0.228504,0.06030421,0.32125613,3
577258695,577257724,396809,-0.2352183,0.05989715,0.3262229,3
577835542,577780606,396809,-0.22395568,0.06032316,0.31518146,3
578304978,578304005,396809,-0.23242332,0.064196005,0.32808915,3
578753690,578752719,396809,-0.23905542,0.065198936,0.33224243,3
579351534,579350562,396809,-0.22491741,0.06257813,0.3176309,3
579799706,579798734,396809,-0.22372088,0.064290404,0.31458312,3
580248085,580247093,396809,-0.23562574,0.06529148,0.3294564,3
580845775,580844802,396809,-0.22976688,0.07066022,0.32601,3
581293832,581292859,396809,-0.22936168,0.06927858,0.32284352,3
581742297,581741253,396809,-0.22923923,0.05796242,0.32116383,3
582339929,582338958,396809,-0.23008534,0.06014321,0.31711626,3
582788006,582787034,396809,-0.23237208,0.05981108,0.32249638,3
583236417,583235392,396809,-0.23955819,0.06096577,0.3305747,3
583833911,583832938,396809,-0.23306389,0.064649336,0.3224423,3
584282186,584281215,396809,-0.23457909,0.06386812,0.32227352,3
584730710,584729738,396809,-0.2301477,0.066240214,0.32269078,3
585327974,585327001,396809,-0.2292414,0.06868043,0.32680386,3
585776511,585775539,396809,-0.22202075,0.064846404,0.31311905,3
586352955,586298573,396809,-0.22987698,0.066205055,0.32325548,3
586822250,586821279,396809,-0.22819749,0.067530945,0.31408548,3
587270820,587269834,396809,-0.22373632,0.07147509,0.31452912,3
587847251,587792878,396809,-0.23331723,0.06877953,0.32079554,3
588316647,588315671,396809,-0.23189986,0.072900236,0.32415265,3
588765184,588764199,396809,-0.22346044,0.07374619,0.31777185,3
589341646,589287229,396809,-0.23441482,0.06816444,0.32539403,3
589810913,589809946,396809,-0.22559756,0.068156496,0.31761575,3
590258997,590258025,396809,-0.22557029,0.06139231,0.3119626,3
590835920,590781472,396809,-0.23182552,0.061092116,0.32576674,3
591305183,591304212,396809,-0.22805664,0.059033073,0.3197294,3
591753229,591752256,396809,-0.22682168,0.06125368,0.3118924,3
592351283,592350312,396809,-0.2268398,0.06331556,0.31293494,3
592799493,592798520,396809,-0.23185755,0.05897563,0.31742,3
593247545,593246552,396809,-0.2293255,0.063821375,0.31723887,3
593845821,593844848,396809,-0.22822982,0.06258182,0.31393915,3
594293815,594292830,396809,-0.23075363,0.061396077,0.31530106,3
594741992,594740999,396809,-0.2287355,0.06493203,0.31703728,3
595340117,595339131,396809,-0.2220152,0.0684857,0.3120761,3
595788152,595787179,396809,-0.22742808,0.0696312,0.31313336,3
596236224,596235252,396809,-0.22865956,0.066115975,0.31142518,3
596834486,596833497,396809,-0.22267658,0.06807911,0.30639297,3
597282489,597281516,396809,-0.2243862,0.071962416,0.31343997,3
597730545,597729573,396809,-0.22303312,0.06978248,0.314358,3
598328699,598327727,396809,-0.2255191,0.06853681,0.31570908,3
598776972,598776000,396809,-0.21876638,0.06969234,0.31077826,3
599226173,599225170,396809,-0.21951196,0.06814452,0.3106542,3
599823916,599822922,396809,-0.2323131,0.06485431,0.31665766,3
600271971,600270998,396809,-0.22587496,0.062203027,0.30848467,3
600849031,600794576,396809,-0.2293885,0.061650112,0.31296247,3
601318321,601317349,396809,-0.23807338,0.05808295,0.32274693,3
601766398,601765426,396809,-0.22766277,0.06018518,0.30601245,3
602343221,602288775,396809,-0.22525379,0.06106765,0.30831933,3
602812651,602811679,396809,-0.22222453,0.05987829,0.30570644,3
603260811,603259839,396809,-0.23006508,0.06100047,0.31772548,3
603837891,603783435,396809,-0.23153251,0.055470467,0.31242138,3
604307731,604306759,396809,-0.22579904,0.06015133,0.30613002,3
604756196,604755222,396809,-0.2293036,0.06526163,0.3141279,3
605332644,605278151,396809,-0.23345187,0.06399423,0.31425685,3
605801901,605800928,396809,-0.22999641,0.065414324,0.30623937,3
606250502,606249531,396809,-0.22839531,0.06354779,0.30466682,3
606848092,606847114,396809,-0.2363891,0.062368654,0.31268293,3
607296150,607295177,396809,-0.22459877,0.065852955,0.30425316,3
607744170,607743198,396809,-0.23034538,0.06390938,0.30208865,3
608342342,608341367,396809,-0.23755488,0.061876357,0.31015748,3
608790416,608789443,396809,-0.22873226,0.06838132,0.31181133,3
609238393,609237421,396809,-0.22479871,0.07085278,0.30488104,3
609836545,609835573,396809,-0.23796147,0.066787876,0.31798872,3
610284667,610283672,396809,-0.24114503,0.06394003,0.31930423,3
610732606,610731616,396809,-0.22818118,0.064576946,0.31163275,3
611330689,611329717,396809,-0.23547804,0.06364343,0.31010148,3
611778898,611777925,396809,-0.23311144,0.0612733,0.31105006,3
612226905,612225932,396809,-0.22933546,0.061402492,0.30742115,3
612825087,612824115,396809,-0.2300788,0.06154105,0.3065892,3
613273172,613272200,396809,-0.23772594,0.059681654,0.31267518,3
613849144,613794962,396809,-0.22997257,0.06337544,0.30505645,3
614319413,614318440,396809,-0.23573303,0.06073394,0.31408828,3
614767448,614766472,396809,-0.23546115,0.06241566,0.3068964,3
615343485,615289257,396809,-0.24043536,0.062316786,0.30721605,3
615813562,615812590,396809,-0.23362634,0.057998236,0.3056088,3
616261556,616260584,396809,-0.2294173,0.05355445,0.303679,3
616837529,616783366,396809,-0.23703018,0.05969585,0.32336265,3
617307350,617306379,396809,-0.23423801,0.06281484,0.30544233,3
617755894,617754923,396809,-0.2468091,0.06450145,0.3202736,3
618333008,618278839,396809,-0.23290038,0.06426957,0.30572274,3
618802667,618801694,396809,-0.23537919,0.06238901,0.30545264,3
619250807,619249836,396809,-0.24155721,0.0636333,0.3133635,3
619848948,619847975,396809,-0.2382157,0.058281176,0.3090269,3
620296945,620295973,396809,-0.23868877,0.057847567,0.3072968,3
620745026,620744042,396809,-0.2412821,0.056096822,0.3102706,3
621343171,621342200,396809,-0.24298736,0.052348632,0.30660236,3
621791213,621790241,396809,-0.23336942,0.05798401,0.30923283,3
622239184,622238211,396809,-0.23425,0.05559815,0.30192652,3
622837077,622836087,396809,-0.23720784,0.062833056,0.31758344,3
623285446,623284474,396809,-0.22665142,0.062962845,0.30819947,3
623733530,623732551,396809,-0.22760826,0.059547115,0.29930338,3
624331317,624330339,396809,-0.23796982,0.060674366,0.3190105,3
624779895,624778922,396809,-0.2273846,0.061192453,0.3040874,3
625228060,625227083,396809,-0.22189705,0.059212558,0.30316865,3
625825830,625824858,396809,-0.23821801,0.060187638,0.3175267,3
626274290,626273307,396809,-0.22719863,0.05952022,0.30424285,3
626850291,626796051,396809,-0.22573082,0.0587914,0.3023888,3
627320138,627319165,396809,-0.24120545,0.059777763,0.32286966,3
627768666,627767693,396809,-0.22570115,0.058654044,0.30441502,3
628344697,628290444,396809,-0.2227749,0.059134632,0.30323628,3
628814467,628813495,396809,-0.22852567,0.057155587,0.3081108,3
629262645,629261674,396809,-0.2279527,0.058665693,0.30417266,3
629839104,629784752,396809,-0.22347853,0.061125066,0.30179453,3
630308649,630307676,396809,-0.22660378,0.06044833,0.30507597,3
630756775,630755803,396809,-0.23400402,0.05649505,0.3043663,3
631333143,631278915,396809,-0.22428203,0.058964133,0.30261558,3
631802975,631802002,396809,-0.2268098,0.058823846,0.3010152,3
632251054,632250082,396809,-0.23460644,0.05750496,0.3091463,3
632848729,632847755,396809,-0.22447035,0.058743373,0.3013134,3
633297241,633296269,396809,-0.22642425,0.059466787,0.30433673,3
633745337,633744369,396809,-0.23562348,0.054690063,0.31064063,3
634343055,634342082,396809,-0.22578385,0.05693365,0.29956922,3
634791545,634790573,396809,-0.2253353,0.05842922,0.30680394,3
635239646,635238672,396809,-0.23354919,0.05764113,0.30597097,3
635837345,635836369,396809,-0.22566944,0.061073914,0.30444455,3
636285794,636284823,396809,-0.22276422,0.062454283,0.29992497,3
636733841,636732870,396809,-0.22905266,0.06251167,0.30647457,3
637331166,637330194,396809,-0.23107725,0.060625084,0.3045921,3
637780099,637779126,396809,-0.22306097,0.058624603,0.29571235,3
638228144,638227172,396809,-0.2272909,0.06099344,0.29931384,3
638825623,638824648,396809,-0.23097791,0.060493596,0.3037305,3
639274477,639273507,396809,-0.22882542,0.05953291,0.29911196,3
639850401,639796094,396809,-0.2297664,0.056267664,0.3020831,3
640319796,640318823,396809,-0.23483703,0.054692756,0.3058025,3
640768818,640767837,396809,-0.23013763,0.05355835,0.30473262,3
641344799,641290504,396809,-0.23118411,0.0531461,0.3019988,3
641814081,641813110,396809,-0.23883706,0.053647727,0.30877006,3
642262985,642262013,396809,-0.23039037,0.055800453,0.29766083,3
642838896,642784602,396809,-0.22759357,0.054317024,0.30087566,3
643308235,643307263,396809,-0.23466076,0.05136332,0.30603635,3
643757165,643756192,396809,-0.23136768,0.05325629,0.30392236,3
644333179,644278839,396809,-0.22894567,0.057090767,0.30111358,3
644802499,644801527,396809,-0.23558626,0.055269666,0.30194965,3
645250987,645250015,396809,-0.23420173,0.05559529,0.30764842,3
645848763,645847791,396809,-0.22770989,0.054736137,0.3042664,3
646296736,646295763,396809,-0.23068267,0.052365355,0.30398226,3
646745328,646744352,396809,-0.23940083,0.049246594,0.30714506,3
647343146,647342175,396809,-0.22819005,0.043755025,0.29702052,3
647791172,647790199,396809,-0.23180157,0.037120983,0.30625418,3
648239558,648238587,396809,-0.24074256,0.03829962,0.31098294,3
648837290,648836318,396809,-0.22775936,0.03424568,0.3042394,3
649285491,649284503,396809,-0.23285007,0.03153188,0.3133311,3
649733906,649732934,396809,-0.24265581,0.030667506,0.30839118,3
650331542,650330570,396809,-0.23355585,0.029553328,0.30765927,3
650779676,650778704,396809,-0.23078051,0.028716125,0.30392128,3
651228316,651227326,396809,-0.23558414,0.02685152,0.30584133,3
651826034,651825057,396809,-0.23494281,0.02091597,0.3114749,3
652274118,652273146,396809,-0.23164856,0.014882289,0.30939376,3
652850540,652796118,396809,-0.23841219,0.0065779253,0.31180584,3
653319895,653318923,396809,-0.24155611,0.0010024533,0.31002694,3
653768243,653767274,396809,-0.23496109,0.0027782395,0.31147623,3
654344729,654290299,396809,-0.23752469,-0.00031747794,0.31522155,3
654814008,654813029,396809,-0.24402913,-0.0021805242,0.317001,3
655262553,655261580,396809,-0.23617892,-0.0011238307,0.30416483,3
655838944,655784572,396809,-0.23927507,-0.0002378958,0.31424493,3
656308290,656307318,396809,-0.24948964,-0.0026636645,0.3180498,3
656756832,656755859,396809,-0.24428385,0.0020774007,0.31856045,3
657333364,657278950,396809,-0.23832077,0.0025029879,0.3155493,3
657802653,657801681,396809,-0.24557611,-0.0006018281,0.31681842,3
658251193,658250207,396809,-0.24036472,0.0017763078,0.3173264,3
658848921,658847940,396809,-0.24116635,0.0047001764,0.3124634,3
659296941,659295966,396809,-0.24212925,0.0048775896,0.32435048,3
659744962,659743990,396809,-0.2481077,0.00463783,0.3189786,3
660342964,660341991,396809,-0.23982213,0.00607235,0.3189845,3
660790983,660790012,396809,-0.24503353,0.0037061647,0.3184784,3
661239060,661238088,396809,-0.24437726,0.0038621426,0.3193655,3
661837162,661836190,396809,-0.24086124,0.009769544,0.32131752,3
662285237,662284265,396809,-0.24350227,0.0060876906,0.31865638,3
662733251,662732260,396809,-0.2445787,0.0034654588,0.32095033,3
663331500,663330528,396809,-0.24130973,0.0066805556,0.31408337,3
663779645,663778673,396809,-0.24175975,0.006720148,0.30684817,3
664227670,664226697,396809,-0.24699076,0.0061677545,0.3223396,3
664826052,664825079,396809,-0.24525562,0.011347048,0.320914,3
665274073,665273101,396809,-0.2357428,0.028970312,0.29706976,3
665850441,665796014,396809,-0.24226646,0.035863973,0.3103065,3
666320325,666319350,396809,-0.24341276,0.038242843,0.31389815,3
666768418,666767445,396809,-0.22998446,0.045920268,0.29923004,3
667344802,667290356,396809,-0.23731641,0.042769756,0.30478287,3
667814651,667813679,396809,-0.23289686,0.05481957,0.3037241,3
668262687,668261715,396809,-0.22901371,0.057425965,0.29771143,3
668839001,668784541,396809,-0.2338177,0.05665005,0.3042099,3
669308292,669307320,396809,-0.23343848,0.055646315,0.3077141,3
669756776,669755804,396809,-0.22868648,0.057261486,0.3009805,3
670333186,670278751,396809,-0.23382668,0.056002345,0.30433545,3
670802817,670801844,396809,-0.2390854,0.053957395,0.31034413,3
671251251,671250272,396809,-0.22721311,0.05570506,0.30110872,3
671848901,671847923,396809,-0.22849396,0.056556225,0.30501002,3
672297009,672296017,396809,-0.24333982,0.052464403,0.31395292,3
672745592,672744619,396809,-0.23073554,0.05342465,0.30478343,3
673343379,673342407,396809,-0.23192832,0.052694798,0.29747653,3
673791350,673790379,396809,-0.23638073,0.053310283,0.3074295,3
674239898,674238926,396809,-0.23343626,0.05564651,0.30770802,3
674837646,674836671,396809,-0.22642311,0.052927848,0.295609,3
675285714,675284743,396809,-0.23117822,0.0473383,0.30232394,3
675733750,675732776,396809,-0.23792505,0.04456857,0.30725938,3
676331898,676330925,396809,-0.22871834,0.04698807,0.30096298,3
676780039,676779067,396809,-0.23150942,0.04782952,0.30468798,3
677228111,677227123,396809,-0.23920277,0.05250532,0.3111421,3
677826352,677825379,396809,-0.22738096,0.055610906,0.29710394,3
678274297,678273326,396809,-0.22949536,0.056058683,0.30648828,3
678850450,678796156,396809,-0.2394164,0.05175,0.3105693,3
679320559,679319588,396809,-0.22806522,0.054510836,0.3065952,3
679768647,679767673,396809,-0.22926259,0.05298744,0.2992962,3
680344646,680290477,396809,-0.24149315,0.0518879,0.307872,3
680814894,680813922,396809,-0.23027167,0.053746,0.30642474,3
681262908,681261936,396809,-0.22748722,0.052901383,0.30269617,3
681838974,681784781,396809,-0.23819405,0.049734496,0.307234,3
682309124,682308153,396809,-0.23475099,0.052154124,0.30598423,3
682757161,682756189,396809,-0.22824296,0.052099276,0.30261755,3
683333224,683279061,396809,-0.23576707,0.052040797,0.30348462,3
683803520,683802547,396809,-0.23297906,0.05061932,0.29894522,3
684251657,684250684,396809,-0.2283077,0.053438913,0.29780185,3
684849301,684848329,396809,-0.23406753,0.055695523,0.31165,3
685297320,685296348,396809,-0.23597805,0.052027732,0.30904448,3
685745748,685744775,396809,-0.22901401,0.05286724,0.30253994,3
686343375,686342403,396809,-0.22938664,0.05180259,0.30487493,3
686791565,686790592,396809,-0.24229251,0.050170712,0.3108134,3
687240088,687239116,396809,-0.23428738,0.05406213,0.307588,3
687837785,687836813,396809,-0.22674882,0.049306482,0.29711843,3
688285822,688284850,396809,-0.23744467,0.045288675,0.30325568,3
688734372,688733379,396809,-0.23029713,0.050744742,0.3111514,3
689332081,689331107,396809,-0.22881626,0.0509211,0.3009001,3
689780086,689779113,396809,-0.23330532,0.048148066,0.30607104,3
690228724,690227752,396809,-0.23157002,0.053184904,0.3150443,3
690826333,690825360,396809,-0.22924107,0.0468551,0.30405742,3
691274406,691273429,396809,-0.23604381,0.04227943,0.30420956,3
691850841,691796450,396809,-0.23647016,0.04420657,0.3064325,3
692320562,692319589,396809,-0.23198958,0.040979482,0.3021872,3
692768552,692767580,396809,-0.23226124,0.04330581,0.30936265,3
693344562,693290319,396809,-0.23915885,0.046408243,0.30856436,3
693814703,693813730,396809,-0.22829348,0.04176839,0.30253857,3
694262932,694261960,396809,-0.23346615,0.044130594,0.30205008,3
694838924,694784694,396809,-0.24132308,0.04571736,0.31128427,3
695309137,695308165,396809,-0.24042776,0.049595013,0.30857956,3
695757185,695756214,396809,-0.23745859,0.04881478,0.3088605,3
696333392,696279130,396809,-0.24056223,0.048788846,0.31216747,3
696803553,696802580,396809,-0.23102403,0.053110253,0.3110677,3
697251553,697250580,396809,-0.22853452,0.048427608,0.30410853,3
697848897,697847924,396809,-0.23629367,0.04814183,0.30575275,3
698297734,698296762,396809,-0.2425177,0.044934608,0.31235328,3
698745895,698744923,396809,-0.23136638,0.0342862,0.30783296,3
699344300,699343330,396809,-0.24373683,0.03454998,0.3154391,3
699792794,699791821,396809,-0.24178699,0.023055315,0.31721503,3
700240829,700239858,396809,-0.23290847,0.016898602,0.3076864,3
700838460,700837487,396809,-0.2448088,0.013210963,0.3225293,3
701287131,701286102,396809,-0.24437466,0.009384833,0.31935528,3
701735072,701734071,396809,-0.23713107,0.01028727,0.30565667,3
702332718,702331731,396809,-0.2314251,0.009051718,0.3078086,3
702781169,702780145,396809,-0.24843588,0.021505341,0.3165632,3
703229207,703228235,396809,-0.23264799,0.021340024,0.306092,3
703827049,703826076,396809,-0.2399079,0.010171801,0.31977323,3
704275547,704274574,396809,-0.24208653,0.008991852,0.31395093,3
704851687,704797339,396809,-0.23545085,0.0117203165,0.30887073,3
705320985,705320006,396809,-0.2429901,0.008922018,0.30988336,3
705769970,705768999,396809,-0.23939607,0.0075268447,0.31102672,3
706346044,706291632,396809,-0.23619404,0.015328057,0.31096792,3
706815351,706814379,396809,-0.23058435,0.022455037,0.30794883,3
707264055,707263084,396809,-0.23031288,0.03553375,0.30639458,3
707840143,707785797,396809,-0.23437527,0.034879398,0.3128005,3
708310143,708309170,396809,-0.22728434,0.036568217,0.3114913,3
708758960,708757987,396809,-0.2275261,0.03312458,0.30267268,3
709335443,709280909,396809,-0.23715012,0.035976097,0.31527337,3
709804737,709803765,396809,-0.22686201,0.03705919,0.30263805,3
710253137,710252164,396809,-0.22760913,0.03783683,0.3025511,3
710850645,710849671,396809,-0.23960614,0.03702211,0.31257683,3
711298997,711298024,396809,-0.22567877,0.038714588,0.29953653,3
711747427,711746447,396809,-0.23031732,0.052481476,0.30069458,3
712344774,712343802,396809,-0.23832509,0.053970106,0.31428054,3
712793225,712792253,396809,-0.23136193,0.056406423,0.30779797,3
713241796,713240823,396809,-0.2268222,0.056796726,0.30264163,3
713839195,713838224,396809,-0.23655707,0.051655114,0.30727834,3
714287679,714286685,396809,-0.23278159,0.05599588,0.3020552,3
714736147,714735175,396809,-0.2282654,0.05482046,0.29690224,3
715333485,715332512,396809,-0.23431012,0.056410022,0.30750668,3
715782151,715781184,396809,-0.23671582,0.054754443,0.30327684,3
716230646,716229671,396809,-0.22808975,0.05566533,0.30091715,3
716827895,716826922,396809,-0.23385254,0.05571089,0.30436027,3
717276001,717275028,396809,-0.23779719,0.052892003,0.30556998,3
717852896,717798468,396809,-0.23035178,0.05576622,0.30175662,3
718322159,718321187,396809,-0.22793241,0.05732,0.30492383,3
718770343,718769371,396809,-0.23994365,0.05708818,0.31016746,3
719347113,719292737,396809,-0.23101608,0.058505848,0.30036458,3
719816546,719815574,396809,-0.24029145,0.059959147,0.31252325,3
720264647,720263672,396809,-0.23608053,0.05572679,0.3041396,3
720841565,720787143,396809,-0.23199886,0.05667132,0.3028058,3
721310897,721309927,396809,-0.22814482,0.057647713,0.30650544,3
721759003,721758030,396809,-0.23237628,0.054145455,0.3044925,3
722335811,722281430,396809,-0.23427546,0.054254264,0.3055092,3
722805117,722804145,396809,-0.22860679,0.055310242,0.2992639,3
723253144,723252172,396809,-0.23299308,0.053166613,0.30365574,3
723851333,723850340,396809,-0.23456532,0.051748455,0.3043291,3
724299401,724298428,396809,-0.22901717,0.052821614,0.30246973,3
724747518,724746546,396809,-0.22930318,0.0521447,0.29925382,3
725345625,725344599,396809,-0.2344178,0.055520903,0.30355605,3
725793627,725792651,396809,-0.23852873,0.057203967,0.3111342,3
726241607,726240588,396809,-0.22893658,0.056763604,0.30245715,3
726839254,726838281,396809,-0.22921878,0.0556541,0.29359204,3
727287792,727286821,396809,-0.23083156,0.051718686,0.30463353,3
727735895,727734923,396809,-0.23369548,0.051529747,0.30354926,3
728333522,728332549,396809,-0.22602229,0.055901747,0.30273014,3
728782064,728781091,396809,-0.23001355,0.055107098,0.30952632,3
729230143,729229170,396809,-0.24095178,0.05595713,0.31247267,3
729827907,729826922,396809,-0.22607195,0.05567824,0.2979164,3
730276469,730275498,396809,-0.2287606,0.05169268,0.30084494,3
730725430,730724445,396809,-0.24371572,0.053103276,0.32097495,3
731323580,731322609,396809,-0.2212743,0.051257007,0.2959823,3
731771646,731770673,396809,-0.23318905,0.054639593,0.31081265,3
732348109,732293574,396809,-0.23727617,0.054225378,0.31213933,3
732817802,732816829,396809,-0.22426635,0.05638691,0.3012792,3
733265808,733264830,396809,-0.225236,0.055933006,0.30278802,3
733842211,733787764,396809,-0.23377618,0.053354114,0.31141,3
734312062,734311087,396809,-0.22581822,0.053661432,0.30671823,3
734760161,734759173,396809,-0.22426902,0.055608604,0.30127805,3
735336715,735282165,396809,-0.22975026,0.05464661,0.30621114,3
735806295,735805325,396809,-0.22706793,0.05565518,0.30500442,3
736254390,736253418,396809,-0.22945343,0.058523186,0.31115907,3
736852083,736851110,396809,-0.22922984,0.055879757,0.30956775,3
737300562,737299589,396809,-0.24233173,0.052987285,0.31711355,3
737748738,737747752,396809,-0.225204,0.0452341,0.2971807,3
738346493,738345501,396809,-0.22845316,0.04520405,0.3040743,3
738794646,738793673,396809,-0.2419159,0.048383206,0.3139517,3
739243158,739242187,396809,-0.22856583,0.047744446,0.30484918,3
739841978,739841005,396809,-0.22600251,0.048013777,0.30271095,3
740290075,740289103,396809,-0.22800875,0.04990057,0.31128654,3
740738157,740737173,396809,-0.22806789,0.04885924,0.30647606,3
741336225,741335253,396809,-0.22402406,0.048348665,0.30448025,3
741784298,741783303,396809,-0.2369144,0.045134887,0.31042236,3
742232278,742231305,396809,-0.22529241,0.04641165,0.30274984,3
742830360,742829382,396809,-0.23331591,0.047634494,0.31156284,3
743278375,743277373,396809,-0.22734,0.045671485,0.30654216,3
743726415,743725442,396809,-0.23127504,0.044431023,0.3077696,3
744324240,744323266,396809,-0.22811121,0.04844007,0.31208134,3
744772852,744771822,396809,-0.22731742,0.04646235,0.3065648,3
745348719,745294553,396809,-0.23115616,0.045857888,0.30950746,3
745818647,745817671,396809,-0.22038138,0.04412837,0.3000282,3
746267064,746266093,396809,-0.22476566,0.045931764,0.30440223,3
746843029,746788843,396809,-0.2350212,0.043013155,0.31192622,3
747312698,747311725,396809,-0.22712106,0.04295449,0.30495927,3
747761182,747760210,396809,-0.22336534,0.04255404,0.2997293,3
748337215,748283020,396809,-0.23386388,0.041775428,0.3124371,3
748806893,748805922,396809,-0.22554854,0.045952722,0.30431086,3
749255363,749254391,396809,-0.22431372,0.052363887,0.30125532,3
749852973,749852000,396809,-0.23556109,0.05320146,0.31134954,3
750301057,750300086,396809,-0.22626589,0.05007477,0.2938674,3
750749159,750748187,396809,-0.2243189,0.053967558,0.30124313,3
751347269,751346278,396809,-0.23098889,0.053804465,0.31097084,3
751795306,751794333,396809,-0.23320556,0.053793017,0.31076235,3
752243298,752242329,396809,-0.22449368,0.051515393,0.29720622,3
752841546,752840575,396809,-0.22982588,0.042865448,0.30789042,3
753289594,753288622,396809,-0.23398297,0.040402412,0.3106935,3
753737704,753736732,396809,-0.2215774,0.048024476,0.30310935,3
754335829,754334856,396809,-0.2262981,0.049686704,0.29947352,3
754783807,754782821,396809,-0.23422302,0.04998219,0.3075109,3
755231937,755230932,396809,-0.22577307,0.05239528,0.30113447,3
755830003,755829031,396809,-0.22627726,0.050468706,0.2994921,3
756278045,756277072,396809,-0.23370579,0.048730265,0.30915755,3
756726172,756725200,396809,-0.22480094,0.050475694,0.29963166,3
757324180,757323208,396809,-0.22909163,0.050137974,0.29762638,3
757772400,757771428,396809,-0.23063193,0.051152892,0.31346333,3
758348434,758294178,396809,-0.22740921,0.049945246,0.30245844,3
758818729,758817756,396809,-0.2231608,0.051795945,0.2981778,3
759266734,759265762,396809,-0.23152816,0.049392264,0.30458868,3
759842763,759788462,396809,-0.23187274,0.04865092,0.30602506,3
760312479,760311507,396809,-0.22562966,0.0501892,0.305142,3
760760904,760759925,396809,-0.22888725,0.038673796,0.30643272,3
761337092,761282818,396809,-0.23659156,0.03609158,0.31220114,3
761806833,761805823,396809,-0.22626846,0.035799798,0.30427915,3
762255352,762254379,396809,-0.22529075,0.036255687,0.30277163,3
762831352,762777076,396809,-0.23577228,0.048322618,0.31146666,3
763300950,763299978,396809,-0.22507271,0.04343161,0.3067723,3
763749553,763748580,396809,-0.22551435,0.052707866,0.30993083,3
764346912,764345939,396809,-0.23002598,0.054072607,0.30469853,3
764795347,764794371,396809,-0.22649664,0.05006064,0.30101806,3
765243806,765242834,396809,-0.22928473,0.050919168,0.30473736,3
765841205,765840232,396809,-0.23598969,0.048547737,0.30409038,3
766289699,766288727,396809,-0.23543815,0.052948438,0.30577046,3
766737709,766736737,396809,-0.23398408,0.05887878,0.31150585,3
767335473,767334500,396809,-0.23223421,0.0542076,0.3044818,3
767784006,767783034,396809,-0.2319586,0.053328026,0.30769318,3
768232161,768231189,396809,-0.2346327,0.055565543,0.3106381,3
768829763,768828791,396809,-0.22918823,0.05086559,0.30395377,3
769278387,769277415,396809,-0.23670775,0.046261482,0.3040334,3
769726372,769725399,396809,-0.2284856,0.049649887,0.3096071,3
770324143,770323171,396809,-0.2273097,0.050537046,0.30651116,3
770772589,770771594,396809,-0.24167097,0.04970202,0.31231803,3
771348645,771294276,396809,-0.2291711,0.051639315,0.30645657,3
771818437,771817464,396809,-0.22752374,0.05027473,0.2976945,3
772266955,772265982,396809,-0.23768696,0.047400676,0.30550206,3
772842920,772788623,396809,-0.2299274,0.04858526,0.30384517,3
773312759,773311761,396809,-0.22919098,0.049238607,0.30390868,3
773761202,773760230,396809,-0.24094644,0.04811205,0.3123626,3
774338437,774284123,396809,-0.23222725,0.04925723,0.30746594,3
774807757,774806777,396809,-0.22601649,0.04809454,0.30260217,3
775256297,775255324,396809,-0.23394005,0.049163125,0.31062382,3
775832818,775778517,396809,-0.23281464,0.047416605,0.30619705,3
776302218,776301246,396809,-0.22687137,0.05048252,0.31370535,3
776750656,776749683,396809,-0.2325316,0.047362313,0.3059675,3
777348412,777347435,396809,-0.23478968,0.04698161,0.31135222,3
777796545,777795560,396809,-0.23815632,0.050411943,0.30862617,3
778245009,778244037,396809,-0.23022965,0.048549585,0.300599,3
778842691,778841705,396809,-0.24185553,0.048814192,0.30827492,3
779290760,779289789,396809,-0.2374643,0.04620922,0.30389398,3
779739129,779738133,396809,-0.22901732,0.048469365,0.30791593,3
780336475,780335502,396809,-0.24556768,0.047830347,0.31830192,3
780785058,780784031,396809,-0.23523301,0.044615664,0.30412397,3
781233592,781232620,396809,-0.23068264,0.043658294,0.30375105,3
781830915,781829943,396809,-0.24096045,0.04252782,0.3123434,3
782279440,782278467,396809,-0.2306904,0.04208665,0.30375218,3
782727895,782726910,396809,-0.22657171,0.04417967,0.30655688,3
783325896,783324926,396809,-0.24237803,0.041993883,0.31701875,3
783774378,783773406,396809,-0.23249975,0.041829843,0.3059954,3
784351352,784296651,396809,-0.22680014,0.042848513,0.30388236,3
784820810,784819838,396809,-0.22992855,0.04211596,0.3038441,3
785269958,785268964,396809,-0.23517805,0.041729126,0.30894405,3
785846451,785792021,396809,-0.22815487,0.04358536,0.30469987,3
786315789,786314817,396809,-0.23197216,0.04376643,0.30765596,3
786764290,786763319,396809,-0.2379668,0.040210087,0.31267026,3
787340699,787286337,396809,-0.23053621,0.043120936,0.30726206,3
787809983,787809003,396809,-0.2302643,0.042633306,0.3062284,3
788258101,788257128,396809,-0.23317945,0.040499933,0.3107369,3
788834894,788780499,396809,-0.23013984,0.04478787,0.3065189,3
789304267,789303293,396809,-0.22869003,0.044617612,0.30078846,3
789752292,789751319,396809,-0.23287639,0.043084826,0.30443177,3
790350422,790349379,396809,-0.23035595,0.04174093,0.30227464,3
790798445,790797473,396809,-0.22868682,0.040214397,0.3064698,3
791246542,791245569,396809,-0.22855228,0.0365084,0.30087715,3
791844491,791843519,396809,-0.23327263,0.03961918,0.30762184,3
792292645,792291674,396809,-0.22935425,0.03849197,0.30639398,3
792740721,792739749,396809,-0.22901069,0.038777065,0.30402434,3
793338762,793337781,396809,-0.23974027,0.036910616,0.30538008,3
793786912,793785922,396809,-0.2263254,0.03888779,0.30108178,3
794234910,794233922,396809,-0.22836536,0.042888124,0.30488837,3
794833020,794832045,396809,-0.24022537,0.042723127,0.3141394,3
795281145,795280172,396809,-0.23196013,0.043507315,0.3037403,3
795729256,795728283,396809,-0.22784641,0.044823907,0.30652726,3
796327310,796326319,396809,-0.23524475,0.043088634,0.31621462,3
796775336,796774359,396809,-0.23017186,0.039636236,0.2967269,3
797351765,797297294,396809,-0.22789858,0.041655593,0.30266517,3
797821068,797820095,396809,-0.23695457,0.04044926,0.30724698,3
798269576,798268603,396809,-0.23227748,0.0409114,0.3061077,3
798846036,798791562,396809,-0.22707695,0.042227596,0.30221304,3
799315305,799314332,396809,-0.23153728,0.0401336,0.30617857,3
799763750,799762776,396809,-0.23827249,0.041323666,0.3111199,3
800340108,800285631,396809,-0.22930865,0.041947316,0.30372974,3
800809384,800808383,396809,-0.2277734,0.04132502,0.30095294,3
801257950,801256923,396809,-0.23815638,0.03958071,0.31034112,3
801834351,801779840,396809,-0.23056464,0.041816033,0.3054757,3
802303645,802302673,396809,-0.22932386,0.04172787,0.3063898,3
802752183,802751211,396809,-0.2352987,0.040557336,0.31141484,3
803349821,803348848,396809,-0.23199078,0.043988965,0.3093223,3
803798012,803797039,396809,-0.22834423,0.04297113,0.30488312,3
804246179,804245203,396809,-0.23401985,0.04132418,0.30750585,3
804844168,804843182,396809,-0.23132822,0.039091233,0.3045858,3
805292249,805291279,396809,-0.22977151,0.041849986,0.29914096,3
805740243,805739271,396809,-0.24047704,0.04454568,0.31091645,3
806338435,806337442,396809,-0.23193872,0.040496264,0.30371678,3
806786501,806785529,396809,-0.22676688,0.04208096,0.30422175,3
807234492,807233520,396809,-0.2390038,0.043201398,0.31582034,3
807832793,807831821,396809,-0.2364348,0.040890116,0.30893987,3
808280735,808279759,396809,-0.23037532,0.04289029,0.3039289,3
808728896,808727923,396809,-0.23738296,0.042454395,0.31606895,3
809326918,809325945,396809,-0.23988664,0.040222943,0.3126328,3
809775027,809774054,396809,-0.23990868,0.041785885,0.3125964,3
810351057,810296891,396809,-0.22947252,0.04060732,0.30548346,3
810821307,810820335,396809,-0.23892742,0.038302835,0.3110994,3
811269404,811268432,396809,-0.23323774,0.041010156,0.31323296,3
811845392,811791220,396809,-0.22648323,0.04046924,0.30202895,3
812315585,812314612,396809,-0.23912023,0.03824919,0.30708832,3
812763654,812762681,396809,-0.23740065,0.040901974,0.31603858,3
813339710,813285521,396809,-0.23034129,0.040281102,0.30446362,3
813809465,813808478,396809,-0.23439527,0.03891856,0.3107298,3
814258143,814257171,396809,-0.24287218,0.041789513,0.31231934,3
814833942,814779780,396809,-0.22970995,0.041893423,0.3053411,3
815303751,815302721,396809,-0.23220094,0.041856077,0.30616283,3
815752186,815751214,396809,-0.24675402,0.039372418,0.30795422,3
816349888,816348915,396809,-0.23642299,0.042935885,0.3145384,3
816798041,816797069,396809,-0.23664695,0.04185663,0.30573386,3
817246524,817245551,396809,-0.23196405,0.042297117,0.3045912,3
817844143,817843172,396809,-0.23804644,0.042095564,0.31038797,3
818292327,818291331,396809,-0.23745951,0.04255605,0.3017032,3
818740917,818739944,396809,-0.2376929,0.04131188,0.30329573,3
819338548,819337575,396809,-0.2363464,0.042258214,0.30415702,3
819786645,819785674,396809,-0.22746326,0.04230509,0.305027,3
820234794,820233822,396809,-0.23630925,0.04013744,0.30896655,3
820832914,820831880,396809,-0.2325137,0.04214601,0.303744,3
821280952,821279979,396809,-0.22932804,0.041798428,0.3024628,3
821728946,821727973,396809,-0.23175722,0.04052422,0.30383545,3
822326957,822325984,396809,-0.24195808,0.03979068,0.3068436,3
822775044,822774072,396809,-0.2288155,0.041894343,0.29934198,3
823350996,823296752,396809,-0.23105632,0.04099518,0.3060465,3
823821303,823820331,396809,-0.23629035,0.042254653,0.3041675,3
824269297,824268279,396809,-0.22927621,0.044136055,0.30245322,3
824845350,824791102,396809,-0.2304436,0.044421285,0.3061983,3
825315507,825314536,396809,-0.24322593,0.039279517,0.31545854,3
825763580,825762609,396809,-0.2295476,0.04214588,0.3039865,3
826339702,826285463,396809,-0.23043095,0.04332111,0.30310056,3
826809920,826808948,396809,-0.24025816,0.040651154,0.31098387,3
827258029,827257055,396809,-0.2327944,0.04262149,0.30610365,3
827834068,827779838,396809,-0.22895591,0.042536102,0.30286273,3
828304261,828303288,396809,-0.23704812,0.04453995,0.31445497,3
828752292,828751320,396809,-0.23198819,0.047311567,0.30622995,3
829349589,829348595,396809,-0.22841825,0.048786126,0.30259782,3
829798047,829797075,396809,-0.23262203,0.04942006,0.3115641,3
830246504,830245531,396809,-0.23667416,0.046566542,0.30870804,3
830843711,830842738,396809,-0.22628003,0.048281237,0.29930812,3
831292347,831291324,396809,-0.23295075,0.048894506,0.3090484,3
831740924,831739952,396809,-0.23867434,0.045404345,0.30691174,3
832338069,832337082,396809,-0.2316998,0.047048222,0.30036741,3
832786569,832785597,396809,-0.22751442,0.046387024,0.29760107,3
833235224,833234251,396809,-0.23844554,0.05338045,0.3109386,3
833832439,833831466,396809,-0.23065567,0.04933211,0.30365485,3
834280953,834279980,396809,-0.23193473,0.046622068,0.30192265,3
834729424,834728452,396809,-0.23836678,0.04770276,0.31006902,3
835326656,835325684,396809,-0.23054267,0.050156705,0.307589,3
835775127,835774155,396809,-0.22551867,0.05012492,0.30407694,3
836351658,836297136,396809,-0.23495802,0.049905594,0.30984983,3
836821066,836820082,396809,-0.22703142,0.050935976,0.30498636,3
837269567,837268582,396809,-0.22459108,0.05090028,0.30160725,3
837846352,837792016,396809,-0.22765806,0.04954887,0.30473846,3
838316194,838315221,396809,-0.22810373,0.04656577,0.30218446,3
838765054,838764082,396809,-0.22202916,0.04589299,0.29524577,3
839341087,839286759,396809,-0.22711633,0.047822278,0.2988401,3
839810453,839809477,396809,-0.23220822,0.046693146,0.2995438,3
840259480,840258499,396809,-0.22327676,0.046814334,0.29364985,3
840835530,840781196,396809,-0.22437325,0.049476862,0.29768705,3
841304790,841303817,396809,-0.23264913,0.044020094,0.30153584,3
841753217,841752246,396809,-0.22560588,0.04439597,0.28747916,3
842351015,842350021,396809,-0.2238149,0.044764556,0.2901978,3
842798921,842797949,396809,-0.22647172,0.042732794,0.2919311,3
843247551,843246579,396809,-0.22603026,0.047647648,0.3071137,3
843845186,843844213,396809,-0.21278492,0.048092075,0.28872815,3
844293257,844292284,396809,-0.22346167,0.041875187,0.28451028,3
844741822,844740849,396809,-0.222931,0.046781994,0.29654056,3
845339644,845338673,396809,-0.22416057,0.04600157,0.28921452,3
845787705,845786733,396809,-0.22175679,0.046067797,0.29343063,3
846236226,846235254,396809,-0.23042136,0.044915766,0.29100037,3
846834020,846833036,396809,-0.21893558,0.046800874,0.28974706,3
847282182,847281207,396809,-0.22077489,0.047324553,0.29194123,3
847730695,847729722,396809,-0.2237989,0.046934016,0.2972554,3
848328500,848327527,396809,-0.22150812,0.04732287,0.29188237,3
848776556,848775585,396809,-0.22440806,0.04833117,0.29640147,3
849224968,849223995,396809,-0.23515907,0.04791236,0.3081255,3
849822256,849821283,396809,-0.22053578,0.044490505,0.28796837,3
850270669,850269675,396809,-0.2256685,0.04807975,0.2926051,3
850847227,850792693,396809,-0.2281929,0.048901163,0.2977581,3
851316419,851315447,396809,-0.22019695,0.04999485,0.2935763,3
851765080,851764110,396809,-0.22892538,0.04925818,0.2967373,3
852341428,852287044,396809,-0.22572838,0.045626044,0.29358122,3
852810788,852809816,396809,-0.22279179,0.046577618,0.29576436,3
853259349,853258320,396809,-0.22122683,0.049110636,0.30070603,3
853835842,853781421,396809,-0.21863048,0.04450062,0.2909313,3
854305152,854304182,396809,-0.22944176,0.04988745,0.29804665,3
854753647,854752672,396809,-0.2156367,0.049431834,0.28666165,3
855351363,855350389,396809,-0.22121942,0.043317355,0.2903108,3
855799478,855798505,396809,-0.235232,0.0447606,0.304412,3
856247493,856246522,396809,-0.21955274,0.04336526,0.28431797,3
856845646,856844672,396809,-0.22924179,0.045324687,0.2889856,3
857293702,857292729,396809,-0.22873886,0.04249556,0.29062486,3
857741746,857740773,396809,-0.22231734,0.042219296,0.2824397,3
858339746,858338773,396809,-0.22146493,0.046646804,0.29211837,3
858787751,858786778,396809,-0.21958816,0.04133369,0.28989488,3
859235791,859234816,396809,-0.22064593,0.04340313,0.29219878,3
859833975,859833003,396809,-0.22277609,0.04495211,0.2807859,3
860282046,860281074,396809,-0.22358947,0.04298018,0.2862941,3
860730057,860729085,396809,-0.2243162,0.039837737,0.28625256,3
861328226,861327253,396809,-0.22403395,0.040532455,0.28948393,3
861776326,861775347,396809,-0.21954754,0.040161848,0.28430977,3
862352658,862298224,396809,-0.22592656,0.041325234,0.29036814,3
862822433,862821461,396809,-0.21627052,0.042275388,0.28295568,3
863270442,863269470,396809,-0.22197807,0.04035191,0.28080934,3
863846983,863792540,396809,-0.22992305,0.03953955,0.29480833,3
864316793,864315821,396809,-0.22205585,0.039976798,0.2863885,3
864764862,864763890,396809,-0.21726336,0.041060284,0.28445438,3
865341225,865286779,396809,-0.23056304,0.039785095,0.2933067,3
865810645,865809672,396809,-0.2187824,0.042237267,0.28992975,3
866259080,866258108,396809,-0.21605566,0.038789704,0.28141057,3
866835451,866781020,396809,-0.22101383,0.04024683,0.29006696,3
867304867,867303895,396809,-0.22049001,0.042472042,0.28860736,3
867753319,867752330,396809,-0.22638044,0.039640572,0.29360747,3
868351050,868350077,396809,-0.22002071,0.04076079,0.2844548,3
868799108,868798137,396809,-0.22443646,0.03810849,0.28941703,3
869247549,869246577,396809,-0.22266485,0.038119476,0.28621498,3
869845281,869844298,396809,-0.22317031,0.04142917,0.285483,3
870293351,870292320,396809,-0.22490127,0.039539758,0.29066944,3
870741892,870740921,396809,-0.22026223,0.039180804,0.28441605,3
871339547,871338575,396809,-0.21973515,0.03891405,0.28301525,3
871787646,871786673,396809,-0.22826235,0.037953615,0.28652126,3
872235734,872234748,396809,-0.21711832,0.040726054,0.275917,3
872833942,872832929,396809,-0.21639794,0.042578015,0.2772053,3
873281989,873281016,396809,-0.22489922,0.040184584,0.28329194,3
873729981,873729007,396809,-0.21621831,0.04026649,0.28076392,3
874328317,874327345,396809,-0.21164921,0.0419198,0.27746263,3
874776353,874775380,396809,-0.21835613,0.040805027,0.2760141,3
875352396,875298124,396809,-0.21708165,0.039957963,0.27829975,3
875822419,875821448,396809,-0.2122308,0.03917104,0.27251303,3
876270557,876269570,396809,-0.21872635,0.038444992,0.27587807,3
876846489,876792320,396809,-0.22289054,0.039273325,0.27881342,3
877316690,877315718,396809,-0.21588227,0.04313315,0.27216607,3
877764646,877763674,396809,-0.21414495,0.04374717,0.27553922,3
878340703,878286494,396809,-0.2234382,0.044679563,0.2827735,3
878810894,878809922,396809,-0.21517316,0.04702396,0.27224362,3
879258979,879258007,396809,-0.21393736,0.044999942,0.27395788,3
879835827,879781214,396809,-0.22259353,0.04052776,0.28244093,3
880305459,880304483,396809,-0.21504354,0.039999306,0.276265,3
880753966,880752981,396809,-0.21193689,0.044516202,0.2757571,3
881330481,881276293,396809,-0.21975641,0.044430345,0.2824468,3
881800285,881799314,396809,-0.21608415,0.04342693,0.277757,3
882248391,882247419,396809,-0.20991988,0.04386764,0.27675444,3
882846526,882845555,396809,-0.21516438,0.0474599,0.2866917,3
883294553,883293580,396809,-0.2138781,0.043443702,0.28280783,3
883742647,883741671,396809,-0.20779392,0.04053386,0.2769953,3
884340725,884339753,396809,-0.21416727,0.040398646,0.27955365,3
884788721,884787748,396809,-0.21713078,0.039574325,0.2792706,3
885236772,885235783,396809,-0.21092927,0.043241505,0.27829307,3
885834921,885833949,396809,-0.21147043,0.042887315,0.27664018,3
886282944,886281965,396809,-0.22431588,0.04280864,0.2826457,3
886731032,886730060,396809,-0.2215368,0.03842839,0.27325803,3
887328904,887327920,396809,-0.21612549,0.038868137,0.27217665,3
887777303,887776332,396809,-0.22258651,0.03677545,0.28022566,3
888225520,888224549,396809,-0.2253958,0.04002256,0.2839899,3
888823146,888822174,396809,-0.2129484,0.039393276,0.27082902,3
889271653,889270677,396809,-0.22605675,0.03731177,0.27832347,3
889847708,889793433,396809,-0.22131358,0.039610807,0.27839464,3
890317450,890316478,396809,-0.21593368,0.03903506,0.27614212,3
890766128,890765156,396809,-0.22431755,0.039982837,0.2873397,3
891342156,891287902,396809,-0.22271506,0.03717722,0.28043568,3
891811808,891810836,396809,-0.21658613,0.039671462,0.27528748,3
892260353,892259379,396809,-0.22773346,0.040353145,0.285403,3
892836359,892782114,396809,-0.22683245,0.03776291,0.2832288,3
893306133,893305162,396809,-0.22117668,0.039531477,0.28210938,3
893754213,893753240,396809,-0.21651226,0.034839183,0.27537462,3
894351984,894351011,396809,-0.22147076,0.03202142,0.2844603,3
894800296,894799323,396809,-0.21595186,0.035213694,0.277832,3
895248407,895247379,396809,-0.2137136,0.03681848,0.27804008,3
895846228,895845249,396809,-0.22899896,0.03727486,0.29019302,3
896294768,896293795,396809,-0.22163737,0.03406236,0.2756861,3
896742801,896741829,396809,-0.21166056,0.035623387,0.26949358,3
897340558,897339586,396809,-0.22132498,0.0338717,0.27892837,3
897788995,897788001,396809,-0.21656054,0.03611653,0.28257787,3
898237071,898236098,396809,-0.2168332,0.037034493,0.27935752,3
898834766,898833794,396809,-0.21988925,0.03631035,0.27588087,3
899283351,899282379,396809,-0.22460154,0.035902932,0.27700585,3
899731503,899730531,396809,-0.2154804,0.0344139,0.27065825,3
900329304,900328321,396809,-0.22237785,0.036142237,0.28196454,3
900777762,900776789,396809,-0.22192317,0.035261642,0.28919002,3
901353716,901299395,396809,-0.21504432,0.036123596,0.2789378,3
901823162,901822180,396809,-0.22116429,0.03622696,0.27886096,3
902272008,902271035,396809,-0.23625459,0.03537034,0.2846681,3
902848025,902793630,396809,-0.22390375,0.036370486,0.27629226,3
903317326,903316351,396809,-0.21403068,0.035535604,0.27646294,3
903766320,903765324,396809,-0.22235893,0.036095493,0.2820453,3
904342203,904287906,396809,-0.21997468,0.03659316,0.2802804,3
904811650,904810671,396809,-0.21180095,0.036313206,0.27667823,3
905260547,905259575,396809,-0.22264102,0.03385045,0.27883494,3
905836646,905782304,396809,-0.22224396,0.03510698,0.27797577,3
906305934,906304943,396809,-0.21563047,0.037090804,0.27237445,3
906754910,906753918,396809,-0.21742184,0.037047833,0.27939048,3
907352145,907351172,396809,-0.21769899,0.034964275,0.28094727,3
907800268,907799295,396809,-0.21520224,0.034211654,0.27398595,3
908249205,908248221,396809,-0.21898535,0.035452966,0.27922893,3
908846529,908845538,396809,-0.22297746,0.033801243,0.28605297,3
909294574,909293595,396809,-0.21917918,0.03576492,0.28083462,3
909743055,909742083,396809,-0.21543753,0.036163904,0.2755896,3
910340790,910339818,396809,-0.22444803,0.03456128,0.28588346,3
910788813,910787843,396809,-0.21299782,0.034210667,0.2742024,3
911237172,911236201,396809,-0.21624446,0.034315,0.27067503,3
911834922,911833951,396809,-0.2251285,0.030999035,0.2802357,3
912282896,912281922,396809,-0.2208925,0.034497447,0.28226197,3
912731279,912730306,396809,-0.20900874,0.03702653,0.27303988,3
913328895,913327922,396809,-0.22121707,0.034206275,0.2846365,3
913776974,913776002,396809,-0.22071558,0.031559713,0.27588964,3
914353544,914299180,396809,-0.2159367,0.034055494,0.27485847,3
914823401,914822429,396809,-0.22193725,0.033857647,0.2789346,3
915271517,915270544,396809,-0.2217651,0.035507355,0.2829696,3
915847815,915793451,396809,-0.21450123,0.035726428,0.27731678,3
916317646,916316672,396809,-0.21572162,0.035910245,0.27799672,3
916765691,916764719,396809,-0.22312608,0.035706718,0.2876472,3
917342070,917287692,396809,-0.21801075,0.037589904,0.2821453,3
917811463,917810488,396809,-0.22925173,0.03660796,0.29719138,3
918259924,918258952,396809,-0.22009021,0.03411217,0.27565354,3
918836397,918781954,396809,-0.21613793,0.036660496,0.27694988,3
919305646,919304672,396809,-0.22311161,0.031735823,0.2753268,3
919754047,919753075,396809,-0.22131929,0.034019295,0.2787529,3
920351713,920350741,396809,-0.2141428,0.03667557,0.2762364,3
920799894,920798924,396809,-0.2205677,0.034971345,0.2787892,3
921248347,921247371,396809,-0.22190146,0.03465242,0.27700588,3
921846050,921845078,396809,-0.21607599,0.035357766,0.27363974,3
922294246,922293257,396809,-0.22160149,0.034216437,0.27551097,3
922742796,922741823,396809,-0.2223463,0.034065627,0.2858103,3
923340572,923339600,396809,-0.2093941,0.03610054,0.27429402,3
923788645,923787671,396809,-0.21565782,0.035826128,0.27608535,3
924236768,924235795,396809,-0.22799768,0.034755424,0.288475,3
924834993,924834021,396809,-0.21340805,0.033818226,0.27070326,3
925283003,925282030,396809,-0.2242831,0.038682584,0.2888412,3
925731100,925730109,396809,-0.22606286,0.036245923,0.29586133,3
926329143,926328173,396809,-0.21516532,0.03533019,0.27773356,3
926777302,926776330,396809,-0.2164135,0.03799109,0.28640106,3
927225286,927224235,396809,-0.22705737,0.03715361,0.2925828,3
927823299,927822327,396809,-0.21215615,0.03693548,0.27803946,3
928271646,928270674,396809,-0.21555665,0.033678748,0.28094497,3
928848066,928793594,396809,-0.22207782,0.03381425,0.28602785,3
929317817,929316845,396809,-0.22451283,0.03567008,0.28564855,3
929765911,929764938,396809,-0.22778606,0.033278156,0.29252005,3
930342352,930287835,396809,-0.21383587,0.036494106,0.28106427,3
930812151,930811178,396809,-0.20911413,0.038791057,0.28311673,3
931260222,931259250,396809,-0.22405675,0.038785636,0.2928561,3
931836648,931782176,396809,-0.21381705,0.040548444,0.27849448,3
932306355,932305376,396809,-0.21441194,0.045301616,0.28324348,3
932754459,932753488,396809,-0.21560127,0.043793786,0.27597266,3
933332126,933277636,396809,-0.21825753,0.043919645,0.27831382,3
933801352,933800380,396809,-0.21420065,0.04593404,0.28260106,3
934249488,934248506,396809,-0.20885909,0.042223167,0.2766863,3
934847678,934846705,396809,-0.22346336,0.043265477,0.2840567,3
935296590,935295598,396809,-0.2125313,0.044169057,0.27069172,3
935745032,935744059,396809,-0.21562435,0.044146486,0.27383614,3
936342801,936341829,396809,-0.23280627,0.044762388,0.29370192,3
936790725,936789753,396809,-0.21468578,0.043829996,0.2723152,3
937239249,937238277,396809,-0.21474467,0.04579959,0.27790388,3
937836935,937835963,396809,-0.2221199,0.043425966,0.27720922,3
938284920,938283949,396809,-0.21508873,0.0421363,0.27548945,3
938733647,938732673,396809,-0.21251121,0.04018009,0.2742409,3
939331375,939330402,396809,-0.2234639,0.04243383,0.28756443,3
939779343,939778367,396809,-0.21364006,0.040675938,0.27650926,3
940227788,940226816,396809,-0.2194708,0.04368793,0.27513418,3
940825453,940824482,396809,-0.21806379,0.04227933,0.276122,3
941273469,941272497,396809,-0.2152372,0.04208742,0.2828039,3
941849945,941795721,396809,-0.21027939,0.043110535,0.2745092,3
942319760,942318775,396809,-0.21427873,0.042524114,0.2813347,3
942767761,942766789,396809,-0.21424326,0.042134162,0.2757681,3
943343749,943289587,396809,-0.21266863,0.043465048,0.27416968,3
943813910,943812938,396809,-0.21262065,0.043770075,0.27989778,3
944261896,944260923,396809,-0.21964303,0.040724576,0.27597165,3
944838055,944783756,396809,-0.21118951,0.042754747,0.2740469,3
945308191,945307219,396809,-0.21258385,0.04177473,0.27430624,3
945756266,945755293,396809,-0.22202614,0.042646453,0.27739495,3
946353894,946352922,396809,-0.22047597,0.04382497,0.27195898,3
946802385,946801412,396809,-0.21253645,0.04335864,0.2743222,3
947250493,947249523,396809,-0.21363175,0.041490868,0.27661496,3
947848305,947847334,396809,-0.21276847,0.042888496,0.2759189,3
948296710,948295736,396809,-0.2105473,0.039727557,0.2761215,3
948744841,948743856,396809,-0.21238571,0.041808806,0.27832234,3
949342558,949341572,396809,-0.22029167,0.03929877,0.2807353,3
949791093,949790121,396809,-0.21427761,0.042841733,0.2757341,3
950239143,950238157,396809,-0.21649784,0.042037606,0.27553424,3
950836934,950835961,396809,-0.21691982,0.042974662,0.2834321,3
951284999,951284026,396809,-0.22257546,0.04145579,0.27570832,3
951733368,951732396,396809,-0.21089287,0.03983314,0.27282512,3
952331070,952330099,396809,-0.22533482,0.03703052,0.28423688,3
952779255,952778263,396809,-0.21443336,0.037532456,0.27650666,3
953227667,953226695,396809,-0.21134943,0.03891465,0.27598554,3
953825376,953824405,396809,-0.22234213,0.039300185,0.28452557,3
954273350,954272379,396809,-0.21854311,0.038500596,0.27367622,3
954849924,954795623,396809,-0.21709757,0.03813582,0.2758052,3
955319557,955318584,396809,-0.21760476,0.03483031,0.282543,3
955767658,955766681,396809,-0.22404566,0.038481213,0.2802997,3
956344139,956289877,396809,-0.21481161,0.03911583,0.27426532,3
956813909,956812936,396809,-0.21837243,0.037396945,0.27205053,3
957261987,957261015,396809,-0.2199638,0.038970936,0.28308117,3
957838527,957784088,396809,-0.21292579,0.038924947,0.27618814,3
958308182,958307211,396809,-0.21816266,0.03743945,0.27607667,3
958756229,958755255,396809,-0.22429922,0.038573716,0.27713808,3
959332149,959277912,396809,-0.21545449,0.03885403,0.27492863,3
959802227,959801242,396809,-0.21330513,0.03695672,0.27421486,3
960250289,960249316,396809,-0.21536884,0.037816703,0.2780125,3
960847631,960846656,396809,-0.21148893,0.03903994,0.2767641,3
961296546,961295574,396809,-0.22460476,0.04010518,0.28424606,3
961744644,961743672,396809,-0.22065085,0.036994338,0.27740833,3
962341789,962340817,396809,-0.21335402,0.036940016,0.27417365,3
962790785,962789813,396809,-0.2121945,0.039035898,0.27669892,3
963238803,963237831,396809,-0.22508405,0.04056197,0.28267175,3
963836015,963835043,396809,-0.22330663,0.039058357,0.27567315,3
964285001,964284029,396809,-0.2223612,0.042499322,0.28452915,3
964733094,964732122,396809,-0.21883759,0.040464252,0.28648496,3
965330432,965329457,396809,-0.2409715,0.036503557,0.2731775,3
965779305,965778333,396809,-0.21431655,0.038700726,0.27095628,3
966227365,966226393,396809,-0.22528477,0.039371315,0.28430885,3
966824688,966823703,396809,-0.21858448,0.035036556,0.2793118,3
967273908,967272924,396809,-0.21991497,0.039009113,0.2831552,3
967850436,967796120,396809,-0.21805654,0.038505666,0.2790832,3
968320221,968319249,396809,-0.22433347,0.0354415,0.277087,3
968768649,968767677,396809,-0.21814322,0.039712694,0.28651547,3
969344647,969290329,396809,-0.21511428,0.039383486,0.2802684,3
969814472,969813496,396809,-0.22329465,0.036943235,0.28044027,3
970262899,970261909,396809,-0.22236028,0.04017484,0.28454876,3
970838894,970784586,396809,-0.21345228,0.03907271,0.275157,3
971308215,971307242,396809,-0.22627336,0.038945638,0.28577578,3
971757056,971756084,396809,-0.21826366,0.0380978,0.28256884,3
972333270,972278816,396809,-0.2164987,0.037850298,0.27646217,3
972802571,972801584,396809,-0.22726949,0.03894069,0.2928658,3
973251579,973250585,396809,-0.22207898,0.035964485,0.28297275,3
973848930,973847957,396809,-0.22156242,0.04026992,0.28461593,3
974297577,974296605,396809,-0.21904361,0.037958506,0.2776727,3
974746647,974745671,396809,-0.22127289,0.035443872,0.28783178,3
975344356,975343385,396809,-0.22046064,0.039768204,0.28228194,3
975792538,975791565,396809,-0.21327496,0.037129402,0.27417135,3
976240936,976239963,396809,-0.22281398,0.03598804,0.28281283,3
976838319,976837348,396809,-0.21577005,0.036666505,0.27549523,3
977286767,977285794,396809,-0.2170327,0.037903186,0.27374625,3
977735296,977734324,396809,-0.22100934,0.037871156,0.28056705,3
978332584,978331611,396809,-0.21405873,0.036356844,0.2740308,3
978780967,978779994,396809,-0.21162234,0.038399395,0.2726788,3
979229459,979228483,396809,-0.22078282,0.038329992,0.27898413,3
979826895,979825924,396809,-0.21856451,0.036768757,0.27923727,3
980275279,980274308,396809,-0.21292499,0.037684273,0.27657178,3
980852939,980798309,396809,-0.21588902,0.03646864,0.27977353,3
981322325,981321354,396809,-0.22471783,0.03635539,0.28027815,3
981770369,981769351,396809,-0.21111268,0.036982372,0.26960376,3
982346726,982292322,396809,-0.21699783,0.037905246,0.27980977,3
982816406,982815433,396809,-0.22280438,0.035465796,0.2876289,3
983264569,983263597,396809,-0.21444395,0.036084767,0.27641764,3
983841230,983786844,396809,-0.21763414,0.036783453,0.2769117,3
984310898,984309925,396809,-0.21340632,0.03322488,0.274087,3
984758946,984757974,396809,-0.21192662,0.035586327,0.27422166,3
985335414,985281022,396809,-0.21723586,0.03732063,0.2762307,3
985805190,985804218,396809,-0.22172225,0.03482199,0.28445503,3
986253300,986252329,396809,-0.21668172,0.036341503,0.28095904,3
986850976,986850004,396809,-0.2134338,0.036367998,0.27410215,3
987299473,987298500,396809,-0.21918795,0.03404682,0.27755523,3
987747570,987746598,396809,-0.21866074,0.03437358,0.27920598,3
988345159,988344185,396809,-0.21041584,0.035572097,0.27444074,3
988793251,988792278,396809,-0.21542925,0.034049682,0.27795625,3
989241740,989240769,396809,-0.22283754,0.035477314,0.28764856,3
989839494,989838521,396809,-0.21309844,0.035251494,0.2726335,3
990287551,990286578,396809,-0.21173982,0.03682909,0.28394404,3
990736057,990735085,396809,-0.21686453,0.03548869,0.28824857,3
991333793,991332821,396809,-0.21319094,0.03487301,0.27824447,3
991781835,991780863,396809,-0.21262982,0.033239514,0.27431172,3
992230394,992229422,396809,-0.22107354,0.03475464,0.2806825,3
992828076,992827104,396809,-0.2176047,0.035246417,0.27221665,3
993276154,993275181,396809,-0.21446213,0.03530761,0.27652663,3
993724780,993723807,396809,-0.22205731,0.035083648,0.2821787,3
994322391,994321419,396809,-0.21594205,0.03532002,0.27637446,3
994770486,994769514,396809,-0.21395794,0.03644526,0.27816635,3
995347387,995292917,396809,-0.21780393,0.035002455,0.28217757,3
995816731,995815758,396809,-0.21723497,0.03480085,0.28502586,3
996264759,996263775,396809,-0.21415772,0.03400605,0.27412164,3
996841632,996786774,396809,-0.21771666,0.03019139,0.28374207,3
997310912,997309940,396809,-0.22047928,0.028814424,0.28626633,3
997758944,997757972,396809,-0.21148315,0.032740325,0.27591318,3
998335470,998280955,396809,-0.21595883,0.036308162,0.2774899,3
998805177,998804205,396809,-0.22003162,0.035427038,0.28782707,3
999253283,999252311,396809,-0.21152455,0.03786613,0.28152126,3
999850908,999849935,396809,-0.2105817,0.0367313,0.27999604,3
1000299525,1000298540,396809,-0.23275742,0.03544394,0.29779837,3
1000747648,1000746675,396809,-0.21059798,0.03436457,0.28001288,3
1001345294,1001344322,396809,-0.21179953,0.036392532,0.27828294,3
1001793934,1001792956,396809,-0.22021401,0.0343617,0.27910355,3
1002242013,1002240984,396809,-0.21423772,0.032001976,0.2797245,3
1002839718,1002838738,396809,-0.20781052,0.03446236,0.2771942,3
1003288289,1003287316,396809,-0.2255567,0.034683418,0.28026605,3
1003736353,1003735381,396809,-0.23293394,0.032129202,0.28996408,3
1004334130,1004333158,396809,-0.21266927,0.03355448,0.27994463,3
1004782233,1004781262,396809,-0.2238757,0.033154875,0.28446364,3
1005230561,1005229588,396809,-0.2288375,0.028706942,0.29278266,3
1005828429,1005827457,396809,-0.21375985,0.024997279,0.27663106,3
1006276348,1006275376,396809,-0.22064704,0.025962967,0.28796646,3
1006724894,1006723922,396809,-0.2347978,0.023840822,0.30258754,3
1007322477,1007321508,396809,-0.21423775,0.02411842,0.27978054,3
1007770528,1007769557,396809,-0.21890524,0.02743997,0.29132152,3
1008347046,1008292860,396809,-0.224601,0.022823572,0.29076415,3
1008816905,1008815926,396809,-0.22543547,0.025900282,0.2946707,3
1009264945,1009263964,396809,-0.2233713,0.025825541,0.29087836,3
1009841449,1009787244,396809,-0.22781488,0.022335812,0.28965992,3
1010311120,1010310149,396809,-0.22422333,0.024387266,0.29158372,3
1010759267,1010758281,396809,-0.21246661,0.022140484,0.2783559,3
1011335717,1011281443,396809,-0.22064333,0.020178609,0.28514728,3
1011805590,1011804619,396809,-0.22219698,0.018766783,0.28778064,3
1012253588,1012252616,396809,-0.21055758,0.021648653,0.28008994,3
1012851603,1012850632,396809,-0.22489545,0.014713198,0.29069477,3
1013299554,1013298582,396809,-0.22985004,0.01278504,0.2886411,3
