timestamp,timestamp_sample,gps_hvel[0],gps_hvel[1],gps_vvel,gps_hpos[0],gps_hpos[1],gps_vpos,ev_hvel[0],ev_hvel[1],ev_vvel,ev_hpos[0],ev_hpos[1],ev_vpos,rng_vpos,baro_vpos,aux_hvel[0],aux_hvel[1],aux_vvel,flow[0],flow[1],heading,mag_field[0],mag_field[1],mag_field[2],drag[0],drag[1],airspeed,beta,hagl,hagl_rate
539703067,539602539,0.0898057,-0.0936971,-0.2106356,-0.18842936,0.25635433,0.0,0.0,0.0,0.0,0.0,0.0,0.0,0.0,0.3219986,0.0,0.0,nan,0.0,0.0,-0.015552759,0.0,0.0,0.0,0.0,0.0,0.0,0.0,0.0,0.0
540200425,540100269,-0.0022573434,0.02060984,-0.08656575,-0.23202682,0.30962515,0.0,0.0,0.0,0.0,0.0,0.0,0.0,0.0,0.14643097,0.0,0.0,nan,0.0,0.0,-0.004342079,0.0,0.0,0.0,0.0,0.0,0.0,0.0,0.0,0.0
540698419,540597999,0.04790039,0.033555403,-0.02705497,-0.2708745,0.35092974,0.0,0.0,0.0,0.0,0.0,0.0,0.0,0.0,0.06460571,0.0,0.0,nan,0.0,0.0,0.0067670345,0.0,0.0,0.0,0.0,0.0,0.0,0.0,0.0,0.0
541195893,541095730,0.023638856,0.054908626,0.025422761,-0.27613544,0.3155241,0.0,0.0,0.0,0.0,0.0,0.0,0.0,0.0,-0.12448883,0.0,0.0,nan,0.0,0.0,-0.010421038,0.0,0.0,0.0,0.0,0.0,0.0,0.0,0.0,0.0
541693565,541593464,0.00026084296,-0.085202515,0.008466596,-0.21958184,0.272609,0.0,0.0,0.0,0.0,0.0,0.0,0.0,0.0,0.09866333,0.0,0.0,nan,0.0,0.0,-0.0065391064,0.0,0.0,0.0,0.0,0.0,0.0,0.0,0.0,0.0
542201239,542101145,0.048848912,0.10876402,0.08037446,-0.18899322,0.2541461,0.0,0.0,0.0,0.0,0.0,0.0,0.0,0.0,0.12004089,0.0,0.0,nan,0.0,0.0,0.0049004555,0.0,0.0,0.0,0.0,0.0,0.0,0.0,0.0,0.0
542699012,542598875,-0.066601485,0.031567983,0.06506687,-0.17534876,0.24758601,0.0,0.0,0.0,0.0,0.0,0.0,0.0,0.0,0.1485138,0.0,0.0,nan,0.0,0.0,0.0028121471,0.0,0.0,0.0,0.0,0.0,0.0,0.0,0.0,0.0
543196754,543096606,0.18154344,0.029408682,-0.015982535,-0.11949825,0.21058488,0.0,0.0,0.0,0.0,0.0,0.0,0.0,0.0,0.1071167,0.0,0.0,nan,0.0,0.0,-0.011383295,0.0,0.0,0.0,0.0,0.0,0.0,0.0,0.0,0.0
543694530,543594336,-0.048539974,-0.18894958,-0.10038179,-0.11813903,0.14968777,0.0,0.0,0.0,0.0,0.0,0.0,0.0,0.0,-0.12054443,0.0,0.0,nan,0.0,0.0,0.0043303967,0.0,0.0,0.0,0.0,0.0,0.0,0.0,0.0,0.0
544202135,544102021,-0.013040831,-0.16646354,-0.00031022448,-0.002218008,0.11227083,0.0,0.0,0.0,0.0,0.0,0.0,0.0,0.0,0.31295776,0.0,0.0,nan,0.0,0.0,0.00126791,0.0,0.0,0.0,0.0,0.0,0.0,0.0,0.0,0.0
544699837,544599752,-0.11976155,-0.062291674,-0.1310247,0.039932013,0.090881824,0.0,0.0,0.0,0.0,0.0,0.0,0.0,0.0,-0.033714294,0.0,0.0,nan,0.0,0.0,-0.0061137676,0.0,0.0,0.0,0.0,0.0,0.0,0.0,0.0,0.0
545197916,545097482,-0.117516,-0.09897947,-0.040190905,0.07150531,0.09822345,0.0,0.0,0.0,0.0,0.0,0.0,0.0,0.0,0.22392273,0.0,0.0,nan,0.0,0.0,-0.0036642551,0.0,0.0,0.0,0.0,0.0,0.0,0.0,0.0,0.0
545695456,545595213,0.061740905,-0.06317326,-0.080526724,0.09262395,0.094258785,0.0,0.0,0.0,0.0,0.0,0.0,0.0,0.0,0.39920044,0.0,0.0,nan,0.0,0.0,0.018542051,0.0,0.0,0.0,0.0,0.0,0.0,0.0,0.0,0.0
546193021,546092944,-0.013962394,-0.037374035,-0.0033085542,0.04392743,0.09462237,0.0,0.0,0.0,0.0,0.0,0.0,0.0,0.0,0.053375244,0.0,0.0,nan,0.0,0.0,-0.009011507,0.0,0.0,0.0,0.0,0.0,0.0,0.0,0.0,0.0
546700721,546600629,-0.022907084,-0.1431924,-0.106258124,0.0040881634,0.061832905,0.0,0.0,0.0,0.0,0.0,0.0,0.0,0.0,-0.04168701,0.0,0.0,nan,0.0,0.0,0.0009236336,0.0,0.0,0.0,0.0,0.0,0.0,0.0,0.0,0.0
547198494,547098360,0.006406244,-0.13739067,-0.15767336,-0.05762744,0.032702684,0.0,0.0,0.0,0.0,0.0,0.0,0.0,0.0,0.029029846,0.0,0.0,nan,0.0,0.0,0.0017571449,0.0,0.0,0.0,0.0,0.0,0.0,0.0,0.0,0.0
547696322,547596091,0.1406025,-0.21308447,-0.13380265,-0.070782185,0.012877941,0.0,0.0,0.0,0.0,0.0,0.0,0.0,0.0,0.019874573,0.0,0.0,nan,0.0,0.0,-0.008586884,0.0,0.0,0.0,0.0,0.0,0.0,0.0,0.0,0.0
548193959,548093822,-0.114473745,-0.055789817,-0.15723643,-0.10090613,0.018815994,0.0,0.0,0.0,0.0,0.0,0.0,0.0,0.0,0.2273941,0.0,0.0,nan,0.0,0.0,-0.003027916,0.0,0.0,0.0,0.0,0.0,0.0,0.0,0.0,0.0
548701591,548601507,-0.03773201,-0.2107136,-0.19891207,-0.099915266,0.016902685,0.0,0.0,0.0,0.0,0.0,0.0,0.0,0.0,0.13014984,0.0,0.0,nan,0.0,0.0,-0.0018508434,0.0,0.0,0.0,0.0,0.0,0.0,0.0,0.0,0.0
549199405,549099238,0.16015586,0.06010604,-0.15537593,-0.076002836,0.07400155,0.0,0.0,0.0,0.0,0.0,0.0,0.0,0.0,0.18894958,0.0,0.0,nan,0.0,0.0,-0.014984131,0.0,0.0,0.0,0.0,0.0,0.0,0.0,0.0,0.0
549697592,549596969,0.13444287,0.066781685,-0.02982014,-0.12087989,0.091118574,0.0,0.0,0.0,0.0,0.0,0.0,0.0,0.0,0.22177124,0.0,0.0,nan,0.0,0.0,-0.015115261,0.0,0.0,0.0,0.0,0.0,0.0,0.0,0.0,0.0
550194812,550094700,-0.0842557,0.0095314495,-0.07888213,-0.12485623,0.053281307,0.0,0.0,0.0,0.0,0.0,0.0,0.0,0.0,0.27869415,0.0,0.0,nan,0.0,0.0,-0.0017673969,0.0,0.0,0.0,0.0,0.0,0.0,0.0,0.0,0.0
550702511,550602386,0.09756179,-0.055944484,-0.0035758018,-0.08612156,0.06518555,0.0,0.0,0.0,0.0,0.0,0.0,0.0,0.0,0.22292328,0.0,0.0,nan,0.0,0.0,0.004761696,0.0,0.0,0.0,0.0,0.0,0.0,0.0,0.0,0.0
551200224,551100117,0.051778145,-0.03641406,-0.0061085336,-0.090979576,0.12109041,0.0,0.0,0.0,0.0,0.0,0.0,0.0,0.0,0.123435974,0.0,0.0,nan,0.0,0.0,-0.023338318,0.0,0.0,0.0,0.0,0.0,0.0,0.0,0.0,0.0
551697953,551597849,0.02508329,0.020601235,-0.03032399,-0.1078043,0.15194535,0.0,0.0,0.0,0.0,0.0,0.0,0.0,0.0,0.09792328,0.0,0.0,nan,0.0,0.0,-0.008407116,0.0,0.0,0.0,0.0,0.0,0.0,0.0,0.0,0.0
552195728,552095580,-0.073121965,0.018318973,0.009584919,-0.12888193,0.19709396,0.0,0.0,0.0,0.0,0.0,0.0,0.0,0.0,0.30902863,0.0,0.0,nan,0.0,0.0,-0.003065586,0.0,0.0,0.0,0.0,0.0,0.0,0.0,0.0,0.0
552693429,552593311,-0.04303928,0.023900164,-0.09646331,-0.083302975,0.21469593,0.0,0.0,0.0,0.0,0.0,0.0,0.0,0.0,0.19376373,0.0,0.0,nan,0.0,0.0,-0.03297472,0.0,0.0,0.0,0.0,0.0,0.0,0.0,0.0,0.0
553201210,553100999,-0.035232246,-0.0726084,-0.047880396,-0.0368433,0.21543384,0.0,0.0,0.0,0.0,0.0,0.0,0.0,0.0,0.03592682,0.0,0.0,nan,0.0,0.0,-0.0013823509,0.0,0.0,0.0,0.0,0.0,0.0,0.0,0.0,0.0
553698812,553598729,0.0072260685,0.04830659,-0.07703314,-0.010964394,0.20771885,0.0,0.0,0.0,0.0,0.0,0.0,0.0,0.0,0.2229538,0.0,0.0,nan,0.0,0.0,-0.00516963,0.0,0.0,0.0,0.0,0.0,0.0,0.0,0.0,0.0
554196957,554096460,0.18775697,-0.0131959645,-0.009407114,0.05479765,0.17064452,0.0,0.0,0.0,0.0,0.0,0.0,0.0,0.0,0.08892822,0.0,0.0,nan,0.0,0.0,-0.037550688,0.0,0.0,0.0,0.0,0.0,0.0,0.0,0.0,0.0
554704628,554604146,-0.00010729581,-0.09292558,0.05224445,0.11552334,0.1111815,0.0,0.0,0.0,0.0,0.0,0.0,0.0,0.0,0.23717499,0.0,0.0,nan,0.0,0.0,-0.009241819,0.0,0.0,0.0,0.0,0.0,0.0,0.0,0.0,0.0
555192086,555091923,-0.19496123,0.100301936,-0.11197408,0.13192654,0.061886072,0.0,0.0,0.0,0.0,0.0,0.0,0.0,0.0,0.14291382,0.0,0.0,nan,0.0,0.0,4.172325e-05,0.0,0.0,0.0,0.0,0.0,0.0,0.0,0.0,0.0
555699690,555599610,0.066115804,-0.020859852,0.049264655,0.100400925,0.043952465,0.0,0.0,0.0,0.0,0.0,0.0,0.0,0.0,0.1078186,0.0,0.0,nan,0.0,0.0,-0.027993917,0.0,0.0,0.0,0.0,0.0,0.0,0.0,0.0,0.0
556197457,556097341,-0.06776936,0.120006025,0.046033867,0.024952412,0.09273338,0.0,0.0,0.0,0.0,0.0,0.0,0.0,0.0,0.05063629,0.0,0.0,nan,0.0,0.0,-0.0080292225,0.0,0.0,0.0,0.0,0.0,0.0,0.0,0.0,0.0
556695157,556595073,-0.101526275,-0.066224895,0.0055126203,-0.042030334,0.08760691,0.0,0.0,0.0,0.0,0.0,0.0,0.0,0.0,0.19007874,0.0,0.0,nan,0.0,0.0,-0.0014858246,0.0,0.0,0.0,0.0,0.0,0.0,0.0,0.0,0.0
557202846,557102760,0.06718745,-0.22138365,-0.054942016,-0.093660355,0.09540796,0.0,0.0,0.0,0.0,0.0,0.0,0.0,0.0,0.0717392,0.0,0.0,nan,0.0,0.0,-0.0038838387,0.0,0.0,0.0,0.0,0.0,0.0,0.0,0.0,0.0
557700581,557600491,0.001675229,0.009093537,0.051593926,-0.12432194,0.08890891,0.0,0.0,0.0,0.0,0.0,0.0,0.0,0.0,-0.09754944,0.0,0.0,nan,0.0,0.0,-0.0043799877,0.0,0.0,0.0,0.0,0.0,0.0,0.0,0.0,0.0
558198329,558098223,-0.049101055,-0.08611154,-0.1103849,-0.16046238,0.03237605,0.0,0.0,0.0,0.0,0.0,0.0,0.0,0.0,0.05594635,0.0,0.0,nan,0.0,0.0,-0.008982897,0.0,0.0,0.0,0.0,0.0,0.0,0.0,0.0,0.0
558696447,558595955,-0.036394928,-0.046573114,-0.08468393,-0.13087082,0.035357475,0.0,0.0,0.0,0.0,0.0,0.0,0.0,0.0,0.3410492,0.0,0.0,nan,0.0,0.0,0.0005068779,0.0,0.0,0.0,0.0,0.0,0.0,0.0,0.0,0.0
559193861,559093687,-0.0097318515,0.12711261,0.060761698,-0.015230656,0.070328,0.0,0.0,0.0,0.0,0.0,0.0,0.0,0.0,0.49897766,0.0,0.0,nan,0.0,0.0,-0.017719507,0.0,0.0,0.0,0.0,0.0,0.0,0.0,0.0,0.0
559701500,559601374,0.026349202,-0.0701178,-0.061183505,0.01738596,0.034396887,0.0,0.0,0.0,0.0,0.0,0.0,0.0,0.0,-0.023506165,0.0,0.0,nan,0.0,0.0,-0.0015728474,0.0,0.0,0.0,0.0,0.0,0.0,0.0,0.0,0.0
560199194,560099106,-0.11195611,0.12842084,0.007693161,0.052812576,-0.012249231,0.0,0.0,0.0,0.0,0.0,0.0,0.0,0.0,0.21313477,0.0,0.0,nan,0.0,0.0,0.005209446,0.0,0.0,0.0,0.0,0.0,0.0,0.0,0.0,0.0
560696976,560596838,-0.06835297,-0.03141042,0.00073657,0.055323124,-0.033157825,0.0,0.0,0.0,0.0,0.0,0.0,0.0,0.0,0.068977356,0.0,0.0,nan,0.0,0.0,-0.0020132065,0.0,0.0,0.0,0.0,0.0,0.0,0.0,0.0,0.0
561194768,561094571,0.10340922,0.15549365,0.02479959,0.14141178,-0.039013147,0.0,0.0,0.0,0.0,0.0,0.0,0.0,0.0,-0.08165741,0.0,0.0,nan,0.0,0.0,0.007925987,0.0,0.0,0.0,0.0,0.0,0.0,0.0,0.0,0.0
561702336,561602257,-0.00028542615,0.123926,-0.031392585,0.1558156,-0.06289482,0.0,0.0,0.0,0.0,0.0,0.0,0.0,0.0,0.062805176,0.0,0.0,nan,0.0,0.0,0.021998882,0.0,0.0,0.0,0.0,0.0,0.0,0.0,0.0,0.0
562200073,562099990,0.027806612,0.0009066127,0.0074212328,0.15386057,-0.10347533,0.0,0.0,0.0,0.0,0.0,0.0,0.0,0.0,0.24746704,0.0,0.0,nan,0.0,0.0,-0.016264915,0.0,0.0,0.0,0.0,0.0,0.0,0.0,0.0,0.0
562697809,562597722,-0.18849908,0.017747516,-0.19347854,0.1454916,-0.16253924,0.0,0.0,0.0,0.0,0.0,0.0,0.0,0.0,0.29228973,0.0,0.0,nan,0.0,0.0,-0.08307767,0.0,0.0,0.0,0.0,0.0,0.0,0.0,0.0,0.0
563195916,563095454,0.062406544,0.1563207,-0.057015166,0.2619071,-0.24866772,0.0,0.0,0.0,0.0,0.0,0.0,0.0,0.0,0.291893,0.0,0.0,nan,0.0,0.0,-0.059005737,0.0,0.0,0.0,0.0,0.0,0.0,0.0,0.0,0.0
563693313,563593187,0.007781615,0.117810525,-0.028438378,0.37160492,-0.3006556,0.0,0.0,0.0,0.0,0.0,0.0,0.0,0.0,0.0012588501,0.0,0.0,nan,0.0,0.0,-0.05425024,0.0,0.0,0.0,0.0,0.0,0.0,0.0,0.0,0.0
564200971,564100874,-0.11359473,0.053714614,-0.06927447,0.41337037,-0.30575085,0.0,0.0,0.0,0.0,0.0,0.0,0.0,0.0,0.12348938,0.0,0.0,nan,0.0,0.0,-0.05204487,0.0,0.0,0.0,0.0,0.0,0.0,0.0,0.0,0.0
564698756,564598606,-0.09357411,0.04533707,0.02429929,0.46833134,-0.28292942,0.0,0.0,0.0,0.0,0.0,0.0,0.0,0.0,0.12119293,0.0,0.0,nan,0.0,0.0,-0.059186935,0.0,0.0,0.0,0.0,0.0,0.0,0.0,0.0,0.0
565196509,565096339,-0.0031900231,-0.10339721,-0.040521134,0.5160334,-0.24823046,0.0,0.0,0.0,0.0,0.0,0.0,0.0,0.0,0.10752106,0.0,0.0,nan,0.0,0.0,-0.047952652,0.0,0.0,0.0,0.0,0.0,0.0,0.0,0.0,0.0
565694171,565594072,-0.12200915,-0.007454137,-0.008793071,0.5209012,-0.2315116,0.0,0.0,0.0,0.0,0.0,0.0,0.0,0.0,0.28157806,0.0,0.0,nan,0.0,0.0,-0.048327923,0.0,0.0,0.0,0.0,0.0,0.0,0.0,0.0,0.0
566201853,566101759,0.050277542,0.0012454344,-0.10695596,0.5072243,-0.26725268,0.0,0.0,0.0,0.0,0.0,0.0,0.0,0.0,0.15711975,0.0,0.0,nan,0.0,0.0,-0.05145073,0.0,0.0,0.0,0.0,0.0,0.0,0.0,0.0,0.0
566699719,566599491,0.034238458,-0.021200027,-0.006072201,0.45951676,-0.28785396,0.0,0.0,0.0,0.0,0.0,0.0,0.0,0.0,0.23332214,0.0,0.0,nan,0.0,0.0,-0.050456762,0.0,0.0,0.0,0.0,0.0,0.0,0.0,0.0,0.0
567197361,567097224,-0.076995745,-0.04692769,-0.09530444,0.3833077,-0.33539748,0.0,0.0,0.0,0.0,0.0,0.0,0.0,0.0,0.17944336,0.0,0.0,nan,0.0,0.0,-0.05223608,0.0,0.0,0.0,0.0,0.0,0.0,0.0,0.0,0.0
567695593,567594957,-0.21896845,-0.08740543,-0.16762324,0.37079382,-0.36562634,0.0,0.0,0.0,0.0,0.0,0.0,0.0,0.0,0.049697876,0.0,0.0,nan,0.0,0.0,-0.03958726,0.0,0.0,0.0,0.0,0.0,0.0,0.0,0.0,0.0
568202777,568102644,0.116310686,0.122223355,-0.07624996,0.3890488,-0.39576435,0.0,0.0,0.0,0.0,0.0,0.0,0.0,0.0,-0.085510254,0.0,0.0,nan,0.0,0.0,-0.053114653,0.0,0.0,0.0,0.0,0.0,0.0,0.0,0.0,0.0
568700848,568600376,0.17773253,1.010259,-0.08241312,0.36439824,-0.3155017,0.0,0.0,0.0,0.0,0.0,0.0,0.0,0.0,0.35727692,0.0,0.0,nan,0.0,0.0,-0.055479288,0.0,0.0,0.0,0.0,0.0,0.0,0.0,0.0,0.0
569198224,569098109,-0.14906305,0.038954668,-0.20383026,0.3259902,-0.38281703,0.0,0.0,0.0,0.0,0.0,0.0,0.0,0.0,0.25448608,0.0,0.0,nan,0.0,0.0,-0.043097973,0.0,0.0,0.0,0.0,0.0,0.0,0.0,0.0,0.0
569695933,569595842,-0.21803948,0.34890184,-0.087732814,0.28763223,-0.34448552,0.0,0.0,0.0,0.0,0.0,0.0,0.0,0.0,0.21555328,0.0,0.0,nan,0.0,0.0,-0.04910016,0.0,0.0,0.0,0.0,0.0,0.0,0.0,0.0,0.0
570193714,570093577,0.03038553,-0.21115373,-0.051760793,0.32269335,-0.35450554,0.0,0.0,0.0,0.0,0.0,0.0,0.0,0.0,0.43761444,0.0,0.0,nan,0.0,0.0,-0.050373077,0.0,0.0,0.0,0.0,0.0,0.0,0.0,0.0,0.0
570701342,570601262,-0.15116885,0.0651708,0.014367275,0.26852918,-0.298445,0.0,0.0,0.0,0.0,0.0,0.0,0.0,0.0,0.31380463,0.0,0.0,nan,0.0,0.0,-0.042407274,0.0,0.0,0.0,0.0,0.0,0.0,0.0,0.0,0.0
571199087,571098995,-0.10473887,-0.00091456994,-0.1865838,0.20670748,-0.24859738,0.0,0.0,0.0,0.0,0.0,0.0,0.0,0.0,0.16984558,0.0,0.0,nan,0.0,0.0,-0.036224842,0.0,0.0,0.0,0.0,0.0,0.0,0.0,0.0,0.0
571696874,571596727,-0.18788527,0.21197924,0.027184123,0.19125533,-0.15647888,0.0,0.0,0.0,0.0,0.0,0.0,0.0,0.0,0.2547226,0.0,0.0,nan,0.0,0.0,-0.048199892,0.0,0.0,0.0,0.0,0.0,0.0,0.0,0.0,0.0
572194876,572094460,0.18541202,-0.103739806,-0.10137698,0.21966076,-0.17244768,0.0,0.0,0.0,0.0,0.0,0.0,0.0,0.0,0.17599487,0.0,0.0,nan,0.0,0.0,-0.04609561,0.0,0.0,0.0,0.0,0.0,0.0,0.0,0.0,0.0
572692411,572592193,-0.019556953,0.05224649,-0.063685924,0.20346808,-0.1489284,0.0,0.0,0.0,0.0,0.0,0.0,0.0,0.0,0.11652374,0.0,0.0,nan,0.0,0.0,-0.040488005,0.0,0.0,0.0,0.0,0.0,0.0,0.0,0.0,0.0
573200003,573099880,-0.031871874,0.16016035,-0.019232128,0.24106407,-0.1886344,0.0,0.0,0.0,0.0,0.0,0.0,0.0,0.0,0.21636963,0.0,0.0,nan,0.0,0.0,-0.03715229,0.0,0.0,0.0,0.0,0.0,0.0,0.0,0.0,0.0
573697834,573597613,-0.026758857,0.0809078,-0.02810799,0.25440884,-0.29704475,0.0,0.0,0.0,0.0,0.0,0.0,0.0,0.0,0.27532196,0.0,0.0,nan,0.0,0.0,-0.036087275,0.0,0.0,0.0,0.0,0.0,0.0,0.0,0.0,0.0
574195503,574095346,0.029255148,0.15768023,-0.013286047,0.30603886,-0.42030966,0.0,0.0,0.0,0.0,0.0,0.0,0.0,0.0,0.4936676,0.0,0.0,nan,0.0,0.0,-0.06356597,0.0,0.0,0.0,0.0,0.0,0.0,0.0,0.0,0.0
574703117,574603033,-0.0056010997,0.13523276,0.054102242,0.31415534,-0.4260379,0.0,0.0,0.0,0.0,0.0,0.0,0.0,0.0,0.35946655,0.0,0.0,nan,0.0,0.0,-0.065835714,0.0,0.0,0.0,0.0,0.0,0.0,0.0,0.0,0.0
575200875,575100766,0.060897406,-0.0008791834,0.06556748,0.2806015,-0.4161067,0.0,0.0,0.0,0.0,0.0,0.0,0.0,0.0,0.1326065,0.0,0.0,nan,0.0,0.0,-0.065461636,0.0,0.0,0.0,0.0,0.0,0.0,0.0,0.0,0.0
575698587,575598498,0.05356404,0.051983036,0.007985262,0.28583074,-0.39134884,0.0,0.0,0.0,0.0,0.0,0.0,0.0,0.0,-0.008934021,0.0,0.0,nan,0.0,0.0,-0.06588769,0.0,0.0,0.0,0.0,0.0,0.0,0.0,0.0,0.0
576196340,576096231,-0.088532284,0.010320514,-0.07021001,0.2637844,-0.37544072,0.0,0.0,0.0,0.0,0.0,0.0,0.0,0.0,-0.28919983,0.0,0.0,nan,0.0,0.0,-0.07047272,0.0,0.0,0.0,0.0,0.0,0.0,0.0,0.0,0.0
576694598,576593963,-0.04219712,0.12627402,0.05109389,0.28591323,-0.38415575,0.0,0.0,0.0,0.0,0.0,0.0,0.0,0.0,0.26888275,0.0,0.0,nan,0.0,0.0,-0.06014681,0.0,0.0,0.0,0.0,0.0,0.0,0.0,0.0,0.0
577201801,577101651,-0.01877202,0.035797197,0.11940851,0.24666882,-0.33917117,0.0,0.0,0.0,0.0,0.0,0.0,0.0,0.0,0.07962036,0.0,0.0,nan,0.0,0.0,-0.0578382,0.0,0.0,0.0,0.0,0.0,0.0,0.0,0.0,0.0
577699481,577599383,-0.17524904,0.033973206,-0.014295114,0.1518588,-0.3375597,0.0,0.0,0.0,0.0,0.0,0.0,0.0,0.0,0.25302887,0.0,0.0,nan,0.0,0.0,-0.037410975,0.0,0.0,0.0,0.0,0.0,0.0,0.0,0.0,0.0
578197213,578097116,-0.03298805,0.14145875,0.040191017,0.12233591,-0.29615045,0.0,0.0,0.0,0.0,0.0,0.0,0.0,0.0,0.13961029,0.0,0.0,nan,0.0,0.0,-0.05134988,0.0,0.0,0.0,0.0,0.0,0.0,0.0,0.0,0.0
578694932,578594848,0.08735673,-0.0279528,-0.02508967,0.09507179,-0.29587448,0.0,0.0,0.0,0.0,0.0,0.0,0.0,0.0,0.40805054,0.0,0.0,nan,0.0,0.0,-0.07996011,0.0,0.0,0.0,0.0,0.0,0.0,0.0,0.0,0.0
579202709,579102535,0.03060573,0.02399781,-0.070999,0.12209129,-0.26283777,0.0,0.0,0.0,0.0,0.0,0.0,0.0,0.0,0.08419037,0.0,0.0,nan,0.0,0.0,-0.089030266,0.0,0.0,0.0,0.0,0.0,0.0,0.0,0.0,0.0
579700383,579600267,0.04192332,0.018706623,0.026904643,0.17633319,-0.25017333,0.0,0.0,0.0,0.0,0.0,0.0,0.0,0.0,0.08686066,0.0,0.0,nan,0.0,0.0,-0.06701422,0.0,0.0,0.0,0.0,0.0,0.0,0.0,0.0,0.0
580198261,580098000,0.055400744,-0.12810093,-0.06271536,0.16916537,-0.3054309,0.0,0.0,0.0,0.0,0.0,0.0,0.0,0.0,0.019599915,0.0,0.0,nan,0.0,0.0,-0.07865214,0.0,0.0,0.0,0.0,0.0,0.0,0.0,0.0,0.0
580695927,580595732,-0.17869686,0.10824018,-0.09917773,0.19450355,-0.253052,0.0,0.0,0.0,0.0,0.0,0.0,0.0,0.0,-0.04322052,0.0,0.0,nan,0.0,0.0,-0.103001356,0.0,0.0,0.0,0.0,0.0,0.0,0.0,0.0,0.0
581193886,581093465,-0.28357968,0.057853736,-0.13451602,0.05442214,-0.36090374,0.0,0.0,0.0,0.0,0.0,0.0,0.0,0.0,0.10346222,0.0,0.0,nan,0.0,0.0,-0.095345736,0.0,0.0,0.0,0.0,0.0,0.0,0.0,0.0,0.0
581701261,581601151,0.6474217,-0.28422225,-0.27357817,0.1348114,-0.45846534,0.0,0.0,0.0,0.0,0.0,0.0,0.0,0.0,0.23329926,0.0,0.0,nan,0.0,0.0,-0.05590701,0.0,0.0,0.0,0.0,0.0,0.0,0.0,0.0,0.0
582199064,582098883,0.064695425,-0.024875745,-0.108180135,0.1742928,-0.30276573,0.0,0.0,0.0,0.0,0.0,0.0,0.0,0.0,-0.03530121,0.0,0.0,nan,0.0,0.0,-0.052750587,0.0,0.0,0.0,0.0,0.0,0.0,0.0,0.0,0.0
582696699,582596616,0.53158873,0.92657286,-0.017706696,0.26009178,-0.07827103,0.0,0.0,0.0,0.0,0.0,0.0,0.0,0.0,0.16320801,0.0,0.0,nan,0.0,0.0,-0.04727149,0.0,0.0,0.0,0.0,0.0,0.0,0.0,0.0,0.0
583194488,583094348,0.0128977895,0.18336535,0.11970157,0.23058963,-0.006319046,0.0,0.0,0.0,0.0,0.0,0.0,0.0,0.0,0.014373779,0.0,0.0,nan,0.0,0.0,-0.051570654,0.0,0.0,0.0,0.0,0.0,0.0,0.0,0.0,0.0
583692195,583592079,0.028578915,0.07688264,0.05347819,0.2393763,0.0031306744,0.0,0.0,0.0,0.0,0.0,0.0,0.0,0.0,-0.00046539307,0.0,0.0,nan,0.0,0.0,-0.047585964,0.0,0.0,0.0,0.0,0.0,0.0,0.0,0.0,0.0
584199909,584099766,0.37504327,0.13576733,0.1540239,0.21071506,0.09100282,0.0,0.0,0.0,0.0,0.0,0.0,0.0,0.0,0.08705902,0.0,0.0,nan,0.0,0.0,-0.037621737,0.0,0.0,0.0,0.0,0.0,0.0,0.0,0.0,0.0
584697643,584597498,-0.09169711,-0.038845874,0.07372321,0.09070516,0.101652384,0.0,0.0,0.0,0.0,0.0,0.0,0.0,0.0,-0.014030457,0.0,0.0,nan,0.0,0.0,-0.049506903,0.0,0.0,0.0,0.0,0.0,0.0,0.0,0.0,0.0
585195323,585095230,0.30836087,0.15461233,-0.00088270754,0.11540294,0.16358733,0.0,0.0,0.0,0.0,0.0,0.0,0.0,0.0,-0.037841797,0.0,0.0,nan,0.0,0.0,-0.04212141,0.0,0.0,0.0,0.0,0.0,0.0,0.0,0.0,0.0
585703026,585602916,0.32963437,-0.0778507,0.082028516,0.12076616,0.06783998,0.0,0.0,0.0,0.0,0.0,0.0,0.0,0.0,0.15680695,0.0,0.0,nan,0.0,0.0,-0.04880309,0.0,0.0,0.0,0.0,0.0,0.0,0.0,0.0,0.0
586200881,586100648,0.031080544,-0.104387,-0.03799166,0.08419418,0.032645702,0.0,0.0,0.0,0.0,0.0,0.0,0.0,0.0,-0.0832901,0.0,0.0,nan,0.0,0.0,-0.04946828,0.0,0.0,0.0,0.0,0.0,0.0,0.0,0.0,0.0
586698516,586598379,-0.18940608,-0.36851174,-0.123975575,0.020251274,-0.04152,0.0,0.0,0.0,0.0,0.0,0.0,0.0,0.0,0.22164917,0.0,0.0,nan,0.0,0.0,-0.06047201,0.0,0.0,0.0,0.0,0.0,0.0,0.0,0.0,0.0
587196279,587096111,-0.28496206,-0.07646873,-0.08603229,-0.00041937828,-0.08963239,0.0,0.0,0.0,0.0,0.0,0.0,0.0,0.0,-0.027748108,0.0,0.0,nan,0.0,0.0,-0.052781582,0.0,0.0,0.0,0.0,0.0,0.0,0.0,0.0,0.0
587693938,587593842,-0.09251295,-0.018824294,-0.17319837,-0.05227256,-0.084481955,0.0,0.0,0.0,0.0,0.0,0.0,0.0,0.0,0.04282379,0.0,0.0,nan,0.0,0.0,-0.058735132,0.0,0.0,0.0,0.0,0.0,0.0,0.0,0.0,0.0
588201605,588101528,0.064570084,-0.012324915,-0.15065801,-0.002375126,-0.08241689,0.0,0.0,0.0,0.0,0.0,0.0,0.0,0.0,0.15015411,0.0,0.0,nan,0.0,0.0,-0.05584693,0.0,0.0,0.0,0.0,0.0,0.0,0.0,0.0,0.0
588699659,588599259,-0.18539163,-0.25153166,-0.13365272,0.06468487,-0.16681445,0.0,0.0,0.0,0.0,0.0,0.0,0.0,0.0,0.08253479,0.0,0.0,nan,0.0,0.0,-0.067334175,0.0,0.0,0.0,0.0,0.0,0.0,0.0,0.0,0.0
589197080,589096991,-0.09082641,0.22982703,-0.06358007,0.12351346,-0.17536366,0.0,0.0,0.0,0.0,0.0,0.0,0.0,0.0,0.11465454,0.0,0.0,nan,0.0,0.0,-0.05362153,0.0,0.0,0.0,0.0,0.0,0.0,0.0,0.0,0.0
589694915,589594722,-0.11855449,-0.0029961523,-0.09797238,0.15286803,-0.19005537,0.0,0.0,0.0,0.0,0.0,0.0,0.0,0.0,0.056152344,0.0,0.0,nan,0.0,0.0,-0.045341015,0.0,0.0,0.0,0.0,0.0,0.0,0.0,0.0,0.0
590192850,590092453,0.016849587,-0.11857247,-0.2284565,0.21662164,-0.21195984,0.0,0.0,0.0,0.0,0.0,0.0,0.0,0.0,0.14146423,0.0,0.0,nan,0.0,0.0,0.009710312,0.0,0.0,0.0,0.0,0.0,0.0,0.0,0.0,0.0
590700600,590600138,-0.17814994,-0.10115026,-0.052850276,0.18572044,-0.23381484,0.0,0.0,0.0,0.0,0.0,0.0,0.0,0.0,0.16635132,0.0,0.0,nan,0.0,0.0,-0.006715536,0.0,0.0,0.0,0.0,0.0,0.0,0.0,0.0,0.0
591197994,591097869,-0.054152936,-0.093565986,-0.10950786,0.30544972,-0.22744238,0.0,0.0,0.0,0.0,0.0,0.0,0.0,0.0,0.12422943,0.0,0.0,nan,0.0,0.0,-0.008830547,0.0,0.0,0.0,0.0,0.0,0.0,0.0,0.0,0.0
591695751,591595599,-0.04649838,0.024003427,0.085789636,0.26369333,-0.35658646,0.0,0.0,0.0,0.0,0.0,0.0,0.0,0.0,0.12561798,0.0,0.0,nan,0.0,0.0,-0.017341137,0.0,0.0,0.0,0.0,0.0,0.0,0.0,0.0,0.0
592193533,592093330,0.24973144,0.21468392,0.083021365,0.35038078,-0.2665993,0.0,0.0,0.0,0.0,0.0,0.0,0.0,0.0,0.14076233,0.0,0.0,nan,0.0,0.0,-0.007815838,0.0,0.0,0.0,0.0,0.0,0.0,0.0,0.0,0.0
592701105,592601015,0.10606481,0.25985852,0.012408033,0.31672585,-0.21161652,0.0,0.0,0.0,0.0,0.0,0.0,0.0,0.0,0.36177826,0.0,0.0,nan,0.0,0.0,-0.024812937,0.0,0.0,0.0,0.0,0.0,0.0,0.0,0.0,0.0
593198897,593098746,0.05441628,0.30719385,0.053118214,0.33567834,-0.03631878,0.0,0.0,0.0,0.0,0.0,0.0,0.0,0.0,0.032600403,0.0,0.0,nan,0.0,0.0,-0.059763193,0.0,0.0,0.0,0.0,0.0,0.0,0.0,0.0,0.0
593696756,593596479,-0.15316877,-0.07452389,-0.07688096,0.26737893,-0.034642458,0.0,0.0,0.0,0.0,0.0,0.0,0.0,0.0,-0.02745819,0.0,0.0,nan,0.0,0.0,-0.021940231,0.0,0.0,0.0,0.0,0.0,0.0,0.0,0.0,0.0
594194378,594094206,0.18383774,0.21422642,-0.045663215,0.2908684,0.010526538,0.0,0.0,0.0,0.0,0.0,0.0,0.0,0.0,0.3502884,0.0,0.0,nan,0.0,0.0,-0.028648376,0.0,0.0,0.0,0.0,0.0,0.0,0.0,0.0,0.0
594702941,594601891,0.29043832,0.119648576,-0.0066313,0.33655298,0.052048802,0.0,0.0,0.0,0.0,0.0,0.0,0.0,0.0,0.2457962,0.0,0.0,nan,0.0,0.0,-0.035512447,0.0,0.0,0.0,0.0,0.0,0.0,0.0,0.0,0.0
595199754,595099621,0.03951402,0.08821048,-0.13492851,0.33996367,0.03194332,0.0,0.0,0.0,0.0,0.0,0.0,0.0,0.0,0.12568665,0.0,0.0,nan,0.0,0.0,-0.03069973,0.0,0.0,0.0,0.0,0.0,0.0,0.0,0.0,0.0
595697515,595597351,-0.113347046,0.20326313,-0.19395313,0.31571472,0.033655763,0.0,0.0,0.0,0.0,0.0,0.0,0.0,0.0,0.108444214,0.0,0.0,nan,0.0,0.0,-0.04615116,0.0,0.0,0.0,0.0,0.0,0.0,0.0,0.0,0.0
596195270,596095081,-0.11950652,-0.14793947,-0.097686574,0.17748058,0.009676695,0.0,0.0,0.0,0.0,0.0,0.0,0.0,0.0,0.28302002,0.0,0.0,nan,0.0,0.0,-0.036133528,0.0,0.0,0.0,0.0,0.0,0.0,0.0,0.0,0.0
596702874,596602765,-0.13262409,0.034038335,-0.20326334,0.18322289,-0.0015093088,0.0,0.0,0.0,0.0,0.0,0.0,0.0,0.0,0.16638947,0.0,0.0,nan,0.0,0.0,-0.04663968,0.0,0.0,0.0,0.0,0.0,0.0,0.0,0.0,0.0
597200623,597100494,-0.078136116,-0.08452093,0.037081987,0.17649972,-0.022353053,0.0,0.0,0.0,0.0,0.0,0.0,0.0,0.0,0.10071564,0.0,0.0,nan,0.0,0.0,-0.033376694,0.0,0.0,0.0,0.0,0.0,0.0,0.0,0.0,0.0
597698374,597598224,-0.241541,-0.04519973,0.020422783,0.17294264,-0.03619671,0.0,0.0,0.0,0.0,0.0,0.0,0.0,0.0,0.2748947,0.0,0.0,nan,0.0,0.0,-0.029664993,0.0,0.0,0.0,0.0,0.0,0.0,0.0,0.0,0.0
598196047,598095953,-0.12499546,-0.08803643,-0.036971174,0.18829179,-0.100702524,0.0,0.0,0.0,0.0,0.0,0.0,0.0,0.0,0.122680664,0.0,0.0,nan,0.0,0.0,-0.024585009,0.0,0.0,0.0,0.0,0.0,0.0,0.0,0.0,0.0
598693874,598593682,-0.23345238,-0.06457983,-0.106788404,0.13940263,-0.12674153,0.0,0.0,0.0,0.0,0.0,0.0,0.0,0.0,0.13410187,0.0,0.0,nan,0.0,0.0,-0.027405024,0.0,0.0,0.0,0.0,0.0,0.0,0.0,0.0,0.0
599201497,599101366,0.15962812,-0.044754617,0.04739985,0.26940048,-0.1631602,0.0,0.0,0.0,0.0,0.0,0.0,0.0,0.0,0.15766907,0.0,0.0,nan,0.0,0.0,-0.02196002,0.0,0.0,0.0,0.0,0.0,0.0,0.0,0.0,0.0
599699268,599599095,0.18165521,-0.35053697,0.29494593,0.2786467,-0.23436141,0.0,0.0,0.0,0.0,0.0,0.0,0.0,0.0,0.17321014,0.0,0.0,nan,0.0,0.0,-0.030529499,0.0,0.0,0.0,0.0,0.0,0.0,0.0,0.0,0.0
600196949,600096823,-0.012021047,-0.008872799,0.06262858,0.34040976,-0.33796537,0.0,0.0,0.0,0.0,0.0,0.0,0.0,0.0,0.24378204,0.0,0.0,nan,0.0,0.0,-0.008469343,0.0,0.0,0.0,0.0,0.0,0.0,0.0,0.0,0.0
600694642,600594552,0.17324114,0.043866858,0.09572279,0.3859477,-0.37765515,0.0,0.0,0.0,0.0,0.0,0.0,0.0,0.0,0.10066986,0.0,0.0,nan,0.0,0.0,0.004858494,0.0,0.0,0.0,0.0,0.0,0.0,0.0,0.0,0.0
601192419,601092281,0.46982574,-0.18454987,0.35488042,0.44110882,-0.48281837,0.0,0.0,0.0,0.0,0.0,0.0,0.0,0.0,0.13582611,0.0,0.0,nan,0.0,0.0,-0.012339592,0.0,0.0,0.0,0.0,0.0,0.0,0.0,0.0,0.0
601700404,601599963,0.03962329,0.028763209,0.13946587,0.43661153,-0.53734213,0.0,0.0,0.0,0.0,0.0,0.0,0.0,0.0,0.010360718,0.0,0.0,nan,0.0,0.0,0.011076212,0.0,0.0,0.0,0.0,0.0,0.0,0.0,0.0,0.0
602197843,602097692,-0.15022722,-0.087336905,0.081364185,0.35792047,-0.5320397,0.0,0.0,0.0,0.0,0.0,0.0,0.0,0.0,-0.104286194,0.0,0.0,nan,0.0,0.0,-0.0034852028,0.0,0.0,0.0,0.0,0.0,0.0,0.0,0.0,0.0
602695559,602595420,-0.060660727,-0.051204517,0.053837843,0.29910702,-0.5211647,0.0,0.0,0.0,0.0,0.0,0.0,0.0,0.0,-0.14881134,0.0,0.0,nan,0.0,0.0,-0.0031895638,0.0,0.0,0.0,0.0,0.0,0.0,0.0,0.0,0.0
603203278,603103102,-0.05587686,0.27100354,0.083674006,0.30713934,-0.5084902,0.0,0.0,0.0,0.0,0.0,0.0,0.0,0.0,0.0021438599,0.0,0.0,nan,0.0,0.0,0.0061438084,0.0,0.0,0.0,0.0,0.0,0.0,0.0,0.0,0.0
603700943,603600830,0.1296885,0.24213836,0.07842019,0.25709134,-0.48141104,0.0,0.0,0.0,0.0,0.0,0.0,0.0,0.0,0.1053772,0.0,0.0,nan,0.0,0.0,-0.0041410923,0.0,0.0,0.0,0.0,0.0,0.0,0.0,0.0,0.0
604198714,604098558,-0.17558298,0.30011708,-0.15532231,0.10478628,-0.41917557,0.0,0.0,0.0,0.0,0.0,0.0,0.0,0.0,0.026870728,0.0,0.0,nan,0.0,0.0,-0.0066976547,0.0,0.0,0.0,0.0,0.0,0.0,0.0,0.0,0.0
604696737,604596286,-0.12626253,0.23597795,-0.16093647,0.03923589,-0.39693856,0.0,0.0,0.0,0.0,0.0,0.0,0.0,0.0,-0.117996216,0.0,0.0,nan,0.0,0.0,-0.009935856,0.0,0.0,0.0,0.0,0.0,0.0,0.0,0.0,0.0
605194103,605094013,-0.6953162,0.28682476,0.13026537,0.00790596,-0.41541088,0.0,0.0,0.0,0.0,0.0,0.0,0.0,0.0,0.1568985,0.0,0.0,nan,0.0,0.0,-0.020528793,0.0,0.0,0.0,0.0,0.0,0.0,0.0,0.0,0.0
605702124,605601695,0.16786568,-0.08406842,-0.11807656,0.13300472,-0.30621585,0.0,0.0,0.0,0.0,0.0,0.0,0.0,0.0,-0.06362915,0.0,0.0,nan,0.0,0.0,-0.022572756,0.0,0.0,0.0,0.0,0.0,0.0,0.0,0.0,0.0
606199568,606099422,0.024666332,0.16685437,-0.007238739,0.07560253,-0.19787899,0.0,0.0,0.0,0.0,0.0,0.0,0.0,0.0,-0.16275024,0.0,0.0,nan,0.0,0.0,-0.03199172,0.0,0.0,0.0,0.0,0.0,0.0,0.0,0.0,0.0
606697247,606597149,-0.23225394,-0.05237755,0.012093981,0.0023796558,-0.095047235,0.0,0.0,0.0,0.0,0.0,0.0,0.0,0.0,0.0057907104,0.0,0.0,nan,0.0,0.0,-0.017184734,0.0,0.0,0.0,0.0,0.0,0.0,0.0,0.0,0.0
607195012,607094876,-0.07920967,0.1687742,-0.054361813,0.11280009,0.1468845,0.0,0.0,0.0,0.0,0.0,0.0,0.0,0.0,0.028877258,0.0,0.0,nan,0.0,0.0,-0.027050495,0.0,0.0,0.0,0.0,0.0,0.0,0.0,0.0,0.0
607692747,607592604,-0.14470944,0.19024006,0.010141343,0.1267077,0.19555563,0.0,0.0,0.0,0.0,0.0,0.0,0.0,0.0,-0.054901123,0.0,0.0,nan,0.0,0.0,-0.025571346,0.0,0.0,0.0,0.0,0.0,0.0,0.0,0.0,0.0
608200437,608100284,0.04585439,0.02319023,0.039862096,0.15982956,0.24582356,0.0,0.0,0.0,0.0,0.0,0.0,0.0,0.0,0.22444916,0.0,0.0,nan,0.0,0.0,-0.018829107,0.0,0.0,0.0,0.0,0.0,0.0,0.0,0.0,0.0
608698490,608598011,-0.063554764,0.072112486,-0.05087518,0.0537017,0.31149995,0.0,0.0,0.0,0.0,0.0,0.0,0.0,0.0,0.13899994,0.0,0.0,nan,0.0,0.0,-0.0097203255,0.0,0.0,0.0,0.0,0.0,0.0,0.0,0.0,0.0
609196039,609095737,-0.015883246,0.053449914,0.012903449,0.059096634,0.41110206,0.0,0.0,0.0,0.0,0.0,0.0,0.0,0.0,0.13648224,0.0,0.0,nan,0.0,0.0,-0.0166533,0.0,0.0,0.0,0.0,0.0,0.0,0.0,0.0,0.0
609693553,609593465,-0.18517354,0.3697301,0.074045904,0.01919347,0.45845795,0.0,0.0,0.0,0.0,0.0,0.0,0.0,0.0,-0.00037384033,0.0,0.0,nan,0.0,0.0,-0.020361185,0.0,0.0,0.0,0.0,0.0,0.0,0.0,0.0,0.0
610201240,610101144,0.05050955,0.05441205,-0.012451069,0.11423218,0.49976403,0.0,0.0,0.0,0.0,0.0,0.0,0.0,0.0,0.113586426,0.0,0.0,nan,0.0,0.0,-0.011560202,0.0,0.0,0.0,0.0,0.0,0.0,0.0,0.0,0.0
610699261,610598870,0.058992114,0.05517659,-0.103754625,0.09261599,0.48248732,0.0,0.0,0.0,0.0,0.0,0.0,0.0,0.0,0.06239319,0.0,0.0,nan,0.0,0.0,-0.013818741,0.0,0.0,0.0,0.0,0.0,0.0,0.0,0.0,0.0
611196783,611096596,0.066521786,-0.085663304,-0.049274243,0.088106185,0.49110448,0.0,0.0,0.0,0.0,0.0,0.0,0.0,0.0,-0.10758972,0.0,0.0,nan,0.0,0.0,-0.012415171,0.0,0.0,0.0,0.0,0.0,0.0,0.0,0.0,0.0
611694425,611594322,0.043032385,0.0117793735,-0.008545117,0.09591219,0.5120873,0.0,0.0,0.0,0.0,0.0,0.0,0.0,0.0,0.086387634,0.0,0.0,nan,0.0,0.0,-0.02232194,0.0,0.0,0.0,0.0,0.0,0.0,0.0,0.0,0.0
612202094,612102002,-0.034136526,-0.10967297,0.08164871,0.12484136,0.5124936,0.0,0.0,0.0,0.0,0.0,0.0,0.0,0.0,-0.015182495,0.0,0.0,nan,0.0,0.0,-0.0079648495,0.0,0.0,0.0,0.0,0.0,0.0,0.0,0.0,0.0
612700266,612599727,0.14097494,0.14974211,0.060057666,0.09721875,0.51447445,0.0,0.0,0.0,0.0,0.0,0.0,0.0,0.0,0.062278748,0.0,0.0,nan,0.0,0.0,0.015201092,0.0,0.0,0.0,0.0,0.0,0.0,0.0,0.0,0.0
613197638,613097453,-0.2289424,0.24692298,0.20385636,-0.015228331,0.506768,0.0,0.0,0.0,0.0,0.0,0.0,0.0,0.0,0.05643463,0.0,0.0,nan,0.0,0.0,-0.015396118,0.0,0.0,0.0,0.0,0.0,0.0,0.0,0.0,0.0
613695329,613595178,-0.0035654083,0.0926224,0.14248781,0.007989109,0.5291604,0.0,0.0,0.0,0.0,0.0,0.0,0.0,0.0,0.07271576,0.0,0.0,nan,0.0,0.0,0.008150339,0.0,0.0,0.0,0.0,0.0,0.0,0.0,0.0,0.0
614203009,614102857,0.22811626,-0.14948261,0.05459407,0.055588067,0.46946013,0.0,0.0,0.0,0.0,0.0,0.0,0.0,0.0,0.2740631,0.0,0.0,nan,0.0,0.0,0.013108969,0.0,0.0,0.0,0.0,0.0,0.0,0.0,0.0,0.0
614701018,614600582,0.040245056,0.101971224,0.020580621,0.012213528,0.46306515,0.0,0.0,0.0,0.0,0.0,0.0,0.0,0.0,-0.026184082,0.0,0.0,nan,0.0,0.0,0.020536661,0.0,0.0,0.0,0.0,0.0,0.0,0.0,0.0,0.0
615198395,615098307,0.048906855,-0.13356438,-0.1547659,0.04651326,0.41897428,0.0,0.0,0.0,0.0,0.0,0.0,0.0,0.0,-0.06059265,0.0,0.0,nan,0.0,0.0,0.024160385,0.0,0.0,0.0,0.0,0.0,0.0,0.0,0.0,0.0
615696450,615596031,-0.09271878,-0.21190059,-0.13904501,0.06145078,0.44482934,0.0,0.0,0.0,0.0,0.0,0.0,0.0,0.0,-0.008903503,0.0,0.0,nan,0.0,0.0,0.025982141,0.0,0.0,0.0,0.0,0.0,0.0,0.0,0.0,0.0
616193885,616093756,0.010634281,-0.083408415,-0.088020235,0.10482162,0.46996677,0.0,0.0,0.0,0.0,0.0,0.0,0.0,0.0,0.130867,0.0,0.0,nan,0.0,0.0,0.015290976,0.0,0.0,0.0,0.0,0.0,0.0,0.0,0.0,0.0
616701599,616601435,0.01231914,-0.11347139,-0.11401639,0.12680727,0.4451437,0.0,0.0,0.0,0.0,0.0,0.0,0.0,0.0,0.015083313,0.0,0.0,nan,0.0,0.0,0.006137848,0.0,0.0,0.0,0.0,0.0,0.0,0.0,0.0,0.0
617199268,617099159,0.015308499,-0.029108461,-0.0025588926,0.18954945,0.39531302,0.0,0.0,0.0,0.0,0.0,0.0,0.0,0.0,0.18341064,0.0,0.0,nan,0.0,0.0,-0.011070728,0.0,0.0,0.0,0.0,0.0,0.0,0.0,0.0,0.0
617697056,617596883,-0.043301973,-0.007877108,0.05558366,0.2202776,0.35187793,0.0,0.0,0.0,0.0,0.0,0.0,0.0,0.0,0.033302307,0.0,0.0,nan,0.0,0.0,-0.010822773,0.0,0.0,0.0,0.0,0.0,0.0,0.0,0.0,0.0
618194776,618094607,0.08878779,-0.053950064,-0.02560921,0.24879813,0.24416459,0.0,0.0,0.0,0.0,0.0,0.0,0.0,0.0,0.116371155,0.0,0.0,nan,0.0,0.0,-0.0043747425,0.0,0.0,0.0,0.0,0.0,0.0,0.0,0.0,0.0
618692429,618592330,-0.096359655,0.08717005,0.097602695,0.25286767,0.24710941,0.0,0.0,0.0,0.0,0.0,0.0,0.0,0.0,0.10031891,0.0,0.0,nan,0.0,0.0,0.00033926964,0.0,0.0,0.0,0.0,0.0,0.0,0.0,0.0,0.0
619200217,619100008,-0.03507333,0.02086425,0.21340425,0.13898525,0.15084183,0.0,0.0,0.0,0.0,0.0,0.0,0.0,0.0,-0.03705597,0.0,0.0,nan,0.0,0.0,-0.0030059814,0.0,0.0,0.0,0.0,0.0,0.0,0.0,0.0,0.0
619697827,619597732,0.01600234,0.015939876,0.06102915,0.0633893,0.06855857,0.0,0.0,0.0,0.0,0.0,0.0,0.0,0.0,-0.06262207,0.0,0.0,nan,0.0,0.0,-0.003019333,0.0,0.0,0.0,0.0,0.0,0.0,0.0,0.0,0.0
620195541,620095455,0.03744393,-0.13669567,-0.07894617,0.013036251,-0.020108342,0.0,0.0,0.0,0.0,0.0,0.0,0.0,0.0,-0.0040740967,0.0,0.0,nan,0.0,0.0,0.030169249,0.0,0.0,0.0,0.0,0.0,0.0,0.0,0.0,0.0
620703694,620603132,0.09588185,-0.1023408,-0.050013456,0.04204482,-0.10515511,0.0,0.0,0.0,0.0,0.0,0.0,0.0,0.0,-0.069625854,0.0,0.0,nan,0.0,0.0,0.03463459,0.0,0.0,0.0,0.0,0.0,0.0,0.0,0.0,0.0
621200947,621100855,0.0023919642,-0.061938897,0.09365022,0.15628827,-0.16638458,0.0,0.0,0.0,0.0,0.0,0.0,0.0,0.0,0.10800934,0.0,0.0,nan,0.0,0.0,0.031801224,0.0,0.0,0.0,0.0,0.0,0.0,0.0,0.0,0.0
621699610,621598578,-0.20702595,0.18775159,0.17792116,0.13089186,-0.1327517,0.0,0.0,0.0,0.0,0.0,0.0,0.0,0.0,0.18849945,0.0,0.0,nan,0.0,0.0,0.025963306,0.0,0.0,0.0,0.0,0.0,0.0,0.0,0.0,0.0
622196462,622096301,-0.037014514,-0.064064585,0.00038215343,0.10693976,-0.11766219,0.0,0.0,0.0,0.0,0.0,0.0,0.0,0.0,0.001625061,0.0,0.0,nan,0.0,0.0,0.031805992,0.0,0.0,0.0,0.0,0.0,0.0,0.0,0.0,0.0
622694189,622594023,-0.096510544,-0.030758187,0.054825846,0.08503038,-0.10160196,0.0,0.0,0.0,0.0,0.0,0.0,0.0,0.0,-0.07676697,0.0,0.0,nan,0.0,0.0,0.026273727,0.0,0.0,0.0,0.0,0.0,0.0,0.0,0.0,0.0
623201801,623101700,-0.16497718,0.07354663,0.043282196,0.06771785,0.010677576,0.0,0.0,0.0,0.0,0.0,0.0,0.0,0.0,-0.04827881,0.0,0.0,nan,0.0,0.0,0.038568974,0.0,0.0,0.0,0.0,0.0,0.0,0.0,0.0,0.0
623699521,623599422,0.05437493,0.23511048,0.03684461,0.11127332,0.11934888,0.0,0.0,0.0,0.0,0.0,0.0,0.0,0.0,-0.09352875,0.0,0.0,nan,0.0,0.0,0.039530516,0.0,0.0,0.0,0.0,0.0,0.0,0.0,0.0,0.0
624197354,624097144,-0.11308093,-0.055585664,-0.01250821,0.0653553,0.12934399,0.0,0.0,0.0,0.0,0.0,0.0,0.0,0.0,0.03315735,0.0,0.0,nan,0.0,0.0,0.03131056,0.0,0.0,0.0,0.0,0.0,0.0,0.0,0.0,0.0
624695137,624594866,0.0042027608,0.09245682,0.08753938,0.06510198,0.15714848,0.0,0.0,0.0,0.0,0.0,0.0,0.0,0.0,-0.045036316,0.0,0.0,nan,0.0,0.0,0.023804426,0.0,0.0,0.0,0.0,0.0,0.0,0.0,0.0,0.0
625192678,625092588,-0.10741021,-0.2383878,-0.08860971,-0.009269655,0.13833678,0.0,0.0,0.0,0.0,0.0,0.0,0.0,0.0,-0.07971954,0.0,0.0,nan,0.0,0.0,0.032204866,0.0,0.0,0.0,0.0,0.0,0.0,0.0,0.0,0.0
625700522,625600264,-0.01908272,0.0071964413,-0.14318904,0.07686481,0.15463245,0.0,0.0,0.0,0.0,0.0,0.0,0.0,0.0,0.068725586,0.0,0.0,nan,0.0,0.0,0.028377295,0.0,0.0,0.0,0.0,0.0,0.0,0.0,0.0,0.0
626198071,626097985,0.18397121,-0.16601768,-0.07467438,0.09848356,0.098071694,0.0,0.0,0.0,0.0,0.0,0.0,0.0,0.0,0.0032730103,0.0,0.0,nan,0.0,0.0,0.028007984,0.0,0.0,0.0,0.0,0.0,0.0,0.0,0.0,0.0
626695836,626595707,0.019132342,0.101668574,-0.09321662,0.06659444,0.13835263,0.0,0.0,0.0,0.0,0.0,0.0,0.0,0.0,0.04034424,0.0,0.0,nan,0.0,0.0,0.026191711,0.0,0.0,0.0,0.0,0.0,0.0,0.0,0.0,0.0
627193670,627093428,-0.15563704,0.090950266,0.063613445,-0.04032007,0.17298329,0.0,0.0,0.0,0.0,0.0,0.0,0.0,0.0,-0.051567078,0.0,0.0,nan,0.0,0.0,0.023739576,0.0,0.0,0.0,0.0,0.0,0.0,0.0,0.0,0.0
627701187,627601103,-0.24379179,0.24381116,0.10604924,-0.04163778,0.17414963,0.0,0.0,0.0,0.0,0.0,0.0,0.0,0.0,0.0014190674,0.0,0.0,nan,0.0,0.0,0.016424417,0.0,0.0,0.0,0.0,0.0,0.0,0.0,0.0,0.0
628198978,628098824,-0.1685687,0.13690747,-0.093197785,-0.06286585,0.21293497,0.0,0.0,0.0,0.0,0.0,0.0,0.0,0.0,-0.024665833,0.0,0.0,nan,0.0,0.0,0.04085636,0.0,0.0,0.0,0.0,0.0,0.0,0.0,0.0,0.0
628697045,628596545,-0.049693704,0.12472218,-0.027518883,-0.05447036,0.25961232,0.0,0.0,0.0,0.0,0.0,0.0,0.0,0.0,-0.15003204,0.0,0.0,nan,0.0,0.0,0.031975508,0.0,0.0,0.0,0.0,0.0,0.0,0.0,0.0,0.0
629194412,629094265,0.058963917,0.113721564,-0.12613055,-0.042440623,0.2612127,0.0,0.0,0.0,0.0,0.0,0.0,0.0,0.0,0.19857788,0.0,0.0,nan,0.0,0.0,0.014672995,0.0,0.0,0.0,0.0,0.0,0.0,0.0,0.0,0.0
629702400,629601940,-0.02158049,0.08225398,-0.07155302,0.09331703,0.22275198,0.0,0.0,0.0,0.0,0.0,0.0,0.0,0.0,0.05883789,0.0,0.0,nan,0.0,0.0,0.02600789,0.0,0.0,0.0,0.0,0.0,0.0,0.0,0.0,0.0
630199851,630099660,0.14925836,-0.073400006,0.046908665,0.22376533,0.16163921,0.0,0.0,0.0,0.0,0.0,0.0,0.0,0.0,-0.17736053,0.0,0.0,nan,0.0,0.0,0.034680843,0.0,0.0,0.0,0.0,0.0,0.0,0.0,0.0,0.0
630697524,630597380,0.12622505,-0.13979705,0.10341956,0.31683952,0.14143515,0.0,0.0,0.0,0.0,0.0,0.0,0.0,0.0,-0.13198853,0.0,0.0,nan,0.0,0.0,0.022622585,0.0,0.0,0.0,0.0,0.0,0.0,0.0,0.0,0.0
631195237,631095100,0.20271803,-0.36809143,0.15806688,0.33504567,0.09850633,0.0,0.0,0.0,0.0,0.0,0.0,0.0,0.0,0.078948975,0.0,0.0,nan,0.0,0.0,0.018803835,0.0,0.0,0.0,0.0,0.0,0.0,0.0,0.0,0.0
631702983,631602774,0.15629885,-0.07181932,0.1482645,0.43866006,0.1226691,0.0,0.0,0.0,0.0,0.0,0.0,0.0,0.0,-0.22574615,0.0,0.0,nan,0.0,0.0,0.02900815,0.0,0.0,0.0,0.0,0.0,0.0,0.0,0.0,0.0
632200632,632100494,-0.16645825,0.16557461,0.24513966,0.38034874,0.1615113,0.0,0.0,0.0,0.0,0.0,0.0,0.0,0.0,0.14418793,0.0,0.0,nan,0.0,0.0,0.03150654,0.0,0.0,0.0,0.0,0.0,0.0,0.0,0.0,0.0
632698712,632598213,0.028567687,0.10927348,0.10069829,0.3511981,0.2523172,0.0,0.0,0.0,0.0,0.0,0.0,0.0,0.0,-0.06626892,0.0,0.0,nan,0.0,0.0,0.03292656,0.0,0.0,0.0,0.0,0.0,0.0,0.0,0.0,0.0
633196049,633095933,-0.15730783,-0.12810169,0.08434953,0.281967,0.2399857,0.0,0.0,0.0,0.0,0.0,0.0,0.0,0.0,-0.16812897,0.0,0.0,nan,0.0,0.0,0.030921936,0.0,0.0,0.0,0.0,0.0,0.0,0.0,0.0,0.0
633693819,633593652,-0.24697205,0.2206579,-0.05372005,0.22041477,0.28903687,0.0,0.0,0.0,0.0,0.0,0.0,0.0,0.0,-0.09408569,0.0,0.0,nan,0.0,0.0,0.0263381,0.0,0.0,0.0,0.0,0.0,0.0,0.0,0.0,0.0
634201494,634101325,-0.10380455,0.106289804,0.15192595,0.2999987,0.35866308,0.0,0.0,0.0,0.0,0.0,0.0,0.0,0.0,-0.22370148,0.0,0.0,nan,0.0,0.0,0.031832933,0.0,0.0,0.0,0.0,0.0,0.0,0.0,0.0,0.0
634699173,634599044,-0.010773696,-0.033167124,-0.075626105,0.32928485,0.33526158,0.0,0.0,0.0,0.0,0.0,0.0,0.0,0.0,0.091293335,0.0,0.0,nan,0.0,0.0,0.04943919,0.0,0.0,0.0,0.0,0.0,0.0,0.0,0.0,0.0
635196904,635096763,-0.14810911,0.072520606,0.09533082,0.3867324,0.33156586,0.0,0.0,0.0,0.0,0.0,0.0,0.0,0.0,-0.07349396,0.0,0.0,nan,0.0,0.0,0.024886847,0.0,0.0,0.0,0.0,0.0,0.0,0.0,0.0,0.0
635694602,635594481,0.10691878,-0.07978996,0.21581683,0.4484656,0.28494847,0.0,0.0,0.0,0.0,0.0,0.0,0.0,0.0,-0.011192322,0.0,0.0,nan,0.0,0.0,0.027112484,0.0,0.0,0.0,0.0,0.0,0.0,0.0,0.0,0.0
636192424,636092200,0.0073526353,-0.31637132,-0.044343308,0.46767488,0.2066276,0.0,0.0,0.0,0.0,0.0,0.0,0.0,0.0,-0.10070038,0.0,0.0,nan,0.0,0.0,0.030225277,0.0,0.0,0.0,0.0,0.0,0.0,0.0,0.0,0.0
636699960,636599872,-0.203297,0.13263534,0.16883872,0.45520443,0.1726079,0.0,0.0,0.0,0.0,0.0,0.0,0.0,0.0,-0.12501526,0.0,0.0,nan,0.0,0.0,0.026626825,0.0,0.0,0.0,0.0,0.0,0.0,0.0,0.0,0.0
637197685,637097591,-0.31970188,0.15840232,0.092355795,0.36576176,0.1813662,0.0,0.0,0.0,0.0,0.0,0.0,0.0,0.0,-0.021354675,0.0,0.0,nan,0.0,0.0,0.023651838,0.0,0.0,0.0,0.0,0.0,0.0,0.0,0.0,0.0
637695399,637595309,-0.14641589,-0.098983906,0.078901656,0.3554991,0.16313136,0.0,0.0,0.0,0.0,0.0,0.0,0.0,0.0,-0.07186127,0.0,0.0,nan,0.0,0.0,0.026097298,0.0,0.0,0.0,0.0,0.0,0.0,0.0,0.0,0.0
638203065,638102981,0.03752327,-0.037469797,-0.025920097,0.303442,0.15679646,0.0,0.0,0.0,0.0,0.0,0.0,0.0,0.0,-0.28079224,0.0,0.0,nan,0.0,0.0,0.033569813,0.0,0.0,0.0,0.0,0.0,0.0,0.0,0.0,0.0
638701184,638600698,-0.11530274,0.111596756,-0.09335229,0.331322,0.12835073,0.0,0.0,0.0,0.0,0.0,0.0,0.0,0.0,-0.2164383,0.0,0.0,nan,0.0,0.0,0.02281475,0.0,0.0,0.0,0.0,0.0,0.0,0.0,0.0,0.0
639198562,639098416,-0.068566784,-0.045794547,-0.1702731,0.26892477,0.09756732,0.0,0.0,0.0,0.0,0.0,0.0,0.0,0.0,0.1002121,0.0,0.0,nan,0.0,0.0,0.027417898,0.0,0.0,0.0,0.0,0.0,0.0,0.0,0.0,0.0
639697244,639596133,-0.19713885,-0.053353332,-0.12005882,0.26281923,0.04285896,0.0,0.0,0.0,0.0,0.0,0.0,0.0,0.0,0.109817505,0.0,0.0,nan,0.0,0.0,0.03140521,0.0,0.0,0.0,0.0,0.0,0.0,0.0,0.0,0.0
640194098,640093850,0.014333517,0.14438874,0.00756127,0.2948479,0.07383573,0.0,0.0,0.0,0.0,0.0,0.0,0.0,0.0,0.26460266,0.0,0.0,nan,0.0,0.0,0.034089327,0.0,0.0,0.0,0.0,0.0,0.0,0.0,0.0,0.0
640701731,640601522,0.005511353,-0.14234602,-0.062288508,0.2972545,0.06783557,0.0,0.0,0.0,0.0,0.0,0.0,0.0,0.0,0.09385681,0.0,0.0,nan,0.0,0.0,0.040100098,0.0,0.0,0.0,0.0,0.0,0.0,0.0,0.0,0.0
641199505,641099239,0.030536477,0.042096958,-0.05311867,0.29077888,0.013375759,0.0,0.0,0.0,0.0,0.0,0.0,0.0,0.0,0.2182312,0.0,0.0,nan,0.0,0.0,0.035850048,0.0,0.0,0.0,0.0,0.0,0.0,0.0,0.0,0.0
641697049,641596956,0.008044597,-0.046189085,-0.083440095,0.26698846,-0.04124725,0.0,0.0,0.0,0.0,0.0,0.0,0.0,0.0,-0.115867615,0.0,0.0,nan,0.0,0.0,0.029361248,0.0,0.0,0.0,0.0,0.0,0.0,0.0,0.0,0.0
642194820,642094672,0.023957852,-0.10513468,0.012649691,0.17616242,-0.04904616,0.0,0.0,0.0,0.0,0.0,0.0,0.0,0.0,0.24894714,0.0,0.0,nan,0.0,0.0,0.013170958,0.0,0.0,0.0,0.0,0.0,0.0,0.0,0.0,0.0
642692528,642592389,0.29169336,-0.1032563,0.058101904,0.16241968,-0.0760169,0.0,0.0,0.0,0.0,0.0,0.0,0.0,0.0,0.043777466,0.0,0.0,nan,0.0,0.0,0.036131382,0.0,0.0,0.0,0.0,0.0,0.0,0.0,0.0,0.0
643200142,643100059,0.0046581887,0.08167867,0.04943964,0.022708774,-0.09689462,0.0,0.0,0.0,0.0,0.0,0.0,0.0,0.0,-0.04070282,0.0,0.0,nan,0.0,0.0,0.025011778,0.0,0.0,0.0,0.0,0.0,0.0,0.0,0.0,0.0
643698186,643597775,-0.036200687,0.11588415,0.058877576,-0.017644286,-0.03255284,0.0,0.0,0.0,0.0,0.0,0.0,0.0,0.0,0.02558136,0.0,0.0,nan,0.0,0.0,0.019005775,0.0,0.0,0.0,0.0,0.0,0.0,0.0,0.0,0.0
644195598,644095491,-0.073293805,0.15071099,0.044735342,-0.051261365,0.030783415,0.0,0.0,0.0,0.0,0.0,0.0,0.0,0.0,-0.03753662,0.0,0.0,nan,0.0,0.0,0.017623425,0.0,0.0,0.0,0.0,0.0,0.0,0.0,0.0,0.0
644703605,644603161,0.017379327,-0.013980536,0.04194651,-0.16522282,0.04788363,0.0,0.0,0.0,0.0,0.0,0.0,0.0,0.0,-0.12576294,0.0,0.0,nan,0.0,0.0,0.018505096,0.0,0.0,0.0,0.0,0.0,0.0,0.0,0.0,0.0
645201143,645100877,-0.10191374,0.093176275,-0.005443394,-0.30525482,0.0007901192,0.0,0.0,0.0,0.0,0.0,0.0,0.0,0.0,0.01625824,0.0,0.0,nan,0.0,0.0,0.021367311,0.0,0.0,0.0,0.0,0.0,0.0,0.0,0.0,0.0
645698802,645598593,-0.05755227,0.07039217,-0.12491864,-0.43120366,-0.018361568,0.0,0.0,0.0,0.0,0.0,0.0,0.0,0.0,0.023765564,0.0,0.0,nan,0.0,0.0,0.026572943,0.0,0.0,0.0,0.0,0.0,0.0,0.0,0.0,0.0
646196419,646096308,0.1110753,-0.034437474,0.1239216,-0.46919456,-0.051855445,0.0,0.0,0.0,0.0,0.0,0.0,0.0,0.0,-0.08352661,0.0,0.0,nan,0.0,0.0,0.028816223,0.0,0.0,0.0,0.0,0.0,0.0,0.0,0.0,0.0
646694166,646594023,-0.016458716,0.14948007,-0.044402894,-0.5605867,-0.05137825,0.0,0.0,0.0,0.0,0.0,0.0,0.0,0.0,-0.09677124,0.0,0.0,nan,0.0,0.0,0.027137518,0.0,0.0,0.0,0.0,0.0,0.0,0.0,0.0,0.0
647201794,647101692,0.015231954,-0.026368856,0.03981103,-0.53161347,-0.1001004,0.0,0.0,0.0,0.0,0.0,0.0,0.0,0.0,-0.3521347,0.0,0.0,nan,0.0,0.0,0.030697584,0.0,0.0,0.0,0.0,0.0,0.0,0.0,0.0,0.0
647699643,647599407,0.111041024,-0.06696103,0.013577356,-0.527668,-0.11895943,0.0,0.0,0.0,0.0,0.0,0.0,0.0,0.0,-0.0002975464,0.0,0.0,nan,0.0,0.0,0.03120637,0.0,0.0,0.0,0.0,0.0,0.0,0.0,0.0,0.0
648197221,648097122,0.031426355,-0.048476756,0.026513623,-0.4686368,-0.1451621,0.0,0.0,0.0,0.0,0.0,0.0,0.0,0.0,-0.09880829,0.0,0.0,nan,0.0,0.0,0.022526503,0.0,0.0,0.0,0.0,0.0,0.0,0.0,0.0,0.0
648694927,648594837,0.065126486,0.05627131,0.036656853,-0.43346798,-0.17474234,0.0,0.0,0.0,0.0,0.0,0.0,0.0,0.0,0.0104522705,0.0,0.0,nan,0.0,0.0,0.019390583,0.0,0.0,0.0,0.0,0.0,0.0,0.0,0.0,0.0
649202672,649102505,0.031943236,-0.03312185,0.049106833,-0.42806172,-0.20751166,0.0,0.0,0.0,0.0,0.0,0.0,0.0,0.0,0.019805908,0.0,0.0,nan,0.0,0.0,0.02885747,0.0,0.0,0.0,0.0,0.0,0.0,0.0,0.0,0.0
649700837,649600219,-0.051907655,0.10288732,0.009048246,-0.49862015,-0.2511691,0.0,0.0,0.0,0.0,0.0,0.0,0.0,0.0,0.057556152,0.0,0.0,nan,0.0,0.0,0.02784586,0.0,0.0,0.0,0.0,0.0,0.0,0.0,0.0,0.0
650198046,650097933,0.09091481,-0.031882007,0.14159517,-0.51950985,-0.25983238,0.0,0.0,0.0,0.0,0.0,0.0,0.0,0.0,-0.27011108,0.0,0.0,nan,0.0,0.0,0.01246953,0.0,0.0,0.0,0.0,0.0,0.0,0.0,0.0,0.0
650695756,650595647,0.025615841,0.14148122,-0.16770856,-0.5504529,-0.19772923,0.0,0.0,0.0,0.0,0.0,0.0,0.0,0.0,0.18697357,0.0,0.0,nan,0.0,0.0,0.019700766,0.0,0.0,0.0,0.0,0.0,0.0,0.0,0.0,0.0
651193464,651093361,0.03655773,0.049500875,0.01965314,-0.5397246,-0.21059358,0.0,0.0,0.0,0.0,0.0,0.0,0.0,0.0,0.0946579,0.0,0.0,nan,0.0,0.0,0.018869162,0.0,0.0,0.0,0.0,0.0,0.0,0.0,0.0,0.0
651701279,651601029,0.0035395548,0.07442325,0.0446057,-0.51576567,-0.20555604,0.0,0.0,0.0,0.0,0.0,0.0,0.0,0.0,0.14187622,0.0,0.0,nan,0.0,0.0,0.019024372,0.0,0.0,0.0,0.0,0.0,0.0,0.0,0.0,0.0
652198829,652098742,-0.025611378,0.04578333,0.04325416,-0.5254179,-0.19945443,0.0,0.0,0.0,0.0,0.0,0.0,0.0,0.0,-0.026687622,0.0,0.0,nan,0.0,0.0,0.024024725,0.0,0.0,0.0,0.0,0.0,0.0,0.0,0.0,0.0
652696588,652596456,0.23010908,-0.053985715,0.028052889,-0.43343484,-0.25472367,0.0,0.0,0.0,0.0,0.0,0.0,0.0,0.0,0.06437683,0.0,0.0,nan,0.0,0.0,0.02344346,0.0,0.0,0.0,0.0,0.0,0.0,0.0,0.0,0.0
653194332,653094169,-0.085920006,0.09405389,-0.078890234,-0.3861121,-0.2711283,0.0,0.0,0.0,0.0,0.0,0.0,0.0,0.0,0.13838959,0.0,0.0,nan,0.0,0.0,0.01409626,0.0,0.0,0.0,0.0,0.0,0.0,0.0,0.0,0.0
653692114,653591882,0.01323458,0.05942078,-0.05981739,-0.3395815,-0.26643443,0.0,0.0,0.0,0.0,0.0,0.0,0.0,0.0,0.1146698,0.0,0.0,nan,0.0,0.0,0.023649216,0.0,0.0,0.0,0.0,0.0,0.0,0.0,0.0,0.0
654199809,654099549,-0.05058136,0.059315715,-0.004116973,-0.27399167,-0.24570894,0.0,0.0,0.0,0.0,0.0,0.0,0.0,0.0,0.067733765,0.0,0.0,nan,0.0,0.0,0.015076637,0.0,0.0,0.0,0.0,0.0,0.0,0.0,0.0,0.0
654697381,654597261,0.17061491,-0.07206926,0.14310849,-0.18528585,-0.27073455,0.0,0.0,0.0,0.0,0.0,0.0,0.0,0.0,0.15538025,0.0,0.0,nan,0.0,0.0,0.015207052,0.0,0.0,0.0,0.0,0.0,0.0,0.0,0.0,0.0
655195105,655094974,0.0688867,0.01336528,0.03083292,-0.09827716,-0.2371918,0.0,0.0,0.0,0.0,0.0,0.0,0.0,0.0,0.20113373,0.0,0.0,nan,0.0,0.0,0.022640228,0.0,0.0,0.0,0.0,0.0,0.0,0.0,0.0,0.0
655702806,655602640,-0.26849234,0.30467373,-0.010313748,-0.07410156,-0.20371377,0.0,0.0,0.0,0.0,0.0,0.0,0.0,0.0,-0.0021133423,0.0,0.0,nan,0.0,0.0,0.016957045,0.0,0.0,0.0,0.0,0.0,0.0,0.0,0.0,0.0
656200452,656100352,-0.00337651,0.011432916,0.03024226,-0.0865801,-0.12953544,0.0,0.0,0.0,0.0,0.0,0.0,0.0,0.0,-0.077316284,0.0,0.0,nan,0.0,0.0,0.01262188,0.0,0.0,0.0,0.0,0.0,0.0,0.0,0.0,0.0
656698162,656598064,-0.04474254,0.07463377,-0.19976875,-0.08380249,-0.114988685,0.0,0.0,0.0,0.0,0.0,0.0,0.0,0.0,0.095695496,0.0,0.0,nan,0.0,0.0,0.003385067,0.0,0.0,0.0,0.0,0.0,0.0,0.0,0.0,0.0
657195889,657095776,0.07376324,-0.06310371,0.04523485,-0.09720704,-0.1512121,0.0,0.0,0.0,0.0,0.0,0.0,0.0,0.0,0.023025513,0.0,0.0,nan,0.0,0.0,0.012626648,0.0,0.0,0.0,0.0,0.0,0.0,0.0,0.0,0.0
657693636,657593488,-0.015199384,-0.06259063,-0.046315167,-0.08804476,-0.15996218,0.0,0.0,0.0,0.0,0.0,0.0,0.0,0.0,-0.28759003,0.0,0.0,nan,0.0,0.0,0.013745546,0.0,0.0,0.0,0.0,0.0,0.0,0.0,0.0,0.0
658201409,658101153,0.13295306,-0.0069630183,-0.075409904,-0.059356794,-0.18815202,0.0,0.0,0.0,0.0,0.0,0.0,0.0,0.0,0.030799866,0.0,0.0,nan,0.0,0.0,0.010340452,0.0,0.0,0.0,0.0,0.0,0.0,0.0,0.0,0.0
658699059,658598864,-0.033654258,0.09822442,0.007786666,-0.053976357,-0.18432093,0.0,0.0,0.0,0.0,0.0,0.0,0.0,0.0,0.16127777,0.0,0.0,nan,0.0,0.0,0.011909723,0.0,0.0,0.0,0.0,0.0,0.0,0.0,0.0,0.0
659196718,659096575,-0.021339701,0.10938557,-0.028214278,-0.08168207,-0.18098807,0.0,0.0,0.0,0.0,0.0,0.0,0.0,0.0,-0.024559021,0.0,0.0,nan,0.0,0.0,0.00444293,0.0,0.0,0.0,0.0,0.0,0.0,0.0,0.0,0.0
659704464,659604240,-0.0043520387,-0.052231617,-0.0770687,-0.08244537,-0.20418352,0.0,0.0,0.0,0.0,0.0,0.0,0.0,0.0,0.025253296,0.0,0.0,nan,0.0,0.0,0.00057935715,0.0,0.0,0.0,0.0,0.0,0.0,0.0,0.0,0.0
660192096,660091997,0.041805133,0.059425764,0.026592193,-0.13600619,-0.19865102,0.0,0.0,0.0,0.0,0.0,0.0,0.0,0.0,0.08860779,0.0,0.0,nan,0.0,0.0,0.01274991,0.0,0.0,0.0,0.0,0.0,0.0,0.0,0.0,0.0
660699747,660599662,0.027547207,-0.010201573,-0.031553052,-0.18119071,-0.22234815,0.0,0.0,0.0,0.0,0.0,0.0,0.0,0.0,-0.20236206,0.0,0.0,nan,0.0,0.0,0.004787922,0.0,0.0,0.0,0.0,0.0,0.0,0.0,0.0,0.0
661197535,661097372,0.2030841,-0.23930614,0.057099346,-0.18986538,-0.20795083,0.0,0.0,0.0,0.0,0.0,0.0,0.0,0.0,-0.008628845,0.0,0.0,nan,0.0,0.0,0.0051398277,0.0,0.0,0.0,0.0,0.0,0.0,0.0,0.0,0.0
661695235,661595082,0.16237453,-0.051836774,-0.0055536637,-0.06634912,-0.25497386,0.0,0.0,0.0,0.0,0.0,0.0,0.0,0.0,0.13282776,0.0,0.0,nan,0.0,0.0,0.004583597,0.0,0.0,0.0,0.0,0.0,0.0,0.0,0.0,0.0
662202902,662102747,-0.07407466,0.1278711,-0.0054831067,-0.09032465,-0.22371265,0.0,0.0,0.0,0.0,0.0,0.0,0.0,0.0,0.15222931,0.0,0.0,nan,0.0,0.0,0.003199339,0.0,0.0,0.0,0.0,0.0,0.0,0.0,0.0,0.0
662700542,662600456,-0.032539684,0.10027317,0.073219664,-0.040984683,-0.23074266,0.0,0.0,0.0,0.0,0.0,0.0,0.0,0.0,-0.012680054,0.0,0.0,nan,0.0,0.0,0.0042049885,0.0,0.0,0.0,0.0,0.0,0.0,0.0,0.0,0.0
663198418,663098166,0.103985146,0.0035330504,0.27818778,0.0152809,-0.26643106,0.0,0.0,0.0,0.0,0.0,0.0,0.0,0.0,0.14435577,0.0,0.0,nan,0.0,0.0,-0.0006353855,0.0,0.0,0.0,0.0,0.0,0.0,0.0,0.0,0.0
663696002,663595876,-0.19688234,0.20947954,-0.07024802,0.015573777,-0.29264182,0.0,0.0,0.0,0.0,0.0,0.0,0.0,0.0,0.005996704,0.0,0.0,nan,0.0,0.0,0.017937422,0.0,0.0,0.0,0.0,0.0,0.0,0.0,0.0,0.0
664193789,664093585,-0.08520627,0.111988515,-0.0022993558,-0.045371197,-0.25296968,0.0,0.0,0.0,0.0,0.0,0.0,0.0,0.0,0.18404388,0.0,0.0,nan,0.0,0.0,8.201599e-05,0.0,0.0,0.0,0.0,0.0,0.0,0.0,0.0,0.0
664701438,664601249,0.053850666,-0.019456446,-0.012177302,0.083910435,-0.3179385,0.0,0.0,0.0,0.0,0.0,0.0,0.0,0.0,0.07374573,0.0,0.0,nan,0.0,0.0,-0.008098841,0.0,0.0,0.0,0.0,0.0,0.0,0.0,0.0,0.0
665199100,665098958,-0.16174923,0.12414804,0.024449056,-0.028659001,-0.21077013,0.0,0.0,0.0,0.0,0.0,0.0,0.0,0.0,0.055137634,0.0,0.0,nan,0.0,0.0,-0.009663582,0.0,0.0,0.0,0.0,0.0,0.0,0.0,0.0,0.0
665696798,665596666,-0.400823,0.20701534,0.010954176,-0.07893247,-0.19274457,0.0,0.0,0.0,0.0,0.0,0.0,0.0,0.0,0.06212616,0.0,0.0,nan,0.0,0.0,-0.006590128,0.0,0.0,0.0,0.0,0.0,0.0,0.0,0.0,0.0
666194587,666094375,-0.018868623,0.09921051,0.09748553,-0.13218507,-0.09104873,0.0,0.0,0.0,0.0,0.0,0.0,0.0,0.0,-0.15904236,0.0,0.0,nan,0.0,0.0,0.008387804,0.0,0.0,0.0,0.0,0.0,0.0,0.0,0.0,0.0
666702122,666602038,0.02804209,0.103015065,0.13954614,-0.13918266,-0.08315951,0.0,0.0,0.0,0.0,0.0,0.0,0.0,0.0,0.021110535,0.0,0.0,nan,0.0,0.0,0.010886669,0.0,0.0,0.0,0.0,0.0,0.0,0.0,0.0,0.0
667199947,667099746,0.1020287,-0.00936196,-0.059101734,-0.08307897,-0.041207436,0.0,0.0,0.0,0.0,0.0,0.0,0.0,0.0,-0.111312866,0.0,0.0,nan,0.0,0.0,0.009807825,0.0,0.0,0.0,0.0,0.0,0.0,0.0,0.0,0.0
667697681,667597454,-0.21319398,0.17803441,-0.11427732,-0.108517885,0.0016530007,0.0,0.0,0.0,0.0,0.0,0.0,0.0,0.0,0.12187958,0.0,0.0,nan,0.0,0.0,0.017342806,0.0,0.0,0.0,0.0,0.0,0.0,0.0,0.0,0.0
668195290,668095162,0.05428599,0.07625392,0.04684556,-0.115128785,0.007333994,0.0,0.0,0.0,0.0,0.0,0.0,0.0,0.0,-0.09043884,0.0,0.0,nan,0.0,0.0,0.0116791725,0.0,0.0,0.0,0.0,0.0,0.0,0.0,0.0,0.0
668703246,668602824,-0.1744543,0.16356432,-0.06389892,-0.15798017,0.023672342,0.0,0.0,0.0,0.0,0.0,0.0,0.0,0.0,-0.11769104,0.0,0.0,nan,0.0,0.0,0.009958744,0.0,0.0,0.0,0.0,0.0,0.0,0.0,0.0,0.0
669200744,669100532,-0.09948885,0.04619991,-0.02007067,-0.17857793,0.045951866,0.0,0.0,0.0,0.0,0.0,0.0,0.0,0.0,-0.14975739,0.0,0.0,nan,0.0,0.0,0.009736061,0.0,0.0,0.0,0.0,0.0,0.0,0.0,0.0,0.0
669698677,669598239,0.05342679,-0.022372678,-0.003318577,-0.17804351,0.046115674,0.0,0.0,0.0,0.0,0.0,0.0,0.0,0.0,0.1681366,0.0,0.0,nan,0.0,0.0,0.010995388,0.0,0.0,0.0,0.0,0.0,0.0,0.0,0.0,0.0
670196034,670095947,0.05667983,-0.05041507,0.1345325,-0.18861482,0.05274552,0.0,0.0,0.0,0.0,0.0,0.0,0.0,0.0,0.14936066,0.0,0.0,nan,0.0,0.0,0.028338432,0.0,0.0,0.0,0.0,0.0,0.0,0.0,0.0,0.0
670693754,670593654,0.1273265,-0.086735986,0.08035104,-0.18815425,0.043459743,0.0,0.0,0.0,0.0,0.0,0.0,0.0,0.0,0.14970398,0.0,0.0,nan,0.0,0.0,0.0108447075,0.0,0.0,0.0,0.0,0.0,0.0,0.0,0.0,0.0
671201507,671101315,-0.019978708,0.033295345,-0.027267057,-0.21097049,0.10840275,0.0,0.0,0.0,0.0,0.0,0.0,0.0,0.0,0.15174103,0.0,0.0,nan,0.0,0.0,0.013065338,0.0,0.0,0.0,0.0,0.0,0.0,0.0,0.0,0.0
671699118,671599021,0.062469535,0.017484207,0.08083846,-0.19384128,0.1360831,0.0,0.0,0.0,0.0,0.0,0.0,0.0,0.0,-0.00982666,0.0,0.0,nan,0.0,0.0,0.013522148,0.0,0.0,0.0,0.0,0.0,0.0,0.0,0.0,0.0
672196818,672096728,0.13392939,0.02552466,-0.03242396,-0.12798667,0.15807652,0.0,0.0,0.0,0.0,0.0,0.0,0.0,0.0,-0.00038146973,0.0,0.0,nan,0.0,0.0,0.00647521,0.0,0.0,0.0,0.0,0.0,0.0,0.0,0.0,0.0
672694680,672594434,0.12810755,-0.08459413,0.063655,-0.089738786,0.17126407,0.0,0.0,0.0,0.0,0.0,0.0,0.0,0.0,-0.005744934,0.0,0.0,nan,0.0,0.0,0.02244091,0.0,0.0,0.0,0.0,0.0,0.0,0.0,0.0,0.0
673202519,673102095,-0.06007059,0.05978501,0.08315192,-0.10638807,0.19581203,0.0,0.0,0.0,0.0,0.0,0.0,0.0,0.0,0.03753662,0.0,0.0,nan,0.0,0.0,0.023657799,0.0,0.0,0.0,0.0,0.0,0.0,0.0,0.0,0.0
673699975,673599800,0.07226282,-0.066926666,0.11679989,-0.10444473,0.16369033,0.0,0.0,0.0,0.0,0.0,0.0,0.0,0.0,-0.19915009,0.0,0.0,nan,0.0,0.0,0.01638627,0.0,0.0,0.0,0.0,0.0,0.0,0.0,0.0,0.0
674197701,674097506,-0.026024941,-0.0100455675,0.053940143,-0.13347411,0.20521924,0.0,0.0,0.0,0.0,0.0,0.0,0.0,0.0,0.051887512,0.0,0.0,nan,0.0,0.0,0.015878916,0.0,0.0,0.0,0.0,0.0,0.0,0.0,0.0,0.0
674695352,674595212,0.091428116,-0.050958954,0.11469996,-0.17179684,0.2058217,0.0,0.0,0.0,0.0,0.0,0.0,0.0,0.0,-0.04349518,0.0,0.0,nan,0.0,0.0,0.026020765,0.0,0.0,0.0,0.0,0.0,0.0,0.0,0.0,0.0
675193112,675092917,-0.0526832,0.03464784,0.041947454,-0.25846845,0.23659715,0.0,0.0,0.0,0.0,0.0,0.0,0.0,0.0,0.08589172,0.0,0.0,nan,0.0,0.0,0.017874002,0.0,0.0,0.0,0.0,0.0,0.0,0.0,0.0,0.0
675700660,675600577,-0.031653263,-0.045038894,0.0103091365,-0.3557893,0.26268604,0.0,0.0,0.0,0.0,0.0,0.0,0.0,0.0,0.03907776,0.0,0.0,nan,0.0,0.0,0.012445927,0.0,0.0,0.0,0.0,0.0,0.0,0.0,0.0,0.0
676198364,676098282,-0.2324051,0.10385898,-0.07008168,-0.5160637,0.38923842,0.0,0.0,0.0,0.0,0.0,0.0,0.0,0.0,0.12528229,0.0,0.0,nan,0.0,0.0,0.015416861,0.0,0.0,0.0,0.0,0.0,0.0,0.0,0.0,0.0
676696101,676595987,0.15902525,-0.2962107,-0.14219281,-0.560472,0.40096307,0.0,0.0,0.0,0.0,0.0,0.0,0.0,0.0,0.21842957,0.0,0.0,nan,0.0,0.0,0.026659489,0.0,0.0,0.0,0.0,0.0,0.0,0.0,0.0,0.0
677203851,677103645,0.11231759,-0.12790363,0.122194275,-0.676424,0.44150695,0.0,0.0,0.0,0.0,0.0,0.0,0.0,0.0,0.098213196,0.0,0.0,nan,0.0,0.0,0.013360739,0.0,0.0,0.0,0.0,0.0,0.0,0.0,0.0,0.0
677691797,677591396,0.09406604,-0.06401553,0.035629317,-0.6930821,0.4615978,0.0,0.0,0.0,0.0,0.0,0.0,0.0,0.0,0.082984924,0.0,0.0,nan,0.0,0.0,0.0060682297,0.0,0.0,0.0,0.0,0.0,0.0,0.0,0.0,0.0
678199140,678099054,-0.18236417,0.07692769,0.0056733796,-0.7712777,0.5331627,0.0,0.0,0.0,0.0,0.0,0.0,0.0,0.0,0.00090789795,0.0,0.0,nan,0.0,0.0,0.010786295,0.0,0.0,0.0,0.0,0.0,0.0,0.0,0.0,0.0
678696958,678596758,-0.0021576434,-0.039270926,0.045609668,-0.64696866,0.47834516,0.0,0.0,0.0,0.0,0.0,0.0,0.0,0.0,0.06342316,0.0,0.0,nan,0.0,0.0,0.009755611,0.0,0.0,0.0,0.0,0.0,0.0,0.0,0.0,0.0
679194615,679094462,0.008775819,-0.10888008,0.0012733113,-0.631265,0.40249723,0.0,0.0,0.0,0.0,0.0,0.0,0.0,0.0,-0.03189087,0.0,0.0,nan,0.0,0.0,0.0040979385,0.0,0.0,0.0,0.0,0.0,0.0,0.0,0.0,0.0
679702265,679602120,-0.05549179,0.042042997,-0.08366315,-0.67442745,0.40382808,0.0,0.0,0.0,0.0,0.0,0.0,0.0,0.0,0.108078,0.0,0.0,nan,0.0,0.0,0.0133636,0.0,0.0,0.0,0.0,0.0,0.0,0.0,0.0,0.0
680200017,680099824,0.048606403,-0.01621646,-0.087840155,-0.71149075,0.37652475,0.0,0.0,0.0,0.0,0.0,0.0,0.0,0.0,-0.018577576,0.0,0.0,nan,0.0,0.0,0.0083909035,0.0,0.0,0.0,0.0,0.0,0.0,0.0,0.0,0.0
680697609,680597529,-0.017127886,-0.05093818,-0.10830122,-0.73325515,0.35029012,0.0,0.0,0.0,0.0,0.0,0.0,0.0,0.0,0.05130005,0.0,0.0,nan,0.0,0.0,0.014593124,0.0,0.0,0.0,0.0,0.0,0.0,0.0,0.0,0.0
681195336,681095231,0.10528147,-0.08021161,-0.06454265,-0.70725965,0.33918166,0.0,0.0,0.0,0.0,0.0,0.0,0.0,0.0,0.062820435,0.0,0.0,nan,0.0,0.0,0.012061596,0.0,0.0,0.0,0.0,0.0,0.0,0.0,0.0,0.0
681693053,681592935,-0.07982524,0.08267929,-0.10705997,-0.6685815,0.33962834,0.0,0.0,0.0,0.0,0.0,0.0,0.0,0.0,-0.122558594,0.0,0.0,nan,0.0,0.0,0.019056559,0.0,0.0,0.0,0.0,0.0,0.0,0.0,0.0,0.0
682201084,682100591,-0.06111943,0.09375921,-0.017411482,-0.6065713,0.32050174,0.0,0.0,0.0,0.0,0.0,0.0,0.0,0.0,0.24414825,0.0,0.0,nan,0.0,0.0,0.004208803,0.0,0.0,0.0,0.0,0.0,0.0,0.0,0.0,0.0
682698378,682598294,0.2666514,-0.15950021,0.06360276,-0.5049505,0.25585735,0.0,0.0,0.0,0.0,0.0,0.0,0.0,0.0,0.05342102,0.0,0.0,nan,0.0,0.0,0.01076889,0.0,0.0,0.0,0.0,0.0,0.0,0.0,0.0,0.0
683196086,683095996,0.09567323,-0.07744134,0.015448829,-0.44732273,0.22578228,0.0,0.0,0.0,0.0,0.0,0.0,0.0,0.0,0.13220215,0.0,0.0,nan,0.0,0.0,0.008904457,0.0,0.0,0.0,0.0,0.0,0.0,0.0,0.0,0.0
683703750,683603653,-0.018323798,0.048865296,0.12776601,-0.39232385,0.23038268,0.0,0.0,0.0,0.0,0.0,0.0,0.0,0.0,0.19921112,0.0,0.0,nan,0.0,0.0,0.008946419,0.0,0.0,0.0,0.0,0.0,0.0,0.0,0.0,0.0
684201629,684101355,0.15507558,-0.07577053,0.074423134,-0.4324684,0.2456721,0.0,0.0,0.0,0.0,0.0,0.0,0.0,0.0,0.051841736,0.0,0.0,nan,0.0,0.0,0.01845789,0.0,0.0,0.0,0.0,0.0,0.0,0.0,0.0,0.0
684699154,684599057,0.013838347,-0.006847146,-0.0047487337,-0.47577286,0.24486911,0.0,0.0,0.0,0.0,0.0,0.0,0.0,0.0,0.24794006,0.0,0.0,nan,0.0,0.0,0.027118444,0.0,0.0,0.0,0.0,0.0,0.0,0.0,0.0,0.0
685196882,685096759,0.06275035,0.051259898,-0.056247268,-0.45472288,0.24225914,0.0,0.0,0.0,0.0,0.0,0.0,0.0,0.0,-0.05179596,0.0,0.0,nan,0.0,0.0,0.006689787,0.0,0.0,0.0,0.0,0.0,0.0,0.0,0.0,0.0
685694604,685594461,-0.07111978,0.0716044,-0.073294505,-0.4457487,0.210132,0.0,0.0,0.0,0.0,0.0,0.0,0.0,0.0,-0.092659,0.0,0.0,nan,0.0,0.0,0.017368078,0.0,0.0,0.0,0.0,0.0,0.0,0.0,0.0,0.0
686202299,686102117,0.024737507,-0.10312223,0.07858244,-0.42714143,0.19080997,0.0,0.0,0.0,0.0,0.0,0.0,0.0,0.0,0.07019043,0.0,0.0,nan,0.0,0.0,0.008047581,0.0,0.0,0.0,0.0,0.0,0.0,0.0,0.0,0.0
686700350,686599818,0.19321972,-0.079430416,0.23820263,-0.4302746,0.20224476,0.0,0.0,0.0,0.0,0.0,0.0,0.0,0.0,0.09573364,0.0,0.0,nan,0.0,0.0,0.0052826405,0.0,0.0,0.0,0.0,0.0,0.0,0.0,0.0,0.0
687197691,687097519,0.058324814,-0.12161991,-0.08481754,-0.36565948,0.14698017,0.0,0.0,0.0,0.0,0.0,0.0,0.0,0.0,-0.2676773,0.0,0.0,nan,0.0,0.0,0.008070469,0.0,0.0,0.0,0.0,0.0,0.0,0.0,0.0,0.0
687695303,687595220,-0.35282123,0.19094358,-0.15541969,-0.40284204,0.15860307,0.0,0.0,0.0,0.0,0.0,0.0,0.0,0.0,-0.17041779,0.0,0.0,nan,0.0,0.0,0.013522148,0.0,0.0,0.0,0.0,0.0,0.0,0.0,0.0,0.0
688193007,688092921,0.13748257,-0.045466475,0.1069476,-0.20866323,0.11065614,0.0,0.0,0.0,0.0,0.0,0.0,0.0,0.0,-0.06528473,0.0,0.0,nan,0.0,0.0,0.005739689,0.0,0.0,0.0,0.0,0.0,0.0,0.0,0.0,0.0
688700703,688600576,-0.1885003,0.072017275,0.032573186,-0.17027211,0.06800413,0.0,0.0,0.0,0.0,0.0,0.0,0.0,0.0,0.25556183,0.0,0.0,nan,0.0,0.0,0.0045979023,0.0,0.0,0.0,0.0,0.0,0.0,0.0,0.0,0.0
689198451,689098276,-0.07569487,-0.05473584,-0.007364069,-0.13022089,0.07531488,0.0,0.0,0.0,0.0,0.0,0.0,0.0,0.0,0.13613129,0.0,0.0,nan,0.0,0.0,0.013658524,0.0,0.0,0.0,0.0,0.0,0.0,0.0,0.0,0.0
689696117,689595977,0.17348003,-0.10749994,-0.09378298,-0.10826421,0.09163964,0.0,0.0,0.0,0.0,0.0,0.0,0.0,0.0,0.05278778,0.0,0.0,nan,0.0,0.0,0.013783693,0.0,0.0,0.0,0.0,0.0,0.0,0.0,0.0,0.0
690193823,690093677,-0.077037804,0.04364254,-0.287782,-0.1567061,0.14351535,0.0,0.0,0.0,0.0,0.0,0.0,0.0,0.0,-0.0019378662,0.0,0.0,nan,0.0,0.0,-0.0014083385,0.0,0.0,0.0,0.0,0.0,0.0,0.0,0.0,0.0
690701500,690601331,-0.22009048,0.105669774,-0.11425659,-0.22600126,0.21172404,0.0,0.0,0.0,0.0,0.0,0.0,0.0,0.0,0.13207245,0.0,0.0,nan,0.0,0.0,0.0028133392,0.0,0.0,0.0,0.0,0.0,0.0,0.0,0.0,0.0
691199471,691099031,0.04066312,-0.01501775,0.07385813,-0.49611044,0.3392098,0.0,0.0,0.0,0.0,0.0,0.0,0.0,0.0,0.12796783,0.0,0.0,nan,0.0,0.0,0.009434223,0.0,0.0,0.0,0.0,0.0,0.0,0.0,0.0,0.0
691696992,691596731,0.18387039,-0.10926357,0.06506467,-0.54576254,0.34998584,0.0,0.0,0.0,0.0,0.0,0.0,0.0,0.0,0.14830017,0.0,0.0,nan,0.0,0.0,0.003075838,0.0,0.0,0.0,0.0,0.0,0.0,0.0,0.0,0.0
692194633,692094430,-0.21431862,0.104925744,0.08198634,-0.5402167,0.39425504,0.0,0.0,0.0,0.0,0.0,0.0,0.0,0.0,0.0015869141,0.0,0.0,nan,0.0,0.0,0.008215666,0.0,0.0,0.0,0.0,0.0,0.0,0.0,0.0,0.0
692702174,692602084,0.062319133,-0.017551307,-0.04251613,-0.5294256,0.40024066,0.0,0.0,0.0,0.0,0.0,0.0,0.0,0.0,0.005622864,0.0,0.0,nan,0.0,0.0,0.008924007,0.0,0.0,0.0,0.0,0.0,0.0,0.0,0.0,0.0
693199873,693099783,0.22329302,-0.10393098,0.08367334,-0.49992657,0.3983661,0.0,0.0,0.0,0.0,0.0,0.0,0.0,0.0,0.0015945435,0.0,0.0,nan,0.0,0.0,-0.0009531975,0.0,0.0,0.0,0.0,0.0,0.0,0.0,0.0,0.0
693697583,693597482,0.13184416,-0.09433786,0.0777393,-0.50480676,0.43460548,0.0,0.0,0.0,0.0,0.0,0.0,0.0,0.0,-0.018554688,0.0,0.0,nan,0.0,0.0,0.0054388046,0.0,0.0,0.0,0.0,0.0,0.0,0.0,0.0,0.0
694195379,694095181,0.09818912,-0.0054715574,0.13678746,-0.63955665,0.51650095,0.0,0.0,0.0,0.0,0.0,0.0,0.0,0.0,0.070236206,0.0,0.0,nan,0.0,0.0,0.01598382,0.0,0.0,0.0,0.0,0.0,0.0,0.0,0.0,0.0
694702939,694602834,-0.07765971,-0.01916384,0.09134096,-0.840436,0.5635202,0.0,0.0,0.0,0.0,0.0,0.0,0.0,0.0,0.013038635,0.0,0.0,nan,0.0,0.0,0.009047747,0.0,0.0,0.0,0.0,0.0,0.0,0.0,0.0,0.0
695200625,695100532,0.08958671,-0.097796924,0.025310569,-0.7267587,0.5024681,0.0,0.0,0.0,0.0,0.0,0.0,0.0,0.0,-0.008468628,0.0,0.0,nan,0.0,0.0,0.006995678,0.0,0.0,0.0,0.0,0.0,0.0,0.0,0.0,0.0
695698633,695598231,0.18050535,-0.1526522,0.08362171,-0.7458143,0.49569297,0.0,0.0,0.0,0.0,0.0,0.0,0.0,0.0,0.027046204,0.0,0.0,nan,0.0,0.0,0.011331797,0.0,0.0,0.0,0.0,0.0,0.0,0.0,0.0,0.0
