timestamp,timestamp_sample,lat,lon,alt,alt_ellipsoid,delta_alt,eph,epv,terrain_alt,lat_lon_reset_counter,alt_reset_counter,terrain_alt_valid,dead_reckoning
540308670,540308068,42.358581660453204,-71.08728605522087,0.48036766,-29.319532,-0.0,2.6502168,2.6203651,0.38808823,2,0,1,0
541308652,541307953,42.3585820777493,-71.08728754614197,0.50418377,-29.195515,-0.0,2.645354,2.6191783,0.41693926,2,0,1,0
542308208,542307838,42.35858236379771,-71.08728893359319,0.5432248,-29.057175,-0.0,2.645717,2.6193662,0.45242262,2,0,1,0
543308093,543307723,42.35858263013701,-71.08729050483177,0.6058798,-28.91322,-0.0,2.6496482,2.6202357,0.5,2,0,1,0
544308288,544307609,42.358582955042095,-71.0872907312242,0.6421666,-28.757233,-0.0,2.6439245,2.6192436,0.535203,2,0,1,0
545308209,545307494,42.358583454663304,-71.08729072991879,0.6577363,-28.641865,-0.0,2.644868,2.6200745,0.54779196,2,0,1,0
546308129,546307380,42.35858338920013,-71.0872911171144,0.6792555,-28.520344,-0.0,2.6472654,2.620598,0.5792966,2,0,1,0
547307978,547307266,42.35858386504939,-71.08729043820207,0.67838335,-28.421217,-0.0,2.649066,2.6215231,0.56798077,2,0,1,0
548307786,548307152,42.358584391768574,-71.0872898515099,0.66444445,-28.335257,-0.0,2.650174,2.6214902,0.54605436,2,0,1,0
549307653,549307038,42.35858524239599,-71.08728894054734,0.6313524,-28.268047,-0.0,2.652424,2.622399,0.5261264,2,0,1,0
550307638,550306924,42.358585873089005,-71.08728917285933,0.62436247,-28.175138,-0.0,2.650587,2.6214578,0.53476715,2,0,1,0
551307578,551306811,42.35858606685583,-71.08728911630345,0.6495023,-28.0505,-0.0,2.64789,2.6202748,0.5609603,2,0,1,0
552307409,552306698,42.35858670941883,-71.08728943341026,0.6855607,-27.932793,-0.0,2.646594,2.6202285,0.5865731,2,0,1,0
553301981,553296586,42.358586986833075,-71.08728983302227,0.6945243,-27.891516,-0.0,2.6479585,2.6200125,0.59290934,2,0,1,0
554307065,554306472,42.358587311748586,-71.08729086968492,0.68417645,-27.877934,-0.0,2.6411517,2.6185026,0.58850384,2,0,1,0
555307024,555306360,42.35858668032674,-71.08729017401193,0.71454716,-27.840473,-0.0,2.6402414,2.6181304,0.6242399,2,0,1,0
556306673,556306247,42.358586222190645,-71.0872898648122,0.7560487,-27.80748,-0.0,2.6430573,2.6187341,0.6603656,2,0,1,0
557306811,557306135,42.35858669406228,-71.0872898284636,0.7862277,-27.796627,-0.0,2.6396968,2.6184695,0.69063616,2,0,1,0
558306439,558306022,42.35858703571971,-71.08728979952568,0.8159795,-27.77849,-0.0,2.6461313,2.6201067,0.70492125,2,0,1,0
559306634,559305910,42.358587450012216,-71.08729010692056,0.81813335,-27.794811,-0.0,2.640845,2.6192465,0.72327185,2,0,1,0
560306476,560305798,42.358587604386756,-71.08728997115553,0.80598116,-27.828226,-0.0,2.6415632,2.619937,0.70223093,2,0,1,0
561306360,561305687,42.358587954779445,-71.08728991871139,0.8004327,-27.843304,-0.0,2.643054,2.6201763,0.6995034,2,0,1,0
562306230,562305575,42.358587560311754,-71.08728955479829,0.7706046,-27.879087,-0.0,2.642356,2.6202726,0.6786752,2,0,1,0
563305931,563305464,42.35858732418968,-71.08728877906623,0.77697515,-27.880505,-0.0,2.6481144,2.6207478,0.6864414,2,0,1,0
564305722,564305353,42.358586786359965,-71.0872880507411,0.7638583,-27.903774,-0.0,2.647976,2.6210487,0.6604948,2,0,1,0
565305637,565305242,42.358586025019605,-71.08728788724446,0.75629425,-27.913979,-0.0,2.6512346,2.6215553,0.6653261,2,0,1,0
566305441,566305131,42.35858464816255,-71.08728739680448,0.7449131,-27.91755,-0.0,2.6504388,2.6216042,0.64756536,2,0,1,0
567305640,567305020,42.35858365120856,-71.0872854448695,0.7352581,-27.92864,-0.0,2.6481812,2.6213572,0.6349144,2,0,1,0
568305220,568304909,42.35858345716608,-71.08728232704489,0.69874287,-27.974483,-0.0,2.650992,2.622269,0.60111904,2,0,1,0
569305263,569304798,42.35858187272316,-71.08728177435304,0.6717653,-28.01714,-0.0,2.6604474,2.623085,0.582438,2,0,1,0
570305006,570304687,42.35858145527239,-71.0872810818344,0.640779,-28.07399,-0.0,2.6633263,2.623885,0.5577707,2,0,1,0
571304941,571304577,42.35858130062802,-71.08728002454998,0.6658039,-28.079735,-0.0,2.6704981,2.624666,0.57334137,2,0,1,0
572304866,572304466,42.35858167959372,-71.08727967153011,0.66660404,-28.113384,-0.0,2.6756845,2.625836,0.57385015,2,0,1,0
573304687,573304355,42.35858096733946,-71.08727914712401,0.6846342,-28.137249,-0.0,2.6782053,2.6256747,0.5889964,2,0,1,0
574304665,574304245,42.35858025841284,-71.08727888775715,0.7102146,-28.15618,-0.0,2.6750612,2.6254094,0.62015486,2,0,1,0
575304798,575304134,42.35857960433362,-71.08727847049147,0.79800415,-28.132673,-0.0,2.6652145,2.623751,0.68723154,2,0,1,0
576304334,576304023,42.35857903151154,-71.08727684540993,0.8118539,-28.175165,-0.0,2.6711397,2.6244032,0.6909671,2,0,1,0
577304232,577303912,42.358577765401904,-71.08727644337185,0.8429532,-28.196918,-0.0,2.6730218,2.62429,0.74498224,2,0,1,0
578304260,578303801,42.358577579257854,-71.08727501662094,0.9116535,-28.181501,-0.0,2.6760857,2.6243427,0.8099003,2,0,1,0
579304062,579303690,42.35857726364351,-71.08727402026238,1.0080028,-28.147623,-0.0,2.6763966,2.624681,0.8905015,2,0,1,0
580304243,580303579,42.35857625381978,-71.08727374157053,1.0483747,-28.191793,-0.0,2.6740758,2.6244974,0.92097664,2,0,1,0
581303844,581303473,42.35857627219752,-71.08727258715223,1.0130143,-28.318132,-0.0,2.678,2.6253548,0.8885946,2,0,1,0
582303694,582303357,42.358575030613146,-71.08726950007645,0.9438329,-28.468578,-0.0,2.6851146,2.6259503,0.83727646,2,0,1,0
583303649,583303245,42.35857428699406,-71.08726982005228,0.91463375,-28.597878,-0.0,2.6865373,2.6255548,0.82518005,2,0,1,0
584303599,584303133,42.358573315556896,-71.08727033796815,0.9606533,-28.641798,-0.0,2.685996,2.6249328,0.86666536,2,0,1,0
585303771,585303021,42.35857241494732,-71.08727139177442,0.9899564,-28.700155,-0.0,2.6769245,2.624461,0.89317656,2,0,1,0
586303293,586302909,42.35857071490664,-71.08727166035594,0.97900677,-28.761852,-0.0,2.6876705,2.6250856,0.8678465,2,0,1,0
587303502,587302797,42.35857062322085,-71.0872706080089,0.9355755,-28.882757,-0.0,2.6799016,2.6250286,0.8272419,2,0,1,0
588303434,588302684,42.358570885568334,-71.08727042507039,0.866343,-29.010271,-0.0,2.6745415,2.6234367,0.75806713,2,0,1,0
589303159,589302571,42.35857084874267,-71.08726979815101,0.823133,-29.110228,-0.0,2.6734223,2.6234517,0.7244077,2,0,1,0
590303228,590302458,42.358570771894364,-71.0872688163923,0.788146,-29.212181,-0.0,2.6756713,2.6234577,0.7042537,2,0,1,0
591302688,591302345,42.35857103958317,-71.08726709447906,0.7478075,-29.315151,-0.0,2.6894267,2.625388,0.65931034,2,0,1,0
592302709,592302231,42.358570558183104,-71.08726601296893,0.76549006,-29.396976,-0.0,2.6919565,2.6253762,0.6826253,2,0,1,0
593312715,593312116,42.358568983429215,-71.0872675069851,0.80141926,-29.477516,-0.0,2.68866,2.6261961,0.7046323,2,0,1,0
594307393,594302003,42.35856756200988,-71.08726906725596,0.8202386,-29.551292,-0.0,2.693214,2.6261964,0.7308121,2,0,1,0
595302498,595301888,42.35856473097051,-71.08727167718193,0.8245034,-29.647333,-0.0,2.6954064,2.6267853,0.71123934,2,0,1,0
596312415,596311772,42.358564701630705,-71.08727335428641,0.8008261,-29.765545,-0.0,2.6976848,2.626577,0.6979866,2,0,1,0
597301972,597301658,42.35856485687996,-71.08727362106083,0.7933645,-29.837128,-0.0,2.7071893,2.6271732,0.6967039,2,0,1,0
598302154,598301543,42.358564579038905,-71.0872735084029,0.82003784,-29.8888,-0.0,2.699915,2.626286,0.72569513,2,0,1,0
599312195,599311426,42.358564525786875,-71.08727315778839,0.849205,-29.91509,-0.0,2.701529,2.625948,0.7494674,2,0,1,0
600311971,600311309,42.3585639218841,-71.08727200364719,0.8872719,-29.907076,-0.0,2.7031112,2.6263962,0.795444,2,0,1,0
601301896,601301193,42.35856239347978,-71.0872702417779,0.94605064,-29.863113,-0.0,2.705134,2.6269095,0.8596282,2,0,1,0
602301714,602301077,42.35855906422899,-71.08726643577187,1.0216651,-29.791708,-0.0,2.710243,2.6270452,0.90411997,2,0,1,0
603311661,603310958,42.35855726396104,-71.08726331562107,1.0329823,-29.785925,-0.0,2.7148783,2.6271467,0.9193368,2,0,1,0
604301439,604300841,42.35855608466218,-71.08726200931483,1.0305119,-29.796116,-0.0,2.716384,2.6274824,0.9126859,2,0,1,0
605301411,605300723,42.35855631198405,-71.08726027665718,0.98180723,-29.876587,-0.0,2.7115762,2.6271923,0.8812165,2,0,1,0
606310947,606310603,42.35855577000965,-71.08725780927463,0.97375727,-29.92641,-0.0,2.7061636,2.626034,0.8591695,2,0,1,0
607310859,607310485,42.358555360049394,-71.08725603604393,0.9445405,-29.982498,-0.0,2.7029357,2.6251612,0.8475766,2,0,1,0
608310976,608310366,42.3585553155534,-71.08725699457905,0.94731474,-29.97118,-0.0,2.6994739,2.6251326,0.85583067,2,0,1,0
609310622,609310246,42.35855534829243,-71.08725689216332,0.9540639,-29.93702,-0.0,2.6933649,2.6238086,0.8655729,2,0,1,0
610310579,610310126,42.358555208875444,-71.08725804344672,0.94919205,-29.898827,-0.0,2.6919131,2.6242156,0.85666513,2,0,1,0
611300658,611300006,42.35855502974177,-71.087259786699,0.930542,-29.859941,-0.0,2.6874137,2.6230943,0.83153343,2,0,1,0
612310536,612309884,42.35855501880115,-71.08726092686693,0.91655827,-29.811726,-0.0,2.6835148,2.6230168,0.81731606,2,0,1,0
613310073,613309763,42.35855558205729,-71.08726287408612,0.93177176,-29.74152,-0.0,2.6845467,2.6232073,0.8428216,2,0,1,0
614309959,614309642,42.35855584574781,-71.08726484414194,0.9521284,-29.66048,-0.0,2.688616,2.6246493,0.856174,2,0,1,0
615310273,615309519,42.358555593197835,-71.08726640926731,0.95485497,-29.611717,-0.0,2.6869159,2.6242101,0.8409662,2,0,1,0
616309712,616309397,42.35855606726056,-71.08726783111835,0.9221525,-29.593292,-0.0,2.6845672,2.6243916,0.8087888,2,0,1,0
617309592,617309274,42.35855625431275,-71.08726914932984,0.89827585,-29.559832,-0.0,2.6871376,2.6246803,0.81063414,2,0,1,0
618309764,618309151,42.358555520209784,-71.0872703865924,0.88185596,-29.515694,-0.0,2.685262,2.6248856,0.78945255,2,0,1,0
619309436,619309027,42.35855518747362,-71.08727062262366,0.91586304,-29.424654,-0.0,2.6808276,2.6237762,0.8305998,2,0,1,0
620309296,620308903,42.35855521970921,-71.08727105777899,0.91939163,-29.374216,-0.0,2.6807036,2.6243885,0.8102646,2,0,1,0
621309145,621308779,42.35855408601464,-71.08726978077638,0.90372324,-29.345589,-0.0,2.680531,2.6241229,0.81361103,2,0,1,0
622308962,622308654,42.35855332098223,-71.08726832439716,0.94678354,-29.24733,-0.0,2.681884,2.6249132,0.8491068,2,0,1,0
623309175,623308528,42.358553305569636,-71.0872677471222,0.9867563,-29.13618,-0.0,2.6834877,2.6248603,0.8850026,2,0,1,0
624309137,624308402,42.35855300489458,-71.08726855250839,1.018539,-29.00631,-0.0,2.680945,2.6247873,0.9232683,2,0,1,0
625308933,625308276,42.358552549947305,-71.08726830648072,1.0485306,-28.889938,-0.0,2.681078,2.6244402,0.9367981,2,0,1,0
626308789,626308149,42.35855245204047,-71.08726749110839,1.0488901,-28.820148,-0.0,2.6847713,2.6255653,0.9481001,2,0,1,0
627308376,627308023,42.358552584915024,-71.08726763125787,1.0349216,-28.774271,-0.0,2.6886153,2.6257977,0.9308281,2,0,1,0
628308663,628307895,42.35855315191619,-71.08726730699489,1.0288968,-28.726799,-0.0,2.6935408,2.6269667,0.9248185,2,0,1,0
629308114,629307767,42.35855384845562,-71.08726871433772,1.0135832,-28.69577,-0.0,2.693591,2.6265087,0.91895056,2,0,1,0
630308011,630307639,42.358553498726984,-71.08726934647542,1.0145478,-28.624716,-0.0,2.6938622,2.626064,0.9099302,2,0,1,0
631307892,631307510,42.35855213568581,-71.0872688852049,1.0326467,-28.510733,-0.0,2.6983297,2.6270387,0.94522667,2,0,1,0
632307762,632307380,42.35855013321957,-71.08726795601503,1.0487428,-28.39406,-0.0,2.7019835,2.6269507,0.95940685,2,0,1,0
633307610,633307251,42.35854905380742,-71.08726866820594,1.1062045,-28.244532,-0.0,2.7012978,2.6271544,1.0028853,2,0,1,0
634307568,634307121,42.35854827996656,-71.08726971081731,1.1119041,-28.153072,-0.0,2.7048695,2.627024,1.0019283,2,0,1,0
635307303,635306990,42.35854751057685,-71.08727056325056,1.1259484,-28.045788,-0.0,2.7045412,2.6272855,1.027307,2,0,1,0
636307385,636306860,42.358545973106935,-71.08727095461512,1.1610675,-27.910591,-0.0,2.709107,2.6272638,1.0608377,2,0,1,0
637307145,637306727,42.35854490538001,-71.08727145931951,1.1953082,-27.776129,-0.0,2.7157962,2.628367,1.0909305,2,0,1,0
638307312,638306596,42.35854475185502,-71.08727201771333,1.1925454,-27.678291,-0.0,2.7176232,2.6279893,1.0706244,2,0,1,0
639307096,639306463,42.35854377067761,-71.08727197032478,1.1547923,-27.616144,-0.0,2.719874,2.6286306,1.0419135,2,0,1,0
640306920,640306330,42.35854357842448,-71.08727244033305,1.114779,-27.556358,-0.0,2.7071877,2.626539,1.0154982,2,0,1,0
641306799,641306197,42.35854238486373,-71.08727211790917,1.1031051,-27.46783,-0.0,2.7035685,2.6264172,1.00035,2,0,1,0
642306766,642306063,42.35854172671109,-71.0872719042478,1.1016974,-27.368736,-0.0,2.6970487,2.625015,1.012588,2,0,1,0
643306634,643305929,42.35854094836337,-71.08727141582975,1.133287,-27.237446,-0.0,2.6939142,2.625069,1.046484,2,0,1,0
644306578,644305794,42.35854086829329,-71.08727155633167,1.1573582,-27.113075,-0.0,2.693035,2.6247191,1.0687432,2,0,1,0
645306277,645305661,42.3585414451992,-71.08727207111545,1.1758924,-26.99741,-0.0,2.6922085,2.6251986,1.0708404,2,0,1,0
646306151,646305524,42.35854232189004,-71.08727208852855,1.1726327,-26.926622,-0.0,2.6909187,2.6248152,1.0638528,2,0,1,0
647305703,647305388,42.35854356425977,-71.08727204205191,1.1432333,-26.903275,-0.0,2.684052,2.6241465,1.0392756,2,0,1,0
648305850,648305252,42.358544523028314,-71.08727108481722,1.1511722,-26.856384,-0.0,2.6812065,2.6234539,1.0528498,2,0,1,0
649305836,649305115,42.35854531477986,-71.0872705140597,1.1604161,-26.835287,-0.0,2.6764977,2.6230757,1.053741,2,0,1,0
650305586,650304977,42.358546685772964,-71.0872697806797,1.1645241,-26.867702,-0.0,2.6749268,2.6227586,1.0527158,2,0,1,0
651305600,651304839,42.35854831072725,-71.08726947690415,1.1553974,-26.934874,-0.0,2.6740444,2.6233263,1.062952,2,0,1,0
652305090,652304701,42.358549398380326,-71.08726914208229,1.1787376,-26.96941,-0.0,2.6749735,2.6225471,1.0815105,2,0,1,0
653305205,653304562,42.35854960440019,-71.08726789356712,1.1959295,-27.054337,-0.0,2.665877,2.6220338,1.0886145,2,0,1,0
654304741,654304423,42.358550662529844,-71.08726700631127,1.191926,-27.13636,-0.0,2.6714947,2.622469,1.0950942,2,0,1,0
655304645,655304283,42.35855066950356,-71.08726607504443,1.2484426,-27.163422,-0.0,2.674816,2.6238332,1.1505055,2,0,1,0
656304527,656304143,42.35855139618684,-71.08726585556566,1.2641468,-27.214506,-0.0,2.6765537,2.6240149,1.1578512,2,0,1,0
657304389,657304002,42.358551836361165,-71.08726536045961,1.2765236,-27.267212,-0.0,2.6746125,2.6241364,1.1803613,2,0,1,0
658304487,658303861,42.358551684177925,-71.08726376068715,1.2841401,-27.344116,-0.0,2.6714668,2.6240492,1.1819272,2,0,1,0
659304378,659303720,42.3585512677881,-71.08726230448512,1.2948928,-27.397884,-0.0,2.6702044,2.6234426,1.1820765,2,0,1,0
660304342,660303577,42.35855138334128,-71.0872611143604,1.2811751,-27.47627,-0.0,2.6678002,2.6233358,1.1855211,2,0,1,0
661303815,661303435,42.35855146847067,-71.0872602476885,1.2776937,-27.5318,-0.0,2.677532,2.6241114,1.1849599,2,0,1,0
662303610,662303292,42.35855055921322,-71.08725842457203,1.2877369,-27.58002,-0.0,2.6829937,2.6254747,1.190198,2,0,1,0
663303815,663303149,42.35854972083911,-71.0872570109988,1.2966223,-27.63387,-0.0,2.6873353,2.6273015,1.2035584,2,0,1,0
664303614,664303005,42.358549005115485,-71.08725545096802,1.3181195,-27.663885,-0.0,2.6996055,2.628341,1.2255268,2,0,1,0
665303461,665302860,42.35854810098268,-71.08725292037056,1.3216381,-27.702263,-0.0,2.702744,2.6273866,1.2138968,2,0,1,0
666303030,666302715,42.358549584296775,-71.0872527556258,1.3114986,-27.756895,-0.0,2.708088,2.628208,1.2073517,2,0,1,0
667302942,667302570,42.358549239135755,-71.08725186793528,1.3073668,-27.788666,-0.0,2.7096033,2.6277246,1.1989894,2,0,1,0
668303067,668302423,42.35854960673725,-71.08725164397205,1.2990966,-27.824127,-0.0,2.6960645,2.6271334,1.2051592,2,0,1,0
669302678,669302277,42.358550018810725,-71.08725192704308,1.2926812,-27.852152,-0.0,2.7059848,2.627033,1.1901593,2,0,1,0
670312536,670312128,42.35855073764887,-71.08725229797865,1.2834144,-27.878881,-0.0,2.6995122,2.6274807,1.1800013,2,0,1,0
671302380,671301982,42.35855116688135,-71.08725131633418,1.2675805,-27.892946,-0.0,2.698859,2.6258945,1.1707978,2,0,1,0
672302195,672301834,42.358551346744285,-71.087251409183,1.253375,-27.882175,-0.0,2.6924117,2.625324,1.1530595,2,0,1,0
673312376,673311684,42.358551086026914,-71.08725186914297,1.2588816,-27.8153,-0.0,2.6820443,2.624213,1.171061,2,0,1,0
674302038,674301536,42.358551356617795,-71.0872529467572,1.2884064,-27.74162,-0.0,2.6892366,2.6252017,1.1869202,2,0,1,0
675301701,675301386,42.35855162047176,-71.08725362905899,1.2870069,-27.690325,-0.0,2.685431,2.6244268,1.1767797,2,0,1,0
676311551,676311234,42.35855260249834,-71.08725460913632,1.280992,-27.66513,-0.0,2.6779833,2.623657,1.1776433,2,0,1,0
677311455,677311083,42.35855391054253,-71.087255373109,1.268796,-27.66079,-0.0,2.678928,2.6237488,1.1785951,2,0,1,0
678301297,678300933,42.35855613415653,-71.08725739883485,1.270772,-27.647938,-0.0,2.678209,2.624195,1.1707478,2,0,1,0
679311187,679310780,42.35855806246219,-71.08725869709266,1.2806869,-27.62215,-0.0,2.6748881,2.6234856,1.1796651,2,0,1,0
680310941,680310627,42.358559576967814,-71.08725985867432,1.2752495,-27.620956,-0.0,2.6745217,2.623964,1.1713943,2,0,1,0
681300792,681300476,42.358561387640094,-71.08726030681918,1.2497716,-27.638252,-0.0,2.6740417,2.6235752,1.1517515,2,0,1,0
682310704,682310323,42.35856336603089,-71.08726160853452,1.242454,-27.628979,-0.0,2.6766593,2.624776,1.1502976,2,0,1,0
683310526,683310167,42.35856486413436,-71.08726225883919,1.2550268,-27.584648,-0.0,2.6772747,2.6246552,1.1642437,2,0,1,0
684310383,684310012,42.358565870506034,-71.08726259017101,1.2787623,-27.531763,-0.0,2.6774025,2.624422,1.1777248,2,0,1,0
685310170,685309858,42.35856658083385,-71.08726312480366,1.3070693,-27.488976,-0.0,2.6688828,2.623084,1.2001371,2,0,1,0
686310141,686309706,42.35856773015488,-71.08726383454925,1.3113537,-27.474245,-0.0,2.6713095,2.6232646,1.2111259,2,0,1,0
687309859,687309546,42.358568789298396,-71.08726397297829,1.3277254,-27.426838,-0.0,2.676891,2.624762,1.2157793,2,0,1,0
688309889,688309390,42.35856958835007,-71.08726432075372,1.2997499,-27.414413,-0.0,2.6794605,2.6248653,1.1993694,2,0,1,0
689309580,689309233,42.35857000200586,-71.08726448010493,1.2895651,-27.373207,-0.0,2.6738236,2.6242948,1.1882839,2,0,1,0
690309446,690309076,42.358570221659036,-71.08726418193335,1.2512298,-27.364363,-0.0,2.673033,2.623726,1.1441102,2,0,1,0
691309263,691308918,42.358571656429554,-71.08726552639227,1.2285624,-27.34605,-0.0,2.6717796,2.6239097,1.1472225,2,0,1,0
692309211,692308759,42.35857286252222,-71.0872667053747,1.248877,-27.310394,-0.0,2.6734364,2.6240027,1.1542444,2,0,1,0
693308937,693308600,42.35857447284703,-71.08726864411838,1.2706637,-27.25894,-0.0,2.674993,2.6248062,1.1784596,2,0,1,0
694308779,694308441,42.358575586976954,-71.08727053999307,1.3130474,-27.175032,-0.0,2.6756036,2.6246004,1.2183437,2,0,1,0
695308595,695308281,42.35857754380908,-71.0872728649258,1.3547201,-27.10809,-0.0,2.678024,2.6254773,1.2453103,2,0,1,0
696308566,696308120,42.3585790967928,-71.08727475429535,1.3824677,-27.054556,-0.0,2.6817894,2.6257186,1.27209,2,0,1,0
697308332,697307960,42.35858071321335,-71.08727640223648,1.3856916,-27.027641,-0.0,2.6740594,2.6247408,1.2816076,2,0,1,0
698308127,698307798,42.35858247136212,-71.08727830692989,1.4121633,-26.96317,-0.0,2.6758296,2.624627,1.3059568,2,0,1,0
699307964,699307636,42.35858424807705,-71.08728020636275,1.4561815,-26.863605,-0.0,2.6753247,2.6249058,1.3486795,2,0,1,0
700307814,700307474,42.35858517661354,-71.08728185296323,1.4733553,-26.772182,-0.0,2.6747112,2.6243877,1.3680806,2,0,1,0
701307738,701307311,42.35858545535696,-71.08728302980721,1.4750485,-26.675236,-0.0,2.680559,2.625835,1.3613496,2,0,1,0
702307524,702307148,42.35858595627925,-71.08728443463367,1.4736519,-26.580309,-0.0,2.6847644,2.6260886,1.3699102,2,0,1,0
703307338,703306983,42.358586648899276,-71.08728572070169,1.5009689,-26.46163,-0.0,2.6872835,2.626952,1.3986363,2,0,1,0
704307128,704306819,42.35858630000741,-71.08728605341295,1.5168185,-26.364273,-0.0,2.6914506,2.6271129,1.4155993,2,0,1,0
705306970,705306654,42.3585859412052,-71.0872866025928,1.512259,-26.29308,-0.0,2.6915426,2.6275852,1.4061565,2,0,1,0
706306856,706306490,42.35858645911987,-71.08728790382473,1.4641209,-26.275965,-0.0,2.692599,2.6272078,1.3624806,2,0,1,0
707306778,707306327,42.35858736352206,-71.08728850816856,1.4652429,-26.209667,-0.0,2.6868784,2.6267169,1.3767743,2,0,1,0
708306470,708306158,42.35858803009089,-71.08728897633507,1.4780035,-26.14286,-0.0,2.6862187,2.626082,1.3748746,2,0,1,0
709306360,709305991,42.358589003075814,-71.0872896557939,1.4720583,-26.106537,-0.0,2.6856258,2.6263316,1.3819971,2,0,1,0
710306185,710305825,42.35859021240591,-71.0872908396896,1.4822092,-26.055328,-0.0,2.6883738,2.6262796,1.3843307,2,0,1,0
711306034,711305657,42.35859119712787,-71.08729158290636,1.5187263,-25.98165,-0.0,2.6950552,2.6276364,1.4192939,2,0,1,0
712305804,712305490,42.35859116631222,-71.08729136192564,1.5612898,-25.90744,-0.0,2.7018588,2.628,1.4603128,2,0,1,0
713305785,713305321,42.35859044328814,-71.08729029622009,1.5994544,-25.830027,-0.0,2.7084196,2.6281753,1.4903593,2,0,1,0
714305474,714305153,42.358590650408885,-71.08728983245298,1.6049085,-25.803473,-0.0,2.7161245,2.6292608,1.4942641,2,0,1,0
715305369,715304984,42.35859164147771,-71.08729012235712,1.605855,-25.785297,-0.0,2.723092,2.629239,1.4951425,2,0,1,0
716305201,716304814,42.358592452536534,-71.08729052036487,1.6054468,-25.776917,-0.0,2.7222645,2.6294847,1.4987755,2,0,1,0
717305007,717304645,42.35859285918296,-71.0872909506474,1.5991387,-25.789715,-0.0,2.7204623,2.6295953,1.4990001,2,0,1,0
718304794,718304474,42.35859296995408,-71.08729078794924,1.5594711,-25.839554,-0.0,2.712766,2.6280725,1.4496017,2,0,1,0
719304775,719304304,42.35859369491693,-71.08729062909039,1.5392342,-25.86841,-0.0,2.7145002,2.6276453,1.4431639,2,0,1,0
720304453,720304133,42.35859402395411,-71.08728992580983,1.5288181,-25.902332,-0.0,2.7198136,2.6285813,1.4405713,2,0,1,0
721304290,721303961,42.358594734405315,-71.08728983500325,1.5523977,-25.904716,-0.0,2.724394,2.6284573,1.4507499,2,0,1,0
722304197,722303789,42.35859601523447,-71.0872902870574,1.5509238,-25.932877,-0.0,2.7293658,2.6292708,1.448194,2,0,1,0
723303993,723303618,42.358595708171,-71.0872896336267,1.5369716,-25.96759,-0.0,2.7420356,2.6296983,1.4388409,2,0,1,0
724303765,724303450,42.358595922285886,-71.08728939494898,1.5286016,-25.998974,-0.0,2.748734,2.630649,1.4354625,2,0,1,0
725303664,725303274,42.358595022339244,-71.0872888253668,1.5584879,-26.001625,-0.0,2.740014,2.6294115,1.4579382,2,0,1,0
726303413,726303098,42.358595169710924,-71.08728888868082,1.5842543,-26.016476,-0.0,2.7316616,2.629098,1.4720049,2,0,1,0
727303237,727302925,42.358595526836424,-71.08728829817855,1.5617533,-26.098293,-0.0,2.7252095,2.627947,1.4634204,2,0,1,0
728303115,728302751,42.35859603744001,-71.08728817146105,1.5521698,-26.171982,-0.0,2.7201297,2.627911,1.4521017,2,0,1,0
729303000,729302577,42.358596739983476,-71.08728842533235,1.5456009,-26.231405,-0.0,2.7192483,2.6274524,1.4406614,2,0,1,0
730302959,730302402,42.358597789591705,-71.0872892013697,1.5689507,-26.261234,-0.0,2.719483,2.6280863,1.4675517,2,0,1,0
731302586,731302227,42.35859991856034,-71.0872908700559,1.5688491,-26.316685,-0.0,2.7089214,2.6264875,1.4624743,2,0,1,0
732302369,732302052,42.35860153725142,-71.08729223278061,1.554091,-26.385567,-0.0,2.6985717,2.625494,1.445704,2,0,1,0
733312198,733311874,42.35860381263953,-71.08729433973767,1.5436792,-26.442772,-0.0,2.6994464,2.6252959,1.4459176,2,0,1,0
734302012,734301700,42.35860601599285,-71.08729619834577,1.5553513,-26.480066,-0.0,2.7051518,2.626164,1.462781,2,0,1,0
735301944,735301524,42.358608820728676,-71.08729810393211,1.5502739,-26.55695,-0.0,2.7131226,2.6266413,1.4534092,2,0,1,0
736311662,736311345,42.35861085753766,-71.08729899968093,1.585062,-26.6024,-0.0,2.7211955,2.6281052,1.4835482,2,0,1,0
737301479,737301170,42.35861223086957,-71.08729975221264,1.625227,-26.626484,-0.0,2.7294807,2.6283164,1.5264788,2,0,1,0
738301316,738300993,42.35861287709431,-71.08730104498993,1.6618838,-26.640282,-0.0,2.718931,2.6277318,1.558166,2,0,1,0
739311179,739310817,42.35861381371449,-71.0873014781022,1.6764102,-26.689499,-0.0,2.7239404,2.6279194,1.565094,2,0,1,0
740311176,740310636,42.358615824699086,-71.0873028613947,1.6808658,-26.744818,-0.0,2.723401,2.627408,1.5776887,2,0,1,0
741300781,741300459,42.35861564788354,-71.08730368938546,1.7040324,-26.797287,-0.0,2.7014115,2.6247,1.5907459,2,0,1,0
742310659,742310279,42.35861584180431,-71.08730458010439,1.6964374,-26.871878,-0.0,2.6912274,2.6226492,1.5830617,2,0,1,0
743310421,743310100,42.358616552525476,-71.08730491734029,1.6696682,-26.966736,-0.0,2.681778,2.621249,1.5714583,2,0,1,0
744300323,744299923,42.358616347090255,-71.08730480621283,1.703217,-26.971851,-0.0,2.679996,2.6218157,1.6081815,2,0,1,0
745310105,745309742,42.358616332865964,-71.0873048000613,1.7080321,-26.986473,-0.0,2.6790924,2.6220024,1.5986881,2,0,1,0
746309933,746309563,42.35861609814171,-71.08730456962387,1.687151,-27.022552,-0.0,2.678881,2.6221752,1.5826297,2,0,1,0
747309740,747309382,42.358615820178336,-71.0873047360273,1.6639037,-27.049595,-0.0,2.6831002,2.6238241,1.564362,2,0,1,0
748309581,748309203,42.35861492325898,-71.08730485024117,1.6467776,-27.078999,-0.0,2.6863728,2.624422,1.5541177,2,0,1,0
749309536,749309021,42.3586130005828,-71.08730466599648,1.6905994,-27.015165,-0.0,2.690192,2.6257699,1.5849414,2,0,1,0
750309620,750308839,42.35861102477005,-71.08730499491386,1.7218871,-26.935266,-0.0,2.6843035,2.6255343,1.6270828,2,0,1,0
751308986,751308658,42.35860899291383,-71.08730465666707,1.7437453,-26.875097,-0.0,2.693742,2.6267133,1.6491423,2,0,1,0
752308802,752308477,42.358607764152836,-71.08730507653434,1.8052964,-26.762339,-0.0,2.6947284,2.6264787,1.6896853,2,0,1,0
753308614,753308294,42.35860729216075,-71.0873058840333,1.8013048,-26.714108,-0.0,2.6802793,2.6244695,1.6864204,2,0,1,0
754308543,754308112,42.35860713397425,-71.08730526439803,1.7968259,-26.626131,-0.0,2.6716838,2.6222572,1.6945906,2,0,1,0
755308244,755307929,42.35860591327079,-71.0873060660524,1.8064084,-26.516937,-0.0,2.6652594,2.621107,1.6914129,2,0,1,0
756308118,756307746,42.3586046669025,-71.08730553569983,1.80335,-26.419806,-0.0,2.6619549,2.6201289,1.6953726,2,0,1,0
757307889,757307563,42.35860341120312,-71.08730450509755,1.7793727,-26.344082,-0.0,2.6617572,2.6206932,1.6784973,2,0,1,0
758307700,758307379,42.35860164684704,-71.0873035281115,1.7461743,-26.27718,-0.0,2.6627865,2.6208873,1.6522288,2,0,1,0
759307597,759307195,42.35860041732341,-71.08730251484377,1.7237663,-26.217564,-0.0,2.664981,2.622022,1.6327958,2,0,1,0
760307365,760307011,42.358599542283514,-71.08730140760943,1.7071667,-26.186882,-0.0,2.6646905,2.6218143,1.6097083,2,0,1,0
761307196,761306826,42.358598381077286,-71.08729920167795,1.6937232,-26.171133,-0.0,2.671083,2.6236746,1.6068625,2,0,1,0
762306958,762306641,42.35859617149754,-71.08729700608434,1.6962004,-26.132645,-0.0,2.681202,2.6251144,1.600297,2,0,1,0
763306845,763306456,42.35859407934424,-71.08729483699462,1.6480141,-26.164394,-0.0,2.6945755,2.6274638,1.5532374,2,0,1,0
764306635,764306272,42.358592034478015,-71.08729260297783,1.6345592,-26.170523,-0.0,2.6997144,2.6277995,1.5478177,2,0,1,0
765306423,765306085,42.35859136221475,-71.08729098086125,1.6679025,-26.149645,-0.0,2.7018228,2.6285813,1.5699987,2,0,1,0
766306216,766305898,42.358590593254725,-71.08728899057508,1.6882896,-26.167368,-0.0,2.6947548,2.6272104,1.5939665,2,0,1,0
767306103,767305712,42.35859047767286,-71.0872869621704,1.6935873,-26.219292,-0.0,2.6963234,2.6269379,1.5906458,2,0,1,0
768305917,768305525,42.358591148882326,-71.0872853143345,1.6887736,-26.291698,-0.0,2.6990397,2.6276708,1.5884671,2,0,1,0
769305767,769305338,42.35859187406404,-71.08728454299894,1.6760397,-26.378246,-0.0,2.69324,2.6262984,1.5693026,2,0,1,0
770305490,770305150,42.35859218462734,-71.08728334642106,1.6453843,-26.499006,-0.0,2.6917446,2.6263883,1.5483441,2,0,1,0
771305320,771304963,42.358592909886305,-71.08728229985849,1.6870131,-26.541273,-0.0,2.689869,2.6264346,1.6055541,2,0,1,0
772305088,772304775,42.35859367717892,-71.08728220919113,1.7720652,-26.519203,-0.0,2.690954,2.626107,1.6599236,2,0,1,0
773305099,773304586,42.35859538601917,-71.08728209222954,1.7628994,-26.625376,-0.0,2.6886618,2.625302,1.6439424,2,0,1,0
774304717,774304398,42.358596156064976,-71.08728156980878,1.752532,-26.736141,-0.0,2.6837974,2.6249228,1.6395545,2,0,1,0
775304552,775304209,42.3585955725733,-71.08728123323779,1.80761,-26.781063,-0.0,2.6845005,2.6247208,1.7036834,2,0,1,0
776304337,776304020,42.358595830699386,-71.08727948121788,1.8206301,-26.868443,-0.0,2.683996,2.6252005,1.7140303,2,0,1,0
777309295,777303830,42.35859590969016,-71.08727833386041,1.8331342,-26.956036,-0.0,2.680008,2.6242113,1.7300591,2,0,1,0
778303975,778303641,42.35859645430886,-71.08727681107071,1.8094988,-27.080574,-0.0,2.6772642,2.6242247,1.7015247,2,0,1,0
779303827,779303451,42.35859681546985,-71.08727508281818,1.8052759,-27.183418,-0.0,2.6763256,2.6237926,1.7047753,2,0,1,0
780303646,780303261,42.35859794353752,-71.08727300750722,1.7372284,-27.35146,-0.0,2.675465,2.624158,1.6436,2,0,1,0
781303389,781303070,42.35859905374423,-71.08727167375264,1.7253742,-27.464003,-0.0,2.6783288,2.6244116,1.6376667,2,0,1,0
782303382,782302879,42.35859963545657,-71.087270559741,1.714488,-27.574684,-0.0,2.67582,2.6244655,1.6252165,2,0,1,0
783303013,783302688,42.358599639071684,-71.08727016899073,1.7063379,-27.683033,-0.0,2.6694517,2.6228547,1.6094813,2,0,1,0
784302838,784302497,42.358599117438544,-71.08727066116208,1.722836,-27.765951,-0.0,2.6610286,2.6210635,1.6321659,2,0,1,0
785302694,785302306,42.35859857197116,-71.08727050445121,1.7257228,-27.86395,-0.0,2.6614537,2.621076,1.6252027,2,0,1,0
786302442,786302114,42.358597732836735,-71.08727020002321,1.7515364,-27.93806,-0.0,2.6611583,2.621565,1.6591444,2,0,1,0
787302436,787301921,42.358596227536445,-71.08726987883655,1.8126898,-27.976982,-0.0,2.6638708,2.6221,1.7166662,2,0,1,0
788302080,788301729,42.35859455636911,-71.08726883493819,1.844677,-28.045595,-0.0,2.6666844,2.6233392,1.735105,2,0,1,0
789311853,789311535,42.35859409282963,-71.08726900885404,1.828217,-28.161856,-0.0,2.663724,2.6227136,1.7091908,2,0,1,0
790301792,790301344,42.358592856868874,-71.08726845189712,1.8034668,-28.286205,-0.0,2.660694,2.622401,1.69908,2,0,1,0
791301463,791301150,42.3585920927496,-71.08726863273331,1.8042698,-28.384804,-0.0,2.6589677,2.6216824,1.7036438,2,0,1,0
792311434,792310955,42.35859105606179,-71.08726842174268,1.8246589,-28.464663,-0.0,2.6650667,2.622868,1.7162371,2,0,1,0
793301077,793300763,42.358590543875934,-71.08726803953476,1.8099809,-28.579298,-0.0,2.6626198,2.6226566,1.7093778,2,0,1,0
794300888,794300569,42.35858946281722,-71.08726692620756,1.8000398,-28.68954,-0.0,2.6638207,2.6233172,1.6889024,2,0,1,0
795310741,795310373,42.35858813100026,-71.08726521431714,1.7595448,-28.829332,-0.0,2.657926,2.6215222,1.6559386,2,0,1,0
796310554,796310179,42.358587474268816,-71.0872636833678,1.7432137,-28.946762,-0.0,2.6609795,2.621956,1.64432,2,0,1,0
797300444,797299986,42.35858703517283,-71.08726233281678,1.718205,-29.06699,-0.0,2.661668,2.6224298,1.6289206,2,0,1,0
798310193,798309789,42.35858613462144,-71.08726136175531,1.6958714,-29.18288,-0.0,2.662419,2.6224012,1.5998173,2,0,1,0
799309940,799309594,42.3585852982873,-71.0872606832422,1.6822443,-29.263855,-0.0,2.6626446,2.6229255,1.5867057,2,0,1,0
800309912,800309399,42.358584152848266,-71.08725972366909,1.694737,-29.298218,-0.0,2.661817,2.6224701,1.5960164,2,0,1,0
801309542,801309203,42.3585835210831,-71.08725978386363,1.7095613,-29.306679,-0.0,2.6570516,2.6216874,1.6104102,2,0,1,0
802309333,802309007,42.35858270505612,-71.08725988672975,1.7400479,-29.279663,-0.0,2.6567082,2.6212535,1.6355829,2,0,1,0
803309168,803308810,42.358581769235464,-71.0872605207153,1.7641544,-29.22178,-0.0,2.6591299,2.6222656,1.6650972,2,0,1,0
804308992,804308613,42.35858115283085,-71.08726191802529,1.8022218,-29.104418,-0.0,2.658379,2.621851,1.6966214,2,0,1,0
805308771,805308416,42.358578946961764,-71.0872612799145,1.7888703,-29.031197,-0.0,2.6601784,2.622826,1.6775689,2,0,1,0
806308711,806308220,42.35857659891636,-71.0872595498252,1.7424679,-29.01078,-0.0,2.6617544,2.623059,1.640038,2,0,1,0
807308343,807308021,42.35857567290737,-71.08725957290692,1.7195168,-28.99828,-0.0,2.6601899,2.6232755,1.6282711,2,0,1,0
808308185,808307823,42.358575319131205,-71.08725990168799,1.7219772,-28.975595,-0.0,2.6590056,2.6227832,1.6285486,2,0,1,0
809307950,809307625,42.35857526010916,-71.08726015281961,1.7155676,-28.981438,-0.0,2.6556573,2.6223907,1.6209302,2,0,1,0
810307765,810307426,42.358574603654155,-71.08725985281544,1.6925473,-29.02178,-0.0,2.6528661,2.62131,1.5895176,2,0,1,0
811307651,811307228,42.35857363177974,-71.08725896933892,1.6780348,-29.061901,-0.0,2.6503835,2.6210127,1.5918107,2,0,1,0
812307344,812307028,42.35857304273895,-71.08725844623307,1.6801486,-29.086754,-0.0,2.6513717,2.6211436,1.5835571,2,0,1,0
813307261,813306829,42.35857279659486,-71.0872581645471,1.6721525,-29.131634,-0.0,2.6528907,2.6221216,1.5786443,2,0,1,0
814306945,814306629,42.35857287558102,-71.08725855459572,1.679923,-29.149437,-0.0,2.6604278,2.623695,1.5826802,2,0,1,0
815306773,815306430,42.35857201773026,-71.08725879509632,1.6911302,-29.164022,-0.0,2.6587865,2.6239996,1.5899558,2,0,1,0
816306626,816306229,42.358571726891384,-71.08725830736738,1.6647525,-29.222282,-0.0,2.6574445,2.6234565,1.5656986,2,0,1,0
817306350,817306029,42.35857126920972,-71.0872586272215,1.6572876,-29.251131,-0.0,2.6557617,2.623504,1.556282,2,0,1,0
818306158,818305828,42.35857083552112,-71.08725856305374,1.6308956,-29.2856,-0.0,2.6534963,2.6225832,1.5232263,2,0,1,0
819305945,819305628,42.358570205096,-71.08725919091313,1.6346235,-29.279388,-0.0,2.652173,2.6226313,1.5374498,2,0,1,0
820305782,820305426,42.35856970315052,-71.08725941559544,1.6551547,-29.25698,-0.0,2.6483512,2.6211321,1.5642929,2,0,1,0
821305751,821305224,42.35856935365409,-71.08725956760895,1.6556344,-29.25393,-0.0,2.6506133,2.6214292,1.552021,2,0,1,0
822305447,822305023,42.3585684792934,-71.08725939195556,1.6493521,-29.253742,-0.0,2.6527548,2.6223397,1.5472255,2,0,1,0
823305201,823304821,42.358568022216424,-71.08725925281794,1.6389766,-29.25133,-0.0,2.650228,2.621372,1.543715,2,0,1,0
824304933,824304619,42.35856744695278,-71.08725976656214,1.6498876,-29.22847,-0.0,2.650414,2.6218822,1.5500374,2,0,1,0
825304771,825304416,42.35856685993282,-71.0872597551216,1.6786804,-29.191042,-0.0,2.6447015,2.6205146,1.5786934,2,0,1,0
826304602,826304214,42.35856575607945,-71.08726001779212,1.6837082,-29.164135,-0.0,2.6462014,2.620675,1.5742064,2,0,1,0
827304441,827304011,42.35856509179067,-71.08726087359527,1.6589098,-29.164555,-0.0,2.649474,2.621291,1.553309,2,0,1,0
828304120,828303808,42.3585645025375,-71.08726159823027,1.6475825,-29.140059,-0.0,2.6520083,2.6223571,1.5542202,2,0,1,0
829304040,829303605,42.358563411088056,-71.08726168561672,1.6538153,-29.08508,-0.0,2.649441,2.6214032,1.555716,2,0,1,0
830303832,830303402,42.35856237047429,-71.08726144220405,1.6443491,-29.037659,-0.0,2.651427,2.622334,1.5457683,2,0,1,0
831303665,831303198,42.35856149646316,-71.08726068990671,1.6434388,-28.972187,-0.0,2.6508942,2.6219428,1.5464354,2,0,1,0
832303330,832302994,42.35856153262428,-71.0872603834901,1.6841512,-28.89347,-0.0,2.6503198,2.6223137,1.5822582,2,0,1,0
833303165,833302790,42.358562354414616,-71.08726144274812,1.6761379,-28.899723,-0.0,2.6504323,2.6221359,1.5754533,2,0,1,0
834303028,834302585,42.35856312350497,-71.08726227715113,1.6806097,-28.913494,-0.0,2.6511219,2.6227803,1.5745645,2,0,1,0
835302812,835302381,42.35856337838753,-71.08726256923657,1.6606078,-28.964231,-0.0,2.6476738,2.6214974,1.5601068,2,0,1,0
836302515,836302176,42.358563713272616,-71.08726280533335,1.6597066,-29.012049,-0.0,2.6503918,2.6226232,1.5700407,2,0,1,0
837302280,837301971,42.358563755517636,-71.08726352722786,1.6634679,-29.031437,-0.0,2.6523192,2.6227372,1.5471511,2,0,1,0
838312077,838311764,42.35856316973917,-71.08726314714559,1.6301651,-29.064447,-0.0,2.655458,2.623941,1.5413117,2,0,1,0
839301879,839301560,42.358563694978685,-71.08726319076177,1.6119227,-29.073063,-0.0,2.6638975,2.6251507,1.5073729,2,0,1,0
840301806,840301354,42.35856394214013,-71.08726365704605,1.5681791,-29.097153,-0.0,2.6723177,2.62699,1.4757333,2,0,1,0
841311466,841311146,42.35856442577548,-71.08726487801057,1.4937673,-29.145061,-0.0,2.677864,2.6275,1.3981209,2,0,1,0
842301305,842300941,42.3585647809302,-71.08726563297522,1.4313889,-29.162004,-0.0,2.6834178,2.6285803,1.3661823,2,0,1,0
843301083,843300734,42.3585648397773,-71.08726674174608,1.452745,-29.09738,-0.0,2.682481,2.6278508,1.3719883,2,0,1,0
844303414,844300526,42.35856607592665,-71.0872679081788,1.510786,-28.984488,-0.0,2.674109,2.6267498,1.4330735,2,0,1,0
845310703,845310317,42.3585664825304,-71.08726765681809,1.6384597,-28.792746,-0.0,2.6624434,2.6237075,1.546875,2,0,1,0
846300435,846300110,42.358567733542735,-71.08727026695144,1.7027316,-28.634693,-0.0,2.6587727,2.6230836,1.5853701,2,0,1,0
847310262,847309900,42.358568717088545,-71.08727219803592,1.705143,-28.532167,-0.0,2.6569848,2.6223657,1.5959187,2,0,1,0
848310112,848309690,42.35856994190797,-71.08727419136667,1.7428441,-28.394182,-0.0,2.659234,2.6226373,1.6430416,2,0,1,0
849309800,849309481,42.3585703432949,-71.08727446257492,1.8141589,-28.225182,-0.0,2.6626189,2.6238399,1.7040329,2,0,1,0
850309658,850309270,42.35857065684663,-71.08727511175728,1.8001504,-28.149477,-0.0,2.667222,2.6244316,1.6915374,2,0,1,0
851309376,851309060,42.35857061717548,-71.08727558567432,1.7713733,-28.102867,-0.0,2.6695306,2.6253626,1.6667743,2,0,1,0
852309308,852308849,42.35857092066252,-71.08727648269493,1.7924252,-28.009897,-0.0,2.6695619,2.6250727,1.6896935,2,0,1,0
853309006,853308638,42.358570410155274,-71.0872773051603,1.7890711,-27.970161,-0.0,2.668264,2.6253655,1.6926951,2,0,1,0
854308881,854308426,42.35856920415455,-71.08727764134152,1.804255,-27.927673,-0.0,2.6650748,2.6243892,1.7019978,2,0,1,0
855308543,855308214,42.35856837885612,-71.08727827972635,1.7882175,-27.932516,-0.0,2.6667697,2.6251729,1.6922994,2,0,1,0
856308310,856308001,42.35856840664169,-71.08728012626672,1.8155417,-27.873777,-0.0,2.6697257,2.6253035,1.7225642,2,0,1,0
857308152,857307789,42.35856670437544,-71.0872801248789,1.8653364,-27.799477,-0.0,2.6726744,2.626256,1.7559161,2,0,1,0
858307906,858307575,42.35856713204757,-71.08728008449111,1.8634982,-27.755016,-0.0,2.671099,2.6256208,1.7616382,2,0,1,0
859307779,859307361,42.358568181681726,-71.08728032815439,1.9109943,-27.649057,-0.0,2.6674695,2.6254325,1.8112855,2,0,1,0
860307538,860307148,42.35856771588045,-71.08727939542317,1.9426785,-27.55873,-0.0,2.6625254,2.62408,1.8258147,2,0,1,0
861307267,861306933,42.35856820902223,-71.08727862596508,1.929765,-27.552477,-0.0,2.6571496,2.623241,1.8167329,2,0,1,0
862307026,862306719,42.35856931113442,-71.08727902124515,1.9407246,-27.535723,-0.0,2.6697898,2.624057,1.8456836,2,0,1,0
863306873,863306504,42.35857005377341,-71.08727959470929,1.9796431,-27.494545,-0.0,2.6608603,2.6231844,1.885319,2,0,1,0
864306793,864306288,42.3585712098794,-71.08728066383563,2.0086641,-27.475822,-0.0,2.6604075,2.622246,1.9099681,2,0,1,0
865306404,865306073,42.3585722475275,-71.0872818582347,2.0452888,-27.436556,-0.0,2.6522546,2.6210876,1.9297953,2,0,1,0
866306244,866305857,42.3585729173168,-71.08728261806284,2.018911,-27.436357,-0.0,2.6469226,2.619704,1.9052148,2,0,1,0
867306006,867305641,42.358573199907006,-71.08728316192423,1.9782717,-27.426176,-0.0,2.6441438,2.6196477,1.8789203,2,0,1,0
868305741,868305425,42.35857372588414,-71.08728305989393,1.9985175,-27.34666,-0.0,2.6440198,2.6197379,1.8985627,2,0,1,0
869305598,869305208,42.358574518625616,-71.08728307377294,2.0219328,-27.247604,-0.0,2.6446736,2.620617,1.9191322,2,0,1,0
870305300,870304991,42.35857557645241,-71.0872838924148,2.0096054,-27.170805,-0.0,2.64661,2.62113,1.9030635,2,0,1,0
871305085,871304774,42.358575920598994,-71.08728448500649,1.9604614,-27.122688,-0.0,2.6469717,2.6218328,1.8524737,2,0,1,0
872304869,872304557,42.35857715101716,-71.08728464210516,1.9686494,-27.014599,-0.0,2.6437035,2.6207616,1.8745732,2,0,1,0
873304724,873304339,42.35857760669833,-71.08728452875553,1.9636273,-26.920774,-0.0,2.6442027,2.6214828,1.8671274,2,0,1,0
874304522,874304121,42.35857762626388,-71.08728394872817,1.9119136,-26.881548,-0.0,2.6436856,2.6211662,1.8255076,2,0,1,0
875304323,875303903,42.35857761455913,-71.08728339792614,1.858151,-26.854612,-0.0,2.64339,2.620885,1.770844,2,0,1,0
876304006,876303685,42.35857712979943,-71.08728195993407,1.8307266,-26.809647,-0.0,2.6491234,2.6220644,1.754108,2,0,1,0
877303789,877303473,42.35857753962364,-71.08728200328777,1.8510423,-26.73572,-0.0,2.6429245,2.6208973,1.7695599,2,0,1,0
878303611,878303248,42.358578277764366,-71.08728198901206,1.8938437,-26.663544,-0.0,2.6410875,2.6202478,1.8128781,2,0,1,0
879303355,879303029,42.35857933012154,-71.0872824265895,1.9805076,-26.55169,-0.0,2.6368387,2.6192415,1.8743172,2,0,1,0
880303119,880302810,42.358579695340964,-71.08728256966695,2.0068002,-26.496883,-0.0,2.6346726,2.6183126,1.8982458,2,0,1,0
881303022,881302591,42.35857951283543,-71.08728183362375,2.0232432,-26.448044,-0.0,2.6349478,2.6183352,1.9175887,2,0,1,0
882302695,882302373,42.35857905768408,-71.08728113839499,2.0132308,-26.427544,-0.0,2.6347864,2.6179593,1.9110656,2,0,1,0
883302563,883302152,42.358580236312456,-71.08728132358152,2.0522606,-26.386091,-0.0,2.6304224,2.6163812,1.9413922,2,0,1,0
884307442,884301932,42.35858100002852,-71.08728156472608,2.0769532,-26.395365,-0.0,2.6327677,2.6172469,1.9747787,2,0,1,0
885302080,885301713,42.35858113973506,-71.08728094606913,2.022453,-26.492985,-0.0,2.6307123,2.6169786,1.9051423,2,0,1,0
886301807,886301492,42.358579826696726,-71.08727940092173,2.0155509,-26.54674,-0.0,2.631945,2.61836,1.9121442,2,0,1,0
887311613,887311270,42.35857928969683,-71.08727833794994,2.004112,-26.581081,-0.0,2.6357102,2.6198277,1.9129455,2,0,1,0
888301553,888301052,42.35857923430077,-71.08727757963379,1.9930923,-26.595316,-0.0,2.6388178,2.6213143,1.8917818,2,0,1,0
889311167,889310829,42.3585794952867,-71.08727751354311,1.989161,-26.591246,-0.0,2.6426687,2.6223304,1.896368,2,0,1,0
890310972,890310608,42.35857986015227,-71.08727792763716,2.0272748,-26.52837,-0.0,2.6435802,2.6230028,1.9336691,2,0,1,0
891300704,891300389,42.3585797519926,-71.0872786253901,2.0661235,-26.441942,-0.0,2.6407475,2.6215954,1.9697516,2,0,1,0
892310543,892310166,42.35857908110965,-71.08727830731426,2.0995188,-26.328602,-0.0,2.6376424,2.6207206,1.9967403,2,0,1,0
893310332,893309945,42.358578194298005,-71.08727776783697,2.1598053,-26.185492,-0.0,2.6354313,2.6194,2.055508,2,0,1,0
894310043,894309723,42.35857723916306,-71.08727708435678,2.1692095,-26.08015,-0.0,2.6368334,2.6191912,2.0619214,2,0,1,0
895309816,895309502,42.358576323174,-71.08727576595594,2.1191554,-26.032187,-0.0,2.6354535,2.618649,2.0017216,2,0,1,0
896309594,896309281,42.35857586229358,-71.08727448326874,2.0653355,-25.985512,-0.0,2.6382506,2.6192367,1.9770234,2,0,1,0
897304459,897299061,42.358575084848475,-71.08727434845217,2.0907414,-25.861023,-0.0,2.6397202,2.6188438,2.0077255,2,0,1,0
898309356,898308837,42.35857367950198,-71.08727418981285,2.102256,-25.748909,-0.0,2.6418324,2.6195772,2.0011108,2,0,1,0
899309021,899308615,42.35857250529494,-71.08727347563473,2.1169424,-25.634624,-0.0,2.648253,2.6201148,2.0199506,2,0,1,0
900308712,900308393,42.35857115684351,-71.08727304917792,2.138625,-25.513327,-0.0,2.649454,2.6208854,2.0372906,2,0,1,0
901308535,901308172,42.35857000189092,-71.08727242998377,2.126915,-25.428152,-0.0,2.6416063,2.6190836,2.0287685,2,0,1,0
902308352,902307949,42.35856893626568,-71.08727217147289,2.1419864,-25.310781,-0.0,2.6394598,2.6186495,2.0416534,2,0,1,0
903308110,903307727,42.35856820102161,-71.08727264181339,2.1633568,-25.190113,-0.0,2.6378708,2.6187284,2.067552,2,0,1,0
904307906,904307505,42.35856760469076,-71.08727212538558,2.157412,-25.095455,-0.0,2.6389544,2.6190097,2.0603414,2,0,1,0
905307591,905307283,42.35856716210613,-71.08727195430296,2.165653,-24.98829,-0.0,2.641065,2.6200829,2.0636928,2,0,1,0
906307471,906307060,42.35856724257723,-71.08727146639424,2.18612,-24.877941,-0.0,2.643113,2.6203973,2.0869067,2,0,1,0
907307202,907306838,42.35856748234362,-71.08727120135804,2.2057922,-24.77172,-0.0,2.6468265,2.6217434,2.1060677,2,0,1,0
908307066,908306615,42.35856744726431,-71.08727088895094,2.2400436,-24.664291,-0.0,2.6462593,2.6211963,2.1389716,2,0,1,0
909306709,909306393,42.35856820338696,-71.08727081436875,2.2549891,-24.61191,-0.0,2.6501331,2.621661,2.1517053,2,0,1,0
910306531,910306170,42.3585679678971,-71.08727097044817,2.2242923,-24.629564,-0.0,2.6499908,2.6214528,2.1021411,2,0,1,0
911306287,911305947,42.3585683425187,-71.0872707758654,2.1499746,-24.729307,-0.0,2.6536095,2.6228027,2.0542653,2,0,1,0
912306448,912305725,42.358568786597914,-71.08727044828721,2.1301494,-24.793007,-0.0,2.653995,2.623096,2.0479531,2,0,1,0
913305887,913305502,42.3585690446592,-71.08727046603376,2.11446,-24.860083,-0.0,2.660349,2.624071,2.0232952,2,0,1,0
914305691,914305279,42.3585692019925,-71.08727119038896,2.1342375,-24.8926,-0.0,2.6739168,2.6248894,2.0471916,2,0,1,0
915305383,915305056,42.35856910743714,-71.08727364079654,2.2159472,-24.87004,-0.0,2.6778328,2.625577,2.128865,2,0,1,0
916305448,916304833,42.358568754404985,-71.08727381541162,2.2896242,-24.880432,-0.0,2.669478,2.6241295,2.1881428,2,0,1,0
917305253,917304610,42.35856898154557,-71.08727351377551,2.3540719,-24.893927,-0.0,2.6707768,2.6245348,2.2500005,2,0,1,0
918304847,918304387,42.35856921875711,-71.08727364954795,2.4111116,-24.903038,-0.0,2.6789713,2.6246786,2.295483,2,0,1,0
919304482,919304164,42.35856962356619,-71.08727351821963,2.4644134,-24.929304,-0.0,2.6797268,2.6251569,2.3500226,2,0,1,0
920304358,920303941,42.35856923997123,-71.08727412458792,2.5093806,-24.979433,-0.0,2.677435,2.624356,2.3937442,2,0,1,0
921304032,921303719,42.35856934232019,-71.08727360973307,2.4923656,-25.095882,-0.0,2.677978,2.6249468,2.3727405,2,0,1,0
922303930,922303495,42.358571496063426,-71.08727101552208,2.488415,-25.194033,-0.0,2.6772707,2.6244066,2.3813303,2,0,1,0
923303625,923303273,42.35857197462077,-71.08726949096722,2.490086,-25.296963,-0.0,2.676651,2.6247425,2.3794763,2,0,1,0
924303366,924303049,42.35857331512656,-71.08726637775003,2.4911265,-25.39632,-0.0,2.6746643,2.6239898,2.3876646,2,0,1,0
925303230,925302827,42.358572782184886,-71.08726884576048,2.507184,-25.481365,-0.0,2.6738825,2.624278,2.4098263,2,0,1,0
926302918,926302603,42.35857282753168,-71.08726778304295,2.4910274,-25.59662,-0.0,2.676172,2.624429,2.395153,2,0,1,0
927302697,927302382,42.3585728062813,-71.08726584273141,2.4923627,-25.694187,-0.0,2.678169,2.6252441,2.3871021,2,0,1,0
928302523,928302158,42.35856967902165,-71.08726604505509,2.533982,-25.753788,-0.0,2.6826181,2.6255734,2.4225376,2,0,1,0
929312299,929311932,42.35856972970337,-71.0872625036549,2.562082,-25.81323,-0.0,2.689022,2.625504,2.466477,2,0,1,0
930302022,930301712,42.35856781588794,-71.08726112438569,2.6063879,-25.842245,-0.0,2.6962245,2.6263025,2.4851525,2,0,1,0
931301807,931301489,42.35856661919292,-71.08726098244642,2.5984092,-25.934704,-0.0,2.6847105,2.6255522,2.4864433,2,0,1,0
932311590,932311264,42.35856686401722,-71.08726188837349,2.5276487,-26.106363,-0.0,2.6737916,2.6236174,2.4121711,2,0,1,0
933301437,933301043,42.358567314225404,-71.08726201898969,2.4669814,-26.26683,-0.0,2.667737,2.6230214,2.3619258,2,0,1,0
934301148,934300820,42.358567403367324,-71.08726239288266,2.4232857,-26.410826,-0.0,2.6602542,2.6211004,2.3404396,2,0,1,0
935310966,935310595,42.35856758949126,-71.08726289845669,2.4217267,-26.511887,-0.0,2.6601076,2.6212559,2.3227801,2,0,1,0
936310693,936310372,42.358567685558796,-71.0872630358525,2.3914356,-26.6411,-0.0,2.6610146,2.6221623,2.301057,2,0,1,0
937300642,937300151,42.35856813692807,-71.0872629112516,2.33829,-26.795023,-0.0,2.6599405,2.621723,2.2461023,2,0,1,0
938310290,938309927,42.35856852136988,-71.0872626312603,2.3031406,-26.92937,-0.0,2.6625957,2.6230001,2.212061,2,0,1,0
939310025,939309704,42.35856839872022,-71.08726264175989,2.3086855,-27.023642,-0.0,2.667242,2.6237378,2.2218935,2,0,1,0
940299798,940299483,42.35856758811799,-71.08726234343577,2.33026,-27.101387,-0.0,2.6700072,2.624684,2.232918,2,0,1,0
941309741,941309259,42.35856690967361,-71.08726239011729,2.3289404,-27.20337,-0.0,2.666598,2.6237278,2.2280314,2,0,1,0
942309553,942309036,42.35856684865746,-71.08726310588354,2.3222086,-27.3096,-0.0,2.667338,2.6241093,2.2180998,2,0,1,0
943309128,943308813,42.35856719518955,-71.08726343949158,2.3499382,-27.383072,-0.0,2.666817,2.6234615,2.2450073,2,0,1,0
944308900,944308591,42.358567897962466,-71.08726387043393,2.3462167,-27.486393,-0.0,2.6652942,2.6234188,2.2447317,2,0,1,0
945308702,945308368,42.358568235089265,-71.08726398417126,2.3754368,-27.557673,-0.0,2.661878,2.6222186,2.2832377,2,0,1,0
946308613,946308146,42.35856851555693,-71.08726397778625,2.4184148,-27.61225,-0.0,2.657916,2.6215782,2.3170266,2,0,1,0
947308452,947307923,42.35856837857803,-71.087263090804,2.4599955,-27.637854,-0.0,2.651699,2.6195507,2.3576112,2,0,1,0
948308100,948307701,42.358568662328494,-71.08726207401095,2.5091197,-27.643877,-0.0,2.6508987,2.6190221,2.3873484,2,204,1,0
949307793,949307479,42.358569725260764,-71.0872617777285,2.4798956,-27.723827,-0.0,2.6525452,2.619127,2.3725545,2,0,1,0
950307599,950307257,42.35857002942563,-71.08726122627446,2.5055254,-27.759163,-0.0,2.6574116,2.620654,2.397746,2,0,1,0
951307459,951307035,42.35857029265659,-71.08725992779834,2.467096,-27.872389,-0.0,2.655063,2.6205437,2.3655548,2,0,1,0
952307208,952306813,42.35857093174831,-71.08725994082829,2.4759574,-27.944153,-0.0,2.6503432,2.6192086,2.384718,2,0,1,0
953306920,953306591,42.35857120649752,-71.08725985657108,2.5229664,-27.992897,-0.0,2.642038,2.6165195,2.4288476,2,0,1,0
954306690,954306369,42.35857254648185,-71.08725919571644,2.537327,-28.077436,-0.0,2.6363454,2.6150618,2.4331334,2,0,1,0
955306645,955306147,42.35857375505551,-71.08725855849131,2.5406117,-28.175652,-0.0,2.6336873,2.6145205,2.4398975,2,0,1,0
956306345,956305926,42.358574476879305,-71.08725794398599,2.5357742,-28.279287,-0.0,2.6314156,2.613943,2.4312487,2,0,1,0
957306107,957305704,42.35857544326481,-71.08725740215093,2.5095222,-28.40554,-0.0,2.6304555,2.614345,2.412702,2,0,1,0
958305801,958305483,42.35857603170098,-71.08725766826164,2.4918394,-28.523422,-0.0,2.6326823,2.6151764,2.3957434,2,0,1,0
959305633,959305261,42.35857688126457,-71.08725789323216,2.4842415,-28.631123,-0.0,2.635685,2.6166697,2.3870416,2,0,1,0
960305356,960305040,42.35857669639383,-71.08725779809588,2.486783,-28.728004,-0.0,2.6359186,2.617564,2.3901212,2,0,1,0
961305131,961304819,42.35857637943917,-71.08725784904148,2.5291781,-28.787086,-0.0,2.6362326,2.6177487,2.4273467,2,0,1,0
962305108,962304598,42.35857597283548,-71.08725772092289,2.5426295,-28.873075,-0.0,2.6447787,2.6189303,2.4289591,2,0,1,0
963304695,963304377,42.35857688834245,-71.08725716710329,2.488293,-29.026413,-0.0,2.6411138,2.6188579,2.3766925,2,0,1,0
964304644,964304158,42.35857699984685,-71.08725666142625,2.4546397,-29.160965,-0.0,2.6434636,2.6189473,2.3593597,2,0,1,0
965304244,965303936,42.35857721286814,-71.0872564819769,2.451684,-29.26302,-0.0,2.6386592,2.6182892,2.3546448,2,0,1,0
966304124,966303716,42.3585766596539,-71.0872565637822,2.4548059,-29.352882,-0.0,2.634953,2.617004,2.3655937,2,0,1,0
967303828,967303495,42.358576210990556,-71.08725654301435,2.4676332,-29.424171,-0.0,2.6325967,2.6166081,2.3671913,2,0,1,0
968303683,968303275,42.35857582398654,-71.08725633754878,2.495885,-29.475353,-0.0,2.6296065,2.6153145,2.3976808,2,0,1,0
969303414,969303055,42.358575406396234,-71.08725612266518,2.4875546,-29.55937,-0.0,2.6292336,2.615774,2.3744879,2,0,1,0
970303203,970302835,42.358575128613076,-71.08725562016033,2.4808047,-29.640896,-0.0,2.631586,2.6159365,2.3883798,2,0,1,0
971302955,971302619,42.35857560633609,-71.08725539235834,2.4949758,-29.706993,-0.0,2.6289406,2.6155539,2.3985941,2,0,1,0
972302780,972302395,42.35857558590237,-71.0872549366966,2.5262616,-29.758432,-0.0,2.6316576,2.6159883,2.4223623,2,0,1,0
973302555,973302175,42.35857582408743,-71.08725411649023,2.5040226,-29.869642,-0.0,2.6287932,2.6156168,2.3937333,2,0,1,0
974302267,974301956,42.35857645484914,-71.08725370473623,2.478853,-29.983675,-0.0,2.6277893,2.6153631,2.3738897,2,0,1,0
975302094,975301736,42.358577331534086,-71.08725406215702,2.4395785,-30.114315,-0.0,2.6286995,2.6164036,2.335223,2,0,1,0
976301951,976301517,42.35857752614356,-71.08725381259629,2.4115016,-30.24283,-0.0,2.6319382,2.6168652,2.3176322,2,0,1,0
977304111,977301298,42.358577991668525,-71.08725331165545,2.3540573,-30.40026,-0.0,2.6349092,2.617869,2.2577016,2,0,1,0
978311564,978311077,42.358578119084626,-71.08725298325444,2.3364236,-30.51797,-0.0,2.6371863,2.6182578,2.2442796,2,0,1,0
979301170,979300860,42.35857788121052,-71.08725259716307,2.3144884,-30.638905,-0.0,2.6353753,2.6176782,2.2254696,2,0,1,0
980310954,980310639,42.358577480475375,-71.08725175379645,2.3210728,-30.727518,-0.0,2.6376848,2.6181822,2.233815,2,0,1,0
981310809,981310421,42.35857707213278,-71.08725069852589,2.3045182,-30.84418,-0.0,2.6347678,2.6181679,2.2052677,2,0,1,0
982300574,982300204,42.35857662166193,-71.08725030551807,2.3261034,-30.922989,-0.0,2.6305592,2.6166508,2.2318468,2,0,1,0
983310400,983309984,42.358576099295576,-71.0872498691758,2.3433287,-31.00527,-0.0,2.628299,2.6158407,2.24151,2,0,1,0
984310382,984309766,42.35857624000326,-71.08724912559289,2.330572,-31.136915,-0.0,2.624356,2.6154537,2.2020023,2,0,1,0
985310021,985309547,42.35857628827021,-71.08724755788683,2.2671707,-31.28226,-0.0,2.627382,2.6158278,2.1713994,2,0,1,0
986310114,986309329,42.35857530540694,-71.08724734130386,2.2797809,-31.388344,-0.0,2.6225073,2.6148272,2.200367,2,0,1,0
987309497,987309111,42.358574400035415,-71.08724774071814,2.3135574,-31.434837,-0.0,2.6292233,2.6160648,2.2209451,2,0,1,0
988309234,988308894,42.3585732840033,-71.08724764941081,2.3295112,-31.504984,-0.0,2.63314,2.6174889,2.23248,2,0,1,0
989309046,989308676,42.35857287887048,-71.08724776541608,2.374875,-31.521076,-0.0,2.647206,2.6194808,2.2761316,2,0,1,0
990308898,990308459,42.358572076585375,-71.08724741750773,2.37124,-31.604681,-0.0,2.6423118,2.6191313,2.256697,2,0,1,0
991308739,991308241,42.35857144972174,-71.08724735516516,2.3698242,-31.66267,-0.0,2.6409376,2.6186848,2.264686,2,0,1,0
992308370,992308024,42.358570918139826,-71.0872473965042,2.365523,-31.704805,-0.0,2.6503778,2.6200616,2.2670403,2,0,1,0
993308175,993307807,42.35857038736842,-71.08724768503859,2.360497,-31.757069,-0.0,2.6501567,2.6195667,2.266832,2,0,1,0
994307901,994307590,42.358569965616304,-71.08724853668214,2.3751512,-31.775873,-0.0,2.6429853,2.6184933,2.2662725,2,0,1,0
995307798,995307373,42.358569652332434,-71.08724799760657,2.3576498,-31.817253,-0.0,2.6503627,2.6189792,2.2555861,2,0,1,0
996307554,996307156,42.35856879823395,-71.0872481242287,2.376547,-31.808817,-0.0,2.6526096,2.6200287,2.2779791,2,0,1,0
997307253,997306940,42.35856814352853,-71.08724867604357,2.3879673,-31.76542,-0.0,2.648878,2.6185718,2.2856266,2,0,1,0
998307098,998306723,42.35856799437719,-71.08724910213483,2.3898065,-31.668028,-0.0,2.653801,2.6177,2.2865615,2,0,1,0
999306871,999306507,42.35856750349768,-71.08724999806978,2.36793,-31.590948,-0.0,2.6557982,2.6164124,2.2771633,2,0,1,0
1000306630,1000306291,42.35856632231235,-71.08725142178201,2.3661973,-31.490881,-0.0,2.6565123,2.6162412,2.2727454,2,0,1,0
1001306462,1001306074,42.35856396136539,-71.0872528200717,2.414001,-31.34298,-0.0,2.653496,2.6149087,2.3113172,2,0,1,0
1002306228,1002305858,42.358561164027144,-71.08725350093529,2.4324458,-31.225933,-0.0,2.651657,2.6150818,2.323556,2,0,1,0
1003305957,1003305642,42.3585584404841,-71.0872539388793,2.4190788,-31.139503,-0.0,2.648672,2.6145236,2.3138216,2,0,1,0
1004300777,1004295429,42.3585562365077,-71.08725417121784,2.3757515,-31.081833,-0.0,2.6447444,2.6141167,2.2771966,2,0,1,0
1005305585,1005305211,42.35855396412835,-71.08725468431152,2.3918798,-30.966793,-0.0,2.6411996,2.6135693,2.297932,2,0,1,0
1006305453,1006304995,42.35855231810017,-71.08725515776403,2.3964157,-30.862072,-0.0,2.6378658,2.6134982,2.2987244,2,0,1,0
1007305157,1007304780,42.358551139541824,-71.08725552420319,2.3989751,-30.758614,-0.0,2.6350753,2.6131752,2.2949877,2,0,1,0
1008304945,1008304565,42.358549833687704,-71.08725575976545,2.3642402,-30.694448,-0.0,2.6324008,2.6132245,2.2652397,2,0,1,0
1009304664,1009304350,42.35854879358529,-71.08725595135368,2.3452199,-30.613768,-0.0,2.631155,2.6134284,2.2516909,2,0,1,0
1010304460,1010304134,42.358548271920576,-71.08725663121473,2.3619437,-30.494947,-0.0,2.6296558,2.6138482,2.2747173,2,0,1,0
1011304298,1011303920,42.35854764347161,-71.08725674153155,2.363187,-30.395502,-0.0,2.628915,2.6140404,2.2683957,2,0,1,0
1012304027,1012303705,42.358547492067004,-71.08725707720463,2.3736446,-30.284044,-0.0,2.629264,2.6150548,2.2723713,2,0,1,0
1013303822,1013303490,42.35854818076114,-71.08725821028453,2.3529713,-30.20521,-0.0,2.627582,2.614566,2.2571423,2,0,1,0
1014303647,1014303275,42.35854854042707,-71.08725882443721,2.3570886,-30.101103,-0.0,2.6287863,2.6157756,2.2601647,2,0,1,0
1015303373,1015303063,42.35854902176693,-71.08725961035783,2.3404531,-30.016937,-0.0,2.6289506,2.6159558,2.2339804,2,0,1,0
1016303177,1016302846,42.35854982566536,-71.08726092126292,2.331018,-29.927275,-0.0,2.6286604,2.6164265,2.2345982,2,0,1,0
1017302948,1017302632,42.35855071326032,-71.0872622302624,2.3174517,-29.841042,-0.0,2.626111,2.615283,2.2248034,2,0,1,0
1018302801,1018302418,42.358551756609366,-71.08726339574298,2.3695312,-29.689161,-0.0,2.6237283,2.6141253,2.2693684,2,0,1,0
1019302578,1019302203,42.35855309322633,-71.08726490503084,2.3966599,-29.561632,-0.0,2.6235483,2.6145449,2.2868104,2,0,1,0
1020312654,1020311988,42.35855451695053,-71.08726569312805,2.395214,-29.443777,-0.0,2.621413,2.614485,2.2976496,2,0,1,0
1021302087,1021301776,42.35855599205303,-71.08726695579367,2.4058347,-29.352158,-0.0,2.6259468,2.6160462,2.3017304,2,0,1,0
1022301877,1022301562,42.358556446001174,-71.08726695144422,2.4170725,-29.241604,-0.0,2.6242733,2.6157947,2.3216648,2,0,1,0
1023311952,1023311346,42.35855791409949,-71.08726672335067,2.4848742,-29.054575,-0.0,2.6183712,2.6135516,2.365119,2,0,1,0
1024301517,1024301135,42.35855781119693,-71.08726661397169,2.5081265,-28.957354,-0.0,2.6204538,2.6137068,2.4058146,2,0,1,0
1025301372,1025300921,42.35855811406386,-71.08726754096027,2.5441875,-28.848808,-0.0,2.6205072,2.6141322,2.4368277,2,0,1,0
1026311014,1026310706,42.35855911435672,-71.08726869402928,2.544485,-28.798374,-0.0,2.6189628,2.613266,2.4374938,2,0,1,0
1027310823,1027310493,42.35856063938624,-71.08727011470415,2.5142543,-28.799677,-0.0,2.618916,2.613629,2.4130766,2,0,1,0
1028300686,1028300282,42.35856141501426,-71.08726974481574,2.5275514,-28.75837,-0.0,2.6200855,2.6141503,2.436866,2,0,1,0
1029310459,1029310067,42.358562218482774,-71.0872706740098,2.5360794,-28.738386,-0.0,2.6201255,2.6145883,2.4374895,2,0,1,0
1030310334,1030309854,42.3585633177786,-71.0872713637878,2.5361187,-28.738276,-0.0,2.6205535,2.6147346,2.4413497,2,0,1,0
1031299966,1031299644,42.358564561378834,-71.0872724235532,2.5339823,-28.7467,-0.0,2.620773,2.6151855,2.436197,2,0,1,0
1032309782,1032309429,42.358565921605404,-71.08727535444027,2.5093102,-28.784105,-0.0,2.6234844,2.6163552,2.4073935,2,0,1,0
1033309583,1033309217,42.35856478337911,-71.08727571277846,2.6651857,-28.644651,-0.0,2.6261153,2.6187577,2.5745013,2,0,1,0
1034309374,1034309005,42.35856134916511,-71.08727591598215,2.722919,-28.626043,-0.0,2.634898,2.620571,2.607057,2,0,1,0
1035309185,1035308794,42.35855891223495,-71.08727558088466,2.6974566,-28.73772,-0.0,2.640607,2.6227562,2.5994096,2,0,1,0
1036309345,1036308582,42.35855432001712,-71.08727184205408,2.7379665,-28.780811,-0.0,2.6423435,2.6242256,2.6437054,2,0,1,0
