timestamp,timestamp_sample,ref_timestamp,ref_lat,ref_lon,x,y,z,delta_xy[0],delta_xy[1],delta_z,vx,vy,vz,z_deriv,delta_vxy[0],delta_vxy[1],delta_vz,ax,ay,az,heading,delta_heading,ref_alt,dist_bottom,eph,epv,evh,evv,vxy_max,vz_max,hagl_min,hagl_max,xy_valid,z_valid,v_xy_valid,v_z_valid,xy_reset_counter,z_reset_counter,vxy_reset_counter,vz_reset_counter,heading_reset_counter,heading_good_for_control,xy_global,z_global,dist_bottom_valid,dist_bottom_sensor_bitfield
539788435,539788128,45930887,42.3585499,-71.08724959999999,3.4977572,-2.971343,5.3901687,0.0011367018,0.000111144094,0.0,0.038384136,0.016064603,0.023675347,0.015351294,0.00446994,-0.05826801,0.14515758,0.06247182,0.023512786,-0.018131386,2.5547674,0.023883352,5.8776836,0.10115147,0.6249312,0.46145302,0.20629059,0.12798916,inf,inf,inf,inf,1,1,1,1,2,0,2,1,4,0,1,1,1,0
540288461,540288070,45930887,42.3585499,-71.08724959999999,3.529726,-2.9941185,5.3974767,0.0011367018,0.000111144094,0.0,0.03942136,0.01129301,0.01949307,0.013026995,0.00446994,-0.05826801,0.14515758,0.033342194,-0.016145887,-0.15155871,2.5547156,0.023883352,5.8776836,0.1,0.62597334,0.45694026,0.20112893,0.1263823,inf,inf,inf,inf,1,1,1,1,2,0,2,1,4,0,1,1,1,0
540798372,540798012,45930887,42.3585499,-71.08724959999999,3.5687194,-3.0407138,5.3896627,0.0011367018,0.000111144094,0.0,0.04176877,-0.0071832086,0.014196313,0.00024046846,0.00446994,-0.05826801,0.14515758,-0.017387835,-0.041416027,0.06018975,2.5543137,0.023883352,5.8776836,0.1,0.5934477,0.4488844,0.180497,0.12150021,inf,inf,inf,inf,1,1,1,1,2,0,2,1,4,0,1,1,1,0
541288284,541287955,45930887,42.3585499,-71.08724959999999,3.5777485,-3.1145856,5.37445,0.0011367018,0.000111144094,0.0,0.029227892,-0.029418673,0.011175672,-0.015573486,0.00446994,-0.05826801,0.14515758,0.0053557865,-0.0588716,-0.034019955,2.553825,0.023883352,5.8776836,0.1,0.59590894,0.4482149,0.18176594,0.121408,inf,inf,inf,inf,1,1,1,1,2,0,2,1,4,0,1,1,1,0
541788268,541787898,45930887,42.3585499,-71.08724959999999,3.5908346,-3.1772385,5.352232,0.0011367018,0.000111144094,0.0,0.021946562,-0.03974474,0.011791864,-0.024534289,0.00446994,-0.05826801,0.14515758,-0.014635264,0.0051787253,0.03024787,2.553659,0.023883352,5.8776836,0.1,0.5824219,0.44699067,0.17941678,0.12080057,inf,inf,inf,inf,1,1,1,1,2,0,2,1,4,0,1,1,1,0
542288356,542287841,45930887,42.3585499,-71.08724959999999,3.6097598,-3.2269976,5.3356066,0.0011367018,0.000111144094,0.0,0.02277815,-0.04846815,0.007930574,-0.031865127,0.00446994,-0.05826801,0.14515758,0.04342861,-0.041887052,-0.07138616,2.5529816,0.023883352,5.8776836,0.1,0.595056,0.44767904,0.18891715,0.12257209,inf,inf,inf,inf,1,1,1,1,2,0,2,1,4,0,1,1,1,0
542788106,542787783,45930887,42.3585499,-71.08724959999999,3.6264222,-3.3146138,5.3021646,0.0011367018,0.000111144094,0.0,0.015469667,-0.0705596,0.0022403814,-0.046690922,0.00446994,-0.05826801,0.14515758,0.007493471,-0.06158786,-0.06387162,2.5524015,0.023883352,5.8776836,0.1,0.58335173,0.4473481,0.18591064,0.12214262,inf,inf,inf,inf,1,1,1,1,2,0,2,1,4,0,1,1,1,0
543288115,543287726,45930887,42.3585499,-71.08724959999999,3.6398509,-3.3589058,5.2727113,0.0011367018,0.000111144094,0.0,0.009192285,-0.07646052,-0.01950311,-0.065715306,0.00446994,-0.05826801,0.14515758,0.0028163036,0.003722757,-0.0234871,2.5521817,0.023883352,5.8776836,0.1053319,0.59264374,0.4499903,0.19087955,0.12332571,inf,inf,inf,inf,1,1,1,1,2,0,2,1,4,0,1,1,1,0
543797978,543797667,45930887,42.3585499,-71.08724959999999,3.6431398,-3.374361,5.251269,0.0011367018,0.000111144094,0.0,-0.0006977139,-0.06756839,-0.021464935,-0.0560413,0.00446994,-0.05826801,0.14515758,-0.036217246,-0.011449334,0.021324432,2.5518649,0.023883352,5.8776836,0.10885286,0.5792821,0.44924566,0.18524675,0.12234992,inf,inf,inf,inf,1,1,1,1,2,0,2,1,4,0,1,1,1,0
544298009,544297610,45930887,42.3585499,-71.08724959999999,3.675451,-3.3800006,5.235687,0.0011367018,0.000111144094,0.0,0.0031193036,-0.051889468,-0.010033999,-0.037259426,0.00446994,-0.05826801,0.14515758,-0.0050557316,0.050114468,0.01825344,2.5511906,0.023883352,5.8776836,0.1,0.5903812,0.44886923,0.19146556,0.12336068,inf,inf,inf,inf,1,1,1,1,2,0,2,1,4,0,1,1,1,0
544787947,544787554,45930887,42.3585499,-71.08724959999999,3.6967442,-3.371329,5.2294216,0.0011367018,0.000111144094,0.0,0.010834051,-0.035761688,-0.009312062,-0.027974496,0.00446994,-0.05826801,0.14515758,-0.0042795846,0.026820125,-0.08466741,2.5509672,0.023883352,5.8776836,0.10567522,0.57820696,0.44786116,0.18781935,0.12277046,inf,inf,inf,inf,1,1,1,1,2,0,2,1,4,0,1,1,1,0
545287811,545287497,45930887,42.3585499,-71.08724959999999,3.7307365,-3.378983,5.2202168,0.0011367018,0.000111144094,0.0,0.022153972,-0.030664202,-0.0054748333,-0.023792885,0.00446994,-0.05826801,0.14515758,-0.02490089,0.0035664567,-0.0096877385,2.5507183,0.023883352,5.8776836,0.1,0.59555787,0.45333493,0.19788413,0.12524441,inf,inf,inf,inf,1,1,1,1,2,0,2,1,4,0,1,1,1,0
545787747,545787439,45930887,42.3585499,-71.08724959999999,3.7171006,-3.3988352,5.217598,0.0011367018,0.000111144094,0.0,0.008055838,-0.03386393,-0.0067843855,-0.018282559,0.00446994,-0.05826801,0.14515758,0.024055148,0.11018295,0.033886127,2.5499983,0.023883352,5.8776836,0.10136604,0.5892339,0.4548773,0.19700333,0.1255086,inf,inf,inf,inf,1,1,1,1,2,0,2,1,4,0,1,1,1,0
546287814,546287382,45930887,42.3585499,-71.08724959999999,3.723521,-3.4113162,5.1993346,0.0011367018,0.000111144094,0.0,0.010252236,-0.02760608,-0.010322564,-0.029951993,0.00446994,-0.05826801,0.14515758,-0.04019063,0.05020289,0.19171613,2.5494325,0.023883352,5.8776836,0.1,0.6028417,0.45450404,0.2016392,0.1261325,inf,inf,inf,inf,1,1,1,1,2,0,2,1,4,0,1,1,1,0
546787806,546787325,45930887,42.3585499,-71.08724959999999,3.7337701,-3.3951707,5.1927114,0.0011367018,0.000111144094,0.0,0.009161693,-0.014507263,-0.0100567,-0.024704417,0.00446994,-0.05826801,0.14515758,-0.016972482,-0.0077526425,-0.19193804,2.549141,0.023883352,5.8776836,0.106945515,0.59811205,0.45660755,0.20075685,0.12649639,inf,inf,inf,inf,1,1,1,1,2,0,2,1,4,0,1,1,1,0
547297586,547297267,45930887,42.3585499,-71.08724959999999,3.7758846,-3.3559427,5.1989107,0.0011367018,0.000111144094,0.0,0.02037937,0.0108048245,0.0061486317,0.0039417148,0.00446994,-0.05826801,0.14515758,0.018212516,0.03070798,0.025643233,2.5485706,0.023883352,5.8776836,0.10736561,0.6167976,0.46201283,0.20800336,0.12824717,inf,inf,inf,inf,1,1,1,1,2,0,2,1,4,0,1,1,1,0
547797591,547797210,45930887,42.3585499,-71.08724959999999,3.8034232,-3.3201802,5.2023535,0.0011367018,0.000111144094,0.0,0.025412517,0.029463558,0.006040537,0.0055497233,0.00446994,-0.05826801,0.14515758,-0.0020950015,0.033086997,0.12593915,2.548337,0.023883352,5.8776836,0.10234308,0.6085287,0.45892417,0.20403017,0.12732722,inf,inf,inf,inf,1,1,1,1,2,0,2,1,4,0,1,1,1,0
548287518,548287154,45930887,42.3585499,-71.08724959999999,3.8323524,-3.308441,5.2122054,0.0011367018,0.000111144094,0.0,0.02902935,0.033999622,0.011119031,0.015818795,0.00446994,-0.05826801,0.14515758,0.0017540241,0.103501715,0.12436679,2.5485356,0.023883352,5.8776836,0.1017437,0.6188576,0.46032426,0.20553626,0.12757424,inf,inf,inf,inf,1,1,1,1,2,0,2,1,4,0,1,1,1,0
548787399,548787097,45930887,42.3585499,-71.08724959999999,3.9085019,-3.261222,5.231716,0.0011367018,0.000111144094,0.0,0.051539555,0.05153333,0.01701371,0.026809284,0.00446994,-0.05826801,0.14515758,-0.03655383,-0.04202111,0.011107455,2.5482228,0.023883352,5.8776836,0.1,0.61343426,0.46190602,0.20396136,0.1276495,inf,inf,inf,inf,1,1,1,1,2,0,2,1,4,0,1,1,1,0
549287353,549287040,45930887,42.3585499,-71.08724959999999,3.9293091,-3.2331452,5.2457576,0.0011367018,0.000111144094,0.0,0.04843527,0.059982564,0.01876653,0.026296219,0.00446994,-0.05826801,0.14515758,-0.016496297,0.03126148,0.015405233,2.5481036,0.023883352,5.8776836,0.1,0.63179874,0.4661598,0.21077873,0.12905611,inf,inf,inf,inf,1,1,1,1,2,0,2,1,4,0,1,1,1,0
549787383,549786984,45930887,42.3585499,-71.08724959999999,3.9401104,-3.23127,5.257743,0.0011367018,0.000111144094,0.0,0.039689388,0.05891747,0.025231486,0.028671736,0.00446994,-0.05826801,0.14515758,0.002350336,0.034268744,-0.020765299,2.548164,0.023883352,5.8776836,0.1,0.61185634,0.4630261,0.19848095,0.1267637,inf,inf,inf,inf,1,1,1,1,2,0,2,1,4,0,1,1,1,0
550297282,550296926,45930887,42.3585499,-71.08724959999999,3.999428,-3.25155,5.253519,0.0011367018,0.000111144094,0.0,0.054824304,0.044876706,0.020105489,0.0090445895,0.00446994,-0.05826801,0.14515758,0.016335374,0.015806522,0.010050268,2.5479157,0.023883352,5.8776836,0.1,0.6219905,0.46120152,0.20054398,0.12654349,inf,inf,inf,inf,1,1,1,1,2,0,2,1,4,0,1,1,1,0
550797192,550796870,45930887,42.3585499,-71.08724959999999,4.011129,-3.2415617,5.2483773,0.0011367018,0.000111144094,0.0,0.04250926,0.04843414,0.032118175,0.010750748,0.00446994,-0.05826801,0.14515758,-0.016127333,-0.009664093,-0.00011410305,2.5475953,0.023883352,5.8776836,0.1,0.60208684,0.45757598,0.19006005,0.12428131,inf,inf,inf,inf,1,1,1,1,2,0,2,1,4,0,1,1,1,0
551297288,551296812,45930887,42.3585499,-71.08724959999999,4.0211053,-3.246484,5.228575,0.0011367018,0.000111144094,0.0,0.041270062,0.04013226,0.021622352,-0.01735637,0.00446994,-0.05826801,0.14515758,-0.019157501,-0.03165822,0.051109497,2.5476034,0.023883352,5.8776836,0.1,0.60888356,0.45839757,0.19239828,0.12454996,inf,inf,inf,inf,1,1,1,1,2,0,2,1,4,0,1,1,1,0
551787075,551786757,45930887,42.3585499,-71.08724959999999,4.0434623,-3.2603767,5.2069964,0.0011367018,0.000111144094,0.0,0.042181768,0.031228196,0.016716434,-0.030306974,0.00446994,-0.05826801,0.14515758,-0.033548206,0.009084185,0.0696369,2.5475626,0.023883352,5.8776836,0.1,0.591068,0.45479873,0.18527177,0.12283308,inf,inf,inf,inf,1,1,1,1,2,0,2,1,4,0,1,1,1,0
552287068,552286700,45930887,42.3585499,-71.08724959999999,4.091835,-3.272827,5.1927996,0.0011367018,0.000111144094,0.0,0.050398953,0.031434853,0.013415141,-0.033165473,0.00446994,-0.05826801,0.14515758,0.010047379,0.0052937507,-0.03775575,2.5473897,0.023883352,5.8776836,0.1,0.60164475,0.4534897,0.1914253,0.12357961,inf,inf,inf,inf,1,1,1,1,2,0,2,1,4,0,1,1,1,0
552786965,552786644,45930887,42.3585499,-71.08724959999999,4.10553,-3.283426,5.1779003,0.0011367018,0.000111144094,0.0,0.042803366,0.031973127,0.01667652,-0.028608454,0.00446994,-0.05826801,0.14515758,0.010118607,0.0070655122,-0.07369187,2.5475776,0.023883352,5.8776836,0.10014057,0.5819137,0.4493883,0.1816915,0.121336386,inf,inf,inf,inf,1,1,1,1,2,0,2,1,4,0,1,1,1,0
553291936,553286587,45930887,42.3585499,-71.08724959999999,4.123313,-3.305829,5.1830254,0.0011367018,0.000111144094,0.0,0.039644424,0.029212171,0.02706742,-0.0049845194,0.00446994,-0.05826801,0.14515758,0.039526336,0.03661953,-0.06737495,2.5475101,0.023883352,5.8776836,0.10144091,0.58626544,0.4495895,0.1835225,0.121570565,inf,inf,inf,inf,1,1,1,1,2,0,2,1,4,0,1,1,1,0
553796896,553796529,45930887,42.3585499,-71.08724959999999,4.162413,-3.3593712,5.199554,0.0011367018,0.000111144094,0.0,0.047850892,0.010240957,0.030418567,0.013646004,0.00446994,-0.05826801,0.14515758,0.0142365,0.024572998,-0.044695303,2.5472906,0.023883352,5.8776836,0.1,0.5685583,0.44270846,0.17660181,0.119325355,inf,inf,inf,inf,1,1,1,1,2,0,2,1,4,0,1,1,1,0
554296816,554296473,45930887,42.3585499,-71.08724959999999,4.16041,-3.390405,5.1936026,0.0011367018,0.000111144094,0.0,0.035612714,0.0061038057,0.02550045,-0.00013363137,0.00446994,-0.05826801,0.14515758,0.004937992,0.015911777,0.07790608,2.5473106,0.023883352,5.8776836,0.1,0.57549214,0.4443777,0.18151176,0.120453656,inf,inf,inf,inf,1,1,1,1,2,0,2,1,4,0,1,1,1,0
554796842,554796417,45930887,42.3585499,-71.08724959999999,4.145589,-3.400024,5.1803393,0.0011367018,0.000111144094,0.0,0.014926983,0.011823976,0.03314975,-0.0031643421,0.00446994,-0.05826801,0.14515758,-0.015742246,0.0033197175,-0.0500871,2.547342,0.023883352,5.8776836,0.1,0.56411827,0.44377002,0.17969488,0.12023818,inf,inf,inf,inf,1,1,1,1,2,0,2,1,4,0,1,1,1,0
555286706,555286361,45930887,42.3585499,-71.08724959999999,4.0908265,-3.3345933,5.1637745,0.0011367018,0.000111144094,0.0,-0.0068361736,0.04044895,0.024736928,-0.019909179,0.00446994,-0.05826801,0.14515758,0.0020499178,0.009233273,-0.021672606,2.5470185,0.023883352,5.8776836,0.1,0.5724719,0.44580045,0.18529975,0.12162327,inf,inf,inf,inf,1,1,1,1,2,0,2,1,4,0,1,1,1,0
555786760,555786305,45930887,42.3585499,-71.08724959999999,4.0576386,-3.3282402,5.14471,0.0011367018,0.000111144094,0.0,-0.02350463,0.0396488,0.026046319,-0.025028761,0.00446994,-0.05826801,0.14515758,-0.03605299,0.013607878,0.008612673,2.546877,0.023883352,5.8776836,0.1,0.5510095,0.4404283,0.17303632,0.1186288,inf,inf,inf,inf,1,1,1,1,2,0,2,1,4,0,1,1,1,0
556296571,556296248,45930887,42.3585499,-71.08724959999999,4.039025,-3.3086262,5.122029,0.0011367018,0.000111144094,0.0,-0.030174807,0.046788458,0.018802969,-0.035604846,0.00446994,-0.05826801,0.14515758,0.0016539972,0.0007815764,0.090523295,2.5471265,0.023883352,5.8776836,0.1,0.5637742,0.44210878,0.18283528,0.12083379,inf,inf,inf,inf,1,1,1,1,2,0,2,1,4,0,1,1,1,0
556796503,556796192,45930887,42.3585499,-71.08724959999999,4.0626903,-3.3073676,5.110863,0.0011367018,0.000111144094,0.0,-0.013743522,0.04197535,0.012592003,-0.033438038,0.00446994,-0.05826801,0.14515758,0.017969595,-0.0159984,0.015633242,2.5468235,0.023883352,5.8776836,0.103767395,0.5507799,0.44082543,0.17838532,0.120007806,inf,inf,inf,inf,1,1,1,1,2,0,2,1,4,0,1,1,1,0
557296442,557296136,45930887,42.3585499,-71.08724959999999,4.090906,-3.3052437,5.09205,0.0011367018,0.000111144094,0.0,-0.0022694636,0.038528655,0.003382021,-0.04302789,0.00446994,-0.05826801,0.14515758,-0.04360245,0.018439125,0.02498883,2.546493,0.023883352,5.8776836,0.1020484,0.5683098,0.4472217,0.19074701,0.1232712,inf,inf,inf,inf,1,1,1,1,2,0,2,1,4,0,1,1,1,0
557796424,557796079,45930887,42.3585499,-71.08724959999999,4.1071672,-3.3104744,5.068432,0.0011367018,0.000111144094,0.0,-0.0027139587,0.035894156,0.004161832,-0.042432975,0.00446994,-0.05826801,0.14515758,-0.02839529,0.039507784,-0.04179992,2.5464644,0.023883352,5.8776836,0.10112381,0.5632002,0.44571367,0.19102037,0.12342713,inf,inf,inf,inf,1,1,1,1,2,0,2,1,4,0,1,1,1,0
558296335,558296024,45930887,42.3585499,-71.08724959999999,4.1288824,-3.3035486,5.061619,0.0011367018,0.000111144094,0.0,-0.0017742167,0.037057035,0.0028944789,-0.03061475,0.00446994,-0.05826801,0.14515758,0.024080236,-0.024789894,-0.0303772,2.5465121,0.023883352,5.8776836,0.11106825,0.5778123,0.45010486,0.19724149,0.12513064,inf,inf,inf,inf,1,1,1,1,2,0,2,1,4,0,1,1,1,0
558786284,558785969,45930887,42.3585499,-71.08724959999999,4.161969,-3.2842443,5.069711,0.0011367018,0.000111144094,0.0,0.00669714,0.04201224,0.008624048,-0.010328245,0.00446994,-0.05826801,0.14515758,-0.031582978,0.0068417736,-0.0662275,2.5463333,0.023883352,5.8776836,0.10300398,0.56491816,0.4489437,0.19070719,0.124075,inf,inf,inf,inf,1,1,1,1,2,0,2,1,4,0,1,1,1,0
559296273,559295912,45930887,42.3585499,-71.08724959999999,4.1750684,-3.327645,5.060027,0.0011367018,0.000111144094,0.0,0.009422648,0.01710116,0.0040631066,-0.01846856,0.00446994,-0.05826801,0.14515758,-0.05574783,-0.017926572,0.013442982,2.5462718,0.023883352,5.8776836,0.1,0.57739663,0.44919437,0.19483842,0.124704964,inf,inf,inf,inf,1,1,1,1,2,0,2,1,4,0,1,1,1,0
559796243,559795856,45930887,42.3585499,-71.08724959999999,4.1821785,-3.3333642,5.0582733,0.0011367018,0.000111144094,0.0,0.009910193,0.01461425,0.0013174312,-0.013789665,0.00446994,-0.05826801,0.14515758,0.0390317,0.019640146,-0.19991656,2.5461287,0.023883352,5.8776836,0.11017704,0.565866,0.44884837,0.18946661,0.12385292,inf,inf,inf,inf,1,1,1,1,2,0,2,1,4,0,1,1,1,0
560296212,560295800,45930887,42.3585499,-71.08724959999999,4.192329,-3.3168404,5.0716,0.0011367018,0.000111144094,0.0,0.011418072,0.021201415,0.009270053,0.007797256,0.00446994,-0.05826801,0.14515758,-0.0004721731,-0.0045662127,0.0688986,2.5455775,0.023883352,5.8776836,0.10103083,0.5791112,0.45247903,0.19503017,0.12515078,inf,inf,inf,inf,1,1,1,1,2,0,2,1,4,0,1,1,1,0
560796063,560795744,45930887,42.3585499,-71.08724959999999,4.2132206,-3.3183413,5.0742035,0.0011367018,0.000111144094,0.0,0.023120001,0.012358071,0.00071249413,-0.0036325962,0.00446994,-0.05826801,0.14515758,-0.0008784578,0.0025075136,0.020627148,2.5451062,0.023883352,5.8776836,0.100616455,0.57028604,0.45303717,0.1916882,0.12476439,inf,inf,inf,inf,1,1,1,1,2,0,2,1,4,0,1,1,1,0
561296097,561295688,45930887,42.3585499,-71.08724959999999,4.2322245,-3.313075,5.077224,0.0011367018,0.000111144094,0.0,0.029525544,0.005881868,0.008466843,0.004648477,0.00446994,-0.05826801,0.14515758,0.0063150246,-0.0032184657,0.07671608,2.5448089,0.023883352,5.8776836,0.1,0.58483547,0.45309454,0.19752684,0.1255823,inf,inf,inf,inf,1,1,1,1,2,0,2,1,4,0,1,1,1,0
561796014,561795632,45930887,42.3585499,-71.08724959999999,4.208898,-3.3141778,5.0853324,0.0011367018,0.000111144094,0.0,0.018429302,-0.00058513077,0.007962865,0.007772038,0.00446994,-0.05826801,0.14515758,-0.0267645,-0.013950128,0.025147928,2.5442152,0.023883352,5.8776836,0.11163807,0.57423544,0.45293635,0.19245149,0.12478002,inf,inf,inf,inf,1,1,1,1,2,0,2,1,4,0,1,1,1,0
562285891,562285578,45930887,42.3585499,-71.08724959999999,4.188686,-3.2846875,5.106922,0.0011367018,0.000111144094,0.0,0.011554789,0.007391616,0.029428354,0.03547307,0.00446994,-0.05826801,0.14515758,-0.00830687,0.054240834,0.019426411,2.5438092,0.023883352,5.8776836,0.1,0.578489,0.45235497,0.19077338,0.12417959,inf,inf,inf,inf,1,1,1,1,2,0,2,1,4,0,1,1,1,0
562795859,562795521,45930887,42.3585499,-71.08724959999999,4.1855073,-3.2422032,5.108726,0.0011367018,0.000111144094,0.0,0.0063950336,0.011276522,0.026289811,0.020493021,0.00446994,-0.05826801,0.14515758,-0.031025667,0.042609002,0.068329476,2.5449328,0.023883352,5.8776836,0.1,0.5724759,0.45402053,0.18958476,0.1242557,inf,inf,inf,inf,1,1,1,1,2,0,2,1,4,0,1,1,1,0
563295794,563295465,45930887,42.3585499,-71.08724959999999,4.161962,-3.219279,5.1009974,0.0011367018,0.000111144094,0.0,-0.0048969006,0.005494221,0.016489655,-0.0014577692,0.00446994,-0.05826801,0.14515758,-0.002895735,-0.030138584,-0.016665448,2.5464008,0.023883352,5.8776836,0.1,0.58678967,0.45768434,0.19591783,0.12566006,inf,inf,inf,inf,1,1,1,1,2,0,2,1,4,0,1,1,1,0
563795716,563795410,45930887,42.3585499,-71.08724959999999,4.1402106,-3.1888587,5.100981,0.0011367018,0.000111144094,0.0,-0.002739187,0.011696159,0.018179897,0.0012043242,0.00446994,-0.05826801,0.14515758,-0.007979605,0.010759917,-0.048662897,2.5476804,0.023883352,5.8776836,0.100631714,0.57736397,0.45401263,0.1927394,0.12470865,inf,inf,inf,inf,1,1,1,1,2,0,2,1,4,0,1,1,1,0
564295762,564295354,45930887,42.3585499,-71.08724959999999,4.101955,-3.1597881,5.113551,0.0011367018,0.000111144094,0.0,-0.0099399,0.011041015,0.013855198,0.00854931,0.00446994,-0.05826801,0.14515758,0.009481676,0.0061375867,0.055200152,2.5490692,0.023883352,5.8776836,0.10348177,0.586184,0.45553643,0.1944452,0.12501903,inf,inf,inf,inf,1,1,1,1,2,0,2,1,4,0,1,1,1,0
564795712,564795298,45930887,42.3585499,-71.08724959999999,4.0775023,-3.164609,5.1158195,0.0011367018,0.000111144094,0.0,-0.0015050124,-0.0049885963,0.016562592,0.008340066,0.00446994,-0.05826801,0.14515758,-0.01496272,0.012716496,-0.06921852,2.5505028,0.023883352,5.8776836,0.1,0.58177525,0.45746684,0.19513164,0.12553267,inf,inf,inf,inf,1,1,1,1,2,0,2,1,4,0,1,1,1,0
565295746,565295243,45930887,42.3585499,-71.08724959999999,4.0180492,-3.1465628,5.1213756,0.0011367018,0.000111144094,0.0,-0.018389149,-0.0030052003,0.036175683,0.023039946,0.00446994,-0.05826801,0.14515758,-0.017893808,-0.035335798,-0.070209675,2.551741,0.023883352,5.8776836,0.1,0.6006062,0.4584173,0.20371327,0.12692724,inf,inf,inf,inf,1,1,1,1,2,0,2,1,4,0,1,1,1,0
565795564,565795187,45930887,42.3585499,-71.08724959999999,3.9409971,-3.1287591,5.123762,0.0011367018,0.000111144094,0.0,-0.028210564,-0.0056498023,0.029827794,0.012904465,0.00446994,-0.05826801,0.14515758,0.029149845,-0.12634093,0.048649833,2.5531127,0.023883352,5.8776836,0.1,0.5865524,0.45688263,0.19524798,0.12546927,inf,inf,inf,inf,1,1,1,1,2,0,2,1,4,0,1,1,1,0
566295489,566295132,45930887,42.3585499,-71.08724959999999,3.8651805,-3.1059506,5.132631,0.0011367018,0.000111144094,0.0,-0.038862273,-0.010111138,0.027438851,0.01338943,0.00446994,-0.05826801,0.14515758,0.026999686,-0.024744116,0.01053947,2.5540724,0.023883352,5.8776836,0.1,0.5971522,0.45870447,0.19752358,0.1258945,inf,inf,inf,inf,1,1,1,1,2,0,2,1,4,0,1,1,1,0
566795417,566795076,45930887,42.3585499,-71.08724959999999,3.7870011,-3.042877,5.131909,0.0011367018,0.000111144094,0.0,-0.05465022,0.014836792,0.026236584,0.0074484963,0.00446994,-0.05826801,0.14515758,-0.05651496,0.017196693,0.09766876,2.5554514,0.023883352,5.8776836,0.1,0.5930233,0.46036035,0.19758058,0.12625429,inf,inf,inf,inf,1,1,1,1,2,0,2,1,4,0,1,1,1,0
567295429,567295021,45930887,42.3585499,-71.08724959999999,3.7535708,-2.9477153,5.1420965,0.0011367018,0.000111144094,0.0,-0.05280311,0.042416543,0.03221863,0.015308297,0.00446994,-0.05826801,0.14515758,-0.026760235,-0.18214779,0.035858683,2.5568886,0.023883352,5.8776836,0.1,0.60972923,0.46006817,0.20385636,0.12704594,inf,inf,inf,inf,1,1,1,1,2,0,2,1,4,0,1,1,1,0
567795320,567794965,45930887,42.3585499,-71.08724959999999,3.75197,-2.827292,5.1602416,0.0011367018,0.000111144094,0.0,-0.02371393,0.073383935,0.025767537,0.01947965,0.00446994,-0.05826801,0.14515758,0.0068880147,0.02838685,0.072200716,2.55829,0.023883352,5.8776836,0.10208273,0.60679543,0.4620405,0.204006,0.12747517,inf,inf,inf,inf,1,1,1,1,2,0,2,1,4,0,1,1,1,0
568295568,568294910,45930887,42.3585499,-71.08724959999999,3.7331822,-2.6911294,5.1784964,0.0011367018,0.000111144094,0.0,-0.02253142,0.11045651,0.044578955,0.040218696,0.00446994,-0.05826801,0.14515758,0.07943821,0.13153139,0.010123691,2.559641,0.023883352,5.8776836,0.1,0.5995821,0.462468,0.1998811,0.12701933,inf,inf,inf,inf,1,1,1,1,2,0,2,1,4,0,1,1,1,0
568795181,568794855,45930887,42.3585499,-71.08724959999999,3.6467364,-2.643912,5.1906967,0.0011367018,0.000111144094,0.0,-0.049775258,0.10115309,0.044127334,0.03386552,0.00446994,-0.05826801,0.14515758,0.021987261,0.008524523,0.009730449,2.5610356,0.023883352,5.8776836,0.1,0.6216788,0.46763533,0.20918871,0.1290118,inf,inf,inf,inf,1,1,1,1,2,0,2,1,4,0,1,1,1,0
569295362,569294799,45930887,42.3585499,-71.08724959999999,3.5561173,-2.6442513,5.205708,0.0011367018,0.000111144094,0.0,-0.067196324,0.078331016,0.05587205,0.04103817,0.00446994,-0.05826801,0.14515758,-0.029319407,-0.2445119,-0.24184877,2.5620973,0.023883352,5.8776836,0.1,0.6398495,0.46703812,0.21435922,0.12947583,inf,inf,inf,inf,1,1,1,1,2,0,2,1,4,0,1,1,1,0
569795060,569794744,45930887,42.3585499,-71.08724959999999,3.5449,-2.644004,5.224553,0.0011367018,0.000111144094,0.0,-0.05502004,0.055812467,0.06271546,0.04617766,0.00446994,-0.05826801,0.14515758,-0.022028288,0.057760403,0.119502686,2.5631235,0.023883352,5.8776836,0.1,0.63039136,0.46709266,0.20877802,0.12877893,inf,inf,inf,inf,1,1,1,1,2,0,2,1,4,0,1,1,1,0
570294998,570294689,45930887,42.3585499,-71.08724959999999,3.5096557,-2.5883362,5.2369323,0.0011367018,0.000111144094,0.0,-0.05786432,0.06382965,0.061751623,0.03646623,0.00446994,-0.05826801,0.14515758,-0.050771702,0.037688192,-0.0073951967,2.5642567,0.023883352,5.8776836,0.1,0.6516671,0.47148886,0.21660778,0.13032196,inf,inf,inf,inf,1,1,1,1,2,0,2,1,4,0,1,1,1,0
570794987,570794633,45930887,42.3585499,-71.08724959999999,3.4714332,-2.5589132,5.2229095,0.0011367018,0.000111144094,0.0,-0.050998725,0.050554205,0.046738017,-0.001841674,0.00446994,-0.05826801,0.14515758,0.0011590398,-0.045924775,0.050768852,2.5652995,0.023883352,5.8776836,0.1,0.6553775,0.47538394,0.22029957,0.13151173,inf,inf,inf,inf,1,1,1,1,2,0,2,1,4,0,1,1,1,0
571294943,571294578,45930887,42.3585499,-71.08724959999999,3.4912453,-2.5009503,5.2119355,0.0011367018,0.000111144094,0.0,-0.02640469,0.061367884,0.044923395,-0.008659982,0.00446994,-0.05826801,0.14515758,-0.030440642,-0.002099764,-0.0063695223,2.5664923,0.023883352,5.8776836,0.1,0.6801945,0.47578427,0.2286534,0.13236775,inf,inf,inf,inf,1,1,1,1,2,0,2,1,4,0,1,1,1,0
571794862,571794522,45930887,42.3585499,-71.08724959999999,3.5382452,-2.488866,5.2126923,0.0011367018,0.000111144094,0.0,0.0032385609,0.045723036,0.052784003,0.002765775,0.00446994,-0.05826801,0.14515758,-0.0046108174,-0.02165901,-0.084767945,2.567405,0.023883352,5.8776836,0.1,0.68028945,0.47877735,0.22870237,0.13293706,inf,inf,inf,inf,1,1,1,1,2,0,2,1,4,0,1,1,1,0
572294821,572294467,45930887,42.3585499,-71.08724959999999,3.5343962,-2.4715827,5.2111616,0.0011367018,0.000111144094,0.0,0.006752692,0.03951415,0.045969777,-0.004075254,0.00446994,-0.05826801,0.14515758,0.01707559,-0.019302512,0.14928925,2.568522,0.023883352,5.8776836,0.1,0.7001855,0.48216575,0.23302048,0.13369198,inf,inf,inf,inf,1,1,1,1,2,0,2,1,4,0,1,1,1,0
572794718,572794412,45930887,42.3585499,-71.08724959999999,3.516431,-2.4506903,5.205356,0.0011367018,0.000111144094,0.0,0.008193354,0.02952315,0.04441563,-0.0071723186,0.00446994,-0.05826801,0.14515758,-0.007042476,-0.04898353,-0.0893222,2.5698693,0.023883352,5.8776836,0.1,0.68566304,0.48156396,0.2240828,0.13255464,inf,inf,inf,inf,1,1,1,1,2,0,2,1,4,0,1,1,1,0
573294688,573294356,45930887,42.3585499,-71.08724959999999,3.4552746,-2.428017,5.193215,0.0011367018,0.000111144094,0.0,-0.008068463,0.026916567,0.03623974,-0.019460006,0.00446994,-0.05826801,0.14515758,0.024431614,0.078490585,-0.038419027,2.5707526,0.023883352,5.8776836,0.1,0.7097484,0.48129344,0.23233216,0.13319458,inf,inf,inf,inf,1,1,1,1,2,0,2,1,4,0,1,1,1,0
573794765,573794301,45930887,42.3585499,-71.08724959999999,3.3911457,-2.4223464,5.1900887,0.0011367018,0.000111144094,0.0,-0.021886801,0.011751512,0.039202258,-0.012974607,0.00446994,-0.05826801,0.14515758,-0.052435745,-0.057455044,0.10348716,2.5717921,0.023883352,5.8776836,0.1,0.68367994,0.4776992,0.21776052,0.13086867,inf,inf,inf,inf,1,1,1,1,2,0,2,1,4,0,1,1,1,0
574294694,574294246,45930887,42.3585499,-71.08724959999999,3.3761227,-2.4064074,5.1681013,0.0011367018,0.000111144094,0.0,-0.02010109,-0.0027827597,0.02281704,-0.03894853,0.00446994,-0.05826801,0.14515758,0.029821953,-0.020089585,-0.41188523,2.5703406,0.023883352,5.8776836,0.1,0.6979471,0.47986573,0.22184841,0.13142712,inf,inf,inf,inf,1,1,1,1,2,0,2,1,4,0,1,1,1,0
574794494,574794190,45930887,42.3585499,-71.08724959999999,3.3256805,-2.3937128,5.120392,0.0011367018,0.000111144094,0.0,-0.049523495,-0.04005619,0.01682383,-0.0660261,0.00446994,-0.05826801,0.14515758,-0.05642658,-0.03092955,-0.04459783,2.5714943,0.023883352,5.8776836,0.1,0.68065816,0.4783124,0.21444333,0.13024083,inf,inf,inf,inf,1,1,1,1,2,0,2,1,4,0,1,1,1,0
575294482,575294135,45930887,42.3585499,-71.08724959999999,3.3033354,-2.3742979,5.079875,0.0011367018,0.000111144094,0.0,-0.06579762,-0.06523008,0.004488277,-0.08069191,0.00446994,-0.05826801,0.14515758,0.12842906,-0.19388919,0.102793865,2.573229,0.023883352,5.8776836,0.1,0.691779,0.47530892,0.21747465,0.12994146,inf,inf,inf,inf,1,1,1,1,2,0,2,1,4,0,1,1,1,0
575794382,575794079,45930887,42.3585499,-71.08724959999999,3.2700567,-2.3098876,5.0702333,0.0011367018,0.000111144094,0.0,-0.07336147,-0.076760665,0.011774116,-0.049275633,0.00446994,-0.05826801,0.14515758,0.0016119288,-0.08712612,0.13958158,2.5749102,0.023883352,5.8776836,0.10982323,0.66849655,0.47175106,0.20685636,0.12798542,inf,inf,inf,inf,1,1,1,1,2,0,2,1,4,0,1,1,1,0
576294333,576294024,45930887,42.3585499,-71.08724959999999,3.2397788,-2.239203,5.065418,0.0011367018,0.000111144094,0.0,-0.08353495,-0.07993904,0.007603688,-0.035214968,0.00446994,-0.05826801,0.14515758,-0.06777613,-0.009476064,0.09654598,2.5769868,0.023883352,5.8776836,0.12116289,0.682921,0.47437042,0.21375665,0.12914781,inf,inf,inf,inf,1,1,1,1,2,0,2,1,4,0,1,1,1,0
576794336,576793969,45930887,42.3585499,-71.08724959999999,3.1797292,-2.2077644,5.072303,0.0011367018,0.000111144094,0.0,-0.10671975,-0.09662274,-0.0017200896,-0.02355263,0.00446994,-0.05826801,0.14515758,-0.1886835,-0.11023542,0.40955824,2.5793397,0.023883352,5.8776836,0.1,0.6736049,0.47067916,0.21290837,0.12862925,inf,inf,inf,inf,1,1,1,1,2,0,2,1,4,0,1,1,1,0
577294273,577293913,45930887,42.3585499,-71.08724959999999,3.099814,-2.2053335,5.035518,0.0011367018,0.000111144094,0.0,-0.13363923,-0.12043687,-0.01650805,-0.05657109,0.00446994,-0.05826801,0.14515758,-0.0046535553,-0.09811999,0.2263527,2.5809393,0.023883352,5.8776836,0.1,0.6901784,0.4737396,0.2199726,0.12990619,inf,inf,inf,inf,1,1,1,1,2,0,2,1,4,0,1,1,1,0
577794183,577793858,45930887,42.3585499,-71.08724959999999,3.070242,-2.18614,5.0071645,0.0011367018,0.000111144094,0.0,-0.12623549,-0.121131435,-0.028314792,-0.06461976,0.00446994,-0.05826801,0.14515758,-0.021001643,-0.045155805,-0.07506868,2.5827458,0.023883352,5.8776836,0.102730274,0.68503875,0.47551763,0.22078037,0.13044988,inf,inf,inf,inf,1,1,1,1,2,0,2,1,4,0,1,1,1,0
578294224,578293802,45930887,42.3585499,-71.08724959999999,3.0778356,-2.0892785,4.9670043,0.0011367018,0.000111144094,0.0,-0.1029379,-0.08603917,-0.041649595,-0.08273318,0.00446994,-0.05826801,0.14515758,0.008701717,-0.05125975,-0.08275411,2.584475,0.023883352,5.8776836,0.10264778,0.70185804,0.47844794,0.22655484,0.13150398,inf,inf,inf,inf,1,1,1,1,2,0,2,1,4,0,1,1,1,0
578794268,578793747,45930887,42.3585499,-71.08724959999999,3.0775247,-2.0453103,4.908122,0.0011367018,0.000111144094,0.0,-0.09131052,-0.07980632,-0.050876014,-0.10414626,0.00446994,-0.05826801,0.14515758,-0.0048114145,-0.041247465,0.022424385,2.586565,0.023883352,5.8776836,0.1,0.69102055,0.4742708,0.22206393,0.13050234,inf,inf,inf,inf,1,1,1,1,2,0,2,1,4,0,1,1,1,0
579293999,579293691,45930887,42.3585499,-71.08724959999999,3.0434198,-2.0069742,4.8701644,0.0011367018,0.000111144094,0.0,-0.09566187,-0.065999515,-0.053731218,-0.091918066,0.00446994,-0.05826801,0.14515758,-0.0042476426,-0.01015931,-0.011437869,2.5894115,0.023883352,5.8776836,0.11754179,0.7030616,0.47588468,0.22420442,0.13086723,inf,inf,inf,inf,1,1,1,1,2,0,2,1,4,0,1,1,1,0
579793987,579793636,45930887,42.3585499,-71.08724959999999,2.9947722,-1.976365,4.840558,0.0011367018,0.000111144094,0.0,-0.095411554,-0.057452276,-0.06451559,-0.08930382,0.00446994,-0.05826801,0.14515758,0.0073424666,-0.08407365,-0.0018398989,2.5917435,0.023883352,5.8776836,0.118142605,0.69925976,0.47785848,0.22470403,0.13138324,inf,inf,inf,inf,1,1,1,1,2,0,2,1,4,0,1,1,1,0
580293884,580293580,45930887,42.3585499,-71.08724959999999,2.9316032,-1.9849982,4.8289633,0.0011367018,0.000111144094,0.0,-0.10790512,-0.06465648,-0.0368927,-0.04308956,0.00446994,-0.05826801,0.14515758,-0.028938118,-0.020095695,-0.012277581,2.595416,0.023883352,5.8776836,0.119706154,0.7226599,0.48208183,0.23355015,0.13293213,inf,inf,inf,inf,1,1,1,1,2,0,2,1,4,0,1,1,1,0
580793937,580793525,45930887,42.3585499,-71.08724959999999,2.8942254,-1.9519331,4.8425517,0.0011367018,0.000111144094,0.0,-0.10707396,-0.054988503,-0.021721136,-0.0021217228,0.00446994,-0.05826801,0.14515758,-0.029340547,-0.012358909,0.03247104,2.5981903,0.023883352,5.8776836,0.12307453,0.7107517,0.4773752,0.22684108,0.13155347,inf,inf,inf,inf,1,1,1,1,2,0,2,1,4,0,1,1,1,0
581294161,581293470,45930887,42.3585499,-71.08724959999999,2.9333553,-1.8915646,4.863951,0.0011367018,0.000111144094,0.0,-0.069177724,-0.03543936,-0.023656363,0.011779003,0.00446994,-0.05826801,0.14515758,-0.0035873775,-0.024851864,-0.018349726,2.6013813,0.023883352,5.8776836,0.12531567,0.7090974,0.4795649,0.22744767,0.13205424,inf,inf,inf,inf,1,1,1,1,2,0,2,1,4,0,1,1,1,0
581793718,581793413,45930887,42.3585499,-71.08724959999999,2.8338578,-1.7580568,4.8935976,0.0011367018,0.000111144094,0.0,-0.100741945,0.012107465,-0.009692555,0.041442934,0.00446994,-0.05826801,0.14515758,0.0018728223,2.195776e-05,-0.07137565,2.603995,0.023883352,5.8776836,0.11884022,0.7256785,0.48202547,0.23076338,0.13262461,inf,inf,inf,inf,1,1,1,1,2,0,2,1,4,0,1,1,1,0
582293803,582293358,45930887,42.3585499,-71.08724959999999,2.7952197,-1.6367285,4.9333687,0.0011367018,0.000111144094,0.0,-0.10648348,0.038781017,-0.0076507083,0.053449795,0.00446994,-0.05826801,0.14515758,0.00416147,9.581202e-05,-0.034945704,2.6052327,0.023883352,5.8776836,0.107058525,0.7354187,0.4828017,0.23005007,0.13245359,inf,inf,inf,inf,1,1,1,1,2,0,2,1,4,0,1,1,1,0
582793781,582793302,45930887,42.3585499,-71.08724959999999,2.7513852,-1.6311721,4.96418,0.0011367018,0.000111144094,0.0,-0.10336951,0.029980088,-0.0025368885,0.054082867,0.00446994,-0.05826801,0.14515758,0.010414764,0.0031422016,-0.015037856,2.6081269,0.023883352,5.8776836,0.1,0.72118247,0.47736868,0.2237329,0.13092114,inf,inf,inf,inf,1,1,1,1,2,0,2,1,4,0,1,1,1,0
583293569,583293246,45930887,42.3585499,-71.08724959999999,2.7124593,-1.6606749,4.963398,0.0011367018,0.000111144094,0.0,-0.09578059,0.016799262,-0.016172925,0.017396778,0.00446994,-0.05826801,0.14515758,-0.011872884,0.010393242,-0.111129105,2.6097965,0.023883352,5.8776836,0.1,0.7405878,0.48065457,0.23080455,0.13206603,inf,inf,inf,inf,1,1,1,1,2,0,2,1,4,0,1,1,1,0
583793555,583793190,45930887,42.3585499,-71.08724959999999,2.6766143,-1.6833694,4.9386864,0.0011367018,0.000111144094,0.0,-0.0869764,0.013529544,-0.012814178,-0.005784412,0.00446994,-0.05826801,0.14515758,0.016027737,0.018860795,0.05103509,2.6117375,0.023883352,5.8776836,0.1,0.72147274,0.47885004,0.22137201,0.13075073,inf,inf,inf,inf,1,1,1,1,2,0,2,1,4,0,1,1,1,0
584293447,584293134,45930887,42.3585499,-71.08724959999999,2.6057272,-1.7033548,4.9174085,0.0011367018,0.000111144094,0.0,-0.09257046,0.010667473,-0.015534712,-0.022202767,0.00446994,-0.05826801,0.14515758,0.033970293,0.028312372,0.14819312,2.613473,0.023883352,5.8776836,0.1,0.73866725,0.4817823,0.22797638,0.13182114,inf,inf,inf,inf,1,1,1,1,2,0,2,1,4,0,1,1,1,0
584793382,584793078,45930887,42.3585499,-71.08724959999999,2.5701582,-1.7411993,4.8973646,0.0011367018,0.000111144094,0.0,-0.0739922,0.0018757549,-0.010844517,-0.02451491,0.00446994,-0.05826801,0.14515758,0.038672507,-0.011218416,0.02154202,2.6152337,0.023883352,5.8776836,0.1,0.7140684,0.47391096,0.21569952,0.12917623,inf,inf,inf,inf,1,1,1,1,2,0,2,1,4,0,1,1,1,0
585293332,585293022,45930887,42.3585499,-71.08724959999999,2.5054479,-1.7895926,4.887977,0.0011367018,0.000111144094,0.0,-0.06989451,-0.006080056,-0.008963261,-0.019795747,0.00446994,-0.05826801,0.14515758,0.004309541,0.020268714,0.0073101344,2.6174755,0.023883352,5.8776836,0.1,0.7328017,0.4775029,0.22466744,0.1307002,inf,inf,inf,inf,1,1,1,1,2,0,2,1,4,0,1,1,1,0
585793274,585792967,45930887,42.3585499,-71.08724959999999,2.3992739,-1.8120191,4.8884573,0.0011367018,0.000111144094,0.0,-0.08720305,0.00041089387,0.0006718516,-0.0028754878,0.00446994,-0.05826801,0.14515758,0.011573131,0.055731434,0.019204054,2.619472,0.023883352,5.8776836,0.106508255,0.7252182,0.4788974,0.22478288,0.13106398,inf,inf,inf,inf,1,1,1,1,2,0,2,1,4,0,1,1,1,0
586293300,586292910,45930887,42.3585499,-71.08724959999999,2.315838,-1.8127849,4.8982086,0.0011367018,0.000111144094,0.0,-0.0884718,0.0121575715,-0.0033667255,0.0030928343,0.00446994,-0.05826801,0.14515758,0.034118075,-0.005250262,-0.11903897,2.6215668,0.023883352,5.8776836,0.10803938,0.7446851,0.48263782,0.23326463,0.13248244,inf,inf,inf,inf,1,1,1,1,2,0,2,1,4,0,1,1,1,0
586793234,586792855,45930887,42.3585499,-71.08724959999999,2.2873645,-1.7836819,4.92141,0.0011367018,0.000111144094,0.0,-0.06826,0.03627129,-0.0063896347,0.018309416,0.00446994,-0.05826801,0.14515758,0.003089962,0.038678583,-0.04583584,2.624007,0.023883352,5.8776836,0.10913706,0.72608703,0.4769147,0.22478867,0.13075861,inf,inf,inf,inf,1,1,1,1,2,0,2,1,4,0,1,1,1,0
587293318,587292798,45930887,42.3585499,-71.08724959999999,2.3032238,-1.7272123,4.9417577,0.0011367018,0.000111144094,0.0,-0.03928826,0.05976546,-0.014557534,0.018419081,0.00446994,-0.05826801,0.14515758,-0.025978295,0.050066333,0.028597187,2.6261992,0.023883352,5.8776836,0.10225582,0.7460278,0.4807238,0.23348367,0.13220745,inf,inf,inf,inf,1,1,1,1,2,0,2,1,4,0,1,1,1,0
587793066,587792742,45930887,42.3585499,-71.08724959999999,2.3416183,-1.6989146,4.964559,0.0011367018,0.000111144094,0.0,-0.014700385,0.0696802,-0.010837892,0.0330838,0.00446994,-0.05826801,0.14515758,-0.011467892,0.04172662,0.041296188,2.6282203,0.023883352,5.8776836,0.117619514,0.71164125,0.47481441,0.21331765,0.1289124,inf,inf,inf,inf,1,1,1,1,2,0,2,1,4,0,1,1,1,0
588292990,588292685,45930887,42.3585499,-71.08724959999999,2.3334665,-1.7113576,5.010677,0.0011367018,0.000111144094,0.0,-0.011469869,0.05751109,-0.007427103,0.0548697,0.00446994,-0.05826801,0.14515758,0.04666669,-0.022903621,-0.061575856,2.6306486,0.023883352,5.8776836,0.105122566,0.71912736,0.47535428,0.21504088,0.12903668,inf,inf,inf,inf,1,1,1,1,2,0,2,1,4,0,1,1,1,0
588793041,588792629,45930887,42.3585499,-71.08724959999999,2.333549,-1.6890767,5.030695,0.0011367018,0.000111144094,0.0,-0.0023906215,0.053841256,0.0018283658,0.054556347,0.00446994,-0.05826801,0.14515758,-0.0055592665,0.0105944285,0.05000579,2.6326847,0.023883352,5.8776836,0.1,0.70629174,0.47043645,0.21188125,0.12798303,inf,inf,inf,inf,1,1,1,1,2,0,2,1,4,0,1,1,1,0
589292900,589292573,45930887,42.3585499,-71.08724959999999,2.3290405,-1.660308,5.053893,0.0011367018,0.000111144094,0.0,0.0064357407,0.052863628,0.02115688,0.06545703,0.00446994,-0.05826801,0.14515758,-0.0068800654,0.0235288,0.08065296,2.6351705,0.023883352,5.8776836,0.1,0.7159351,0.47166047,0.21506488,0.12848406,inf,inf,inf,inf,1,1,1,1,2,0,2,1,4,0,1,1,1,0
589792826,589792516,45930887,42.3585499,-71.08724959999999,2.339458,-1.6317878,5.070223,0.0011367018,0.000111144094,0.0,0.028176723,0.054147094,0.03928715,0.06476238,0.00446994,-0.05826801,0.14515758,0.061962985,0.0067727924,0.06354964,2.6373782,0.023883352,5.8776836,0.1,0.7055992,0.4717192,0.21313646,0.12836392,inf,inf,inf,inf,1,1,1,1,2,0,2,1,4,0,1,1,1,0
590292803,590292459,45930887,42.3585499,-71.08724959999999,2.3207006,-1.5804583,5.089234,0.0011367018,0.000111144094,0.0,0.035706636,0.063323595,0.05014181,0.063826084,0.00446994,-0.05826801,0.14515758,0.07182394,-0.013637992,-0.038932987,2.639197,0.023883352,5.8776836,0.1,0.72335523,0.47537097,0.22151642,0.129944,inf,inf,inf,inf,1,1,1,1,2,0,2,1,4,0,1,1,1,0
590792793,590792403,45930887,42.3585499,-71.08724959999999,2.3410704,-1.4930755,5.113068,0.0011367018,0.000111144094,0.0,0.05671564,0.088493586,0.06465904,0.06893433,0.00446994,-0.05826801,0.14515758,0.040307146,0.003912929,0.07835767,2.6401916,0.023883352,5.8776836,0.1,0.7266623,0.47496143,0.22816767,0.1308873,inf,inf,inf,inf,1,1,1,1,2,0,2,1,4,0,1,1,1,0
591292677,591292346,45930887,42.3585499,-71.08724959999999,2.3504386,-1.4385682,5.1294107,0.0011367018,0.000111144094,0.0,0.0657309,0.094169416,0.059178066,0.05212395,0.00446994,-0.05826801,0.14515758,0.019159706,0.023298578,-0.081972286,2.641189,0.023883352,5.8776836,0.1,0.75094825,0.47974023,0.23839028,0.13268325,inf,inf,inf,inf,1,1,1,1,2,0,2,1,4,0,1,1,1,0
591792724,591792289,45930887,42.3585499,-71.08724959999999,2.3415654,-1.3743913,5.13058,0.0011367018,0.000111144094,0.0,0.06985639,0.10080571,0.04712617,0.022918567,0.00446994,-0.05826801,0.14515758,0.049390383,0.0044059674,-0.120810196,2.641677,0.023883352,5.8776836,0.1,0.7339488,0.47901905,0.22923636,0.13171545,inf,inf,inf,inf,1,1,1,1,2,0,2,1,4,0,1,1,1,0
592292681,592292232,45930887,42.3585499,-71.08724959999999,2.2981455,-1.3487401,5.112648,0.0011367018,0.000111144094,0.0,0.04799355,0.0735064,0.028551446,-0.0137028685,0.00446994,-0.05826801,0.14515758,-0.111666426,-0.10534461,-0.04173694,2.6389153,0.023883352,5.8776836,0.1,0.7599088,0.4796738,0.24051844,0.13293472,inf,inf,inf,inf,1,1,1,1,2,0,2,1,4,0,1,1,1,0
592792528,592792175,45930887,42.3585499,-71.08724959999999,2.2179763,-1.3787105,5.094725,0.0011367018,0.000111144094,0.0,-0.012905144,-0.02877736,0.026562285,-0.022249456,0.00446994,-0.05826801,0.14515758,-0.0042543123,-0.112580985,0.37167978,2.6444392,0.023883352,5.8776836,0.1,0.7460808,0.47977725,0.2339199,0.13233896,inf,inf,inf,inf,1,1,1,1,2,0,2,1,4,0,1,1,1,0
593292424,593292118,45930887,42.3585499,-71.08724959999999,2.1260512,-1.4680825,5.076679,0.0011367018,0.000111144094,0.0,-0.067030795,-0.12786366,0.012816673,-0.03379036,0.00446994,-0.05826801,0.14515758,-0.054418165,-0.12938195,0.06479492,2.6452088,0.023883352,5.8776836,0.1,0.7734375,0.484847,0.24522369,0.1340961,inf,inf,inf,inf,1,1,1,1,2,0,2,1,4,0,1,1,1,0
593792423,593792061,45930887,42.3585499,-71.08724959999999,2.0497491,-1.5170494,5.068833,0.0011367018,0.000111144094,0.0,-0.09908229,-0.19088061,0.00885476,-0.027583022,0.00446994,-0.05826801,0.14515758,-0.09736787,-0.11038285,0.03498683,2.6482625,0.023883352,5.8776836,0.107709885,0.7626905,0.48560894,0.23939046,0.13368195,inf,inf,inf,inf,1,1,1,1,2,0,2,1,4,0,1,1,1,0
594287304,594282005,45930887,42.3585499,-71.08724959999999,1.9704119,-1.5938127,5.0582867,0.0011367018,0.000111144094,0.0,-0.1274841,-0.24472864,0.024544837,-0.011920634,0.00446994,-0.05826801,0.14515758,-0.026253022,-0.14187309,0.048591457,2.649782,0.023883352,5.8776836,0.1,0.7898447,0.48946422,0.24945083,0.13508385,inf,inf,inf,inf,1,1,1,1,2,0,2,1,4,0,1,1,1,0
594792251,594791947,45930887,42.3585499,-71.08724959999999,1.7828304,-1.7461656,5.039119,0.0011367018,0.000111144094,0.0,-0.1875663,-0.3123289,0.020199537,-0.024373095,0.00446994,-0.05826801,0.14515758,-0.026624346,-0.111782804,0.014311856,2.6516902,0.023883352,5.8776836,0.1,0.79278314,0.48877168,0.25154555,0.13518691,inf,inf,inf,inf,1,1,1,1,2,0,2,1,4,0,1,1,1,0
595292294,595291889,45930887,42.3585499,-71.08724959999999,1.6498773,-1.8146313,5.052642,0.0011367018,0.000111144094,0.0,-0.20761167,-0.33170044,0.018235454,-0.0047405995,0.00446994,-0.05826801,0.14515758,-0.016756626,-0.12339141,-0.3476414,2.6535068,0.023883352,5.8776836,0.10549307,0.80794394,0.49059474,0.2524978,0.13528469,inf,inf,inf,inf,1,1,1,1,2,0,2,1,4,0,1,1,1,0
595792153,595791832,45930887,42.3585499,-71.08724959999999,1.6218449,-1.8694234,5.072657,0.0011367018,0.000111144094,0.0,-0.18698357,-0.3357217,0.027293082,0.020515602,0.00446994,-0.05826801,0.14515758,-0.029623115,-0.06839245,-0.019182393,2.6555982,0.023883352,5.8776836,0.10544157,0.7937389,0.49049604,0.24495852,0.13455404,inf,inf,inf,inf,1,1,1,1,2,0,2,1,4,0,1,1,1,0
596292245,596291774,45930887,42.3585499,-71.08724959999999,1.6445988,-1.9518468,5.076825,0.0011367018,0.000111144094,0.0,-0.15413217,-0.3435366,0.020353721,0.009216974,0.00446994,-0.05826801,0.14515758,0.010876839,-0.095101744,0.084429584,2.6576414,0.023883352,5.8776836,0.1,0.8120508,0.48806232,0.2487669,0.13428341,inf,inf,inf,inf,1,1,1,1,2,0,2,1,4,0,1,1,1,0
596792147,596791717,45930887,42.3585499,-71.08724959999999,1.6697748,-1.9601457,5.07885,0.0011367018,0.000111144094,0.0,-0.120930314,-0.31509894,0.019093433,0.0044729975,0.00446994,-0.05826801,0.14515758,-0.002503498,-0.056182344,0.032407675,2.6597676,0.023883352,5.8776836,0.1,0.7961279,0.48752066,0.24106105,0.1334678,inf,inf,inf,inf,1,1,1,1,2,0,2,1,4,0,1,1,1,0
597291995,597291659,45930887,42.3585499,-71.08724959999999,1.6634903,-1.9728132,5.08432,0.0011367018,0.000111144094,0.0,-0.0984866,-0.286469,0.022296634,0.008023165,0.00446994,-0.05826801,0.14515758,0.009675228,-0.041511048,-0.032021366,2.66176,0.023883352,5.8776836,0.1,0.8120632,0.4893747,0.24463697,0.1338726,inf,inf,inf,inf,1,1,1,1,2,0,2,1,4,0,1,1,1,0
597791913,597791602,45930887,42.3585499,-71.08724959999999,1.666976,-1.9593033,5.07346,0.0011367018,0.000111144094,0.0,-0.07226263,-0.24696177,0.014715718,-0.009282047,0.00446994,-0.05826801,0.14515758,0.06344337,-0.07674918,0.113640375,2.6636415,0.023883352,5.8776836,0.1,0.79245615,0.48781824,0.2353923,0.13272315,inf,inf,inf,inf,1,1,1,1,2,0,2,1,4,0,1,1,1,0
598291903,598291544,45930887,42.3585499,-71.08724959999999,1.6321033,-1.9647708,5.058056,0.0011367018,0.000111144094,0.0,-0.05876511,-0.22050352,0.005410732,-0.025567712,0.00446994,-0.05826801,0.14515758,0.013746365,0.0021352798,-0.075088196,2.6657,0.023883352,5.8776836,0.1,0.81487024,0.48635608,0.24396372,0.1331916,inf,inf,inf,inf,1,1,1,1,2,0,2,1,4,0,1,1,1,0
598791790,598791486,45930887,42.3585499,-71.08724959999999,1.6468477,-1.9689137,5.030941,0.0011367018,0.000111144094,0.0,-0.027260566,-0.19080389,0.009641727,-0.03201191,0.00446994,-0.05826801,0.14515758,0.034500215,-0.013366516,0.027562274,2.6676471,0.023883352,5.8776836,0.100768566,0.80354136,0.4865743,0.23978038,0.13287684,inf,inf,inf,inf,1,1,1,1,2,0,2,1,4,0,1,1,1,0
599291818,599291431,45930887,42.3585499,-71.08724959999999,1.6276736,-1.9359415,5.028609,0.0011367018,0.000111144094,0.0,-0.010427369,-0.14886361,0.012719824,-0.017906917,0.00446994,-0.05826801,0.14515758,0.018247541,0.005085543,0.016831998,2.6694233,0.023883352,5.8776836,0.102413654,0.81917447,0.48836,0.24368864,0.13338849,inf,inf,inf,inf,1,1,1,1,2,0,2,1,4,0,1,1,1,0
599791710,599791369,45930887,42.3585499,-71.08724959999999,1.5880176,-1.9029443,5.012767,0.0011367018,0.000111144094,0.0,-0.0006866773,-0.110789105,8.798257e-05,-0.03396218,0.00446994,-0.05826801,0.14515758,0.051517483,-0.0018048356,-0.03987913,2.6715188,0.023883352,5.8776836,0.1,0.81007016,0.48904297,0.24111171,0.13333519,inf,inf,inf,inf,1,1,1,1,2,0,2,1,4,0,1,1,1,0
600291738,600291311,45930887,42.3585499,-71.08724959999999,1.5601815,-1.8426626,4.991713,0.0011367018,0.000111144094,0.0,0.011173463,-0.06546,-0.0012986491,-0.037385352,0.00446994,-0.05826801,0.14515758,0.008055298,0.040968537,-0.03930664,2.6734302,0.023883352,5.8776836,0.1,0.8272669,0.48653832,0.24611403,0.13331318,inf,inf,inf,inf,1,1,1,1,2,0,2,1,4,0,1,1,1,0
600791657,600791253,45930887,42.3585499,-71.08724959999999,1.5098,-1.8030969,4.962695,0.0011367018,0.000111144094,0.0,0.017845059,-0.04002907,-0.014790685,-0.05357746,0.00446994,-0.05826801,0.14515758,0.040225755,0.025160361,0.036232613,2.6748962,0.023883352,5.8776836,0.10753536,0.8167881,0.48728403,0.24344596,0.13329563,inf,inf,inf,inf,1,1,1,1,2,0,2,1,4,0,1,1,1,0
601291586,601291195,45930887,42.3585499,-71.08724959999999,1.3953155,-1.7001401,4.9329686,0.0011367018,0.000111144094,0.0,-0.006475631,0.009072187,-0.027640438,-0.06698425,0.00446994,-0.05826801,0.14515758,0.13244174,-0.010073623,0.051348843,2.6767018,0.023883352,5.8776836,0.1,0.8335006,0.48967558,0.24873194,0.13405637,inf,inf,inf,inf,1,1,1,1,2,0,2,1,4,0,1,1,1,0
601791549,601791136,45930887,42.3585499,-71.08724959999999,1.1616268,-1.5256963,4.8806767,0.0011367018,0.000111144094,0.0,-0.08833449,0.056346055,-0.03624726,-0.08669739,0.00446994,-0.05826801,0.14515758,-0.022230458,0.001265267,0.005700385,2.6783226,0.023883352,5.8776836,0.10161495,0.82814616,0.49167886,0.24955608,0.13457884,inf,inf,inf,inf,1,1,1,1,2,0,2,1,4,0,1,1,1,0
602291393,602291078,45930887,42.3585499,-71.08724959999999,1.0211871,-1.3869505,4.856307,0.0011367018,0.000111144094,0.0,-0.11489442,0.094278194,-0.045547478,-0.077307746,0.00446994,-0.05826801,0.14515758,-0.007456342,0.042727496,0.030405376,2.6786594,0.023883352,5.8776836,0.11686468,0.85080546,0.49019215,0.25736198,0.13492951,inf,inf,inf,inf,1,1,1,1,2,0,2,1,4,0,1,1,1,0
602791327,602791019,45930887,42.3585499,-71.08724959999999,0.92740643,-1.2365824,4.8444915,0.0011367018,0.000111144094,0.0,-0.12058243,0.13475394,-0.041009657,-0.052188944,0.00446994,-0.05826801,0.14515758,-0.022524368,0.04629045,-0.11812721,2.6801517,0.023883352,5.8776836,0.11956453,0.846911,0.4923468,0.25789422,0.13541183,inf,inf,inf,inf,1,1,1,1,2,0,2,1,4,0,1,1,1,0
603291269,603290960,45930887,42.3585499,-71.08724959999999,0.8213952,-1.1303321,4.844973,0.0011367018,0.000111144094,0.0,-0.13123947,0.15259588,-0.037570618,-0.029415192,0.00446994,-0.05826801,0.14515758,0.052434973,0.01303619,0.0703476,2.681365,0.023883352,5.8776836,0.112485886,0.8704157,0.4955022,0.2647715,0.13632962,inf,inf,inf,inf,1,1,1,1,2,0,2,1,4,0,1,1,1,0
603791264,603790902,45930887,42.3585499,-71.08724959999999,0.7465362,-1.0572613,4.836947,0.0011367018,0.000111144094,0.0,-0.1291961,0.15419878,-0.039412174,-0.028037712,0.00446994,-0.05826801,0.14515758,0.006909254,0.046171684,-0.16628616,2.682779,0.023883352,5.8776836,0.1150012,0.85668355,0.49099183,0.2583971,0.13516307,inf,inf,inf,inf,1,1,1,1,2,0,2,1,4,0,1,1,1,0
604291145,604290843,45930887,42.3585499,-71.08724959999999,0.68711394,-1.0213654,4.8468876,0.0011367018,0.000111144094,0.0,-0.124603584,0.13185468,-0.035492066,-0.006668052,0.00446994,-0.05826801,0.14515758,-0.0102734165,0.06173192,0.0130594475,2.6828086,0.023883352,5.8776836,0.11818218,0.87375957,0.4929382,0.26133266,0.13553834,inf,inf,inf,inf,1,1,1,1,2,0,2,1,4,0,1,1,1,0
604791108,604790784,45930887,42.3585499,-71.08724959999999,0.70910627,-0.9440183,4.8746724,0.0011367018,0.000111144094,0.0,-0.098865375,0.12635577,-0.02016235,0.030248484,0.00446994,-0.05826801,0.14515758,0.10850164,-0.017539078,0.14559607,2.680822,0.023883352,5.8776836,0.12563705,0.8432937,0.4900249,0.24488917,0.13364935,inf,inf,inf,inf,1,1,1,1,2,0,2,1,4,0,1,1,1,0
605291114,605290724,45930887,42.3585499,-71.08724959999999,0.71325564,-0.8801613,4.8957777,0.0011367018,0.000111144094,0.0,-0.08353143,0.10981065,-0.013609867,0.03479483,0.00446994,-0.05826801,0.14515758,-0.0059512053,-0.039268773,-0.02728261,2.685927,0.023883352,5.8776836,0.1,0.8600101,0.49219012,0.2500739,0.1343099,inf,inf,inf,inf,1,1,1,1,2,0,2,1,4,0,1,1,1,0
605791075,605790665,45930887,42.3585499,-71.08724959999999,0.6882546,-0.77986705,4.8924108,0.0011367018,0.000111144094,0.0,-0.08222837,0.11697945,-0.0044098278,0.023500303,0.00446994,-0.05826801,0.14515758,0.005779134,-0.028684506,0.022759024,2.6882012,0.023883352,5.8776836,0.10167885,0.8278295,0.4885124,0.23475495,0.13229825,inf,inf,inf,inf,1,1,1,1,2,0,2,1,4,0,1,1,1,0
606291012,606290606,45930887,42.3585499,-71.08724959999999,0.6534583,-0.6772723,4.902216,0.0011367018,0.000111144094,0.0,-0.084881544,0.13002382,0.0005419867,0.025878826,0.00446994,-0.05826801,0.14515758,-0.0006546414,0.017613305,0.17692797,2.6899998,0.023883352,5.8776836,0.10403967,0.843377,0.48612523,0.2414105,0.13250989,inf,inf,inf,inf,1,1,1,1,2,0,2,1,4,0,1,1,1,0
606790900,606790547,45930887,42.3585499,-71.08724959999999,0.6453888,-0.58938295,4.925836,0.0011367018,0.000111144094,0.0,-0.06437106,0.14759554,0.0031644364,0.033701174,0.00446994,-0.05826801,0.14515758,-0.00892595,0.03552514,-0.014974831,2.6918488,0.023883352,5.8776836,0.1,0.8219892,0.48473334,0.23441817,0.13169023,inf,inf,inf,inf,1,1,1,1,2,0,2,1,4,0,1,1,1,0
607290794,607290487,45930887,42.3585499,-71.08724959999999,0.6072478,-0.52713925,4.932548,0.0011367018,0.000111144094,0.0,-0.05256603,0.1575335,0.012259468,0.032611176,0.00446994,-0.05826801,0.14515758,-0.0041714483,0.05570274,0.07625585,2.6936235,0.023883352,5.8776836,0.1,0.8283041,0.4853321,0.23521778,0.13179965,inf,inf,inf,inf,1,1,1,1,2,0,2,1,4,0,1,1,1,0
607790788,607790427,45930887,42.3585499,-71.08724959999999,0.6112891,-0.559015,4.9358916,0.0011367018,0.000111144094,0.0,-0.027315427,0.13798022,0.01405452,0.022994505,0.00446994,-0.05826801,0.14515758,0.03630313,0.028901847,-0.045185324,2.6953714,0.023883352,5.8776836,0.1,0.80748135,0.48396692,0.22886738,0.13104473,inf,inf,inf,inf,1,1,1,1,2,0,2,1,4,0,1,1,1,0
608290727,608290368,45930887,42.3585499,-71.08724959999999,0.6031656,-0.6077629,4.9308167,0.0011367018,0.000111144094,0.0,-0.004750964,0.115773775,0.004750792,0.0030875914,0.00446994,-0.05826801,0.14515758,0.018002616,0.046105243,0.056063678,2.6968136,0.023883352,5.8776836,0.1,0.8104147,0.47930047,0.22892939,0.1302825,inf,inf,inf,inf,1,1,1,1,2,0,2,1,4,0,1,1,1,0
608790712,608790308,45930887,42.3585499,-71.08724959999999,0.5933342,-0.58229995,4.92706,0.0011367018,0.000111144094,0.0,0.015837684,0.1281869,0.000236268,-0.0054899594,0.00446994,-0.05826801,0.14515758,0.065590836,0.019118724,-0.030462535,2.698478,0.023883352,5.8776836,0.1,0.79348636,0.47889417,0.22541854,0.12999429,inf,inf,inf,inf,1,1,1,1,2,0,2,1,4,0,1,1,1,0
609290629,609290248,45930887,42.3585499,-71.08724959999999,0.6061628,-0.5977079,4.924114,0.0011367018,0.000111144094,0.0,0.032741446,0.12867473,0.01511493,0.007085192,0.00446994,-0.05826801,0.14515758,0.051808447,0.036438096,0.06661256,2.6998081,0.023883352,5.8776836,0.1,0.7895477,0.47701725,0.22040096,0.1290737,inf,inf,inf,inf,1,1,1,1,2,0,2,1,4,0,1,1,1,0
609790721,609790188,45930887,42.3585499,-71.08724959999999,0.6121052,-0.62766075,4.9217505,0.0011367018,0.000111144094,0.0,0.046048652,0.12742513,0.0048354953,-0.0026342324,0.00446994,-0.05826801,0.14515758,0.046913818,0.050664824,-0.0241687,2.701511,0.023883352,5.8776836,0.10407734,0.7797592,0.47414985,0.22317842,0.12918566,inf,inf,inf,inf,1,1,1,1,2,0,2,1,4,0,1,1,1,0
610290505,610290128,45930887,42.3585499,-71.08724959999999,0.59112203,-0.68935233,4.9287014,0.0011367018,0.000111144094,0.0,0.04835283,0.11169315,0.014568949,0.009322958,0.00446994,-0.05826801,0.14515758,0.09279765,-0.014959326,-0.08530742,2.7035296,0.023883352,5.8776836,0.1,0.79130864,0.4766749,0.22937758,0.13030905,inf,inf,inf,inf,1,1,1,1,2,0,2,1,4,0,1,1,1,0
610790389,610790068,45930887,42.3585499,-71.08724959999999,0.582937,-0.7677149,4.934456,0.0011367018,0.000111144094,0.0,0.05360461,0.087431334,0.013724546,0.013334767,0.00446994,-0.05826801,0.14515758,0.050673716,0.02436374,0.0988134,2.7050319,0.023883352,5.8776836,0.106451035,0.75733924,0.47106177,0.21142441,0.12737995,inf,inf,inf,inf,1,1,1,1,2,0,2,1,4,0,1,1,1,0
611290308,611290008,45930887,42.3585499,-71.08724959999999,0.5705386,-0.8359712,4.9470043,0.0011367018,0.000111144094,0.0,0.055455044,0.066598244,0.01120207,0.013377026,0.00446994,-0.05826801,0.14515758,-0.0066060103,0.044636354,0.10047991,2.7068858,0.023883352,5.8776836,0.1,0.7721474,0.47491115,0.22174014,0.12928367,inf,inf,inf,inf,1,1,1,1,2,0,2,1,4,0,1,1,1,0
611790305,611789947,45930887,42.3585499,-71.08724959999999,0.5645666,-0.87529564,4.955153,0.0011367018,0.000111144094,0.0,0.052578773,0.053907048,0.015760122,0.019575896,0.00446994,-0.05826801,0.14515758,0.0017574653,0.0071126637,0.23793991,2.7088437,0.023883352,5.8776836,0.1,0.749781,0.468216,0.21307568,0.12736118,inf,inf,inf,inf,1,1,1,1,2,0,2,1,4,0,1,1,1,0
612290241,612289887,45930887,42.3585499,-71.08724959999999,0.5680646,-0.9293743,4.961034,0.0011367018,0.000111144094,0.0,0.05396003,0.030276215,0.012105916,0.011542503,0.00446994,-0.05826801,0.14515758,0.00661843,-0.027261347,0.03413598,2.7101183,0.023883352,5.8776836,0.1,0.75544184,0.46930802,0.21556602,0.12783335,inf,inf,inf,inf,1,1,1,1,2,0,2,1,4,0,1,1,1,0
612790152,612789826,45930887,42.3585499,-71.08724959999999,0.5743976,-0.9896489,4.955476,0.0011367018,0.000111144094,0.0,0.051800467,0.013433113,0.016023101,0.004655843,0.00446994,-0.05826801,0.14515758,-0.038897544,-0.07846067,-0.2205266,2.7068028,0.023883352,5.8776836,0.1,0.73796326,0.46820527,0.210947,0.12720892,inf,inf,inf,inf,1,1,1,1,2,0,2,1,4,0,1,1,1,0
613290128,613289766,45930887,42.3585499,-71.08724959999999,0.629266,-1.0840971,4.946622,0.0011367018,0.000111144094,0.0,0.07157189,-0.023470089,0.014780767,-0.004580985,0.00446994,-0.05826801,0.14515758,0.018135311,0.0040392596,0.0053541292,2.7118373,0.023883352,5.8776836,0.1,0.7565069,0.47334662,0.22351788,0.12960209,inf,inf,inf,inf,1,1,1,1,2,0,2,1,4,0,1,1,1,0
613790091,613789705,45930887,42.3585499,-71.08724959999999,0.6743271,-1.2009758,4.931866,0.0011367018,0.000111144094,0.0,0.08764826,-0.042700127,0.019464497,-0.010502963,0.00446994,-0.05826801,0.14515758,-0.023764966,-0.0019127297,-0.13871768,2.7125916,0.023883352,5.8776836,0.1,0.7494721,0.47130144,0.22527629,0.12973566,inf,inf,inf,inf,1,1,1,1,2,0,2,1,4,0,1,1,1,0
614290002,614289644,45930887,42.3585499,-71.08724959999999,0.66280925,-1.2493296,4.9258795,0.0011367018,0.000111144094,0.0,0.0776995,-0.036379322,0.015261379,-0.0126593495,0.00446994,-0.05826801,0.14515758,0.023638843,0.0111067025,0.031191692,2.7136283,0.023883352,5.8776836,0.10095978,0.7726515,0.47681278,0.23781654,0.13196926,inf,inf,inf,inf,1,1,1,1,2,0,2,1,4,0,1,1,1,0
614790029,614789583,45930887,42.3585499,-71.08724959999999,0.64524883,-1.3195151,4.9104652,0.0011367018,0.000111144094,0.0,0.06447158,-0.03748185,0.0077700345,-0.024680326,0.00446994,-0.05826801,0.14515758,-0.04246295,0.03700513,-0.06505964,2.7143211,0.023883352,5.8776836,0.1,0.7653132,0.47902405,0.2368163,0.13238263,inf,inf,inf,inf,1,1,1,1,2,0,2,1,4,0,1,1,1,0
615289832,615289522,45930887,42.3585499,-71.08724959999999,0.6338701,-1.3797344,4.9220643,0.0011367018,0.000111144094,0.0,0.04849369,-0.049048528,0.0035357836,-0.0072053946,0.00446994,-0.05826801,0.14515758,-0.022478407,-0.000747806,0.11980463,2.7165794,0.023883352,5.8776836,0.11057711,0.77123386,0.48006284,0.23481451,0.13221376,inf,inf,inf,inf,1,1,1,1,2,0,2,1,4,0,1,1,1,0
615789876,615789461,45930887,42.3585499,-71.08724959999999,0.64285415,-1.4407164,4.9461555,0.0011367018,0.000111144094,0.0,0.037283737,-0.06427343,0.006419375,0.015766306,0.00446994,-0.05826801,0.14515758,-0.0157914,-0.050651215,0.09676737,2.7178874,0.023883352,5.8776836,0.10851574,0.75129133,0.4745389,0.22558711,0.1304179,inf,inf,inf,inf,1,1,1,1,2,0,2,1,4,0,1,1,1,0
616289757,616289399,45930887,42.3585499,-71.08724959999999,0.6834775,-1.4947702,4.9540386,0.0011367018,0.000111144094,0.0,0.043936178,-0.07584676,0.014449481,0.022582516,0.00446994,-0.05826801,0.14515758,-0.022058621,-0.021167904,0.21435404,2.719369,0.023883352,5.8776836,0.1,0.7605768,0.47635156,0.22778115,0.1308059,inf,inf,inf,inf,1,1,1,1,2,0,2,1,4,0,1,1,1,0
616789678,616789338,45930887,42.3585499,-71.08724959999999,0.7163628,-1.5538017,4.9713073,0.0011367018,0.000111144094,0.0,0.04426985,-0.07991854,0.0323683,0.037177794,0.00446994,-0.05826801,0.14515758,0.025699668,-0.0022362287,0.03596796,2.7203028,0.023883352,5.8776836,0.1,0.7487981,0.47728577,0.22547823,0.13077565,inf,inf,inf,inf,1,1,1,1,2,0,2,1,4,0,1,1,1,0
617289611,617289277,45930887,42.3585499,-71.08724959999999,0.70933497,-1.6039118,4.9789734,0.0011367018,0.000111144094,0.0,0.030396765,-0.07449106,0.05635452,0.047587063,0.00446994,-0.05826801,0.14515758,-0.04564244,0.021867877,0.2597344,2.721314,0.023883352,5.8776836,0.1,0.76776934,0.48146516,0.2342436,0.1322868,inf,inf,inf,inf,1,1,1,1,2,0,2,1,4,0,1,1,1,0
617789540,617789215,45930887,42.3585499,-71.08724959999999,0.67035294,-1.6556194,4.9892583,0.0011367018,0.000111144094,0.0,0.012584377,-0.06817369,0.044298977,0.02494548,0.00446994,-0.05826801,0.14515758,0.1463362,-0.065243825,-0.34559643,2.722556,0.023883352,5.8776836,0.1,0.7628023,0.47958532,0.23582757,0.13226375,inf,inf,inf,inf,1,1,1,1,2,0,2,1,4,0,1,1,1,0
618289503,618289153,45930887,42.3585499,-71.08724959999999,0.62660134,-1.7091699,4.99536,0.0011367018,0.000111144094,0.0,-0.0012580592,-0.06419252,0.052428935,0.028174965,0.00446994,-0.05826801,0.14515758,-0.0102122035,0.026835263,0.1767817,2.723606,0.023883352,5.8776836,0.1,0.7669205,0.47979835,0.2326822,0.1317782,inf,inf,inf,inf,1,1,1,1,2,0,2,1,4,0,1,1,1,0
618789436,618789092,45930887,42.3585499,-71.08724959999999,0.61113197,-1.68215,4.990732,0.0011367018,0.000111144094,0.0,0.0017285913,-0.02348236,0.02624086,-0.009461329,0.00446994,-0.05826801,0.14515758,-0.08324636,0.06548108,-0.20082292,2.7243793,0.023883352,5.8776836,0.1,0.7465144,0.4783799,0.22382733,0.13060218,inf,inf,inf,inf,1,1,1,1,2,0,2,1,4,0,1,1,1,0
619289438,619289029,45930887,42.3585499,-71.08724959999999,0.5885125,-1.7255353,4.9631634,0.0011367018,0.000111144094,0.0,-0.0051695877,-0.03683696,0.021283671,-0.030658785,0.00446994,-0.05826801,0.14515758,-0.025653958,-0.002615232,0.0806767,2.7224922,0.023883352,5.8776836,0.1,0.7436946,0.47664934,0.21836028,0.12946527,inf,inf,inf,inf,1,1,1,1,2,0,2,1,4,0,1,1,1,0
619789323,619788968,45930887,42.3585499,-71.08724959999999,0.57939816,-1.7608409,4.9455895,0.0011367018,0.000111144094,0.0,-0.010710726,-0.055028103,0.015484019,-0.03235528,0.00446994,-0.05826801,0.14515758,-0.0019504704,-0.044815857,0.10292944,2.7240715,0.023883352,5.8776836,0.10866308,0.72844934,0.47213843,0.2152299,0.1284831,inf,inf,inf,inf,1,1,1,1,2,0,2,1,4,0,1,1,1,0
620289208,620288906,45930887,42.3585499,-71.08724959999999,0.5927604,-1.7649605,4.9571753,0.0011367018,0.000111144094,0.0,-0.0038154465,-0.04370041,0.034082297,0.0049371235,0.00446994,-0.05826801,0.14515758,0.027193913,0.010296907,-0.093560696,2.7264116,0.023883352,5.8776836,0.10593653,0.7426256,0.47536698,0.22300659,0.12983121,inf,inf,inf,inf,1,1,1,1,2,0,2,1,4,0,1,1,1,0
