timestamp,timestamp_sample,states[0],states[1],states[2],states[3],states[4],states[5],states[6],states[7],states[8],states[9],states[10],states[11],states[12],states[13],states[14],states[15],states[16],states[17],states[18],states[19],states[20],states[21],states[22],states[23],covariances[0],covariances[1],covariances[2],covariances[3],covariances[4],covariances[5],covariances[6],covariances[7],covariances[8],covariances[9],covariances[10],covariances[11],covariances[12],covariances[13],covariances[14],covariances[15],covariances[16],covariances[17],covariances[18],covariances[19],covariances[20],covariances[21],covariances[22],covariances[23],n_states
540190475,540090315,0.27523643,0.012653253,0.009299171,0.96124834,0.045709748,0.01733409,0.017793065,3.5305874,-3.0045583,5.4014916,-0.0001815577,2.1536936e-05,-2.4456867e-05,-0.003920493,0.0039587165,-0.0013274443,0.13815497,-0.035072725,0.26797125,0.0,0.0,0.0,0.0,0.0,9.410167e-05,5.7868983e-06,5.780324e-06,7.570752e-06,0.019252941,0.019252125,0.015841912,0.1884297,0.1884285,0.20809315,2.0162224e-11,2.0177818e-11,4.7376242e-11,5.017909e-08,5.0114462e-08,5e-08,0.0,0.0,0.0,0.0,0.0,0.0,0.0,0.0,24
541185903,541085775,0.27565056,0.011541835,0.009470744,0.961142,0.028130189,-0.020721324,0.014342226,3.5711706,-3.1186812,5.3729825,-0.00018195114,2.1637723e-05,-2.4443852e-05,-0.003920448,0.003958835,-0.0013204606,0.13815497,-0.035072725,0.26797125,0.0,0.0,0.0,0.0,0.0,9.354203e-05,5.4321436e-06,5.424107e-06,7.5821836e-06,0.015639476,0.01563889,0.01455527,0.1713207,0.17132014,0.19983009,1.9852186e-11,1.9866574e-11,4.7026164e-11,5.018786e-08,5.012221e-08,5.0000267e-08,0.0,0.0,0.0,0.0,0.0,0.0,0.0,0.0,24
542191273,542091190,0.2758267,0.012990007,0.009524366,0.96107244,0.017669687,-0.040257294,0.012986559,3.60763,-3.2157655,5.3351436,-0.0001821016,2.173312e-05,-2.4521354e-05,-0.0039204145,0.003958813,-0.0013092237,0.13815497,-0.035072725,0.26797125,0.0,0.0,0.0,0.0,0.0,9.305385e-05,5.6592903e-06,5.6545655e-06,7.595462e-06,0.01693864,0.01693791,0.014868205,0.17084853,0.17084801,0.1997335,2.008612e-11,2.0099415e-11,4.6712068e-11,5.0196757e-08,5.0130172e-08,5.000009e-08,0.0,0.0,0.0,0.0,0.0,0.0,0.0,0.0,24
543186789,543086651,0.27618992,0.012902309,0.009145523,0.96097296,0.0048869625,-0.0654764,-0.012362562,3.6299293,-3.332775,5.2843103,-0.00018224352,2.182176e-05,-2.4526576e-05,-0.0039203814,0.003958846,-0.0012984297,0.13815497,-0.035072725,0.26797125,0.0,0.0,0.0,0.0,0.0,9.25408e-05,5.689435e-06,5.685972e-06,7.6066485e-06,0.017261762,0.017260902,0.015032841,0.16903013,0.16902985,0.20142956,2.0110144e-11,2.0122279e-11,4.6411562e-11,5.020556e-08,5.0138087e-08,5.0000267e-08,0.0,0.0,0.0,0.0,0.0,0.0,0.0,0.0,24
544192291,544092067,0.27662817,0.011382464,0.008538904,0.9608717,0.015746571,-0.03879488,-0.009239875,3.6815114,-3.3486447,5.2462206,-0.0001818046,2.1904585e-05,-2.4501269e-05,-0.0039203833,0.0039587994,-0.001299194,0.13815497,-0.035072725,0.26797125,0.0,0.0,0.0,0.0,0.0,9.16956e-05,5.6840117e-06,5.6787326e-06,7.5897656e-06,0.017304951,0.017304223,0.015015714,0.16729094,0.16729051,0.20002872,2.0100656e-11,2.0111607e-11,4.6047215e-11,5.021445e-08,5.014611e-08,5.000009e-08,0.0,0.0,0.0,0.0,0.0,0.0,0.0,0.0,24
545187978,545087528,0.27671185,0.012316936,0.008191179,0.96083915,0.035138756,-0.027779633,-0.00027698255,3.7337942,-3.3627656,5.2280364,-0.00018149074,2.1801185e-05,-2.4596318e-05,-0.003920412,0.0039586946,-0.0013043995,0.13815497,-0.035072725,0.26797125,0.0,0.0,0.0,0.0,0.0,9.1232876e-05,5.828031e-06,5.8255046e-06,7.596736e-06,0.018564206,0.018563494,0.015518048,0.17020573,0.17020506,0.20444112,2.023474e-11,2.0244804e-11,4.5791575e-11,5.0223274e-08,5.015418e-08,5.0000267e-08,0.0,0.0,0.0,0.0,0.0,0.0,0.0,0.0,24
546183144,546082989,0.27724597,0.011748715,0.007934178,0.96069443,0.021083837,-0.025239808,-0.012885596,3.7262719,-3.3972375,5.2042236,-0.00018148379,2.1912112e-05,-2.4550935e-05,-0.0039203973,0.0039587393,-0.0013069445,0.13815497,-0.035072725,0.26797125,0.0,0.0,0.0,0.0,0.0,9.078614e-05,5.8669316e-06,5.8638816e-06,7.612433e-06,0.019244755,0.019244136,0.015732108,0.17383996,0.17383936,0.20518129,2.0261277e-11,2.0270572e-11,4.5555146e-11,5.0232092e-08,5.0162296e-08,5e-08,0.0,0.0,0.0,0.0,0.0,0.0,0.0,0.0,24
547188503,547088405,0.27757454,0.01290248,0.0070304354,0.96059173,0.03600822,0.0174171,-0.0036931522,3.783417,-3.3441062,5.206581,-0.00018107373,2.198879e-05,-2.4584837e-05,-0.0039204066,0.0039586807,-0.0013181804,0.13815497,-0.035072725,0.26797125,0.0,0.0,0.0,0.0,0.0,9.0406495e-05,5.968483e-06,5.968935e-06,7.630083e-06,0.020450948,0.020450441,0.016259039,0.18131952,0.18131891,0.21164772,2.0349973e-11,2.0358652e-11,4.534668e-11,5.0241002e-08,5.0170573e-08,5.0000356e-08,0.0,0.0,0.0,0.0,0.0,0.0,0.0,0.0,24
548184045,548083867,0.27760145,0.013007856,0.007481318,0.9605792,0.0442686,0.027005866,0.0114743635,3.8389633,-3.3156757,5.2184353,-0.0001810228,2.2000884e-05,-2.4732277e-05,-0.003920424,0.0039586057,-0.0013302122,0.13815497,-0.035072725,0.26797125,0.0,0.0,0.0,0.0,0.0,9.000317e-05,5.889696e-06,5.889503e-06,7.641109e-06,0.020026095,0.020025648,0.016121596,0.18306446,0.183064,0.21066076,2.02699e-11,2.0278201e-11,4.514519e-11,5.0249817e-08,5.0178897e-08,5e-08,0.0,0.0,0.0,0.0,0.0,0.0,0.0,0.0,24
549189458,549089284,0.27775824,0.013318664,0.007504733,0.9605294,0.049262527,0.05064458,0.02544383,3.9117196,-3.253664,5.247882,-0.00018092303,2.2083468e-05,-2.4808014e-05,-0.003920454,0.003958577,-0.0013465981,0.13815497,-0.035072725,0.26797125,0.0,0.0,0.0,0.0,0.0,8.928235e-05,6.0035736e-06,6.003858e-06,7.6236247e-06,0.02110336,0.021102896,0.016537568,0.1909992,0.19099852,0.2165563,2.037749e-11,2.0385308e-11,4.4880145e-11,5.0258738e-08,5.0187193e-08,5.0000356e-08,0.0,0.0,0.0,0.0,0.0,0.0,0.0,0.0,24
550184954,550084746,0.27773318,0.012820485,0.008026216,0.9605393,0.062255237,0.034328002,0.02621121,4.0045805,-3.267784,5.2498255,-0.00018106864,2.1866965e-05,-2.4945588e-05,-0.003920488,0.0039585056,-0.0013501524,0.13815497,-0.035072725,0.26797125,0.0,0.0,0.0,0.0,0.0,8.892393e-05,5.7630227e-06,5.762157e-06,7.631469e-06,0.018974973,0.01897456,0.015816366,0.18459673,0.18459624,0.21083999,2.0154696e-11,2.0162148e-11,4.4710034e-11,5.026755e-08,5.0195464e-08,5.000009e-08,0.0,0.0,0.0,0.0,0.0,0.0,0.0,0.0,24
551190290,551090163,0.2778925,0.013639721,0.00798102,0.96048224,0.035891667,0.034882315,0.027242474,4.012032,-3.253811,5.2265463,-0.00018125851,2.2097502e-05,-2.5039835e-05,-0.0039204587,0.0039584558,-0.0013419875,0.13815497,-0.035072725,0.26797125,0.0,0.0,0.0,0.0,0.0,8.8624e-05,5.6329673e-06,5.633719e-06,7.647897e-06,0.01747195,0.01747151,0.015323098,0.17769608,0.17769578,0.20871703,2.0045018e-11,2.0052114e-11,4.456358e-11,5.027646e-08,5.020387e-08,5.0000352e-08,0.0,0.0,0.0,0.0,0.0,0.0,0.0,0.0,24
552185743,552085625,0.2780319,0.012691315,0.008387763,0.9604515,0.048933998,0.021135084,0.022819128,4.094458,-3.2803729,5.193821,-0.00018129998,2.1945249e-05,-2.5126981e-05,-0.0039204666,0.00395839,-0.0013355536,0.13815497,-0.035072725,0.26797125,0.0,0.0,0.0,0.0,0.0,8.82992e-05,5.665374e-06,5.664009e-06,7.658667e-06,0.017337421,0.017336875,0.015105663,0.17399433,0.17399405,0.20471585,2.0085242e-11,2.0091848e-11,4.4420228e-11,5.028528e-08,5.0212254e-08,5.0000178e-08,0.0,0.0,0.0,0.0,0.0,0.0,0.0,0.0,24
553191130,553091043,0.2780111,0.012604328,0.008351409,0.96045893,0.03460775,0.015527129,0.028539695,4.120861,-3.306494,5.1898594,-0.00018137213,2.2047518e-05,-2.5289151e-05,-0.00392048,0.0039583086,-0.0013442347,0.13815497,-0.035072725,0.26797125,0.0,0.0,0.0,0.0,0.0,8.766582e-05,5.5244655e-06,5.5231267e-06,7.642082e-06,0.015982691,0.015982198,0.014619073,0.16586754,0.16586736,0.20155716,1.9953282e-11,1.995935e-11,4.4213532e-11,5.029419e-08,5.022073e-08,5.0000352e-08,0.0,0.0,0.0,0.0,0.0,0.0,0.0,0.0,24
554186920,554086505,0.27805007,0.012110279,0.00866713,0.96045125,0.022268435,-0.011064111,0.02634241,4.1361394,-3.3853762,5.1949368,-0.0001816305,2.2050448e-05,-2.5416297e-05,-0.0039204913,0.003958256,-0.0013456409,0.13815497,-0.035072725,0.26797125,0.0,0.0,0.0,0.0,0.0,8.7377404e-05,5.5029855e-06,5.500746e-06,7.652301e-06,0.015497829,0.015497305,0.01427161,0.15912084,0.15912078,0.19578406,1.9938665e-11,1.9944218e-11,4.4094194e-11,5.0303026e-08,5.022919e-08,5.000009e-08,0.0,0.0,0.0,0.0,0.0,0.0,0.0,0.0,24
555182051,555081969,0.27819377,0.0128867505,0.008253573,0.9604031,-0.00452134,0.023598177,0.02794858,4.0939026,-3.3329012,5.1711283,-0.00018134118,2.2447295e-05,-2.5501298e-05,-0.003920448,0.003958213,-0.0013378679,0.13815497,-0.035072725,0.26797125,0.0,0.0,0.0,0.0,0.0,8.7103894e-05,5.5976407e-06,5.596871e-06,7.661827e-06,0.016222475,0.016221981,0.014583919,0.15756407,0.15756391,0.19741671,2.002618e-11,2.003123e-11,4.3985388e-11,5.031186e-08,5.0237688e-08,5.0000352e-08,0.0,0.0,0.0,0.0,0.0,0.0,0.0,0.0,24
556187524,556087387,0.27821395,0.013361899,0.009211749,0.9603821,-0.021194028,0.022867171,0.012544334,4.055024,-3.3246644,5.1274,-0.00018136727,2.2483306e-05,-2.5647283e-05,-0.0039204434,0.003958127,-0.0013231087,0.13815497,-0.035072725,0.26797125,0.0,0.0,0.0,0.0,0.0,8.688731e-05,5.540091e-06,5.5390005e-06,7.677034e-06,0.015767284,0.015766898,0.014371883,0.1526791,0.15267901,0.19379573,1.9966561e-11,1.997116e-11,4.3895988e-11,5.032079e-08,5.024629e-08,5.000009e-08,0.0,0.0,0.0,0.0,0.0,0.0,0.0,0.0,24
557183102,557082850,0.27853942,0.012859968,0.008471259,0.96030134,8.5542815e-05,0.023736777,0.011093982,4.097282,-3.3157754,5.0999346,-0.00018119371,2.2279783e-05,-2.5654394e-05,-0.003920439,0.003958093,-0.0013173212,0.13815497,-0.035072725,0.26797125,0.0,0.0,0.0,0.0,0.0,8.628308e-05,5.7044012e-06,5.704122e-06,7.658391e-06,0.01712477,0.0171243,0.014952015,0.15445122,0.15445106,0.19790441,2.0123132e-11,2.0127384e-11,4.372381e-11,5.0329625e-08,5.025481e-08,5.0000352e-08,0.0,0.0,0.0,0.0,0.0,0.0,0.0,0.0,24
558188371,558088269,0.27850735,0.014000673,0.008157746,0.96029747,-0.0004423399,0.022689158,0.009345934,4.1363273,-3.3135958,5.0766287,-0.00018115537,2.2194898e-05,-2.5781092e-05,-0.003920447,0.0039580204,-0.0013122631,0.13815497,-0.035072725,0.26797125,0.0,0.0,0.0,0.0,0.0,8.6100954e-05,5.807701e-06,5.810974e-06,7.669289e-06,0.018394882,0.01839438,0.01545524,0.15958804,0.15958782,0.20089194,2.0208698e-11,2.0212667e-11,4.3652453e-11,5.0338553e-08,5.0263456e-08,5.0000178e-08,0.0,0.0,0.0,0.0,0.0,0.0,0.0,0.0,24
559183864,559083733,0.2785133,0.0137387905,0.008577223,0.96029586,0.011449379,-0.00745329,0.005679682,4.168868,-3.3572252,5.069815,-0.00018137961,2.1971602e-05,-2.588998e-05,-0.0039204718,0.003957965,-0.0013121184,0.13815497,-0.035072725,0.26797125,0.0,0.0,0.0,0.0,0.0,8.5889056e-05,5.7076486e-06,5.710472e-06,7.6768265e-06,0.017892173,0.01789158,0.015459583,0.15906714,0.15906681,0.20308112,2.0105402e-11,2.0109206e-11,4.3578797e-11,5.034739e-08,5.0272043e-08,5.0000352e-08,0.0,0.0,0.0,0.0,0.0,0.0,0.0,0.0,24
560189246,560089152,0.27879393,0.013606975,0.00812594,0.9602202,0.013773172,0.003993532,0.008574404,4.190163,-3.3298373,5.080777,-0.00018118457,2.1980859e-05,-2.587981e-05,-0.003920469,0.0039579533,-0.0013193956,0.13815497,-0.035072725,0.26797125,0.0,0.0,0.0,0.0,0.0,8.5734864e-05,5.7133734e-06,5.7166353e-06,7.688407e-06,0.017970407,0.01796982,0.015471686,0.16031528,0.16031496,0.20316762,2.0114545e-11,2.0118091e-11,4.352214e-11,5.0356316e-08,5.0280736e-08,5.0000267e-08,0.0,0.0,0.0,0.0,0.0,0.0,0.0,0.0,24
561184737,561084616,0.27907395,0.0136802625,0.0075924248,0.96014214,0.023544142,-0.004678223,0.010387458,4.2140813,-3.329397,5.0811176,-0.00018116897,2.1868096e-05,-2.5876609e-05,-0.003920477,0.003957947,-0.0013195131,0.13815497,-0.035072725,0.26797125,0.0,0.0,0.0,0.0,0.0,8.554676e-05,5.763067e-06,5.7676625e-06,7.698007e-06,0.018419083,0.018418428,0.015701486,0.16310036,0.16309986,0.20683807,2.0164315e-11,2.0167657e-11,4.3462466e-11,5.0365156e-08,5.0289387e-08,5.0000356e-08,0.0,0.0,0.0,0.0,0.0,0.0,0.0,0.0,24
562190173,562090035,0.27961996,0.013101166,0.008393445,0.9599848,0.008579342,0.0043543805,0.028363727,4.1774073,-3.286487,5.1069527,-0.00018109537,2.2086506e-05,-2.576365e-05,-0.0039204694,0.0039580027,-0.0013275847,0.13815497,-0.035072725,0.26797125,0.0,0.0,0.0,0.0,0.0,8.5062995e-05,5.620405e-06,5.6222248e-06,7.682844e-06,0.01730103,0.017300453,0.015284273,0.16089119,0.16089074,0.20399757,2.0026472e-11,2.0029438e-11,4.3339127e-11,5.0374066e-08,5.02981e-08,5.0000267e-08,0.0,0.0,0.0,0.0,0.0,0.0,0.0,0.0,24
563186078,563085500,0.27839702,0.013710558,0.008734161,0.9603286,0.007235946,0.008767531,0.02681944,4.155168,-3.2328732,5.100941,-0.00018108728,2.206936e-05,-2.6472511e-05,-0.0039204964,0.0039577037,-0.0013269879,0.13815497,-0.035072725,0.26797125,0.0,0.0,0.0,0.0,0.0,8.4898966e-05,5.734111e-06,5.7372567e-06,7.692098e-06,0.018098474,0.01809788,0.015450395,0.16435316,0.16435252,0.20418292,2.0140382e-11,2.0143037e-11,4.3291707e-11,5.038289e-08,5.0306756e-08,5e-08,0.0,0.0,0.0,0.0,0.0,0.0,0.0,0.0,24
564191010,564090919,0.27716255,0.012593296,0.00841487,0.96070373,0.0056071486,0.010995064,0.02329864,4.1070046,-3.167951,5.1250134,-0.000181068,2.1936234e-05,-2.717269e-05,-0.0039205407,0.0039574103,-0.0013330313,0.13815497,-0.035072725,0.26797125,0.0,0.0,0.0,0.0,0.0,8.479809e-05,5.7086118e-06,5.7103352e-06,7.701502e-06,0.017902767,0.017902216,0.015453407,0.16451171,0.16451107,0.20617948,2.0116329e-11,2.0118735e-11,4.3259455e-11,5.0391797e-08,5.0315506e-08,5.0000263e-08,0.0,0.0,0.0,0.0,0.0,0.0,0.0,0.0,24
565186548,565086384,0.27597353,0.011334395,0.0088688955,0.96105754,-0.008935199,-0.0017395571,0.046922784,4.015622,-3.1415777,5.1255164,-0.00018118488,2.1877815e-05,-2.7825836e-05,-0.0039205714,0.0039571724,-0.0013303597,0.13815497,-0.035072725,0.26797125,0.0,0.0,0.0,0.0,0.0,8.466718e-05,5.9133176e-06,5.912304e-06,7.7027635e-06,0.019608498,0.019607866,0.01592758,0.17196208,0.17196153,0.20848632,2.0309423e-11,2.0311574e-11,4.322245e-11,5.0400633e-08,5.0324196e-08,5e-08,0.0,0.0,0.0,0.0,0.0,0.0,0.0,0.0,24
566181999,566081850,0.27463993,0.013738039,0.008684156,0.9614098,-0.03075715,-0.009178247,0.038527764,3.8724837,-3.10663,5.1444716,-0.00018129293,2.1970463e-05,-2.8505474e-05,-0.0039205956,0.0039569335,-0.001334311,0.13815497,-0.035072725,0.26797125,0.0,0.0,0.0,0.0,0.0,8.420376e-05,5.7355905e-06,5.740491e-06,7.667874e-06,0.01839593,0.018395375,0.015640022,0.17006548,0.17006512,0.2083982,2.0133204e-11,2.0135034e-11,4.3111986e-11,5.0409447e-08,5.033286e-08,5.0000178e-08,0.0,0.0,0.0,0.0,0.0,0.0,0.0,0.0,24
567187422,567087269,0.2735132,0.012138102,0.00882426,0.96175116,-0.034219854,0.0394567,0.04938395,3.7875342,-2.9553397,5.1509013,-0.00018083605,2.2053828e-05,-2.9121471e-05,-0.003920506,0.0039567165,-0.0013332918,0.13815497,-0.035072725,0.26797125,0.0,0.0,0.0,0.0,0.0,8.414408e-05,5.886078e-06,5.8869446e-06,7.667594e-06,0.019655304,0.019654812,0.01596612,0.17737216,0.17737156,0.21012695,2.0276286e-11,2.0277889e-11,4.3093945e-11,5.0418336e-08,5.0341644e-08,5e-08,0.0,0.0,0.0,0.0,0.0,0.0,0.0,0.0,24
568192809,568092689,0.27229032,0.011861846,0.008440247,0.9621051,-0.012742389,0.093457244,0.053637605,3.7415662,-2.7309217,5.192378,-0.00018035447,2.2096929e-05,-2.9760604e-05,-0.0039204014,0.003956489,-0.001340737,0.13815497,-0.035072725,0.26797125,0.0,0.0,0.0,0.0,0.0,8.409502e-05,6.0003813e-06,6.0009893e-06,7.663421e-06,0.020851346,0.020850804,0.016419807,0.18615247,0.18615186,0.21579486,2.0378529e-11,2.0380031e-11,4.3079706e-11,5.0427207e-08,5.0350422e-08,5.0000356e-08,0.0,0.0,0.0,0.0,0.0,0.0,0.0,0.0,24
569188361,569088155,0.27113205,0.012482168,0.009387794,0.96241546,-0.04745745,0.058627505,0.060897753,3.5916114,-2.6840577,5.2119036,-0.00018093767,2.2011038e-05,-3.0334862e-05,-0.003920571,0.003956278,-0.0013430503,0.13815497,-0.035072725,0.26797125,0.0,0.0,0.0,0.0,0.0,8.4013e-05,6.0750294e-06,6.0766e-06,7.652691e-06,0.021784665,0.021784121,0.016617054,0.195082,0.19508141,0.21675612,2.0440913e-11,2.0442445e-11,4.305932e-11,5.0435965e-08,5.0359088e-08,5e-08,0.0,0.0,0.0,0.0,0.0,0.0,0.0,0.0,24
570183771,570083620,0.270009,0.012039,0.009348843,0.9627372,-0.03534016,0.052855615,0.06111189,3.537391,-2.596242,5.2372503,-0.0001809376,2.1787586e-05,-3.089965e-05,-0.0039205747,0.003956023,-0.0013458484,0.13815497,-0.035072725,0.26797125,0.0,0.0,0.0,0.0,0.0,8.394368e-05,6.0961315e-06,6.0976777e-06,7.640493e-06,0.02218297,0.022182321,0.016819138,0.2019282,0.20192766,0.22057283,2.0457134e-11,2.0458711e-11,4.304215e-11,5.044471e-08,5.0367742e-08,5.0000267e-08,0.0,0.0,0.0,0.0,0.0,0.0,0.0,0.0,24
571189141,571089040,0.26877567,0.012879509,0.009704624,0.9630678,0.00066524657,0.041215856,0.047079135,3.5345483,-2.5253391,5.218366,-0.00018085267,2.1437361e-05,-3.1462314e-05,-0.0039205616,0.003955725,-0.0013377299,0.13815497,-0.035072725,0.26797125,0.0,0.0,0.0,0.0,0.0,8.359082e-05,6.3532016e-06,6.3574453e-06,7.5958233e-06,0.024818474,0.024817644,0.017410213,0.22015801,0.22015728,0.22523843,2.0689363e-11,2.069092e-11,4.2961502e-11,5.0453554e-08,5.0376485e-08,5.000009e-08,0.0,0.0,0.0,0.0,0.0,0.0,0.0,0.0,24
572184985,572084506,0.26779395,0.013386377,0.011442692,0.96331525,0.014446545,0.024648987,0.050108228,3.5367055,-2.494545,5.21778,-0.00018092628,2.1290592e-05,-3.192131e-05,-0.003920604,0.0039555402,-0.0013333267,0.13815497,-0.035072725,0.26797125,0.0,0.0,0.0,0.0,0.0,8.354046e-05,6.401154e-06,6.4046626e-06,7.5774647e-06,0.025769858,0.025768943,0.017751716,0.23285979,0.23285885,0.23097034,2.0718496e-11,2.0720026e-11,4.295035e-11,5.0462273e-08,5.0385115e-08,5.0000263e-08,0.0,0.0,0.0,0.0,0.0,0.0,0.0,0.0,24
573190010,573089929,0.26681137,0.013435973,0.012898066,0.96356887,0.003599355,0.013674814,0.042177074,3.4683096,-2.4551513,5.1986465,-0.0001810812,2.1418793e-05,-3.2397464e-05,-0.0039206767,0.0039554695,-0.0013243129,0.13815497,-0.035072725,0.26797125,0.0,0.0,0.0,0.0,0.0,8.35419e-05,6.36976e-06,6.370929e-06,7.5629328e-06,0.025691032,0.025690183,0.017659312,0.24021828,0.2402173,0.23081112,2.0685467e-11,2.0686973e-11,4.2951292e-11,5.0471066e-08,5.0393847e-08,5.000009e-08,0.0,0.0,0.0,0.0,0.0,0.0,0.0,0.0,24
574185516,574085391,0.26591274,0.017301405,0.03067457,0.9633537,0.0035870313,-0.008954586,0.038137976,3.3993444,-2.4236844,5.1761827,-0.00018127509,2.1374699e-05,-3.286199e-05,-0.003920767,0.0039553456,-0.0013165108,0.13815497,-0.035072725,0.26797125,0.0,0.0,0.0,0.0,0.0,8.3436724e-05,6.1994774e-06,6.150539e-06,7.5506696e-06,0.023339223,0.023338646,0.017151201,0.23253903,0.23253834,0.22900513,2.0485051e-11,2.0486533e-11,4.2944447e-11,5.0479745e-08,5.0402424e-08,5.0000263e-08,0.0,0.0,0.0,0.0,0.0,0.0,0.0,0.0,24
575190952,575090811,0.26482373,0.0212754,0.045421153,0.9629916,-0.0018402279,-0.016146824,0.023099817,3.3360038,-2.3602574,5.0965886,-0.0001813218,2.1333393e-05,-3.3714983e-05,-0.003920811,0.0039553405,-0.0012919996,0.13815497,-0.035072725,0.26797125,0.0,0.0,0.0,0.0,0.0,8.298664e-05,6.2197378e-06,6.1024607e-06,7.5443777e-06,0.022477074,0.022478124,0.016784886,0.22925289,0.2292523,0.2251737,2.0443359e-11,2.0444903e-11,4.2873937e-11,5.0488538e-08,5.0410492e-08,5.000009e-08,0.0,0.0,0.0,0.0,0.0,0.0,0.0,0.0,24
576186403,576086276,0.2632485,0.021075493,0.045786858,0.9634104,0.0038551877,0.014536619,0.03573339,3.2874103,-2.21442,5.096836,-0.00018104813,2.1451076e-05,-3.4454824e-05,-0.0039207265,0.0039550792,-0.0012920887,0.13815497,-0.035072725,0.26797125,0.0,0.0,0.0,0.0,0.0,8.297207e-05,6.170709e-06,6.05758e-06,7.518343e-06,0.021638405,0.02164224,0.016547274,0.2233352,0.22333488,0.22384799,2.041429e-11,2.0416368e-11,4.2870724e-11,5.0497277e-08,5.0416393e-08,5.0000356e-08,0.0,0.0,0.0,0.0,0.0,0.0,0.0,0.0,24
577191868,577091696,0.2614119,0.020639503,0.045013014,0.96395624,-0.022336127,0.0009859293,0.012384236,3.1712332,-2.1602535,5.0650864,-0.000181312,2.1583426e-05,-3.5173514e-05,-0.0039208396,0.0039555733,-0.0012758522,0.13815497,-0.035072725,0.26797125,0.0,0.0,0.0,0.0,0.0,8.303576e-05,6.311565e-06,6.211303e-06,7.479524e-06,0.022987885,0.022993863,0.016778976,0.22829546,0.2282963,0.22373556,2.0558385e-11,2.0561821e-11,4.28782e-11,5.0506127e-08,5.0420255e-08,5.0000178e-08,0.0,0.0,0.0,0.0,0.0,0.0,0.0,0.0,24
578187253,578087161,0.25999677,0.02047743,0.045421507,0.9643233,0.002482802,0.034730136,-0.0029626114,3.1783404,-2.0132785,5.0191875,-0.00018089513,2.1542364e-05,-3.5744957e-05,-0.003920725,0.0039556865,-0.0012677702,0.13815497,-0.035072725,0.26797125,0.0,0.0,0.0,0.0,0.0,8.304229e-05,6.4319015e-06,6.3327375e-06,7.441128e-06,0.02435684,0.024363335,0.017188672,0.23543622,0.2354389,0.22783664,2.0661849e-11,2.0667785e-11,4.2875564e-11,5.051488e-08,5.0421495e-08,5.0000356e-08,0.0,0.0,0.0,0.0,0.0,0.0,0.0,0.0,24
579192669,579092580,0.25772676,0.020035954,0.045219745,0.9649512,-0.008323748,0.029245785,-0.020455476,3.1221642,-1.9457576,4.9372,-0.0001810774,2.1631342e-05,-3.672275e-05,-0.00392081,0.003955935,-0.0012564766,0.13815497,-0.035072725,0.26797125,0.0,0.0,0.0,0.0,0.0,8.2771054e-05,6.334324e-06,6.2410095e-06,7.375966e-06,0.023896802,0.023901729,0.01704888,0.23686834,0.23687159,0.22590576,2.0567697e-11,2.0578334e-11,4.2804517e-11,5.0523678e-08,5.0418215e-08,5.0000175e-08,0.0,0.0,0.0,0.0,0.0,0.0,0.0,0.0,24
580188143,580088045,0.25554627,0.01854029,0.04522811,0.9655604,-0.036418583,0.0116938995,-0.0033832528,3.0216534,-1.9124638,4.902743,-0.00018136857,2.1712247e-05,-3.7662754e-05,-0.0039209328,0.0039560585,-0.0012518454,0.13815497,-0.035072725,0.26797125,0.0,0.0,0.0,0.0,0.0,8.280053e-05,6.5318527e-06,6.4386813e-06,7.3356664e-06,0.025926968,0.025929742,0.01758676,0.24939986,0.24940495,0.23144971,2.0751907e-11,2.0766834e-11,4.280159e-11,5.0532403e-08,5.0415643e-08,5.0000352e-08,0.0,0.0,0.0,0.0,0.0,0.0,0.0,0.0,24
581183959,581083510,0.25243345,0.018657293,0.045521848,0.96636283,0.0036599215,0.02007657,0.014172167,3.0523732,-1.8195213,4.934075,-0.00018109364,2.1382493e-05,-3.879861e-05,-0.003920799,0.003955172,-0.0012627708,0.13815497,-0.035072725,0.26797125,0.0,0.0,0.0,0.0,0.0,8.284448e-05,6.5379313e-06,6.447374e-06,7.268051e-06,0.026298048,0.02629859,0.017581442,0.25716904,0.25717402,0.23044263,2.0749853e-11,2.0771598e-11,4.279496e-11,5.054107e-08,5.0409625e-08,5.000009e-08,0.0,0.0,0.0,0.0,0.0,0.0,0.0,0.0,24
582189026,582088929,0.25031763,0.019132204,0.04552678,0.96690357,-0.050780512,0.076242074,0.02901221,2.8844037,-1.5919967,4.998534,-0.00018095894,2.2022181e-05,-3.9722112e-05,-0.003920637,0.0039538913,-0.0012864221,0.13815497,-0.035072725,0.26797125,0.0,0.0,0.0,0.0,0.0,8.291651e-05,6.397066e-06,6.305759e-06,7.2215694e-06,0.0252105,0.025208462,0.017470272,0.2589486,0.25895247,0.23231892,2.0614172e-11,2.0645414e-11,4.2794376e-11,5.0549744e-08,5.0401844e-08,5.000044e-08,0.0,0.0,0.0,0.0,0.0,0.0,0.0,0.0,24
583184551,583084393,0.24864319,0.018357174,0.045476016,0.9673528,-0.054738007,0.018921047,0.018794484,2.7935398,-1.6523117,5.0172424,-0.00018144112,2.169258e-05,-4.022563e-05,-0.0039208634,0.003953529,-0.0012878365,0.13815497,-0.035072725,0.26797125,0.0,0.0,0.0,0.0,0.0,8.297429e-05,6.424325e-06,6.336539e-06,7.1577206e-06,0.025288643,0.025284406,0.017343082,0.26216832,0.26217088,0.22985086,2.0651807e-11,2.0691825e-11,4.2787406e-11,5.0558334e-08,5.0395006e-08,5.000009e-08,0.0,0.0,0.0,0.0,0.0,0.0,0.0,0.0,24
584189898,584089811,0.24695826,0.02004053,0.044499867,0.9677963,-0.090290524,-0.0055562817,0.009706978,2.6487179,-1.6889235,4.9714437,-0.00018170402,2.1734313e-05,-4.0812818e-05,-0.0039210753,0.0039543817,-0.0012712334,0.13815497,-0.035072725,0.26797125,0.0,0.0,0.0,0.0,0.0,8.27404e-05,6.378945e-06,6.306315e-06,7.0737274e-06,0.024751974,0.024745684,0.017301625,0.26171628,0.26171717,0.23144265,2.0622278e-11,2.067268e-11,4.2714242e-11,5.0566943e-08,5.0389076e-08,5.000044e-08,0.0,0.0,0.0,0.0,0.0,0.0,0.0,0.0,24
585185394,585085275,0.24523328,0.02257265,0.042983256,0.9682477,-0.0954098,-0.044498734,0.027197413,2.540761,-1.7771411,4.948428,-0.00018188945,2.1638725e-05,-4.1372423e-05,-0.0039212313,0.0039548352,-0.0012596409,0.13815497,-0.035072725,0.26797125,0.0,0.0,0.0,0.0,0.0,8.280165e-05,6.3260436e-06,6.2748936e-06,7.0096044e-06,0.023983955,0.023977768,0.016981542,0.25750765,0.25750747,0.22694279,2.0590252e-11,2.0651569e-11,4.2707015e-11,5.057542e-08,5.038427e-08,5.0000178e-08,0.0,0.0,0.0,0.0,0.0,0.0,0.0,0.0,24
586190842,586090693,0.24340257,0.02415067,0.04260347,0.96868825,-0.13578336,-0.04480368,0.03037905,2.3552287,-1.8019458,4.959713,-0.0001818721,2.188218e-05,-4.1994404e-05,-0.003921246,0.0039551044,-0.0012550956,0.13815497,-0.035072725,0.26797125,0.0,0.0,0.0,0.0,0.0,8.2914274e-05,6.5311942e-06,6.4879036e-06,6.947913e-06,0.025909586,0.025901917,0.01749155,0.26605,0.26604697,0.23241952,2.0776946e-11,2.0846266e-11,4.271616e-11,5.0584127e-08,5.0383452e-08,5.0000445e-08,0.0,0.0,0.0,0.0,0.0,0.0,0.0,0.0,24
587186306,587086156,0.24141884,0.022958104,0.042412948,0.96922195,-0.093093015,-0.015354452,0.02818852,2.3381386,-1.7374215,5.011588,-0.00018126884,2.1608983e-05,-4.263668e-05,-0.0039209616,0.003954583,-0.0012653691,0.13815497,-0.035072725,0.26797125,0.0,0.0,0.0,0.0,0.0,8.299107e-05,6.5149284e-06,6.4638107e-06,6.88052e-06,0.025905676,0.025899077,0.017395107,0.266455,0.26645064,0.2301425,2.0749456e-11,2.0829229e-11,4.2712816e-11,5.0592718e-08,5.0383328e-08,5.0000175e-08,0.0,0.0,0.0,0.0,0.0,0.0,0.0,0.0,24
588191877,588091573,0.23937403,0.022302173,0.043232925,0.969708,-0.07081556,-0.010653037,0.034764964,2.3368638,-1.7288698,5.0750217,-0.0001811296,2.1301184e-05,-4.333257e-05,-0.0039209705,0.0039538178,-0.0012864934,0.13815497,-0.035072725,0.26797125,0.0,0.0,0.0,0.0,0.0,8.2772625e-05,6.1179403e-06,6.055993e-06,6.7923766e-06,0.021986818,0.021982426,0.016401123,0.24905705,0.24905525,0.22136621,2.037861e-11,2.0473165e-11,4.263967e-11,5.0601326e-08,5.0384322e-08,5e-08,0.0,0.0,0.0,0.0,0.0,0.0,0.0,0.0,24
589187131,589087036,0.23746637,0.021447897,0.043372307,0.97019005,-0.04039222,0.00071039,0.039626267,2.3281543,-1.6855675,5.1075406,-0.00018095753,2.1046235e-05,-4.3997225e-05,-0.003920958,0.0039534937,-0.0012962801,0.13815497,-0.035072725,0.26797125,0.0,0.0,0.0,0.0,0.0,8.285389e-05,6.1649353e-06,6.096783e-06,6.7300734e-06,0.0219856,0.021982158,0.016397044,0.24659139,0.24658896,0.22153786,2.0429408e-11,2.0532782e-11,4.264106e-11,5.0609938e-08,5.0388238e-08,5.0000175e-08,0.0,0.0,0.0,0.0,0.0,0.0,0.0,0.0,24
590183059,590082498,0.2356721,0.02254797,0.042111684,0.97065794,-0.020768978,0.024590265,0.072223395,2.2933307,-1.5957351,5.134031,-0.00018071782,2.1008596e-05,-4.449183e-05,-0.0039209165,0.003953524,-0.001301235,0.13815497,-0.035072725,0.26797125,0.0,0.0,0.0,0.0,0.0,8.2955725e-05,6.3138705e-06,6.256437e-06,6.65368e-06,0.023256322,0.023253875,0.01659299,0.2508907,0.2508872,0.22056146,2.0572431e-11,2.0682822e-11,4.264552e-11,5.0618564e-08,5.0393524e-08,5e-08,0.0,0.0,0.0,0.0,0.0,0.0,0.0,0.0,24
591188042,591087914,0.23496178,0.022065418,0.040680967,0.9709023,0.011599855,0.049744,0.08474164,2.3006766,-1.4910011,5.1729507,-0.00018048534,2.0859801e-05,-4.4536384e-05,-0.003920812,0.003953661,-0.0012967765,0.13815497,-0.035072725,0.26797125,0.0,0.0,0.0,0.0,0.0,8.310626e-05,6.671923e-06,6.619916e-06,6.5881623e-06,0.02702034,0.02701796,0.017534029,0.26997384,0.26996854,0.22936301,2.0893716e-11,2.100835e-11,4.2664042e-11,5.062732e-08,5.040016e-08,5.0000178e-08,0.0,0.0,0.0,0.0,0.0,0.0,0.0,0.0,24
592183583,592083376,0.23423138,0.023225376,0.043192357,0.9709432,0.005009298,0.048866827,0.05219293,2.2307363,-1.4157422,5.155131,-0.00018070907,2.0886428e-05,-4.466008e-05,-0.003920796,0.0039540464,-0.0012755576,0.13815497,-0.035072725,0.26797125,0.0,0.0,0.0,0.0,0.0,8.317623e-05,6.6822295e-06,6.617445e-06,6.527526e-06,0.027504064,0.02750218,0.017591393,0.2759234,0.27591848,0.2289406,2.087171e-11,2.0994385e-11,4.266762e-11,5.0635894e-08,5.0407156e-08,5e-08,0.0,0.0,0.0,0.0,0.0,0.0,0.0,0.0,24
593188892,593088791,0.23505048,0.040061556,0.07100117,0.9685584,-0.02203848,0.0073918123,0.027006917,2.1142352,-1.4653368,5.1311555,-0.0001812734,2.0834383e-05,-4.4918725e-05,-0.003920876,0.003954255,-0.0012581107,0.13815497,-0.035072725,0.26797125,0.0,0.0,0.0,0.0,0.0,8.257993e-05,6.9878065e-06,6.7842857e-06,6.5492122e-06,0.028676013,0.02867344,0.017942984,0.28629443,0.28628886,0.23452123,2.0937972e-11,2.1066513e-11,4.2609607e-11,5.0644527e-08,5.041479e-08,5.0000267e-08,0.0,0.0,0.0,0.0,0.0,0.0,0.0,0.0,24
594184377,594084252,0.2302451,0.02991218,0.05045698,0.97136325,-0.04328203,-0.013204917,0.033602186,1.9997432,-1.5009693,5.1068745,-0.00018152612,2.085766e-05,-4.52921e-05,-0.0039209295,0.00395436,-0.0012506847,0.13815497,-0.035072725,0.26797125,0.0,0.0,0.0,0.0,0.0,8.309477e-05,6.866812e-06,6.7906926e-06,6.313247e-06,0.02978536,0.029782847,0.018245444,0.29916066,0.2991547,0.23963137,2.0985306e-11,2.1119585e-11,4.2616136e-11,5.0652964e-08,5.0422308e-08,5.000044e-08,0.0,0.0,0.0,0.0,0.0,0.0,0.0,0.0,24
595189831,595089666,0.22867851,0.03153896,0.04974579,0.97171855,-0.10813207,-0.063610554,0.040127065,1.7316064,-1.6310146,5.1035743,-0.00018208065,2.115161e-05,-4.566598e-05,-0.0039210757,0.0039545023,-0.0012448963,0.13815497,-0.035072725,0.26797125,0.0,0.0,0.0,0.0,0.0,8.3254316e-05,6.8719814e-06,6.8113836e-06,6.2411054e-06,0.030433081,0.030430438,0.018282516,0.3123208,0.31231502,0.2403677,2.0988985e-11,2.1129234e-11,4.2631988e-11,5.066131e-08,5.0429843e-08,5.0000356e-08,0.0,0.0,0.0,0.0,0.0,0.0,0.0,0.0,24
596185380,596085126,0.22718798,0.028159264,0.04968524,0.97217494,-0.056929633,-0.089715354,0.034196462,1.7446144,-1.743963,5.1133275,-0.00018191937,2.0527488e-05,-4.6050503e-05,-0.0039211265,0.003954257,-0.0012473466,0.13815497,-0.035072725,0.26797125,0.0,0.0,0.0,0.0,0.0,8.33741e-05,6.768379e-06,6.6911666e-06,6.1750384e-06,0.02948257,0.029480068,0.017982412,0.3151952,0.31519026,0.23747294,2.0896828e-11,2.104376e-11,4.2637085e-11,5.0669332e-08,5.043727e-08,5e-08,0.0,0.0,0.0,0.0,0.0,0.0,0.0,0.0,24
597190647,597090540,0.22553262,0.02699848,0.048730575,0.9726415,-0.03650315,-0.08036558,0.039299693,1.7207718,-1.7914762,5.1179147,-0.00018169059,2.0359857e-05,-4.6506244e-05,-0.003921101,0.003954192,-0.0012470541,0.13815497,-0.035072725,0.26797125,0.0,0.0,0.0,0.0,0.0,8.320997e-05,6.6894754e-06,6.612717e-06,6.0847974e-06,0.028548313,0.028546449,0.017889338,0.31627402,0.31626981,0.23926039,2.083962e-11,2.0992586e-11,4.2578538e-11,5.0677382e-08,5.044492e-08,5.0000267e-08,0.0,0.0,0.0,0.0,0.0,0.0,0.0,0.0,24
598186104,598085998,0.22382198,0.030150015,0.047334712,0.9730129,-0.026340479,-0.06664927,0.025624786,1.6702085,-1.8089814,5.0907316,-0.00018150262,2.0369944e-05,-4.689109e-05,-0.003920962,0.003954296,-0.0012389711,0.13815497,-0.035072725,0.26797125,0.0,0.0,0.0,0.0,0.0,8.3327366e-05,6.695076e-06,6.645104e-06,6.005699e-06,0.02837358,0.028372385,0.017685575,0.3183045,0.3183005,0.23592605,2.086412e-11,2.1022599e-11,4.2585237e-11,5.068535e-08,5.0452623e-08,5.000009e-08,0.0,0.0,0.0,0.0,0.0,0.0,0.0,0.0,24
599191853,599091411,0.2223546,0.029623503,0.046407085,0.9734101,-0.014471748,-0.046895716,0.031756286,1.6397092,-1.7979536,5.0675564,-0.0001813027,2.0369931e-05,-4.7210095e-05,-0.00392086,0.0039543593,-0.0012338348,0.13815497,-0.035072725,0.26797125,0.0,0.0,0.0,0.0,0.0,8.349941e-05,6.695772e-06,6.6465e-06,5.9338568e-06,0.028350122,0.028349359,0.017760495,0.32248965,0.32248586,0.23835927,2.0868852e-11,2.1033236e-11,4.260112e-11,5.069337e-08,5.0460642e-08,5.0000267e-08,0.0,0.0,0.0,0.0,0.0,0.0,0.0,0.0,24
600187002,600086869,0.22088572,0.028640872,0.046036724,0.97379154,-0.015072256,-0.010399526,0.0139547065,1.5710886,-1.7271315,5.0291495,-0.00018110541,2.0453414e-05,-4.758455e-05,-0.003920597,0.0039545367,-0.0012182037,0.13815497,-0.035072725,0.26797125,0.0,0.0,0.0,0.0,0.0,8.3622486e-05,6.7494484e-06,6.6932685e-06,5.86457e-06,0.028890932,0.02889065,0.017723631,0.3284345,0.32843065,0.23619181,2.0914877e-11,2.1084523e-11,4.2607928e-11,5.0701303e-08,5.0468742e-08,5.000009e-08,0.0,0.0,0.0,0.0,0.0,0.0,0.0,0.0,24
601182526,601082327,0.2199684,0.027569642,0.046351627,0.9740151,-0.067889154,0.035600543,-0.006348598,1.3668888,-1.6006129,4.9749656,-0.00018111152,2.0948359e-05,-4.767176e-05,-0.003920357,0.003954809,-0.0012002955,0.13815497,-0.035072725,0.26797125,0.0,0.0,0.0,0.0,0.0,8.341839e-05,6.807079e-06,6.7365527e-06,5.7699467e-06,0.029444141,0.02944422,0.017898927,0.33281288,0.33280942,0.23878062,2.0960114e-11,2.1134493e-11,4.254093e-11,5.070933e-08,5.0477045e-08,5.0000267e-08,0.0,0.0,0.0,0.0,0.0,0.0,0.0,0.0,24
602187870,602087737,0.21917853,0.026473917,0.04768565,0.9741591,-0.13595013,0.11313049,-0.022386845,1.0614803,-1.3311334,4.9128284,-0.00018095461,2.1539874e-05,-4.774134e-05,-0.003920135,0.0039550494,-0.0011850921,0.13815497,-0.035072725,0.26797125,0.0,0.0,0.0,0.0,0.0,8.357881e-05,7.0120227e-06,6.918478e-06,5.7039997e-06,0.031635482,0.031636856,0.018173551,0.34710154,0.34709868,0.23986691,2.1123811e-11,2.1302031e-11,4.255979e-11,5.071758e-08,5.0485543e-08,5.000009e-08,0.0,0.0,0.0,0.0,0.0,0.0,0.0,0.0,24
603193249,603093148,0.218283,0.027647987,0.04779743,0.9743221,-0.16027334,0.14193682,-0.019186653,0.8529918,-1.1254704,4.9002757,-0.00018105267,2.1518585e-05,-4.778041e-05,-0.003920163,0.0039550443,-0.0011858065,0.13815497,-0.035072725,0.26797125,0.0,0.0,0.0,0.0,0.0,8.3737454e-05,7.1483964e-06,7.0583396e-06,5.637133e-06,0.033547536,0.033549123,0.018596401,0.36361772,0.36361575,0.2457546,2.1230729e-11,2.1413376e-11,4.2577764e-11,5.0726026e-08,5.0494144e-08,5.0000445e-08,0.0,0.0,0.0,0.0,0.0,0.0,0.0,0.0,24
604188736,604088604,0.21826752,0.028296199,0.053734478,0.97399765,-0.14477482,0.12301813,-0.015998673,0.7289424,-1.0324881,4.8992176,-0.00018140202,2.1057469e-05,-4.7710815e-05,-0.0039202427,0.003954975,-0.001188497,0.13815497,-0.035072725,0.26797125,0.0,0.0,0.0,0.0,0.0,8.3775136e-05,7.07025e-06,6.935872e-06,5.6026424e-06,0.03265128,0.032652218,0.018355718,0.36612272,0.3661213,0.24280338,2.1111994e-11,2.1301828e-11,4.2582663e-11,5.0734485e-08,5.05027e-08,5.000009e-08,0.0,0.0,0.0,0.0,0.0,0.0,0.0,0.0,24
605184172,605084059,0.21749286,0.025921213,0.055478994,0.97413915,-0.07672402,0.1330261,-0.0113186315,0.76727915,-0.87503606,4.9255314,-0.0001813238,2.0360812e-05,-4.7772075e-05,-0.0039202934,0.003954829,-0.0012020228,0.13815497,-0.035072725,0.26797125,0.0,0.0,0.0,0.0,0.0,8.387352e-05,6.833188e-06,6.6706443e-06,5.5455043e-06,0.029843973,0.0298441,0.017984442,0.35503557,0.35503456,0.24159451,2.089236e-11,2.1090525e-11,4.258545e-11,5.07431e-08,5.05113e-08,5.0000356e-08,0.0,0.0,0.0,0.0,0.0,0.0,0.0,0.0,24
606189622,606089468,0.21509953,0.023522086,0.0515366,0.97494763,-0.08053683,0.16129826,-0.0020249288,0.66192794,-0.67500985,4.926426,-0.00018136732,2.0329337e-05,-4.8026945e-05,-0.0039202836,0.003954825,-0.0012045713,0.13815497,-0.035072725,0.26797125,0.0,0.0,0.0,0.0,0.0,8.379041e-05,6.6736807e-06,6.532859e-06,5.413912e-06,0.027860286,0.027860167,0.01751461,0.34273398,0.34273297,0.23617761,2.0797041e-11,2.1001123e-11,4.2526406e-11,5.0751915e-08,5.0519933e-08,5.0000175e-08,0.0,0.0,0.0,0.0,0.0,0.0,0.0,0.0,24
607185059,607084922,0.21388395,0.02431179,0.04919428,0.97531664,-0.06360846,0.16210273,0.0046943054,0.61411613,-0.55982983,4.9424763,-0.00018152074,2.0067226e-05,-4.8193775e-05,-0.003920264,0.0039547635,-0.0012117185,0.13815497,-0.035072725,0.26797125,0.0,0.0,0.0,0.0,0.0,8.392262e-05,6.5589848e-06,6.441574e-06,5.3467134e-06,0.026390875,0.02639016,0.017288605,0.33063656,0.3306359,0.23489365,2.0720241e-11,2.0930582e-11,4.253203e-11,5.0760683e-08,5.052848e-08,5.0000356e-08,0.0,0.0,0.0,0.0,0.0,0.0,0.0,0.0,24
608190764,608090330,0.21259442,0.024243936,0.048971992,0.9756114,-0.03389275,0.10287637,0.0019780996,0.58916616,-0.62129575,4.9324694,-0.00018203956,1.9572815e-05,-4.839193e-05,-0.0039202976,0.0039547933,-0.001206288,0.13815497,-0.035072725,0.26797125,0.0,0.0,0.0,0.0,0.0,8.408614e-05,6.4673823e-06,6.3551443e-06,5.2852834e-06,0.025004217,0.025003064,0.01690365,0.31742597,0.31742525,0.22953832,2.065034e-11,2.0866812e-11,4.254774e-11,5.076956e-08,5.0537142e-08,5.0000175e-08,0.0,0.0,0.0,0.0,0.0,0.0,0.0,0.0,24
609185959,609085783,0.21138008,0.022690965,0.048973523,0.9759125,-0.0016712414,0.08722587,0.0044874772,0.5931349,-0.6124058,4.9291925,-0.00018210684,1.9326217e-05,-4.8580543e-05,-0.0039202934,0.0039547924,-0.0012065392,0.13815497,-0.035072725,0.26797125,0.0,0.0,0.0,0.0,0.0,8.4208106e-05,6.3123703e-06,6.1911564e-06,5.221182e-06,0.023134593,0.02313357,0.016549157,0.30134696,0.30134654,0.22683473,2.0510298e-11,2.073315e-11,4.2553294e-11,5.0778333e-08,5.0545772e-08,5.0000356e-08,0.0,0.0,0.0,0.0,0.0,0.0,0.0,0.0,24
610191367,610091190,0.21015021,0.023140531,0.048312496,0.9762004,-0.0074306205,0.045084935,0.018170454,0.55634874,-0.7182945,4.929292,-0.00018253035,1.9234434e-05,-4.872984e-05,-0.003920303,0.0039548064,-0.0012049506,0.13815497,-0.035072725,0.26797125,0.0,0.0,0.0,0.0,0.0,8.4048814e-05,6.5405648e-06,6.4295887e-06,5.138086e-06,0.025118519,0.025117187,0.016903305,0.3025858,0.30258477,0.2269636,2.0727671e-11,2.0950698e-11,4.250149e-11,5.0787197e-08,5.05546e-08,5.0000175e-08,0.0,0.0,0.0,0.0,0.0,0.0,0.0,0.0,24
611186783,611086642,0.208612,0.022726033,0.049637746,0.9764737,0.005305584,0.007369706,0.018556178,0.54394466,-0.8338357,4.9453764,-0.00018275154,1.9118688e-05,-4.892094e-05,-0.0039202766,0.0039548115,-0.0012096573,0.13815497,-0.035072725,0.26797125,0.0,0.0,0.0,0.0,0.0,8.417145e-05,6.386861e-06,6.263014e-06,5.0628582e-06,0.02340248,0.023401653,0.016603239,0.2880578,0.28805688,0.22482972,2.0577024e-11,2.0805191e-11,4.250866e-11,5.079593e-08,5.0563365e-08,5.0000445e-08,0.0,0.0,0.0,0.0,0.0,0.0,0.0,0.0,24
612182197,612082093,0.20736577,0.021925732,0.05289567,0.9765863,0.02303904,0.0018796741,0.0136913285,0.55088234,-0.91622883,4.9539666,-0.00018269043,1.9057801e-05,-4.912252e-05,-0.0039202664,0.003954826,-0.0012112624,0.13815497,-0.035072725,0.26797125,0.0,0.0,0.0,0.0,0.0,8.426752e-05,6.286787e-06,6.1297087e-06,5.0006333e-06,0.022062669,0.022062534,0.016195225,0.2755574,0.27555674,0.2190759,2.045875e-11,2.0690739e-11,4.2517396e-11,5.0804626e-08,5.0572147e-08,5.000009e-08,0.0,0.0,0.0,0.0,0.0,0.0,0.0,0.0,24
613187693,613087500,0.20733915,0.026443154,0.054653887,0.9763832,0.061681774,-0.041343704,0.0143631445,0.6237866,-1.0866903,4.9432693,-0.00018289534,1.8707893e-05,-4.9075235e-05,-0.003920319,0.0039548255,-0.0012037674,0.13815497,-0.035072725,0.26797125,0.0,0.0,0.0,0.0,0.0,8.43714e-05,6.5012364e-06,6.357918e-06,4.9734317e-06,0.023769839,0.023770452,0.016682934,0.27624023,0.2762388,0.22331703,2.0650317e-11,2.0882107e-11,4.2540374e-11,5.0813384e-08,5.058107e-08,5.0000445e-08,0.0,0.0,0.0,0.0,0.0,0.0,0.0,0.0,24
614193052,614092903,0.20613849,0.0235892,0.0507709,0.9769201,0.047307078,-0.05452513,0.01444114,0.6150974,-1.227692,4.9239664,-0.00018298723,1.9023219e-05,-4.8969705e-05,-0.0039203945,0.0039548604,-0.0011932336,0.13815497,-0.035072725,0.26797125,0.0,0.0,0.0,0.0,0.0,8.461199e-05,6.775306e-06,6.6490306e-06,4.887672e-06,0.027025353,0.027026247,0.01735331,0.2877138,0.28771216,0.22714302,2.0916333e-11,2.1146689e-11,4.2564664e-11,5.0822177e-08,5.0589982e-08,5.0000267e-08,0.0,0.0,0.0,0.0,0.0,0.0,0.0,0.0,24
615188510,615088352,0.20473799,0.014822228,0.058200106,0.97697264,0.032515768,-0.06157233,0.0053519695,0.60363436,-1.359236,4.9359074,-0.00018300756,1.927228e-05,-4.8765716e-05,-0.003920393,0.0039548487,-0.0011937855,0.13815497,-0.035072725,0.26797125,0.0,0.0,0.0,0.0,0.0,8.440632e-05,6.6873527e-06,6.4516166e-06,4.770613e-06,0.026290918,0.026292097,0.017218098,0.2861675,0.28616655,0.22557172,2.0750348e-11,2.0983514e-11,4.2499858e-11,5.0830877e-08,5.059881e-08,5e-08,0.0,0.0,0.0,0.0,0.0,0.0,0.0,0.0,24
616183962,616083802,0.20460175,0.014649908,0.05584335,0.97714126,0.062183358,-0.05230969,0.0002807381,0.67101324,-1.4734404,4.954905,-0.00018281346,1.9202611e-05,-4.8544698e-05,-0.003920295,0.003954772,-0.001205518,0.13815497,-0.035072725,0.26797125,0.0,0.0,0.0,0.0,0.0,8.453529e-05,6.498085e-06,6.285484e-06,4.72003e-06,0.024721164,0.024723778,0.017000165,0.2782655,0.2782649,0.22591998,2.0599765e-11,2.083662e-11,4.250871e-11,5.083948e-08,5.0607603e-08,5.0000178e-08,0.0,0.0,0.0,0.0,0.0,0.0,0.0,0.0,24
617189788,617089204,0.20368513,0.010856475,0.05509795,0.9774246,0.06364664,-0.04648735,0.033664964,0.6963843,-1.5796465,4.9615226,-0.00018273584,1.9316363e-05,-4.85169e-05,-0.0039202375,0.00395475,-0.0012094082,0.13815497,-0.035072725,0.26797125,0.0,0.0,0.0,0.0,0.0,8.471828e-05,6.6646558e-06,6.4469905e-06,4.6585915e-06,0.02621204,0.026216399,0.017240979,0.28359002,0.2835901,0.2270167,2.076262e-11,2.0999615e-11,4.253151e-11,5.0848026e-08,5.061645e-08,5e-08,0.0,0.0,0.0,0.0,0.0,0.0,0.0,0.0,24
618184830,618084652,0.2028541,0.013132053,0.053212993,0.9776738,0.027265081,-0.046543047,0.033063732,0.62300354,-1.6833227,4.9755907,-0.00018288662,1.9626945e-05,-4.8667167e-05,-0.0039202664,0.0039547947,-0.0012059391,0.13815497,-0.035072725,0.26797125,0.0,0.0,0.0,0.0,0.0,8.483187e-05,6.5816084e-06,6.3888333e-06,4.612506e-06,0.025790822,0.025795417,0.017265579,0.28250387,0.28250438,0.22933812,2.0696434e-11,2.0936896e-11,4.2541217e-11,5.0856087e-08,5.062521e-08,5.0000178e-08,0.0,0.0,0.0,0.0,0.0,0.0,0.0,0.0,24
619190292,619090054,0.20276712,0.021451436,0.05558541,0.97741276,0.01793438,-0.025022823,0.0072409343,0.5948636,-1.7181894,4.940409,-0.00018279116,1.972538e-05,-4.8679423e-05,-0.003920537,0.0039548613,-0.0011885478,0.13815497,-0.035072725,0.26797125,0.0,0.0,0.0,0.0,0.0,8.457117e-05,6.3163507e-06,6.133068e-06,4.573439e-06,0.022761898,0.022765452,0.016504265,0.26700303,0.2670032,0.22267328,2.0444601e-11,2.0690769e-11,4.2484235e-11,5.0863715e-08,5.0634092e-08,5e-08,0.0,0.0,0.0,0.0,0.0,0.0,0.0,0.0,24
620185600,620085500,0.2016246,0.019512454,0.05248614,0.9778609,0.013241962,-0.0022989633,0.022766586,0.60955036,-1.728707,4.9440775,-0.00018270512,1.9718966e-05,-4.86421e-05,-0.0039205523,0.0039548576,-0.0011881426,0.13815497,-0.035072725,0.26797125,0.0,0.0,0.0,0.0,0.0,8.4734194e-05,6.4368446e-06,6.272033e-06,4.5048346e-06,0.023664325,0.02366846,0.01674204,0.26548603,0.26548696,0.22517553,2.0589985e-11,2.0837288e-11,4.24967e-11,5.087162e-08,5.064289e-08,5.0000267e-08,0.0,0.0,0.0,0.0,0.0,0.0,0.0,0.0,24
621191054,621090901,0.20146376,0.019470777,0.05116881,0.97796476,-0.04740326,0.046273887,0.019647341,0.46696958,-1.6334099,4.9501653,-0.00018264346,2.0381169e-05,-4.8304766e-05,-0.003920689,0.003954828,-0.0011785363,0.13815497,-0.035072725,0.26797125,0.0,0.0,0.0,0.0,0.0,8.490549e-05,6.5256286e-06,6.364191e-06,4.449037e-06,0.024450863,0.024454882,0.016835023,0.26575938,0.26576072,0.22436583,2.067603e-11,2.0925678e-11,4.251774e-11,5.087968e-08,5.0651735e-08,5e-08,0.0,0.0,0.0,0.0,0.0,0.0,0.0,0.0,24
622186577,622086346,0.20091647,0.0147886155,0.052492965,0.9780892,-0.054529436,0.076733425,-0.0011919999,0.40260696,-1.543839,4.924686,-0.00018260075,2.033942e-05,-4.8017282e-05,-0.003920832,0.0039548376,-0.0011674498,0.13815497,-0.035072725,0.26797125,0.0,0.0,0.0,0.0,0.0,8.502805e-05,6.660688e-06,6.4667547e-06,4.387392e-06,0.025782103,0.02578708,0.017213432,0.2699132,0.26991534,0.22846551,2.0776214e-11,2.1028054e-11,4.2529e-11,5.08878e-08,5.0660475e-08,5.0000267e-08,0.0,0.0,0.0,0.0,0.0,0.0,0.0,0.0,24
623191892,623091745,0.20092426,0.007350878,0.050378516,0.9782829,-0.036942303,0.07197576,-0.013685337,0.3955973,-1.5219743,4.883025,-0.0001827582,1.99994e-05,-4.7608675e-05,-0.0039209677,0.0039548445,-0.0011564193,0.13815497,-0.035072725,0.26797125,0.0,0.0,0.0,0.0,0.0,8.487356e-05,6.6795155e-06,6.4851733e-06,4.3252485e-06,0.026445495,0.026451033,0.017312584,0.27409706,0.27409992,0.2284386,2.0796975e-11,2.1051492e-11,4.2475096e-11,5.0895878e-08,5.0669332e-08,5.000009e-08,0.0,0.0,0.0,0.0,0.0,0.0,0.0,0.0,24
624187365,624087190,0.20114759,0.007662734,0.054010283,0.9780409,-0.039071787,0.049498864,-0.010538921,0.35443726,-1.5760703,4.845385,-0.00018306107,1.9808838e-05,-4.721558e-05,-0.003921145,0.003954807,-0.0011431135,0.13815497,-0.035072725,0.26797125,0.0,0.0,0.0,0.0,0.0,8.493253e-05,6.48145e-06,6.2538775e-06,4.289452e-06,0.024458252,0.024462927,0.017014723,0.26714313,0.2671452,0.22795123,2.0579507e-11,2.084056e-11,4.248197e-11,5.090348e-08,5.0678118e-08,5.0000263e-08,0.0,0.0,0.0,0.0,0.0,0.0,0.0,0.0,24
625182848,625082634,0.20117873,0.010462575,0.05265613,0.97808236,-0.044177704,0.06511076,-0.019280735,0.30810156,-1.5517969,4.8262277,-0.00018301714,1.9811012e-05,-4.6868492e-05,-0.0039212243,0.0039547347,-0.001139351,0.13815497,-0.035072725,0.26797125,0.0,0.0,0.0,0.0,0.0,8.503332e-05,6.475272e-06,6.2643303e-06,4.249022e-06,0.024371445,0.024376372,0.016889634,0.2663758,0.2663777,0.2253981,2.0587308e-11,2.0850906e-11,4.249269e-11,5.0910902e-08,5.0686904e-08,5e-08,0.0,0.0,0.0,0.0,0.0,0.0,0.0,0.0,24
626188161,626088031,0.20125234,0.012043757,0.051976085,0.9780854,-0.040034924,0.074669704,-0.018574819,0.2719931,-1.5188396,4.816578,-0.00018302863,1.9757137e-05,-4.6514317e-05,-0.0039211153,0.0039547035,-0.0011447935,0.13815497,-0.035072725,0.26797125,0.0,0.0,0.0,0.0,0.0,8.51747e-05,6.686826e-06,6.4844335e-06,4.214248e-06,0.026376909,0.02638256,0.017408974,0.2754797,0.27548254,0.23115392,2.0786385e-11,2.1049405e-11,4.2516178e-11,5.0918498e-08,5.0695803e-08,5.0000267e-08,0.0,0.0,0.0,0.0,0.0,0.0,0.0,0.0,24
627183720,627083474,0.20129012,0.011004739,0.051808037,0.9780988,-0.019077037,0.053260744,-0.01020369,0.28858912,-1.5585107,4.8287425,-0.00018324316,1.941221e-05,-4.6148052e-05,-0.0039209607,0.003954738,-0.0011512039,0.13815497,-0.035072725,0.26797125,0.0,0.0,0.0,0.0,0.0,8.527366e-05,6.8638196e-06,6.661359e-06,4.178574e-06,0.028399521,0.028405922,0.017716829,0.28688684,0.286891,0.23236114,2.0940048e-11,2.1202637e-11,4.2529563e-11,5.0925966e-08,5.0704614e-08,5e-08,0.0,0.0,0.0,0.0,0.0,0.0,0.0,0.0,24
628189018,628088870,0.20127437,0.011225268,0.0506638,0.9781594,0.0024812466,0.054786645,0.00062013965,0.32412896,-1.5482287,4.833128,-0.00018324063,1.9272942e-05,-4.5813787e-05,-0.003920898,0.003954737,-0.0011548556,0.13815497,-0.035072725,0.26797125,0.0,0.0,0.0,0.0,0.0,8.508244e-05,7.0171104e-06,6.8246154e-06,4.1301273e-06,0.0305469,0.030553753,0.018246396,0.30282804,0.3028339,0.23939016,2.1071853e-11,2.1333066e-11,4.2479038e-11,5.0933608e-08,5.0713496e-08,5.0000356e-08,0.0,0.0,0.0,0.0,0.0,0.0,0.0,0.0,24
629184545,629084311,0.20113827,0.01036501,0.05182405,0.9781361,0.024800144,0.00922174,0.007793422,0.38276625,-1.665376,4.851446,-0.00018360993,1.8983445e-05,-4.5491488e-05,-0.0039206874,0.0039548124,-0.0011621815,0.13815497,-0.035072725,0.26797125,0.0,0.0,0.0,0.0,0.0,8.517019e-05,6.832687e-06,6.628929e-06,4.0937107e-06,0.029070722,0.029076425,0.017921267,0.30177593,0.3017808,0.23642029,2.0887299e-11,2.115147e-11,4.2488898e-11,5.094101e-08,5.072223e-08,5e-08,0.0,0.0,0.0,0.0,0.0,0.0,0.0,0.0,24
630189807,630089706,0.20122373,0.009688457,0.051883627,0.97812235,0.0070588435,0.014414881,0.0054271594,0.3357424,-1.6830351,4.854107,-0.00018365876,1.922134e-05,-4.5170764e-05,-0.0039206445,0.0039547277,-0.0011644454,0.13815497,-0.035072725,0.26797125,0.0,0.0,0.0,0.0,0.0,8.53041e-05,6.78361e-06,6.57511e-06,4.064819e-06,0.028545799,0.028551212,0.017932935,0.30301723,0.3030213,0.23918931,2.0844784e-11,2.110963e-11,4.2510617e-11,5.0948742e-08,5.0731046e-08,5.0000356e-08,0.0,0.0,0.0,0.0,0.0,0.0,0.0,0.0,24
631185292,631085146,0.2011932,0.010118722,0.050298817,0.97820705,-0.032478068,0.03886085,0.0041092113,0.19515325,-1.6495223,4.833336,-0.00018361975,1.9609955e-05,-4.4922635e-05,-0.0039207847,0.0039545465,-0.0011543669,0.13815497,-0.035072725,0.26797125,0.0,0.0,0.0,0.0,0.0,8.540443e-05,6.9503158e-06,6.7536293e-06,4.0356917e-06,0.030244628,0.030250918,0.018086823,0.31395936,0.31396392,0.23909053,2.1008915e-11,2.1271537e-11,4.2525462e-11,5.0956583e-08,5.0739786e-08,5.000009e-08,0.0,0.0,0.0,0.0,0.0,0.0,0.0,0.0,24
632190735,632090540,0.20098886,0.009867508,0.050874226,0.97822183,-0.07414111,0.045912113,-0.0027879677,0.0007189133,-1.6252993,4.821901,-0.00018372557,1.9853556e-05,-4.4617896e-05,-0.0039208704,0.0039543854,-0.0011433739,0.13815497,-0.035072725,0.26797125,0.0,0.0,0.0,0.0,0.0,8.520334e-05,7.067767e-06,6.864278e-06,3.986588e-06,0.031682786,0.031690132,0.01843127,0.32705858,0.32706398,0.24446289,2.1102115e-11,2.1362231e-11,4.247569e-11,5.0964662e-08,5.0748554e-08,5.0000352e-08,0.0,0.0,0.0,0.0,0.0,0.0,0.0,0.0,24
633186108,633085978,0.20110242,0.010313889,0.052012175,0.97813404,-0.07375381,0.04824423,-0.025727224,-0.09692521,-1.6397474,4.775733,-0.00018367657,1.9682686e-05,-4.4294855e-05,-0.003921015,0.003954328,-0.0011302232,0.13815497,-0.035072725,0.26797125,0.0,0.0,0.0,0.0,0.0,8.52735e-05,6.8704703e-06,6.656182e-06,3.96357e-06,0.029803405,0.029810267,0.018007798,0.32296178,0.32296613,0.2400279,2.0910678e-11,2.1171847e-11,4.2486906e-11,5.0972673e-08,5.0757162e-08,5.0000178e-08,0.0,0.0,0.0,0.0,0.0,0.0,0.0,0.0,24
634191465,634091371,0.20122992,0.0093924375,0.050663814,0.9781879,-0.07904232,0.02224124,-0.014847908,-0.20959279,-1.7329036,4.7667465,-0.00018392317,1.953518e-05,-4.3962056e-05,-0.003920934,0.0039543402,-0.0011297263,0.13815497,-0.035072725,0.26797125,0.0,0.0,0.0,0.0,0.0,8.541591e-05,7.002529e-06,6.800488e-06,3.9422266e-06,0.03118418,0.031191882,0.018324928,0.33383632,0.33384174,0.24465623,2.1045258e-11,2.1303919e-11,4.251156e-11,5.0981004e-08,5.0765905e-08,5.0000356e-08,0.0,0.0,0.0,0.0,0.0,0.0,0.0,0.0,24
635186968,635086809,0.20131178,0.009083984,0.05154903,0.97812766,-0.067300186,0.01961788,-0.0074850842,-0.2887277,-1.7783595,4.7585287,-0.00018383033,1.9342851e-05,-4.3578537e-05,-0.003920958,0.0039543463,-0.001127793,0.13815497,-0.035072725,0.26797125,0.0,0.0,0.0,0.0,0.0,8.5493244e-05,6.933429e-06,6.721326e-06,3.915966e-06,0.030419016,0.030426355,0.018075686,0.3333522,0.3333571,0.24109982,2.0974398e-11,2.1232419e-11,4.252442e-11,5.0989293e-08,5.077455e-08,5.000009e-08,0.0,0.0,0.0,0.0,0.0,0.0,0.0,0.0,24
636182433,636082245,0.20101899,0.008808701,0.050775107,0.97823095,-0.085407354,0.032732405,-0.030674633,-0.46472636,-1.7880704,4.7367964,-0.00018376662,1.9452118e-05,-4.3316675e-05,-0.003920999,0.0039542587,-0.0011228053,0.13815497,-0.035072725,0.26797125,0.0,0.0,0.0,0.0,0.0,8.5591266e-05,7.0780607e-06,6.870992e-06,3.8844796e-06,0.031941596,0.0319498,0.018380396,0.34339255,0.34339875,0.24487896,2.1110213e-11,2.1365338e-11,4.2539527e-11,5.099773e-08,5.078323e-08,5.0000356e-08,0.0,0.0,0.0,0.0,0.0,0.0,0.0,0.0,24
637187731,637087636,0.20141725,0.009013307,0.050022904,0.9781859,-0.07095166,0.017381188,-0.02648272,-0.574003,-1.8464023,4.6955724,-0.00018388052,1.91771e-05,-4.2921933e-05,-0.003921007,0.003954263,-0.0011161966,0.13815497,-0.035072725,0.26797125,0.0,0.0,0.0,0.0,0.0,8.537782e-05,7.3542496e-06,7.156101e-06,3.859167e-06,0.035241615,0.03525115,0.01876173,0.3663011,0.36631072,0.24698134,2.1353804e-11,2.1604264e-11,4.249176e-11,5.1006303e-08,5.0792003e-08,5.000009e-08,0.0,0.0,0.0,0.0,0.0,0.0,0.0,0.0,24
638193183,638093026,0.20172402,0.0072594956,0.05081308,0.9780965,-0.049484648,0.015866445,-0.015185928,-0.62104917,-1.8754644,4.704139,-0.00018382396,1.8926019e-05,-4.2559266e-05,-0.0039209668,0.0039543244,-0.0011215959,0.13815497,-0.035072725,0.26797125,0.0,0.0,0.0,0.0,0.0,8.548988e-05,7.2845464e-06,7.0751416e-06,3.8474e-06,0.034844607,0.034853335,0.018636996,0.3712419,0.37125123,0.24535064,2.127469e-11,2.152465e-11,4.251417e-11,5.101491e-08,5.0800754e-08,5e-08,0.0,0.0,0.0,0.0,0.0,0.0,0.0,0.0,24
639188568,639088462,0.20167045,0.00676462,0.050378136,0.9781337,-0.0442648,0.030256584,-0.022762053,-0.7182468,-1.8629175,4.737061,-0.00018376119,1.8917886e-05,-4.2242515e-05,-0.003920898,0.0039543556,-0.0011337096,0.13815497,-0.035072725,0.26797125,0.0,0.0,0.0,0.0,0.0,8.5576125e-05,7.2859802e-06,7.0784463e-06,3.8239345e-06,0.035183307,0.03519193,0.018781334,0.3781687,0.37817806,0.24849401,2.127311e-11,2.1521654e-11,4.2527707e-11,5.102348e-08,5.0809433e-08,5.0000178e-08,0.0,0.0,0.0,0.0,0.0,0.0,0.0,0.0,24
640184066,640083900,0.20182258,0.0056881486,0.045927376,0.97832817,-0.01689997,0.004346141,-0.0051335585,-0.7393104,-1.9282416,4.7622766,-0.00018398013,1.860793e-05,-4.182745e-05,-0.0039207772,0.003954459,-0.0011458814,0.13815497,-0.035072725,0.26797125,0.0,0.0,0.0,0.0,0.0,8.569244e-05,6.5462928e-06,6.3768093e-06,3.7996365e-06,0.02765457,0.027659547,0.017705772,0.34036288,0.34036672,0.24172297,2.0655415e-11,2.0908879e-11,4.2534715e-11,5.1032025e-08,5.0818027e-08,5.0000356e-08,0.0,0.0,0.0,0.0,0.0,0.0,0.0,0.0,24
641189605,641089284,0.20238927,0.006454122,0.0452002,0.9782402,-0.042660914,0.029491303,0.010142484,-0.88072354,-1.8773674,4.763141,-0.00018390945,1.8939976e-05,-4.1404193e-05,-0.0039207875,0.0039543565,-0.0011467836,0.13815497,-0.035072725,0.26797125,0.0,0.0,0.0,0.0,0.0,8.546874e-05,6.6115463e-06,6.445238e-06,3.7784264e-06,0.027451094,0.02745587,0.017525578,0.33450776,0.3345108,0.23798297,2.074037e-11,2.0990785e-11,4.248519e-11,5.1040722e-08,5.082672e-08,5.0000267e-08,0.0,0.0,0.0,0.0,0.0,0.0,0.0,0.0,24
642184853,642084718,0.20250897,0.007162474,0.046844512,0.9781332,-0.029572407,0.038358055,0.005055152,-0.92687845,-1.8557059,4.7612076,-0.00018392768,1.8839906e-05,-4.1079882e-05,-0.003920772,0.003954376,-0.0011485304,0.13815497,-0.035072725,0.26797125,0.0,0.0,0.0,0.0,0.0,8.552676e-05,6.460813e-06,6.279718e-06,3.7649088e-06,0.024914522,0.024918806,0.017040651,0.3130274,0.3130292,0.23388526,2.061214e-11,2.0862083e-11,4.2497787e-11,5.1049366e-08,5.0835183e-08,5.0000352e-08,0.0,0.0,0.0,0.0,0.0,0.0,0.0,0.0,24
643190226,643090105,0.20261236,0.008165516,0.04427414,0.9782236,-0.041947283,0.037517183,0.009221736,-1.0167075,-1.8304511,4.734843,-0.00018411533,1.8957411e-05,-4.082198e-05,-0.003920755,0.003954293,-0.0011432889,0.13815497,-0.035072725,0.26797125,0.0,0.0,0.0,0.0,0.0,8.56598e-05,6.4856463e-06,6.3257116e-06,3.7556313e-06,0.024867365,0.024871899,0.016930647,0.30432257,0.30432403,0.23010796,2.0658284e-11,2.0906034e-11,4.2521972e-11,5.1058144e-08,5.084371e-08,5.0000267e-08,0.0,0.0,0.0,0.0,0.0,0.0,0.0,0.0,24
644185705,644085537,0.20261091,0.00699377,0.0463336,0.9781376,-0.03140274,0.01885857,0.003416041,-1.0328462,-1.8511966,4.7144566,-0.00018432265,1.8785267e-05,-4.059489e-05,-0.003920735,0.0039542364,-0.0011352344,0.13815497,-0.035072725,0.26797125,0.0,0.0,0.0,0.0,0.0,8.571427e-05,6.62474e-06,6.4459473e-06,3.7473312e-06,0.025870318,0.025875313,0.017035428,0.3010668,0.30106834,0.22773018,2.0768583e-11,2.1012993e-11,4.2537328e-11,5.1066852e-08,5.0852126e-08,5e-08,0.0,0.0,0.0,0.0,0.0,0.0,0.0,0.0,24
645191188,645090923,0.20264189,0.00716528,0.04812896,0.97804326,-0.0023280985,0.011068591,-0.011368128,-0.9877553,-1.877334,4.7039766,-0.00018440642,1.8619749e-05,-4.034668e-05,-0.0039207186,0.003954219,-0.0011321012,0.13815497,-0.035072725,0.26797125,0.0,0.0,0.0,0.0,0.0,8.5474574e-05,6.7236783e-06,6.5304353e-06,3.7280686e-06,0.026936542,0.026941858,0.017384382,0.30152988,0.30153182,0.23141319,2.083505e-11,2.107535e-11,4.248871e-11,5.1075663e-08,5.0860592e-08,5.0000267e-08,0.0,0.0,0.0,0.0,0.0,0.0,0.0,0.0,24
646186538,646086354,0.20287849,0.00755116,0.045675073,0.978109,0.0070187803,0.017300077,-0.0011743415,-0.9061414,-1.8593637,4.704903,-0.0001844219,1.869734e-05,-4.006089e-05,-0.0039207074,0.0039542024,-0.0011335649,0.13815497,-0.035072725,0.26797125,0.0,0.0,0.0,0.0,0.0,8.5558146e-05,6.642101e-06,6.4690066e-06,3.7216307e-06,0.026532099,0.026537089,0.017260531,0.29605028,0.29605234,0.22845283,2.0770264e-11,2.100801e-11,4.250307e-11,5.108438e-08,5.0868977e-08,5e-08,0.0,0.0,0.0,0.0,0.0,0.0,0.0,0.0,24
647191843,647091738,0.20307483,0.0071229734,0.04685138,0.9780158,0.03797562,0.014876395,0.012539897,-0.7538797,-1.8527323,4.7408447,-0.00018446505,1.85995e-05,-3.974255e-05,-0.0039206753,0.0039542723,-0.0011407447,0.13815497,-0.035072725,0.26797125,0.0,0.0,0.0,0.0,0.0,8.566033e-05,6.291403e-06,6.1076676e-06,3.7159027e-06,0.023083521,0.023087088,0.016665451,0.277254,0.27725494,0.22557642,2.044161e-11,2.0678488e-11,4.2525306e-11,5.1093252e-08,5.0877397e-08,5.0000267e-08,0.0,0.0,0.0,0.0,0.0,0.0,0.0,0.0,24
648187382,648087168,0.20337492,0.0073355995,0.04679042,0.97795475,0.04414747,0.044036947,-0.0016248493,-0.6496415,-1.7698582,4.7390776,-0.00018440853,1.885212e-05,-3.9431852e-05,-0.0039206846,0.003954198,-0.0011397317,0.13815497,-0.035072725,0.26797125,0.0,0.0,0.0,0.0,0.0,8.572442e-05,6.311087e-06,6.126245e-06,3.711726e-06,0.022814784,0.022818476,0.016473286,0.26911426,0.26911557,0.22154954,2.0472386e-11,2.0705913e-11,4.2540593e-11,5.1102063e-08,5.0885827e-08,5e-08,0.0,0.0,0.0,0.0,0.0,0.0,0.0,0.0,24
649192686,649092551,0.2036099,0.007092248,0.046392106,0.9779266,0.037634544,0.043099526,0.0063762926,-0.55587083,-1.7248744,4.7353015,-0.00018461255,1.8961186e-05,-3.915103e-05,-0.003920649,0.0039541507,-0.001137829,0.13815497,-0.035072725,0.26797125,0.0,0.0,0.0,0.0,0.0,8.583669e-05,6.2203976e-06,6.0392467e-06,3.7102593e-06,0.02168961,0.021693233,0.01627459,0.25809556,0.25809664,0.22086012,2.0399725e-11,2.063082e-11,4.256465e-11,5.1110955e-08,5.0894442e-08,5.0000352e-08,0.0,0.0,0.0,0.0,0.0,0.0,0.0,0.0,24
650188254,650087979,0.20381176,0.0061702733,0.046894897,0.9778668,0.058557402,0.049174026,-0.00012791202,-0.40471938,-1.6518627,4.737143,-0.00018468218,1.8903444e-05,-3.8869955e-05,-0.003920635,0.0039541502,-0.0011379825,0.13815497,-0.035072725,0.26797125,0.0,0.0,0.0,0.0,0.0,8.555696e-05,6.333244e-06,6.14768e-06,3.6951956e-06,0.022392437,0.022396468,0.016336547,0.25324824,0.25324953,0.21856162,2.0506992e-11,2.073359e-11,4.250634e-11,5.111977e-08,5.0903026e-08,5e-08,0.0,0.0,0.0,0.0,0.0,0.0,0.0,0.0,24
651183522,651083407,0.20407104,0.0059770304,0.046695147,0.97782356,0.074713886,0.033410616,0.015799481,-0.22467676,-1.6262187,4.7462463,-0.00018494514,1.8790295e-05,-3.859592e-05,-0.003920583,0.0039541824,-0.0011452023,0.13815497,-0.035072725,0.26797125,0.0,0.0,0.0,0.0,0.0,8.56195e-05,6.330981e-06,6.1490528e-06,3.695902e-06,0.022344537,0.022348722,0.016414663,0.2469503,0.24695167,0.21959831,2.050595e-11,2.0729769e-11,4.2521053e-11,5.1128588e-08,5.0911634e-08,5.0000267e-08,0.0,0.0,0.0,0.0,0.0,0.0,0.0,0.0,24
652188893,652088788,0.20420228,0.007738085,0.046943277,0.9777719,0.063086,0.02041427,0.0053264387,-0.10128345,-1.5969254,4.726212,-0.00018523779,1.8940638e-05,-3.834013e-05,-0.003920549,0.003954099,-0.0011370238,0.13815497,-0.035072725,0.26797125,0.0,0.0,0.0,0.0,0.0,8.57237e-05,6.081637e-06,5.901212e-06,3.694716e-06,0.020268178,0.020271419,0.015858484,0.2349113,0.23491223,0.21427391,2.0266329e-11,2.0489157e-11,4.2543497e-11,5.113747e-08,5.0920388e-08,5.000009e-08,0.0,0.0,0.0,0.0,0.0,0.0,0.0,0.0,24
653184390,653084214,0.20445015,0.007469885,0.046678748,0.97773486,0.02833148,0.043231376,0.0075963326,-0.056548342,-1.4901782,4.713473,-0.00018528251,1.936888e-05,-3.814746e-05,-0.0039205425,0.0039539994,-0.001134498,0.13815497,-0.035072725,0.26797125,0.0,0.0,0.0,0.0,0.0,8.57806e-05,6.133243e-06,5.953694e-06,3.6995943e-06,0.02030671,0.020310078,0.015892148,0.22777799,0.22777887,0.21455492,2.0328024e-11,2.0547682e-11,4.2558432e-11,5.1146287e-08,5.09291e-08,5.0000267e-08,0.0,0.0,0.0,0.0,0.0,0.0,0.0,0.0,24
654189833,654089594,0.20452987,0.008487732,0.04702034,0.97769356,0.035788774,0.045677364,0.011898339,0.058998708,-1.4122673,4.7173595,-0.00018533132,1.9259878e-05,-3.7901587e-05,-0.003920532,0.0039540054,-0.0011348964,0.13815497,-0.035072725,0.26797125,0.0,0.0,0.0,0.0,0.0,8.554349e-05,6.237243e-06,6.057152e-06,3.6876281e-06,0.021106778,0.02111058,0.016052788,0.22552893,0.22553015,0.21391094,2.0423926e-11,2.0639603e-11,4.2509565e-11,5.1155194e-08,5.0937906e-08,5.000009e-08,0.0,0.0,0.0,0.0,0.0,0.0,0.0,0.0,24
655185167,655085019,0.20457774,0.007754859,0.04683358,0.97769856,0.0014230469,0.05451977,-0.0077753775,0.057141867,-1.3159343,4.6651025,-0.00018545946,1.9485655e-05,-3.775738e-05,-0.003920528,0.0039539137,-0.0011176612,0.13815497,-0.035072725,0.26797125,0.0,0.0,0.0,0.0,0.0,8.560312e-05,6.5063136e-06,6.3272173e-06,3.6915685e-06,0.02374533,0.023750246,0.016820673,0.23264073,0.23264307,0.22059393,2.0667626e-11,2.0879111e-11,4.252564e-11,5.116401e-08,5.0946646e-08,5.0000263e-08,0.0,0.0,0.0,0.0,0.0,0.0,0.0,0.0,24
