timestamp,timestamp_sample,states[0],states[1],states[2],states[3],states[4],states[5],states[6],states[7],states[8],states[9],states[10],states[11],states[12],states[13],states[14],states[15],states[16],states[17],states[18],states[19],states[20],states[21],states[22],states[23],covariances[0],covariances[1],covariances[2],covariances[3],covariances[4],covariances[5],covariances[6],covariances[7],covariances[8],covariances[9],covariances[10],covariances[11],covariances[12],covariances[13],covariances[14],covariances[15],covariances[16],covariances[17],covariances[18],covariances[19],covariances[20],covariances[21],covariances[22],covariances[23],n_states
540188514,540088094,0.28872615,0.021323545,0.01991261,0.9569672,0.038673602,0.010453922,0.01629442,3.5184205,-3.0054047,5.3952913,3.2294232e-05,-6.732659e-05,1.0304623e-05,-0.003476804,0.0035201875,-0.0010037222,0.14261271,-0.03620441,0.26547378,0.0,0.0,0.0,0.0,0.0,9.3239345e-05,5.8197434e-06,5.8060505e-06,8.258645e-06,0.019272104,0.019270563,0.015763164,0.18837973,0.18837833,0.2076734,2.0438403e-11,2.0493465e-11,4.7807893e-11,5.0152167e-08,5.0082487e-08,5e-08,0.0,0.0,0.0,0.0,0.0,0.0,0.0,0.0,24
541188386,541087979,0.28912744,0.02019927,0.019800536,0.95687264,0.024909835,-0.031921368,0.013721331,3.5629792,-3.1175501,5.367791,3.1969867e-05,-6.723146e-05,1.0347623e-05,-0.0034767664,0.0035203418,-0.0009973153,0.14261271,-0.03620441,0.26547378,0.0,0.0,0.0,0.0,0.0,9.2720424e-05,5.4661923e-06,5.451804e-06,8.267748e-06,0.015694406,0.015693221,0.014509856,0.17153989,0.17153953,0.19981492,2.0129093e-11,2.0182097e-11,4.7464966e-11,5.0160935e-08,5.0089668e-08,5.000027e-08,0.0,0.0,0.0,0.0,0.0,0.0,0.0,0.0,24
542188244,542087864,0.28942943,0.021808477,0.01975021,0.9567471,0.019091915,-0.04550326,0.012323448,3.600931,-3.2165222,5.330421,3.1847998e-05,-6.7128385e-05,1.0281634e-05,-0.0034767038,0.003520314,-0.0009864814,0.14261271,-0.03620441,0.26547378,0.0,0.0,0.0,0.0,0.0,9.2208815e-05,5.6862987e-06,5.679089e-06,8.284906e-06,0.016933644,0.01693226,0.014792914,0.17070726,0.17070684,0.1992953,2.0359499e-11,2.0410087e-11,4.714903e-11,5.0169753e-08,5.0097057e-08,5e-08,0.0,0.0,0.0,0.0,0.0,0.0,0.0,0.0,24
543188074,543087749,0.28989613,0.021904446,0.019599807,0.95660675,0.0060072374,-0.07042519,-0.01362679,3.6250408,-3.3344522,5.280268,3.17189e-05,-6.702198e-05,1.0284069e-05,-0.0034766595,0.0035203663,-0.0009758495,0.14261271,-0.03620441,0.26547378,0.0,0.0,0.0,0.0,0.0,9.172312e-05,5.720569e-06,5.7159414e-06,8.30343e-06,0.017304381,0.017302724,0.014977395,0.16916287,0.16916233,0.201341,2.0388566e-11,2.0437051e-11,4.6855863e-11,5.0178606e-08,5.010453e-08,5.000027e-08,0.0,0.0,0.0,0.0,0.0,0.0,0.0,0.0,24
544188053,544087634,0.2904169,0.020420125,0.019154498,0.9564906,0.0097785555,-0.044172734,-0.0127715,3.677231,-3.3505805,5.2414684,3.2189924e-05,-6.69207e-05,1.0318066e-05,-0.0034766847,0.003520316,-0.0009777001,0.14261271,-0.03620441,0.26547378,0.0,0.0,0.0,0.0,0.0,9.086473e-05,5.7120697e-06,5.704194e-06,8.284984e-06,0.017307844,0.017306305,0.014938746,0.16714494,0.1671443,0.19955103,2.0376456e-11,2.0422627e-11,4.6488178e-11,5.018745e-08,5.0112032e-08,5.000009e-08,0.0,0.0,0.0,0.0,0.0,0.0,0.0,0.0,24
545187883,545087519,0.2906073,0.02127676,0.018636009,0.95642436,0.027392533,-0.033996332,0.00023110924,3.7285206,-3.3661203,5.223447,3.254569e-05,-6.702997e-05,1.0232752e-05,-0.0034766945,0.0035201835,-0.000983452,0.14261271,-0.03620441,0.26547378,0.0,0.0,0.0,0.0,0.0,9.042871e-05,5.859561e-06,5.8573937e-06,8.299193e-06,0.018614674,0.018613042,0.015457634,0.17036289,0.1703619,0.20428851,2.0516353e-11,2.0560621e-11,4.624041e-11,5.019633e-08,5.0119777e-08,5.000027e-08,0.0,0.0,0.0,0.0,0.0,0.0,0.0,0.0,24
546187799,546087405,0.29122648,0.020898059,0.018427882,0.9562483,0.009402277,-0.0314388,-0.011337696,3.7201169,-3.4016588,5.200852,3.259744e-05,-6.693517e-05,1.0286402e-05,-0.0034767021,0.003520239,-0.0009860371,0.14261271,-0.03620441,0.26547378,0.0,0.0,0.0,0.0,0.0,9.0009555e-05,5.9024355e-06,5.900276e-06,8.321675e-06,0.019343115,0.019341616,0.01569141,0.17432505,0.17432392,0.20538309,2.054762e-11,2.059033e-11,4.6011465e-11,5.0205212e-08,5.01276e-08,5.000009e-08,0.0,0.0,0.0,0.0,0.0,0.0,0.0,0.0,24
547187606,547087291,0.29159766,0.022060568,0.017303932,0.9561301,0.022377545,0.014360002,-0.003018854,3.7749834,-3.3487914,5.2051554,3.3053584e-05,-6.687744e-05,1.0250425e-05,-0.0034767173,0.003520152,-0.0009971161,0.14261271,-0.03620441,0.26547378,0.0,0.0,0.0,0.0,0.0,8.960993e-05,5.995627e-06,6.000902e-06,8.340369e-06,0.02048037,0.020478942,0.016186815,0.1813977,0.18139641,0.21138293,2.0630771e-11,2.067218e-11,4.5800207e-11,5.0214098e-08,5.0135505e-08,5.000036e-08,0.0,0.0,0.0,0.0,0.0,0.0,0.0,0.0,24
548187572,548087177,0.2916499,0.022185594,0.017575545,0.95610636,0.03056046,0.026023626,0.010379567,3.8306055,-3.3195934,5.216941,3.3148517e-05,-6.69149e-05,1.0093521e-05,-0.0034767145,0.003520019,-0.0010092608,0.14261271,-0.03620441,0.26547378,0.0,0.0,0.0,0.0,0.0,8.884734e-05,5.9222743e-06,5.9271756e-06,8.322406e-06,0.020115709,0.020114394,0.016072806,0.18351638,0.18351528,0.2107642,2.0555398e-11,2.0595909e-11,4.5514377e-11,5.022297e-08,5.0143395e-08,5.000009e-08,0.0,0.0,0.0,0.0,0.0,0.0,0.0,0.0,24
549187444,549087063,0.29182613,0.022241544,0.017484015,0.95605296,0.039383087,0.05322704,0.022383375,3.9016633,-3.25649,5.2451844,3.3267497e-05,-6.687061e-05,1.0016507e-05,-0.0034767285,0.0035199746,-0.0010259004,0.14261271,-0.03620441,0.26547378,0.0,0.0,0.0,0.0,0.0,8.849484e-05,6.0311563e-06,6.0361663e-06,8.336406e-06,0.021141408,0.021139944,0.016460303,0.1910759,0.19107476,0.2161848,2.0659047e-11,2.0698887e-11,4.5336283e-11,5.023184e-08,5.0151453e-08,5.000036e-08,0.0,0.0,0.0,0.0,0.0,0.0,0.0,0.0,24
550187306,550086950,0.2918978,0.021737877,0.018088719,0.9560313,0.057812717,0.038164888,0.020378979,3.9971123,-3.2700458,5.245804,3.3132575e-05,-6.713987e-05,9.8763985e-06,-0.0034767357,0.0035198743,-0.0010304231,0.14261271,-0.03620441,0.26547378,0.0,0.0,0.0,0.0,0.0,8.815638e-05,5.7940006e-06,5.7963866e-06,8.3534605e-06,0.019051384,0.01905015,0.015763283,0.18497328,0.18497264,0.21082456,2.0436665e-11,2.0476617e-11,4.5171904e-11,5.024071e-08,5.0159578e-08,5.0000093e-08,0.0,0.0,0.0,0.0,0.0,0.0,0.0,0.0,24
551197149,551096835,0.2920695,0.022448951,0.017954363,0.955965,0.035586346,0.038021695,0.021495063,4.0063105,-3.255444,5.2213573,3.292279e-05,-6.694005e-05,9.769483e-06,-0.0034766754,0.0035198093,-0.0010232552,0.14261271,-0.03620441,0.26547378,0.0,0.0,0.0,0.0,0.0,8.7880486e-05,5.669664e-06,5.6746876e-06,8.375423e-06,0.017602183,0.017601026,0.015299016,0.17839187,0.17839132,0.20908646,2.0332049e-11,2.0371939e-11,4.5031045e-11,5.0249692e-08,5.016788e-08,5.0000452e-08,0.0,0.0,0.0,0.0,0.0,0.0,0.0,0.0,24
552187111,552086723,0.2922287,0.02140271,0.018182056,0.955936,0.053218417,0.029099764,0.018981295,4.0900593,-3.281311,5.187185,3.2860054e-05,-6.710351e-05,9.675955e-06,-0.003476662,0.0035197265,-0.0010180364,0.14261271,-0.03620441,0.26547378,0.0,0.0,0.0,0.0,0.0,8.753514e-05,5.694161e-06,5.6958006e-06,8.387063e-06,0.01738775,0.017386448,0.015053385,0.174258,0.17425749,0.20462787,2.0365019e-11,2.0404326e-11,4.4883385e-11,5.0258535e-08,5.0176073e-08,5.000018e-08,0.0,0.0,0.0,0.0,0.0,0.0,0.0,0.0,24
553186957,553086610,0.29215956,0.02158449,0.017970549,0.9559571,0.04021293,0.027891273,0.027918292,4.116967,-3.3074927,5.183017,3.271316e-05,-6.701118e-05,9.48623e-06,-0.0034766211,0.0035196166,-0.001027663,0.14261271,-0.03620441,0.26547378,0.0,0.0,0.0,0.0,0.0,8.688417e-05,5.547072e-06,5.5504315e-06,8.3668665e-06,0.01599179,0.015990581,0.014545581,0.16580507,0.1658047,0.20106329,2.0227112e-11,2.0266068e-11,4.4671152e-11,5.0267456e-08,5.0184372e-08,5.000036e-08,0.0,0.0,0.0,0.0,0.0,0.0,0.0,0.0,24
554196888,554096496,0.29225874,0.021131402,0.018440431,0.95592797,0.027025506,0.00719192,0.022143742,4.1338744,-3.3849282,5.188662,3.2362026e-05,-6.704037e-05,9.3468e-06,-0.0034766006,0.0035195465,-0.0010297999,0.14261271,-0.03620441,0.26547378,0.0,0.0,0.0,0.0,0.0,8.666035e-05,5.540594e-06,5.541884e-06,8.389738e-06,0.015630983,0.015629672,0.01426695,0.15984274,0.15984243,0.1963846,2.022636e-11,2.0265047e-11,4.456703e-11,5.0276487e-08,5.019287e-08,5.000018e-08,0.0,0.0,0.0,0.0,0.0,0.0,0.0,0.0,24
555186825,555086384,0.29238454,0.021929422,0.018153405,0.95587707,-0.0033613585,0.04594213,0.027008845,4.0924554,-3.3278759,5.164642,3.255021e-05,-6.668212e-05,9.227877e-06,-0.0034765452,0.0035194857,-0.0010228112,0.14261271,-0.03620441,0.26547378,0.0,0.0,0.0,0.0,0.0,8.636319e-05,5.628954e-06,5.6323547e-06,8.400175e-06,0.016290752,0.01628938,0.014547236,0.15794216,0.15794174,0.19758068,2.0308219e-11,2.0346459e-11,4.445399e-11,5.0285344e-08,5.0201244e-08,5.000036e-08,0.0,0.0,0.0,0.0,0.0,0.0,0.0,0.0,24
556186586,556086271,0.29238224,0.022166472,0.019203829,0.9558518,-0.020781983,0.041639432,0.009446422,4.0538974,-3.3189178,5.1213737,3.242714e-05,-6.671426e-05,9.067707e-06,-0.0034765115,0.0035193826,-0.001008787,0.14261271,-0.03620441,0.26547378,0.0,0.0,0.0,0.0,0.0,8.612371e-05,5.5639907e-06,5.565053e-06,8.415377e-06,0.015772976,0.01577178,0.014305378,0.15265436,0.15265395,0.1935479,2.0238991e-11,2.0276971e-11,4.4360127e-11,5.0294286e-08,5.0209742e-08,5.000009e-08,0.0,0.0,0.0,0.0,0.0,0.0,0.0,0.0,24
557186584,557086159,0.29261753,0.02176363,0.018428488,0.9558042,0.0011118756,0.039744206,0.011705187,4.0967073,-3.3063781,5.0945873,3.254425e-05,-6.695325e-05,9.05594e-06,-0.0034765112,0.003519341,-0.0010036181,0.14261271,-0.03620441,0.26547378,0.0,0.0,0.0,0.0,0.0,8.5552405e-05,5.7324596e-06,5.7359084e-06,8.393033e-06,0.017158024,0.017156616,0.0149008,0.15464687,0.15464626,0.19796284,2.0402423e-11,2.0439544e-11,4.4193073e-11,5.030323e-08,5.0218265e-08,5.0000452e-08,0.0,0.0,0.0,0.0,0.0,0.0,0.0,0.0,24
558196355,558096046,0.29256535,0.02304539,0.01800023,0.9557983,-0.00044606227,0.040448625,0.00860311,4.136045,-3.3013945,5.071937,3.2523803e-05,-6.708149e-05,8.9157e-06,-0.0034764924,0.0035192429,-0.0009989153,0.14261271,-0.03620441,0.26547378,0.0,0.0,0.0,0.0,0.0,8.539244e-05,5.840305e-06,5.8511177e-06,8.408024e-06,0.01848638,0.01848478,0.015422191,0.16009828,0.16009738,0.20128831,2.049427e-11,2.053073e-11,4.4127754e-11,5.031226e-08,5.0226927e-08,5.000027e-08,0.0,0.0,0.0,0.0,0.0,0.0,0.0,0.0,24
559186310,559085935,0.2926652,0.02270453,0.018397149,0.95576835,0.011158095,0.008670072,0.0033126196,4.1686206,-3.3456511,5.065418,3.2230953e-05,-6.7366396e-05,8.797535e-06,-0.0034765075,0.0035191637,-0.0009991929,0.14261271,-0.03620441,0.26547378,0.0,0.0,0.0,0.0,0.0,8.515364e-05,5.736172e-06,5.746145e-06,8.421222e-06,0.01794859,0.017946932,0.015402897,0.15924838,0.15924755,0.20305096,2.0386283e-11,2.042245e-11,4.4049306e-11,5.0321102e-08,5.0235414e-08,5.0000452e-08,0.0,0.0,0.0,0.0,0.0,0.0,0.0,0.0,24
560186139,560085823,0.29304224,0.022502584,0.017915227,0.9556668,0.013850783,0.02086739,0.0067984117,4.1898484,-3.3178465,5.0759263,3.236029e-05,-6.739815e-05,8.787862e-06,-0.003476503,0.00351914,-0.0010071895,0.14261271,-0.03620441,0.26547378,0.0,0.0,0.0,0.0,0.0,8.49725e-05,5.7357265e-06,5.7465977e-06,8.439341e-06,0.017967924,0.017966237,0.015387921,0.16015223,0.16015124,0.2026741,2.0390077e-11,2.042577e-11,4.398805e-11,5.0330037e-08,5.024406e-08,5.000018e-08,0.0,0.0,0.0,0.0,0.0,0.0,0.0,0.0,24
561196166,561095711,0.29336616,0.02260193,0.017715095,0.95556873,0.02380378,0.007075376,0.0071319807,4.21419,-3.3166707,5.0774584,3.2322583e-05,-6.7548106e-05,8.780364e-06,-0.0034765166,0.003519126,-0.0010081788,0.14261271,-0.03620441,0.26547378,0.0,0.0,0.0,0.0,0.0,8.449902e-05,5.7989855e-06,5.8118685e-06,8.426975e-06,0.018552503,0.018550629,0.015552755,0.16389586,0.16389474,0.20407872,2.0453682e-11,2.0488599e-11,4.386355e-11,5.0339068e-08,5.025279e-08,5e-08,0.0,0.0,0.0,0.0,0.0,0.0,0.0,0.0,24
562185971,562085600,0.29392222,0.022050746,0.018556617,0.95539474,0.0062001157,0.012329315,0.025527515,4.1774354,-3.276084,5.101299,3.234614e-05,-6.736188e-05,8.871819e-06,-0.003476541,0.0035191858,-0.0010167027,0.14261271,-0.03620441,0.26547378,0.0,0.0,0.0,0.0,0.0,8.429906e-05,5.642442e-06,5.650196e-06,8.439464e-06,0.017300976,0.017299408,0.015200715,0.16064572,0.160645,0.20346525,2.0299802e-11,2.033402e-11,4.380509e-11,5.0347907e-08,5.0261413e-08,5.0000178e-08,0.0,0.0,0.0,0.0,0.0,0.0,0.0,0.0,24
563185936,563085489,0.2926629,0.022630218,0.018737735,0.95576423,-0.007057939,0.004612727,0.020833317,4.1541905,-3.2233388,5.094462,3.2350283e-05,-6.742778e-05,8.137298e-06,-0.0034764244,0.003518823,-0.0010171806,0.14261271,-0.03620441,0.26547378,0.0,0.0,0.0,0.0,0.0,8.4157095e-05,5.76063e-06,5.7712173e-06,8.451759e-06,0.018134244,0.018132549,0.015387334,0.16442595,0.16442509,0.20399538,2.041958e-11,2.0452643e-11,4.3763434e-11,5.0356842e-08,5.0270156e-08,5e-08,0.0,0.0,0.0,0.0,0.0,0.0,0.0,0.0,24
564195763,564095376,0.29145795,0.02160188,0.018333383,0.956164,-0.005293745,0.009552423,0.016154667,4.1045427,-3.1608396,5.11656,3.2403186e-05,-6.761937e-05,7.3930337e-06,-0.003476331,0.0035184573,-0.0010249062,0.14261271,-0.03620441,0.26547378,0.0,0.0,0.0,0.0,0.0,8.4074774e-05,5.7360667e-06,5.745595e-06,8.469941e-06,0.017974049,0.017972494,0.015410549,0.16485277,0.16485207,0.20635268,2.0397498e-11,2.042948e-11,4.3736945e-11,5.0365866e-08,5.0279006e-08,5.000027e-08,0.0,0.0,0.0,0.0,0.0,0.0,0.0,0.0,24
565195627,565095265,0.29008865,0.020504069,0.018909661,0.9565932,-0.021562962,0.0019077904,0.042892523,4.0101776,-3.1359,5.115001,3.2296637e-05,-6.7735375e-05,6.6588145e-06,-0.0034762209,0.0035181404,-0.0010237718,0.14261271,-0.03620441,0.26547378,0.0,0.0,0.0,0.0,0.0,8.362672e-05,5.9471463e-06,5.952246e-06,8.439386e-06,0.019739566,0.019737847,0.015902588,0.1726769,0.17267592,0.2090105,2.059779e-11,2.062861e-11,4.362668e-11,5.0374805e-08,5.028779e-08,5.0000093e-08,0.0,0.0,0.0,0.0,0.0,0.0,0.0,0.0,24
566188081,566085155,0.28897676,0.022813238,0.018665018,0.9568823,-0.042482696,-0.004189489,0.03150945,3.8675594,-3.1019995,5.133062,3.2191027e-05,-6.773062e-05,5.9818385e-06,-0.0034761215,0.0035178585,-0.0010295458,0.14261271,-0.03620441,0.26547378,0.0,0.0,0.0,0.0,0.0,8.34742e-05,5.760093e-06,5.7757597e-06,8.443001e-06,0.018441414,0.018439922,0.015588308,0.17030856,0.17030783,0.20846756,2.0412448e-11,2.0442767e-11,4.3589427e-11,5.038366e-08,5.029649e-08,5.000027e-08,0.0,0.0,0.0,0.0,0.0,0.0,0.0,0.0,24
567195423,567095043,0.28772157,0.021046491,0.018847924,0.95729727,-0.0466913,0.047897942,0.042021804,3.7801592,-2.9497929,5.137765,3.2648757e-05,-6.770276e-05,5.3186386e-06,-0.0034759196,0.0035175714,-0.0010305671,0.14261271,-0.03620441,0.26547378,0.0,0.0,0.0,0.0,0.0,8.344224e-05,5.919416e-06,5.927235e-06,8.4419835e-06,0.019776313,0.019774878,0.015937505,0.17806445,0.17806332,0.21058483,2.056474e-11,2.0594368e-11,4.357735e-11,5.0392714e-08,5.0305395e-08,5.000009e-08,0.0,0.0,0.0,0.0,0.0,0.0,0.0,0.0,24
568195238,568094932,0.28644043,0.020938218,0.018414455,0.95769227,-0.023340069,0.10043444,0.04315429,3.7325726,-2.7246234,5.176763,3.3127726e-05,-6.7717236e-05,4.6431514e-06,-0.0034756996,0.0035172906,-0.0010402001,0.14261271,-0.03620441,0.26547378,0.0,0.0,0.0,0.0,0.0,8.337304e-05,6.026811e-06,6.03511e-06,8.4353105e-06,0.020925894,0.020924438,0.01635688,0.18641828,0.18641698,0.2157341,2.066142e-11,2.0690711e-11,4.35584e-11,5.0401656e-08,5.0314195e-08,5.0000363e-08,0.0,0.0,0.0,0.0,0.0,0.0,0.0,0.0,24
569185198,569084823,0.2851967,0.02181276,0.019363528,0.95802516,-0.06346102,0.07019986,0.05607843,3.5812955,-2.6774518,5.194959,3.2538104e-05,-6.790452e-05,4.041062e-06,-0.003475779,0.0035170342,-0.0010442922,0.14261271,-0.03620441,0.26547378,0.0,0.0,0.0,0.0,0.0,8.326929e-05,6.096801e-06,6.107668e-06,8.42089e-06,0.021794137,0.021792673,0.016526228,0.19491507,0.19491357,0.21621649,2.0720039e-11,2.074933e-11,4.3533396e-11,5.0410485e-08,5.0322885e-08,5e-08,0.0,0.0,0.0,0.0,0.0,0.0,0.0,0.0,24
570195027,570094711,0.2840714,0.021381732,0.01929439,0.9583705,-0.054965526,0.06981323,0.057121452,3.5246103,-2.5867906,5.2235026,3.2528886e-05,-6.823939e-05,3.3982524e-06,-0.0034756747,0.0035166934,-0.0010484528,0.14261271,-0.03620441,0.26547378,0.0,0.0,0.0,0.0,0.0,8.292123e-05,6.1352052e-06,6.1461415e-06,8.39023e-06,0.022369571,0.022367846,0.016801571,0.20309538,0.20309395,0.22129354,2.0752487e-11,2.07819e-11,4.3453508e-11,5.0419462e-08,5.0331746e-08,5.000036e-08,0.0,0.0,0.0,0.0,0.0,0.0,0.0,0.0,24
571194983,571094600,0.28307682,0.02203631,0.019501716,0.95864576,-0.021679427,0.061823726,0.043929797,3.5158587,-2.5105014,5.205588,3.2609772e-05,-6.8689726e-05,2.846321e-06,-0.003475575,0.0035163325,-0.0010416199,0.14261271,-0.03620441,0.26547378,0.0,0.0,0.0,0.0,0.0,8.2873754e-05,6.385205e-06,6.400162e-06,8.3840805e-06,0.024926849,0.024924459,0.017358204,0.22085091,0.220849,0.22544786,2.0979904e-11,2.1009205e-11,4.3445116e-11,5.0428376e-08,5.034056e-08,5.000018e-08,0.0,0.0,0.0,0.0,0.0,0.0,0.0,0.0,24
572194825,572094489,0.28210258,0.022372365,0.021402676,0.9588846,-0.005626433,0.04393225,0.046619724,3.5160353,-2.4767642,5.2069507,3.2519016e-05,-6.895608e-05,2.3581372e-06,-0.0034755527,0.0035160785,-0.0010381856,0.14261271,-0.03620441,0.26547378,0.0,0.0,0.0,0.0,0.0,8.283868e-05,6.4401215e-06,6.451686e-06,8.370478e-06,0.025933499,0.025930697,0.017719518,0.23399375,0.23399161,0.23159492,2.1012692e-11,2.1042173e-11,4.3438763e-11,5.043725e-08,5.0349342e-08,5.000036e-08,0.0,0.0,0.0,0.0,0.0,0.0,0.0,0.0,24
573194767,573094378,0.281034,0.022330895,0.022834053,0.9591662,-0.015157987,0.025995648,0.035711274,3.4482462,-2.4382381,5.1875587,3.2341388e-05,-6.894125e-05,1.8437636e-06,-0.0034755582,0.0035159418,-0.0010303493,0.14261271,-0.03620441,0.26547378,0.0,0.0,0.0,0.0,0.0,8.281923e-05,6.4030432e-06,6.410084e-06,8.352312e-06,0.025780814,0.025778057,0.017594425,0.24066874,0.24066639,0.23086204,2.0972273e-11,2.1001917e-11,4.3434333e-11,5.044611e-08,5.0358093e-08,5.0000093e-08,0.0,0.0,0.0,0.0,0.0,0.0,0.0,0.0,24
574194674,574094268,0.27988237,0.026535839,0.041042272,0.9587895,-0.0132812895,-0.0012764357,0.030914685,3.383682,-2.4107587,5.1653423,3.2140986e-05,-6.9107424e-05,1.2875252e-06,-0.003475577,0.00351574,-0.0010239816,0.14261271,-0.03620441,0.26547378,0.0,0.0,0.0,0.0,0.0,8.2369384e-05,6.267792e-06,6.201488e-06,8.307189e-06,0.023463886,0.023461625,0.017115679,0.23341899,0.23341736,0.22950785,2.0774948e-11,2.0804684e-11,4.335489e-11,5.045495e-08,5.0366825e-08,5.000036e-08,0.0,0.0,0.0,0.0,0.0,0.0,0.0,0.0,24
575194518,575094157,0.27890393,0.030511143,0.054894842,0.95826316,-0.04888447,-0.051621288,0.008702158,3.3209279,-2.3512607,5.0830603,3.220334e-05,-6.9257934e-05,4.5732347e-07,-0.0034754777,0.0035156466,-0.001002088,0.14261271,-0.03620441,0.26547378,0.0,0.0,0.0,0.0,0.0,8.2211154e-05,6.29688e-06,6.1546302e-06,8.331477e-06,0.022570932,0.02256944,0.016721454,0.22965506,0.22965384,0.22518069,2.0728981e-11,2.075808e-11,4.3355753e-11,5.0463814e-08,5.0375075e-08,5.000009e-08,0.0,0.0,0.0,0.0,0.0,0.0,0.0,0.0,24
576184368,576084047,0.27731678,0.030124698,0.05494459,0.9587331,-0.071201555,-0.05895513,0.015444263,3.2690637,-2.2139087,5.0781703,3.280087e-05,-6.9246984e-05,-3.4848563e-07,-0.003475174,0.0035152463,-0.0010065179,0.14261271,-0.03620441,0.26547378,0.0,0.0,0.0,0.0,0.0,8.21806e-05,6.233657e-06,6.1006576e-06,8.305622e-06,0.021658465,0.021658866,0.016453613,0.22320846,0.22320752,0.22335897,2.0692644e-11,2.0720438e-11,4.3349012e-11,5.0472593e-08,5.0381583e-08,5.000036e-08,0.0,0.0,0.0,0.0,0.0,0.0,0.0,0.0,24
577194253,577093935,0.27544433,0.029421147,0.0539111,0.95935315,-0.123513475,-0.10570377,-0.013809931,3.1316862,-2.1862082,5.037717,3.2960103e-05,-6.9229885e-05,-1.1235738e-06,-0.0034750535,0.0035154524,-0.0009956401,0.14261271,-0.03620441,0.26547378,0.0,0.0,0.0,0.0,0.0,8.2277686e-05,6.37086e-06,6.256656e-06,8.268768e-06,0.023076905,0.023079269,0.016702214,0.22862504,0.22862466,0.22364031,2.0843143e-11,2.0870332e-11,4.3364985e-11,5.048158e-08,5.0386713e-08,5.0000178e-08,0.0,0.0,0.0,0.0,0.0,0.0,0.0,0.0,24
578194133,578093825,0.27386406,0.029090855,0.053823438,0.95982045,-0.09482627,-0.074517034,-0.032137413,3.1174054,-2.0665998,4.982352,3.3881883e-05,-6.936602e-05,-1.7762264e-06,-0.0034746693,0.0035152237,-0.0009942306,0.14261271,-0.03620441,0.26547378,0.0,0.0,0.0,0.0,0.0,8.2321756e-05,6.4852125e-06,6.37866e-06,8.227621e-06,0.024489397,0.024493689,0.017124569,0.2361262,0.2361271,0.22810291,2.0949147e-11,2.0977475e-11,4.3370807e-11,5.0490453e-08,5.0389808e-08,5.0000452e-08,0.0,0.0,0.0,0.0,0.0,0.0,0.0,0.0,24
579194035,579093714,0.27140722,0.028601887,0.053165186,0.96056944,-0.09443775,-0.06450524,-0.053273443,3.0606513,-2.004058,4.893672,3.4261073e-05,-6.9399386e-05,-2.8416787e-06,-0.003474417,0.0035150026,-0.0009913908,0.14261271,-0.03620441,0.26547378,0.0,0.0,0.0,0.0,0.0,8.2051716e-05,6.3752177e-06,6.281831e-06,8.152416e-06,0.023968978,0.023973685,0.016959542,0.2371061,0.23710781,0.22568521,2.0850885e-11,2.0883795e-11,4.3297376e-11,5.0499278e-08,5.0389286e-08,5.0000178e-08,0.0,0.0,0.0,0.0,0.0,0.0,0.0,0.0,24
580193969,580093603,0.2691192,0.026781978,0.052768845,0.96128726,-0.11103265,-0.06293481,-0.038572337,2.9444683,-1.988538,4.849285,3.4305816e-05,-6.941807e-05,-3.853704e-06,-0.0034742872,0.0035147525,-0.0009936359,0.14261271,-0.03620441,0.26547378,0.0,0.0,0.0,0.0,0.0,8.211799e-05,6.570742e-06,6.479196e-06,8.111747e-06,0.026050432,0.026054507,0.017513636,0.25007823,0.25008297,0.23162422,2.1039883e-11,2.1077933e-11,4.3300603e-11,5.0508145e-08,5.0389282e-08,5.0000363e-08,0.0,0.0,0.0,0.0,0.0,0.0,0.0,0.0,24
581193821,581093495,0.26590568,0.026809718,0.052653205,0.96218663,-0.061978877,-0.03307974,-0.016244186,2.9758537,-1.8945944,4.876444,3.4927914e-05,-6.9855756e-05,-5.066389e-06,-0.003473829,0.0035134961,-0.001012809,0.14261271,-0.03620441,0.26547378,0.0,0.0,0.0,0.0,0.0,8.219422e-05,6.5778527e-06,6.4935916e-06,8.042805e-06,0.02645934,0.026461199,0.01753078,0.25834692,0.25835246,0.23102285,2.1042086e-11,2.1089377e-11,4.3297907e-11,5.0516928e-08,5.0386443e-08,5.0000178e-08,0.0,0.0,0.0,0.0,0.0,0.0,0.0,0.0,24
582193828,582093380,0.2636716,0.026900964,0.052250408,0.9628207,-0.10326889,0.037696123,-0.0009511233,2.8173773,-1.6562217,4.940708,3.532651e-05,-6.933215e-05,-6.085823e-06,-0.0034733636,0.003511916,-0.0010448649,0.14261271,-0.03620441,0.26547378,0.0,0.0,0.0,0.0,0.0,8.225152e-05,6.4258816e-06,6.3421185e-06,7.992534e-06,0.025290243,0.025289368,0.017210577,0.25940368,0.25940812,0.22803797,2.0896987e-11,2.0957906e-11,4.3288654e-11,5.0525603e-08,5.038172e-08,5e-08,0.0,0.0,0.0,0.0,0.0,0.0,0.0,0.0,24
583193717,583093270,0.2617088,0.025929466,0.052127954,0.96338934,-0.0934418,-0.0012147687,-0.011363465,2.7317011,-1.7083466,4.957803,3.5039226e-05,-6.978315e-05,-6.7348246e-06,-0.0034733978,0.0035111436,-0.0010534688,0.14261271,-0.03620441,0.26547378,0.0,0.0,0.0,0.0,0.0,8.200767e-05,6.4604105e-06,6.3799753e-06,7.896514e-06,0.025452636,0.02544866,0.017288992,0.2631568,0.2631604,0.23031403,2.0942244e-11,2.1015228e-11,4.320691e-11,5.0534254e-08,5.037841e-08,5.000018e-08,0.0,0.0,0.0,0.0,0.0,0.0,0.0,0.0,24
584193598,584093157,0.2599184,0.027320825,0.050979555,0.9638968,-0.10813034,0.00038055948,-0.020502903,2.59686,-1.7337768,4.9107594,3.486209e-05,-6.9846756e-05,-7.3727156e-06,-0.0034734814,0.003511508,-0.0010443601,0.14261271,-0.03620441,0.26547378,0.0,0.0,0.0,0.0,0.0,8.2080725e-05,6.408511e-06,6.344828e-06,7.832015e-06,0.024829997,0.024822177,0.017043382,0.26206097,0.26206344,0.2271072,2.090597e-11,2.0994477e-11,4.3196155e-11,5.054281e-08,5.0374968e-08,5e-08,0.0,0.0,0.0,0.0,0.0,0.0,0.0,0.0,24
585193360,585093045,0.25790933,0.02979254,0.049250778,0.96445304,-0.08467145,-0.017770525,-0.0002363968,2.5005474,-1.8096856,4.8897123,3.464256e-05,-7.002071e-05,-8.025305e-06,-0.0034735634,0.0035115164,-0.0010403794,0.14261271,-0.03620441,0.26547378,0.0,0.0,0.0,0.0,0.0,8.216012e-05,6.3584816e-06,6.3209427e-06,7.758074e-06,0.024101842,0.024093755,0.016920514,0.25817475,0.2581755,0.22728577,2.0876237e-11,2.0981295e-11,4.3184033e-11,5.055136e-08,5.0372893e-08,5.000018e-08,0.0,0.0,0.0,0.0,0.0,0.0,0.0,0.0,24
586193373,586092933,0.25588864,0.031378742,0.048817962,0.96496284,-0.09659542,0.011977201,-9.570537e-05,2.3327823,-1.8127168,4.9008355,3.4507164e-05,-6.979649e-05,-8.75134e-06,-0.0034735722,0.0035114838,-0.0010423121,0.14261271,-0.03620441,0.26547378,0.0,0.0,0.0,0.0,0.0,8.2240644e-05,6.5613303e-06,6.53306e-06,7.688452e-06,0.025972381,0.025960913,0.01721615,0.26620397,0.26620096,0.22788957,2.10611e-11,2.117883e-11,4.3179033e-11,5.056004e-08,5.0373302e-08,5e-08,0.0,0.0,0.0,0.0,0.0,0.0,0.0,0.0,24
587193136,587092820,0.25370494,0.030289419,0.04900145,0.9655647,-0.03558132,0.056950476,-0.0058612465,2.3306,-1.7317777,4.948216,3.4817105e-05,-7.003877e-05,-9.480856e-06,-0.0034733436,0.0035106968,-0.0010593578,0.14261271,-0.03620441,0.26547378,0.0,0.0,0.0,0.0,0.0,8.232273e-05,6.559036e-06,6.517709e-06,7.612726e-06,0.026046967,0.026036583,0.017325612,0.26717636,0.26717103,0.2303877,2.1040244e-11,2.1175244e-11,4.316747e-11,5.0568733e-08,5.0374634e-08,5.000027e-08,0.0,0.0,0.0,0.0,0.0,0.0,0.0,0.0,24
588193127,588092708,0.25155345,0.02967156,0.050224822,0.9660839,-0.02353082,0.05176226,0.0037705775,2.323704,-1.7336248,5.0148954,3.449119e-05,-7.0301576e-05,-1.0239741e-05,-0.0034735252,0.003509625,-0.0010893535,0.14261271,-0.03620441,0.26547378,0.0,0.0,0.0,0.0,0.0,8.2057515e-05,6.1668566e-06,6.1079754e-06,7.512209e-06,0.022070115,0.022062322,0.01631498,0.24923962,0.24923737,0.22113258,2.0661917e-11,2.0821405e-11,4.3070963e-11,5.0577338e-08,5.0376165e-08,5e-08,0.0,0.0,0.0,0.0,0.0,0.0,0.0,0.0,24
589192955,589092595,0.24945861,0.02889756,0.050643064,0.96662855,0.002012387,0.046152383,0.012053157,2.3246238,-1.6808165,5.046934,3.4386783e-05,-7.052104e-05,-1.0945941e-05,-0.0034736013,0.0035090854,-0.0011062981,0.14261271,-0.03620441,0.26547378,0.0,0.0,0.0,0.0,0.0,8.21581e-05,6.2213553e-06,6.1521723e-06,7.4385853e-06,0.02207341,0.022068191,0.01633043,0.24707225,0.24706881,0.22169983,2.0715063e-11,2.0888012e-11,4.3070172e-11,5.0586063e-08,5.0380432e-08,5.000027e-08,0.0,0.0,0.0,0.0,0.0,0.0,0.0,0.0,24
590192817,590092482,0.24742052,0.03006905,0.049402066,0.9671806,0.022562841,0.0653849,0.04469659,2.3021212,-1.5796272,5.0748444,3.4412984e-05,-7.051844e-05,-1.1494544e-05,-0.0034736416,0.003508942,-0.0011175696,0.14261271,-0.03620441,0.26547378,0.0,0.0,0.0,0.0,0.0,8.2289465e-05,6.3784687e-06,6.323051e-06,7.3491547e-06,0.023423506,0.023419844,0.016544469,0.25188148,0.25187665,0.22108364,2.0866687e-11,2.1049261e-11,4.3076126e-11,5.059481e-08,5.0385914e-08,5.000009e-08,0.0,0.0,0.0,0.0,0.0,0.0,0.0,0.0,24
591192824,591092369,0.24653925,0.029724158,0.04827407,0.9674733,0.060330387,0.09352657,0.057527483,2.3295178,-1.4583462,5.111671,3.449704e-05,-7.062081e-05,-1.1593729e-05,-0.0034736085,0.0035089436,-0.0011183483,0.14261271,-0.03620441,0.26547378,0.0,0.0,0.0,0.0,0.0,8.2424864e-05,6.7331125e-06,6.6825714e-06,7.2727094e-06,0.027126098,0.027122354,0.017444335,0.27052855,0.27052072,0.22932938,2.1186292e-11,2.1373939e-11,4.308887e-11,5.0603592e-08,5.0392572e-08,5.000027e-08,0.0,0.0,0.0,0.0,0.0,0.0,0.0,0.0,24
592192681,592092255,0.2456661,0.031057436,0.050860144,0.9675211,0.041347113,0.07565339,0.030695835,2.2634563,-1.3809199,5.096193,3.4069475e-05,-7.053828e-05,-1.1770114e-05,-0.0034737117,0.0035092423,-0.0011034162,0.14261271,-0.03620441,0.26547378,0.0,0.0,0.0,0.0,0.0,8.21898e-05,6.750081e-06,6.6863317e-06,7.178266e-06,0.027650096,0.027647119,0.01752255,0.27690783,0.27690026,0.22932859,2.1166763e-11,2.1363963e-11,4.3020858e-11,5.061225e-08,5.0399585e-08,5e-08,0.0,0.0,0.0,0.0,0.0,0.0,0.0,0.0,24
593192454,593092141,0.24646705,0.047586944,0.07816067,0.9648215,-0.05168281,-0.09618352,0.011738177,2.1359959,-1.4584539,5.076556,3.3526827e-05,-7.054759e-05,-1.2066397e-05,-0.0034738216,0.0035093727,-0.0010913959,0.14261271,-0.03620441,0.26547378,0.0,0.0,0.0,0.0,0.0,8.1852595e-05,7.078592e-06,6.8737177e-06,7.223328e-06,0.028755823,0.028752346,0.01784291,0.2866302,0.28662366,0.2343465,2.1229272e-11,2.1430907e-11,4.3034756e-11,5.0620887e-08,5.040722e-08,5.000027e-08,0.0,0.0,0.0,0.0,0.0,0.0,0.0,0.0,24
594192411,594092027,0.24153216,0.037264034,0.057709247,0.96795833,-0.119525574,-0.21454266,0.016908448,1.9995892,-1.5443503,5.0524178,3.3760898e-05,-7.045503e-05,-1.2501213e-05,-0.0034737377,0.0035094623,-0.0010884366,0.14261271,-0.03620441,0.26547378,0.0,0.0,0.0,0.0,0.0,8.246034e-05,6.931954e-06,6.8655672e-06,6.972268e-06,0.029916862,0.029908346,0.017972205,0.3000564,0.30005133,0.23530345,2.1282085e-11,2.1480786e-11,4.3057138e-11,5.062939e-08,5.0415096e-08,5e-08,0.0,0.0,0.0,0.0,0.0,0.0,0.0,0.0,24
595192231,595091912,0.23979129,0.038635667,0.05615499,0.9684286,-0.19398707,-0.29916084,0.025685776,1.7098982,-1.7238522,5.060999,3.393042e-05,-7.007006e-05,-1.2940686e-05,-0.0034737294,0.0035095878,-0.0010894005,0.14261271,-0.03620441,0.26547378,0.0,0.0,0.0,0.0,0.0,8.26282e-05,6.9161115e-06,6.8794034e-06,6.885453e-06,0.030528082,0.030515833,0.018182408,0.3126048,0.31259993,0.24010563,2.1281863e-11,2.1475289e-11,4.308065e-11,5.06377e-08,5.042326e-08,5.000036e-08,0.0,0.0,0.0,0.0,0.0,0.0,0.0,0.0,24
596192191,596091797,0.23796856,0.03511299,0.055123385,0.9690715,-0.13620974,-0.31416395,0.0199289,1.714762,-1.8546954,5.075014,3.495908e-05,-7.057441e-05,-1.351418e-05,-0.0034735247,0.003509386,-0.0010978589,0.14261271,-0.03620441,0.26547378,0.0,0.0,0.0,0.0,0.0,8.247016e-05,6.802361e-06,6.757828e-06,6.786508e-06,0.02963451,0.029625243,0.017912045,0.31619158,0.31618732,0.2376742,2.119477e-11,2.1383072e-11,4.3028716e-11,5.0645724e-08,5.0431584e-08,5.0000093e-08,0.0,0.0,0.0,0.0,0.0,0.0,0.0,0.0,24
597191992,597091682,0.23608366,0.033899937,0.053225994,0.96968156,-0.10089392,-0.27364472,0.024922945,1.6880323,-1.9074515,5.082231,3.598783e-05,-7.061438e-05,-1.408832e-05,-0.0034732753,0.0035093557,-0.0011031404,0.14261271,-0.03620441,0.26547378,0.0,0.0,0.0,0.0,0.0,8.264193e-05,6.705326e-06,6.6708767e-06,6.7059605e-06,0.02864979,0.028645888,0.017796407,0.31661674,0.3166131,0.23896389,2.1132486e-11,2.1318771e-11,4.3048728e-11,5.0653693e-08,5.044011e-08,5.0000363e-08,0.0,0.0,0.0,0.0,0.0,0.0,0.0,0.0,24
598191907,598091567,0.23408203,0.036773566,0.05121364,0.9701703,-0.06732762,-0.21991158,0.010002374,1.6356528,-1.9308991,5.0560136,3.678518e-05,-7.049345e-05,-1.4625133e-05,-0.0034729743,0.0035094046,-0.0011003236,0.14261271,-0.03620441,0.26547378,0.0,0.0,0.0,0.0,0.0,8.280384e-05,6.7039505e-06,6.7054148e-06,6.616792e-06,0.028485183,0.028485063,0.017612385,0.31903532,0.3190325,0.2360413,2.115852e-11,2.1345476e-11,4.306671e-11,5.066166e-08,5.0448776e-08,5.000009e-08,0.0,0.0,0.0,0.0,0.0,0.0,0.0,0.0,24
599191801,599091451,0.2323056,0.03587931,0.049846433,0.9707019,-0.02815226,-0.15502216,0.015004999,1.6073627,-1.9194058,5.0317974,3.7432084e-05,-7.037068e-05,-1.5103549e-05,-0.0034727675,0.0035094412,-0.0011000654,0.14261271,-0.03620441,0.26547378,0.0,0.0,0.0,0.0,0.0,8.297671e-05,6.696029e-06,6.698341e-06,6.5332774e-06,0.028419781,0.028422128,0.017661462,0.32258952,0.32258767,0.23798366,2.115967e-11,2.1350642e-11,4.3079304e-11,5.0669588e-08,5.0457547e-08,5.000027e-08,0.0,0.0,0.0,0.0,0.0,0.0,0.0,0.0,24
600191752,600091334,0.2305211,0.034665268,0.04898284,0.9712153,1.058224e-05,-0.078878835,-0.003210326,1.545036,-1.8444357,4.9927826,3.788458e-05,-7.015617e-05,-1.5638496e-05,-0.0034724455,0.0035095117,-0.0010890298,0.14261271,-0.03620441,0.26547378,0.0,0.0,0.0,0.0,0.0,8.3139814e-05,6.750451e-06,6.7456854e-06,6.455137e-06,0.028981661,0.028985543,0.017645048,0.32900771,0.32900712,0.23624818,2.1209623e-11,2.1406495e-11,4.308888e-11,5.0677514e-08,5.04664e-08,5.000009e-08,0.0,0.0,0.0,0.0,0.0,0.0,0.0,0.0,24
601191585,601091218,0.2292189,0.03363924,0.048818327,0.97156775,-0.03132869,-9.644625e-05,-0.026328009,1.3519578,-1.7047354,4.9372816,3.798495e-05,-6.951845e-05,-1.5909389e-05,-0.0034722036,0.0035097052,-0.0010752266,0.14261271,-0.03620441,0.26547378,0.0,0.0,0.0,0.0,0.0,8.297131e-05,6.8118325e-06,6.792947e-06,6.34863e-06,0.02961441,0.029618112,0.017841496,0.33393708,0.33393827,0.23926456,2.1260334e-11,2.1464162e-11,4.3020674e-11,5.0685507e-08,5.0475265e-08,5.000036e-08,0.0,0.0,0.0,0.0,0.0,0.0,0.0,0.0,24
602191417,602091101,0.22803175,0.032786727,0.05001224,0.9718155,-0.10718588,0.07984682,-0.03943323,1.06212,-1.4236556,4.8742123,3.8177644e-05,-6.8811816e-05,-1.61525e-05,-0.0034719866,0.003509902,-0.0010639862,0.14261271,-0.03620441,0.26547378,0.0,0.0,0.0,0.0,0.0,8.3117375e-05,7.012283e-06,6.969362e-06,6.2696863e-06,0.031720325,0.031723786,0.01808681,0.34751424,0.34751806,0.23981577,2.1421207e-11,2.16312e-11,4.302982e-11,5.0693703e-08,5.0484207e-08,5.0000093e-08,0.0,0.0,0.0,0.0,0.0,0.0,0.0,0.0,24
603191359,603090984,0.2268036,0.033689886,0.04995854,0.97207475,-0.12767982,0.12814091,-0.03506581,0.8645171,-1.2062396,4.861191,3.8106697e-05,-6.87411e-05,-1.6338376e-05,-0.0034720458,0.0035099257,-0.001068384,0.14261271,-0.03620441,0.26547378,0.0,0.0,0.0,0.0,0.0,8.326104e-05,7.147021e-06,7.106276e-06,6.1907194e-06,0.033596225,0.03359734,0.018475585,0.3633607,0.3633663,0.24508128,2.152659e-11,2.174339e-11,4.30384e-11,5.07021e-08,5.049315e-08,5.000036e-08,0.0,0.0,0.0,0.0,0.0,0.0,0.0,0.0,24
604191178,604090866,0.2265531,0.034329664,0.055713475,0.971798,-0.11577617,0.113611855,-0.027994167,0.74333775,-1.0966783,4.862747,3.7743263e-05,-6.910609e-05,-1.6403454e-05,-0.0034721824,0.003509871,-0.0010748267,0.14261271,-0.03620441,0.26547378,0.0,0.0,0.0,0.0,0.0,8.3317995e-05,7.0759174e-06,6.9906896e-06,6.1514547e-06,0.032734632,0.03273397,0.018262614,0.36651558,0.36652023,0.24258965,2.141105e-11,2.1638405e-11,4.3042504e-11,5.0710625e-08,5.05021e-08,5.000009e-08,0.0,0.0,0.0,0.0,0.0,0.0,0.0,0.0,24
605191055,605090748,0.22533853,0.03183287,0.057436563,0.97206503,-0.06507585,0.10562467,-0.01751614,0.77889633,-0.92545533,4.893601,3.7858277e-05,-6.970775e-05,-1.6598367e-05,-0.0034722248,0.0035097774,-0.0010916139,0.14261271,-0.03620441,0.26547378,0.0,0.0,0.0,0.0,0.0,8.345075e-05,6.8465047e-06,6.7265564e-06,6.0788648e-06,0.029966965,0.029966315,0.017919838,0.35588363,0.35588643,0.24182719,2.1192525e-11,2.1430304e-11,4.30463e-11,5.0719333e-08,5.051106e-08,5.0000363e-08,0.0,0.0,0.0,0.0,0.0,0.0,0.0,0.0,24
606191035,606090630,0.22258472,0.029489027,0.053269956,0.9730101,-0.08249569,0.12251571,-0.0028066956,0.67134887,-0.71726376,4.9013505,3.7927643e-05,-6.967452e-05,-1.6999209e-05,-0.0034721978,0.0035098142,-0.0010967121,0.14261271,-0.03620441,0.26547378,0.0,0.0,0.0,0.0,0.0,8.336381e-05,6.6830335e-06,6.5818263e-06,5.930019e-06,0.02790396,0.02790345,0.017429097,0.3428863,0.34288803,0.23588666,2.10928e-11,2.1335865e-11,4.2981934e-11,5.072818e-08,5.0520033e-08,5.0000178e-08,0.0,0.0,0.0,0.0,0.0,0.0,0.0,0.0,24
607190826,607090511,0.22097877,0.030091029,0.050591387,0.9735006,-0.057446595,0.13945843,0.007058035,0.62093943,-0.59479487,4.9253316,3.788099e-05,-6.9893955e-05,-1.729668e-05,-0.0034721773,0.0035097993,-0.001105012,0.14261271,-0.03620441,0.26547378,0.0,0.0,0.0,0.0,0.0,8.3533545e-05,6.5698327e-06,6.493194e-06,5.8495384e-06,0.026471348,0.026469674,0.017226856,0.33116955,0.33117065,0.23502171,2.1017096e-11,2.1265593e-11,4.299341e-11,5.0737086e-08,5.052901e-08,5.000036e-08,0.0,0.0,0.0,0.0,0.0,0.0,0.0,0.0,24
608190727,608090391,0.21934032,0.030079357,0.050189927,0.9738923,-0.015247834,0.10472121,0.002310391,0.5953234,-0.65079135,4.921305,3.7376052e-05,-7.034896e-05,-1.7612656e-05,-0.003472229,0.003509788,-0.0011000534,0.14261271,-0.03620441,0.26547378,0.0,0.0,0.0,0.0,0.0,8.3685765e-05,6.475888e-06,6.404682e-06,5.7739153e-06,0.025033291,0.025030388,0.016819943,0.3174211,0.31742132,0.22917674,2.0943693e-11,2.1198529e-11,4.3003896e-11,5.0746028e-08,5.053799e-08,5.0000178e-08,0.0,0.0,0.0,0.0,0.0,0.0,0.0,0.0,24
609190759,609090272,0.21788655,0.0286157,0.050273687,0.97425824,0.026372949,0.11198925,0.0047031036,0.59699214,-0.63708234,4.918499,3.7190246e-05,-7.053965e-05,-1.7916445e-05,-0.00347223,0.0035097955,-0.0011001755,0.14261271,-0.03620441,0.26547378,0.0,0.0,0.0,0.0,0.0,8.3833336e-05,6.3271145e-06,6.2424297e-06,5.7020534e-06,0.023212519,0.023209274,0.016328193,0.3017513,0.30175143,0.2227628,2.0804521e-11,2.1067625e-11,4.3011816e-11,5.0754945e-08,5.054697e-08,5e-08,0.0,0.0,0.0,0.0,0.0,0.0,0.0,0.0,24
610190559,610090152,0.2163829,0.028921213,0.049686264,0.9746144,0.031140584,0.10223448,0.022674663,0.5694591,-0.7256569,4.9241385,3.6594505e-05,-7.0617294e-05,-1.8171966e-05,-0.0034722765,0.0035098146,-0.0010988298,0.14261271,-0.03620441,0.26547378,0.0,0.0,0.0,0.0,0.0,8.3657585e-05,6.5547547e-06,6.477303e-06,5.6057097e-06,0.025138877,0.025133286,0.016814718,0.30249763,0.3024955,0.22652847,2.1020397e-11,2.12854e-11,4.295226e-11,5.0763877e-08,5.055597e-08,5.000018e-08,0.0,0.0,0.0,0.0,0.0,0.0,0.0,0.0,24
611190340,611090032,0.21458195,0.02854236,0.051322956,0.974939,0.04602917,0.06958198,0.019780133,0.5557213,-0.83749187,4.9427466,3.604306e-05,-7.070467e-05,-1.8441651e-05,-0.0034722816,0.0035098398,-0.0011025345,0.14261271,-0.03620441,0.26547378,0.0,0.0,0.0,0.0,0.0,8.380364e-05,6.411237e-06,6.3146454e-06,5.518698e-06,0.023475546,0.02347117,0.016538117,0.2883593,0.28835732,0.22479701,2.0871221e-11,2.1145521e-11,4.2959403e-11,5.0772744e-08,5.0564957e-08,5.0000452e-08,0.0,0.0,0.0,0.0,0.0,0.0,0.0,0.0,24
612190219,612089911,0.21302386,0.02797738,0.055017013,0.9750955,0.05218323,0.041641545,0.013704567,0.5623287,-0.91655874,4.9516206,3.580359e-05,-7.072749e-05,-1.8713687e-05,-0.0034722919,0.0035098733,-0.0011035119,0.14261271,-0.03620441,0.26547378,0.0,0.0,0.0,0.0,0.0,8.392602e-05,6.324592e-06,6.1877668e-06,5.441997e-06,0.022176106,0.02217359,0.016158748,0.2762547,0.276253,0.21947788,2.0757122e-11,2.1037777e-11,4.2970343e-11,5.0781583e-08,5.0573938e-08,5.000018e-08,0.0,0.0,0.0,0.0,0.0,0.0,0.0,0.0,24
613190097,613089790,0.21268758,0.03243226,0.05643457,0.97494996,0.078044176,-0.019720118,0.014366996,0.63903165,-1.0788394,4.941156,3.5473764e-05,-7.106483e-05,-1.8727655e-05,-0.0034723661,0.003509854,-0.0010958755,0.14261271,-0.03620441,0.26547378,0.0,0.0,0.0,0.0,0.0,8.4018146e-05,6.532128e-06,6.417346e-06,5.3994277e-06,0.023820838,0.023819141,0.016615583,0.276457,0.27645433,0.22321802,2.0945004e-11,2.122463e-11,4.298911e-11,5.0790383e-08,5.058292e-08,5.000045e-08,0.0,0.0,0.0,0.0,0.0,0.0,0.0,0.0,24
614190056,614089669,0.211243,0.029599534,0.052732557,0.97556114,0.06658784,-0.027770804,0.014600946,0.6341797,-1.2118351,4.921916,3.5302775e-05,-7.073767e-05,-1.8682636e-05,-0.0034724504,0.0035098891,-0.0010852702,0.14261271,-0.03620441,0.26547378,0.0,0.0,0.0,0.0,0.0,8.4255094e-05,6.800938e-06,6.6981597e-06,5.2989258e-06,0.027023867,0.02702199,0.017251635,0.2873673,0.28736302,0.22652319,2.1208082e-11,2.148441e-11,4.3010883e-11,5.0799244e-08,5.0591918e-08,5.000027e-08,0.0,0.0,0.0,0.0,0.0,0.0,0.0,0.0,24
615189961,615089546,0.20969845,0.020536097,0.06033888,0.97568655,0.051170103,-0.03602731,0.008425701,0.62192583,-1.3426679,4.9345827,3.5130644e-05,-7.046438e-05,-1.853999e-05,-0.0034724593,0.0035098835,-0.0010853759,0.14261271,-0.03620441,0.26547378,0.0,0.0,0.0,0.0,0.0,8.409108e-05,6.7239484e-06,6.4916812e-06,5.170007e-06,0.026329951,0.026328804,0.017143002,0.2863215,0.28631765,0.22538967,2.1044147e-11,2.1322048e-11,4.295105e-11,5.0808083e-08,5.0600907e-08,5e-08,0.0,0.0,0.0,0.0,0.0,0.0,0.0,0.0,24
616189738,616089424,0.20925395,0.020262124,0.057944153,0.9759328,0.050488766,-0.06466326,0.0053890264,0.68620336,-1.4595952,4.955707,3.5291752e-05,-7.054087e-05,-1.8372273e-05,-0.0034723529,0.0035098125,-0.0010964377,0.14261271,-0.03620441,0.26547378,0.0,0.0,0.0,0.0,0.0,8.4261505e-05,6.533433e-06,6.326004e-06,5.105075e-06,0.024796572,0.024797902,0.016948218,0.27874818,0.27874547,0.22611824,2.0892925e-11,2.11718e-11,4.2968157e-11,5.0816812e-08,5.060985e-08,5.000027e-08,0.0,0.0,0.0,0.0,0.0,0.0,0.0,0.0,24
617189748,617089301,0.20801194,0.01647322,0.057229333,0.9763117,0.033307184,-0.072205305,0.043480415,0.7013713,-1.574643,4.9652905,3.5445213e-05,-7.0460934e-05,-1.8383314e-05,-0.0034722942,0.0035098097,-0.0010996378,0.14261271,-0.03620441,0.26547378,0.0,0.0,0.0,0.0,0.0,8.444598e-05,6.695785e-06,6.47959e-06,5.024715e-06,0.026233105,0.026237147,0.01716455,0.2835937,0.2835917,0.22673403,2.1054396e-11,2.1329393e-11,4.2990816e-11,5.0825363e-08,5.0618794e-08,5e-08,0.0,0.0,0.0,0.0,0.0,0.0,0.0,0.0,24
618189555,618089181,0.20685166,0.018548623,0.055000693,0.976649,-0.004207664,-0.06500554,0.046349578,0.62158525,-1.6839193,4.9852204,3.541335e-05,-7.023394e-05,-1.8558456e-05,-0.0034723615,0.0035098738,-0.0010943733,0.14261271,-0.03620441,0.26547378,0.0,0.0,0.0,0.0,0.0,8.460297e-05,6.6119906e-06,6.427957e-06,4.962013e-06,0.02588095,0.02588614,0.017213281,0.28298217,0.28298125,0.22946882,2.099152e-11,2.1265932e-11,4.3010484e-11,5.083343e-08,5.062774e-08,5.000018e-08,0.0,0.0,0.0,0.0,0.0,0.0,0.0,0.0,24
619189472,619089054,0.20654964,0.026712457,0.057095896,0.97640353,-1.3952166e-05,-0.035883132,0.017289283,0.5951381,-1.718444,4.952665,3.560378e-05,-7.022665e-05,-1.8599592e-05,-0.0034727014,0.003509915,-0.0010743649,0.14261271,-0.03620441,0.26547378,0.0,0.0,0.0,0.0,0.0,8.432761e-05,6.3348384e-06,6.172176e-06,4.9089585e-06,0.022770133,0.022774156,0.016430248,0.26685002,0.26684955,0.22233956,2.0729458e-11,2.1006795e-11,4.2952152e-11,5.0840892e-08,5.06367e-08,5e-08,0.0,0.0,0.0,0.0,0.0,0.0,0.0,0.0,24
620189269,620088931,0.20530021,0.024420727,0.053786952,0.97691476,-0.003290669,-0.04135316,0.033625383,0.6052288,-1.735665,4.958317,3.580565e-05,-7.0255635e-05,-1.8606786e-05,-0.0034727463,0.0035099168,-0.0010722609,0.14261271,-0.03620441,0.26547378,0.0,0.0,0.0,0.0,0.0,8.4529e-05,6.457543e-06,6.3124394e-06,4.8329125e-06,0.023722451,0.023727495,0.016688984,0.2657888,0.26578942,0.22521375,2.0880943e-11,2.1156374e-11,4.2973004e-11,5.084877e-08,5.0645685e-08,5.000027e-08,0.0,0.0,0.0,0.0,0.0,0.0,0.0,0.0,24
621189205,621088806,0.20502149,0.024120498,0.05226942,0.9770631,-0.038553957,0.032530773,0.024650048,0.46283653,-1.6450866,4.964842,3.5966612e-05,-6.956819e-05,-1.8319139e-05,-0.0034729189,0.003509869,-0.0010608144,0.14261271,-0.03620441,0.26547378,0.0,0.0,0.0,0.0,0.0,8.469119e-05,6.536196e-06,6.394969e-06,4.767564e-06,0.024458477,0.024462277,0.016750634,0.2654922,0.2654936,0.22388755,2.0960782e-11,2.1236186e-11,4.2992263e-11,5.0856755e-08,5.0654677e-08,5e-08,0.0,0.0,0.0,0.0,0.0,0.0,0.0,0.0,24
622189075,622088681,0.20426466,0.019227328,0.05351507,0.9772628,-0.039354928,0.07154685,0.004157687,0.40288168,-1.5557784,4.9380236,3.6027322e-05,-6.956415e-05,-1.808786e-05,-0.0034730947,0.0035098481,-0.001048336,0.14261271,-0.03620441,0.26547378,0.0,0.0,0.0,0.0,0.0,8.485304e-05,6.679435e-06,6.5005293e-06,4.695182e-06,0.025861735,0.025866235,0.017150594,0.27024913,0.2702517,0.22836389,2.1069252e-11,2.1346255e-11,4.3009714e-11,5.08649e-08,5.0663633e-08,5.000027e-08,0.0,0.0,0.0,0.0,0.0,0.0,0.0,0.0,24
623188942,623088556,0.20382725,0.012067095,0.051337224,0.97758555,-0.013968041,0.10068327,-0.0039008358,0.40047732,-1.5299138,4.89708,3.5826175e-05,-6.986798e-05,-1.7760456e-05,-0.003473265,0.0035098311,-0.0010353735,0.14261271,-0.03620441,0.26547378,0.0,0.0,0.0,0.0,0.0,8.503492e-05,6.6903785e-06,6.5042127e-06,4.6300343e-06,0.026456572,0.02645972,0.017218709,0.27379605,0.2737993,0.22779915,2.1081447e-11,2.1362986e-11,4.302413e-11,5.0872885e-08,5.0672583e-08,5e-08,0.0,0.0,0.0,0.0,0.0,0.0,0.0,0.0,24
624188752,624088430,0.20383792,0.012317928,0.055105805,0.9773749,-0.019170927,0.10567973,0.0021983106,0.3593224,-1.5819391,4.8612337,3.52788e-05,-7.0054964e-05,-1.736867e-05,-0.0034734919,0.003509767,-0.0010189695,0.14261271,-0.03620441,0.26547378,0.0,0.0,0.0,0.0,0.0,8.478395e-05,6.499738e-06,6.2769914e-06,4.564386e-06,0.024500176,0.024500817,0.016947562,0.26727992,0.26728192,0.22774503,2.0864595e-11,2.1156726e-11,4.2957114e-11,5.0880434e-08,5.068153e-08,5.000027e-08,0.0,0.0,0.0,0.0,0.0,0.0,0.0,0.0,24
625188656,625088304,0.20372845,0.0150218215,0.053766236,0.9774345,-0.03517426,0.12146963,-0.008329616,0.31462392,-1.5463789,4.8437247,3.5114754e-05,-7.009657e-05,-1.7049286e-05,-0.003473606,0.003509703,-0.0010122361,0.14261271,-0.03620441,0.26547378,0.0,0.0,0.0,0.0,0.0,8.4906205e-05,6.501309e-06,6.295589e-06,4.515943e-06,0.024460169,0.02446143,0.016849374,0.2669749,0.26697633,0.2256251,2.0876788e-11,2.1175142e-11,4.2969937e-11,5.0887735e-08,5.0690474e-08,5.000009e-08,0.0,0.0,0.0,0.0,0.0,0.0,0.0,0.0,24
626188511,626088179,0.20362002,0.016246593,0.053227235,0.97746706,-0.016120905,0.1458897,-0.008480003,0.2826106,-1.4930034,4.8356705,3.4914505e-05,-7.018491e-05,-1.671649e-05,-0.0034735003,0.0035096712,-0.0010152013,0.14261271,-0.03620441,0.26547378,0.0,0.0,0.0,0.0,0.0,8.5028274e-05,6.709686e-06,6.509672e-06,4.4693293e-06,0.02641702,0.026417289,0.017335111,0.2754552,0.27545616,0.23083684,2.1070846e-11,2.1371249e-11,4.2986354e-11,5.0895135e-08,5.0699413e-08,5.000027e-08,0.0,0.0,0.0,0.0,0.0,0.0,0.0,0.0,24
627188527,627088051,0.20337574,0.015189977,0.05344363,0.9775231,0.015505226,0.12947898,-0.002861001,0.30743995,-1.511965,4.84742,3.4474786e-05,-7.0539296e-05,-1.6351205e-05,-0.0034733352,0.0035096952,-0.0010191337,0.14261271,-0.03620441,0.26547378,0.0,0.0,0.0,0.0,0.0,8.515711e-05,6.898654e-06,6.6921893e-06,4.418441e-06,0.028498504,0.028498717,0.01766505,0.28740823,0.28740826,0.23248036,2.1231034e-11,2.153379e-11,4.3002817e-11,5.0902486e-08,5.070834e-08,5.000009e-08,0.0,0.0,0.0,0.0,0.0,0.0,0.0,0.0,24
628188279,628087923,0.20312828,0.0153590655,0.052637175,0.97761565,0.04959024,0.14382333,0.0053243074,0.3534047,-1.482743,4.84962,3.4222627e-05,-7.066667e-05,-1.6008926e-05,-0.0034732444,0.0035096784,-0.0010206981,0.14261271,-0.03620441,0.26547378,0.0,0.0,0.0,0.0,0.0,8.495116e-05,7.0498736e-06,6.8491627e-06,4.3532996e-06,0.030559782,0.030559411,0.018160528,0.30265778,0.30265653,0.23894425,2.1357457e-11,2.166147e-11,4.294445e-11,5.0909915e-08,5.0717258e-08,5.000036e-08,0.0,0.0,0.0,0.0,0.0,0.0,0.0,0.0,24
629188126,629087795,0.20281985,0.014643249,0.05411024,0.9776103,0.07715224,0.0956981,0.009866459,0.41223902,-1.6024784,4.8638473,3.345618e-05,-7.0911556e-05,-1.5663603e-05,-0.0034729578,0.0035097175,-0.0010260069,0.14261271,-0.03620441,0.26547378,0.0,0.0,0.0,0.0,0.0,8.5066094e-05,6.8744666e-06,6.6565694e-06,4.303804e-06,0.029148212,0.029147733,0.017859694,0.30213556,0.30213356,0.23642108,2.1173377e-11,2.1485114e-11,4.2955632e-11,5.0917176e-08,5.072615e-08,5.000009e-08,0.0,0.0,0.0,0.0,0.0,0.0,0.0,0.0,24
630188059,630087667,0.20275657,0.014020325,0.054448042,0.97761375,0.057829317,0.089882016,0.0042235353,0.3681017,-1.6197096,4.8618307,3.3064418e-05,-7.0612645e-05,-1.5322434e-05,-0.0034728313,0.0035096023,-0.0010269978,0.14261271,-0.03620441,0.26547378,0.0,0.0,0.0,0.0,0.0,8.5184896e-05,6.824914e-06,6.597171e-06,4.2611355e-06,0.028552976,0.028553382,0.017845586,0.30273497,0.30273223,0.2386794,2.1125709e-11,2.1441257e-11,4.2970284e-11,5.0924726e-08,5.0735043e-08,5.000036e-08,0.0,0.0,0.0,0.0,0.0,0.0,0.0,0.0,24
631187851,631087538,0.20266664,0.014442915,0.053317823,0.9776886,0.020077087,0.11981528,0.0023882492,0.23787953,-1.5732068,4.8371944,3.2847336e-05,-7.0174065e-05,-1.5042193e-05,-0.0034729196,0.0035094395,-0.001016178,0.14261271,-0.03620441,0.26547378,0.0,0.0,0.0,0.0,0.0,8.53115e-05,7.002966e-06,6.7827914e-06,4.223032e-06,0.030347498,0.03034852,0.018020134,0.3143344,0.3143309,0.23899494,2.129704e-11,2.1611624e-11,4.2989154e-11,5.0932517e-08,5.0743946e-08,5.000009e-08,0.0,0.0,0.0,0.0,0.0,0.0,0.0,0.0,24
632187855,632087409,0.20244801,0.014095112,0.05432984,0.9776832,-0.017314626,0.12820236,-0.0030613872,0.051699765,-1.5395103,4.8235397,3.245035e-05,-6.98699e-05,-1.467998e-05,-0.0034729287,0.0035092926,-0.0010046657,0.14261271,-0.03620441,0.26547378,0.0,0.0,0.0,0.0,0.0,8.509228e-05,7.1196855e-06,6.886622e-06,4.1622447e-06,0.03171156,0.0317137,0.018334212,0.3267373,0.32673353,0.243824,2.1385421e-11,2.1698855e-11,4.293302e-11,5.0940503e-08,5.0752845e-08,5.0000363e-08,0.0,0.0,0.0,0.0,0.0,0.0,0.0,0.0,24
633187588,633087279,0.20255822,0.014558965,0.05579311,0.9775711,-0.025292112,0.10203217,-0.025572913,-0.05151416,-1.5646384,4.776237,3.2166376e-05,-6.994665e-05,-1.429187e-05,-0.003472993,0.0035092446,-0.0009909328,0.14261271,-0.03620441,0.26547378,0.0,0.0,0.0,0.0,0.0,8.5189095e-05,6.9295465e-06,6.681974e-06,4.1300877e-06,0.029862856,0.029866109,0.01793675,0.32318872,0.3231857,0.23986478,2.1194343e-11,2.1510686e-11,4.294859e-11,5.0948508e-08,5.0761713e-08,5.000018e-08,0.0,0.0,0.0,0.0,0.0,0.0,0.0,0.0,24
634187513,634087149,0.20261799,0.013800762,0.05484788,0.97762334,-0.032865983,0.061582915,-0.016412688,-0.15906973,-1.6606916,4.766077,3.1740503e-05,-7.0009504e-05,-1.3879848e-05,-0.0034728537,0.0035092174,-0.0009901562,0.14261271,-0.03620441,0.26547378,0.0,0.0,0.0,0.0,0.0,8.5319974e-05,7.0575243e-06,6.820218e-06,4.0952386e-06,0.031161768,0.03116619,0.018220391,0.33330983,0.33330765,0.24389443,2.1324794e-11,2.1637933e-11,4.296935e-11,5.095678e-08,5.0770595e-08,5.000036e-08,0.0,0.0,0.0,0.0,0.0,0.0,0.0,0.0,24
635197367,635097018,0.20277514,0.013693085,0.056052033,0.97752386,-0.025168987,0.05504338,-0.0129426215,-0.24201454,-1.7151009,4.755739,3.1639134e-05,-7.00966e-05,-1.3406738e-05,-0.0034728139,0.0035091816,-0.0009882322,0.14261271,-0.03620441,0.26547378,0.0,0.0,0.0,0.0,0.0,8.546926e-05,7.0084097e-06,6.758399e-06,4.063405e-06,0.030623237,0.030627897,0.018048795,0.33486712,0.33486566,0.2417996,2.1267925e-11,2.1580019e-11,4.2998063e-11,5.0965188e-08,5.077956e-08,5.000018e-08,0.0,0.0,0.0,0.0,0.0,0.0,0.0,0.0,24
636187312,636086888,0.20249027,0.013366169,0.05568556,0.9776084,-0.05297324,0.04996526,-0.035324313,-0.4165967,-1.7312784,4.7312593,3.158833e-05,-6.990449e-05,-1.305065e-05,-0.0034728094,0.003509074,-0.0009836374,0.14261271,-0.03620441,0.26547378,0.0,0.0,0.0,0.0,0.0,8.555312e-05,7.1463865e-06,6.8991044e-06,4.020352e-06,0.03205045,0.032056373,0.018318353,0.34406498,0.3440651,0.24498136,2.1397469e-11,2.1705204e-11,4.301003e-11,5.0973597e-08,5.078836e-08,5.000036e-08,0.0,0.0,0.0,0.0,0.0,0.0,0.0,0.0,24
637187114,637086756,0.203037,0.013450362,0.055176165,0.9775228,-0.033209782,0.02765623,-0.031160615,-0.52146566,-1.7978557,4.688434,3.1410334e-05,-7.010189e-05,-1.25357265e-05,-0.0034727815,0.0035090663,-0.0009775697,0.14261271,-0.03620441,0.26547378,0.0,0.0,0.0,0.0,0.0,8.532323e-05,7.4163772e-06,7.1787194e-06,3.987279e-06,0.0352721,0.03527925,0.018666824,0.36616418,0.3661673,0.2465167,2.1638583e-11,2.1939431e-11,4.295893e-11,5.098216e-08,5.0797276e-08,5.000009e-08,0.0,0.0,0.0,0.0,0.0,0.0,0.0,0.0,24
638186933,638086625,0.20342651,0.0117331715,0.056324273,0.97739846,-0.0075294278,0.031795964,-0.013415723,-0.57081276,-1.8350962,4.691453,3.1369567e-05,-7.023319e-05,-1.2059045e-05,-0.0034727002,0.0035090575,-0.00098241,0.14261271,-0.03620441,0.26547378,0.0,0.0,0.0,0.0,0.0,8.54198e-05,7.3413726e-06,7.0887695e-06,3.965989e-06,0.034765974,0.034772646,0.018730195,0.37017694,0.37018093,0.24931568,2.1552e-11,2.1851429e-11,4.2977594e-11,5.0990764e-08,5.0806197e-08,5.0000452e-08,0.0,0.0,0.0,0.0,0.0,0.0,0.0,0.0,24
639186802,639086492,0.20343679,0.011261611,0.056222234,0.97740763,-0.008689685,0.025634276,-0.023298336,-0.6684313,-1.8295699,4.7314553,3.1359552e-05,-7.012387e-05,-1.1623812e-05,-0.0034725808,0.003508988,-0.0009957458,0.14261271,-0.03620441,0.26547378,0.0,0.0,0.0,0.0,0.0,8.5535896e-05,7.3504484e-06,7.0984574e-06,3.9340316e-06,0.03522091,0.035228,0.018677404,0.3779343,0.37793916,0.24787304,2.1556382e-11,2.1853531e-11,4.299734e-11,5.0999436e-08,5.081508e-08,5.000018e-08,0.0,0.0,0.0,0.0,0.0,0.0,0.0,0.0,24
640186670,640086359,0.20369394,0.010217469,0.051899824,0.9776046,0.017107904,0.009027671,-0.003081212,-0.71144557,-1.9027258,4.7578864,3.107654e-05,-7.023906e-05,-1.1086428e-05,-0.0034724036,0.0035089701,-0.0010077404,0.14261271,-0.03620441,0.26547378,0.0,0.0,0.0,0.0,0.0,8.5687694e-05,6.6049224e-06,6.3973466e-06,3.9021184e-06,0.027709803,0.027714096,0.017634971,0.34068576,0.34068698,0.24161564,2.0933208e-11,2.1235642e-11,4.3009294e-11,5.1008037e-08,5.082391e-08,5.0000452e-08,0.0,0.0,0.0,0.0,0.0,0.0,0.0,0.0,24
641189186,641086227,0.20440727,0.010967045,0.05138432,0.97747487,0.011743287,0.06860552,0.013596537,-0.8525438,-1.8554802,4.7611165,3.100513e-05,-6.977356e-05,-1.0535979e-05,-0.0034723654,0.003508777,-0.0010082064,0.14261271,-0.03620441,0.26547378,0.0,0.0,0.0,0.0,0.0,8.5444735e-05,6.6634384e-06,6.459016e-06,3.8730454e-06,0.027412156,0.027415792,0.01742098,0.33403486,0.33403587,0.23730403,2.1011873e-11,2.1312615e-11,4.2952534e-11,5.101677e-08,5.0832824e-08,5.0000178e-08,0.0,0.0,0.0,0.0,0.0,0.0,0.0,0.0,24
642196461,642096091,0.20479842,0.0117375525,0.05365193,0.97726226,0.027484205,0.08448403,0.012763777,-0.9058805,-1.8386766,4.7574463,3.070575e-05,-6.970538e-05,-1.0083661e-05,-0.003472271,0.0035087185,-0.0010079959,0.14261271,-0.03620441,0.26547378,0.0,0.0,0.0,0.0,0.0,8.556039e-05,6.5387558e-06,6.3119405e-06,3.860225e-06,0.025066579,0.02506956,0.01683779,0.314208,0.3142086,0.23020245,2.0898437e-11,2.1203431e-11,4.2975835e-11,5.1025573e-08,5.0841802e-08,5e-08,0.0,0.0,0.0,0.0,0.0,0.0,0.0,0.0,24
643186365,643085959,0.20520498,0.01259077,0.051591974,0.97727716,0.025496958,0.0869699,0.015055155,-0.99102265,-1.8109785,4.738361,3.0265515e-05,-6.9421825e-05,-9.68405e-06,-0.003472167,0.0035085848,-0.0010021914,0.14261271,-0.03620441,0.26547378,0.0,0.0,0.0,0.0,0.0,8.562278e-05,6.5512017e-06,6.3446687e-06,3.846547e-06,0.02486332,0.024866503,0.016828006,0.30393916,0.30393952,0.22942701,2.0931914e-11,2.1238455e-11,4.298154e-11,5.1034295e-08,5.085062e-08,5.000018e-08,0.0,0.0,0.0,0.0,0.0,0.0,0.0,0.0,24
644196133,644095823,0.20548126,0.011471324,0.05414903,0.97709465,0.049192734,0.07355546,0.006048495,-0.9931112,-1.8215415,4.719452,2.9793682e-05,-6.9410635e-05,-9.304358e-06,-0.0034720511,0.003508514,-0.0009927585,0.14261271,-0.03620441,0.26547378,0.0,0.0,0.0,0.0,0.0,8.573845e-05,6.716257e-06,6.482042e-06,3.8382327e-06,0.026056472,0.026060043,0.017003573,0.30232313,0.30232316,0.22837259,2.1059245e-11,2.1366096e-11,4.3008676e-11,5.104323e-08,5.0859615e-08,5.000009e-08,0.0,0.0,0.0,0.0,0.0,0.0,0.0,0.0,24
645196152,645095688,0.20576586,0.011956647,0.056340758,0.9769049,0.06865543,0.0349628,-0.011186554,-0.93584967,-1.8434988,4.7079687,2.9478291e-05,-6.936357e-05,-8.885307e-06,-0.0034719536,0.003508447,-0.0009887108,0.14261271,-0.03620441,0.26547378,0.0,0.0,0.0,0.0,0.0,8.547124e-05,6.815183e-06,6.561668e-06,3.8131668e-06,0.02705898,0.027063591,0.017321063,0.30224296,0.30224365,0.23154126,2.1120435e-11,2.1425842e-11,4.2951573e-11,5.105207e-08,5.086851e-08,5.000027e-08,0.0,0.0,0.0,0.0,0.0,0.0,0.0,0.0,24
646185993,646085554,0.20627138,0.0126849245,0.054314572,0.9769039,0.06845857,0.023895347,-0.0052580503,-0.8550045,-1.8312496,4.7060127,2.93236e-05,-6.904792e-05,-8.442124e-06,-0.0034718805,0.003508316,-0.0009898552,0.14261271,-0.03620441,0.26547378,0.0,0.0,0.0,0.0,0.0,8.553289e-05,6.725013e-06,6.4936708e-06,3.802566e-06,0.02657539,0.026579846,0.017168073,0.29613146,0.29613256,0.22807118,2.104755e-11,2.1351799e-11,4.2959667e-11,5.1060805e-08,5.0877308e-08,5e-08,0.0,0.0,0.0,0.0,0.0,0.0,0.0,0.0,24
647185734,647085418,0.20679517,0.012284679,0.055638216,0.9767238,0.08831811,0.015064589,0.0027321263,-0.718683,-1.8305583,4.7372513,2.9139605e-05,-6.885191e-05,-7.976532e-06,-0.003471775,0.0035082374,-0.000998152,0.14261271,-0.03620441,0.26547378,0.0,0.0,0.0,0.0,0.0,8.5609776e-05,6.3661005e-06,6.122094e-06,3.795327e-06,0.023067785,0.023071112,0.016549813,0.2767657,0.27676612,0.22472896,2.0706579e-11,2.1012293e-11,4.2975224e-11,5.1069662e-08,5.0886168e-08,5.000027e-08,0.0,0.0,0.0,0.0,0.0,0.0,0.0,0.0,24
648195590,648095280,0.20742807,0.012513705,0.05585067,0.9765745,0.08666951,0.023190778,-0.01724173,-0.6140944,-1.7531649,4.728332,2.9157129e-05,-6.838239e-05,-7.510872e-06,-0.0034717447,0.0035080602,-0.0009993812,0.14261271,-0.03620441,0.26547378,0.0,0.0,0.0,0.0,0.0,8.573793e-05,6.4019955e-06,6.155654e-06,3.794021e-06,0.022943696,0.022947334,0.016429769,0.2699442,0.2699447,0.22199616,2.0752027e-11,2.1054224e-11,4.3005727e-11,5.1078672e-08,5.0895167e-08,5.000009e-08,0.0,0.0,0.0,0.0,0.0,0.0,0.0,0.0,24
649195449,649095143,0.207984,0.012291361,0.05582472,0.9764605,0.07282116,0.014896349,-0.012270414,-0.52540857,-1.713339,4.7185826,2.8983297e-05,-6.803867e-05,-7.073399e-06,-0.0034716676,0.003507924,-0.0010008542,0.14261271,-0.03620441,0.26547378,0.0,0.0,0.0,0.0,0.0,8.58249e-05,6.3043594e-06,6.060972e-06,3.7917434e-06,0.021747721,0.021751639,0.016202025,0.2583635,0.25836408,0.22080024,2.0672101e-11,2.0971246e-11,4.302542e-11,5.1087575e-08,5.0904053e-08,5.000036e-08,0.0,0.0,0.0,0.0,0.0,0.0,0.0,0.0,24
650185579,650085007,0.20850228,0.011617945,0.056446653,0.97632253,0.08898547,0.0064874035,-0.018777503,-0.37366286,-1.6506047,4.7144256,2.8981462e-05,-6.789787e-05,-6.617895e-06,-0.003471642,0.003507853,-0.0010046732,0.14261271,-0.03620441,0.26547378,0.0,0.0,0.0,0.0,0.0,8.552137e-05,6.410087e-06,6.1627275e-06,3.7751781e-06,0.022388168,0.022392843,0.016235232,0.2530077,0.2530086,0.21803497,2.0775137e-11,2.1068203e-11,4.2962935e-11,5.1096407e-08,5.0912877e-08,5e-08,0.0,0.0,0.0,0.0,0.0,0.0,0.0,0.0,24
651195174,651094868,0.20911768,0.011560935,0.05626081,0.97620237,0.096218735,-0.01189119,3.304582e-05,-0.19482319,-1.6328576,4.719868,2.8843711e-05,-6.78116e-05,-6.181292e-06,-0.0034715715,0.0035077925,-0.0010157814,0.14261271,-0.03620441,0.26547378,0.0,0.0,0.0,0.0,0.0,8.564876e-05,6.420455e-06,6.179848e-06,3.7809546e-06,0.022490406,0.02249595,0.016381485,0.24797179,0.24797297,0.22028732,2.078864e-11,2.107758e-11,4.2993577e-11,5.1105413e-08,5.092187e-08,5.000036e-08,0.0,0.0,0.0,0.0,0.0,0.0,0.0,0.0,24
652195035,652094730,0.2096319,0.0135033345,0.05652365,0.97605187,0.07874327,-0.022087855,-0.0091927815,-0.07804142,-1.6012349,4.699768,2.8732264e-05,-6.7450004e-05,-5.7876077e-06,-0.0034715263,0.0035076595,-0.0010121958,0.14261271,-0.03620441,0.26547378,0.0,0.0,0.0,0.0,0.0,8.572371e-05,6.1599735e-06,5.924872e-06,3.783713e-06,0.020335248,0.020339891,0.015800422,0.23538424,0.23538515,0.21448503,2.0538645e-11,2.0826198e-11,4.3011927e-11,5.1114302e-08,5.093075e-08,5.0000178e-08,0.0,0.0,0.0,0.0,0.0,0.0,0.0,0.0,24
653184912,653084593,0.21019877,0.013279798,0.056443576,0.97593766,0.04024718,-0.005626258,-0.007593909,-0.036377687,-1.5010151,4.6857567,2.884053e-05,-6.6857065e-05,-5.4543157e-06,-0.0034715324,0.0035074616,-0.0010137443,0.14261271,-0.03620441,0.26547378,0.0,0.0,0.0,0.0,0.0,8.575479e-05,6.2045133e-06,5.9700774e-06,3.7906389e-06,0.020332558,0.020337662,0.015804129,0.22775827,0.22775935,0.21428542,2.0595149e-11,2.0878705e-11,4.3022728e-11,5.1123138e-08,5.093957e-08,5.000027e-08,0.0,0.0,0.0,0.0,0.0,0.0,0.0,0.0,24
654194853,654094452,0.21069619,0.014207809,0.05681362,0.97579587,0.047946814,-0.012222404,-0.0062073176,0.07799798,-1.4328911,4.687629,2.8960301e-05,-6.681179e-05,-5.0554413e-06,-0.003471549,0.0035074314,-0.0010184392,0.14261271,-0.03620441,0.26547378,0.0,0.0,0.0,0.0,0.0,8.5532076e-05,6.3135813e-06,6.0805537e-06,3.7860216e-06,0.021192186,0.021198029,0.015983047,0.22591062,0.22591247,0.21397851,2.0698375e-11,2.0977107e-11,4.29792e-11,5.1132158e-08,5.094858e-08,5.000009e-08,0.0,0.0,0.0,0.0,0.0,0.0,0.0,0.0,24
655194654,655094313,0.21111909,0.013496934,0.05664647,0.9757242,0.014621084,-0.014196674,-0.025928853,0.07708825,-1.3576826,4.6310077,2.8991048e-05,-6.6450935e-05,-4.7871777e-06,-0.0034715554,0.0035073198,-0.0010051632,0.14261271,-0.03620441,0.26547378,0.0,0.0,0.0,0.0,0.0,8.560855e-05,6.5871563e-06,6.3558464e-06,3.798321e-06,0.023893284,0.023900885,0.01676793,0.23351885,0.23352313,0.22105603,2.0950394e-11,2.1223917e-11,4.3001464e-11,5.1141097e-08,5.0957514e-08,5.000036e-08,0.0,0.0,0.0,0.0,0.0,0.0,0.0,0.0,24
656194518,656094173,0.21154714,0.01378329,0.056671098,0.9756261,0.03448149,-0.027436983,-0.012525071,0.16109356,-1.3307623,4.6187377,2.912282e-05,-6.664143e-05,-4.435814e-06,-0.0034715775,0.003507363,-0.0010073095,0.14261271,-0.03620441,0.26547378,0.0,0.0,0.0,0.0,0.0,8.568093e-05,6.534657e-06,6.307138e-06,3.8083126e-06,0.024253882,0.024261242,0.016904833,0.2377173,0.23772246,0.22206084,2.0878054e-11,2.1150087e-11,4.301976e-11,5.115002e-08,5.0966424e-08,5.000009e-08,0.0,0.0,0.0,0.0,0.0,0.0,0.0,0.0,24
