timestamp,timestamp_sample,gps_hvel[0],gps_hvel[1],gps_vvel,gps_hpos[0],gps_hpos[1],gps_vpos,ev_hvel[0],ev_hvel[1],ev_vvel,ev_hpos[0],ev_hpos[1],ev_vpos,rng_vpos,baro_vpos,aux_hvel[0],aux_hvel[1],aux_vvel,flow[0],flow[1],heading,mag_field[0],mag_field[1],mag_field[2],drag[0],drag[1],airspeed,beta,hagl,hagl_rate
539758365,539658143,0.34379232,0.3437908,0.7398208,4.1308565,4.1308556,0.0,0.0,0.0,0.0,0.0,0.0,0.0,0.0,12.463993,0.0,0.0,nan,0.0,0.0,0.0903541,0.0,0.0,0.0,0.0,0.0,0.0,0.0,0.0,0.0
540258276,540158085,0.14682588,0.14682448,0.29692036,4.0726123,4.072612,0.0,0.0,0.0,0.0,0.0,0.0,0.0,0.0,12.461764,0.0,0.0,nan,0.0,0.0,0.09035426,0.0,0.0,0.0,0.0,0.0,0.0,0.0,0.0,0.0
540758225,540658028,0.1518385,0.15183759,0.31670466,3.9618251,3.961825,0.0,0.0,0.0,0.0,0.0,0.0,0.0,0.0,12.4519,0.0,0.0,nan,0.0,0.0,0.09035421,0.0,0.0,0.0,0.0,0.0,0.0,0.0,0.0,0.0
541258159,541157970,0.2048871,0.20488626,0.43860778,3.891433,3.891433,0.0,0.0,0.0,0.0,0.0,0.0,0.0,0.0,12.451286,0.0,0.0,nan,0.0,0.0,0.09035425,0.0,0.0,0.0,0.0,0.0,0.0,0.0,0.0,0.0
541758151,541657913,0.3268361,0.32683533,0.7127261,3.8291984,3.8291981,0.0,0.0,0.0,0.0,0.0,0.0,0.0,0.0,12.449952,0.0,0.0,nan,0.0,0.0,0.09035422,0.0,0.0,0.0,0.0,0.0,0.0,0.0,0.0,0.0
542258061,542157858,0.2952621,0.29526123,0.639878,3.8067122,3.806712,0.0,0.0,0.0,0.0,0.0,0.0,0.0,0.0,12.453109,0.0,0.0,nan,0.0,0.0,0.0903542,0.0,0.0,0.0,0.0,0.0,0.0,0.0,0.0,0.0
542757991,542657798,0.17724258,0.17724153,0.37180838,3.7794318,3.7794316,0.0,0.0,0.0,0.0,0.0,0.0,0.0,0.0,12.452016,0.0,0.0,nan,0.0,0.0,0.09035424,0.0,0.0,0.0,0.0,0.0,0.0,0.0,0.0,0.0
543257932,543157741,0.23646235,0.23646128,0.50590307,3.76386,3.7638595,0.0,0.0,0.0,0.0,0.0,0.0,0.0,0.0,12.45363,0.0,0.0,nan,0.0,0.0,0.0903544,0.0,0.0,0.0,0.0,0.0,0.0,0.0,0.0,0.0
543757871,543657683,0.16921958,0.16921844,0.35402778,3.7346706,3.7346702,0.0,0.0,0.0,0.0,0.0,0.0,0.0,0.0,12.451177,0.0,0.0,nan,0.0,0.0,0.090354346,0.0,0.0,0.0,0.0,0.0,0.0,0.0,0.0,0.0
544257891,544157626,0.24197237,0.24197125,0.5186175,3.700748,3.7007475,0.0,0.0,0.0,0.0,0.0,0.0,0.0,0.0,12.453395,0.0,0.0,nan,0.0,0.0,0.09035431,0.0,0.0,0.0,0.0,0.0,0.0,0.0,0.0,0.0
544757777,544657569,0.28156805,0.28156692,0.60743153,3.6894197,3.6894193,0.0,0.0,0.0,0.0,0.0,0.0,0.0,0.0,12.452465,0.0,0.0,nan,0.0,0.0,0.09035436,0.0,0.0,0.0,0.0,0.0,0.0,0.0,0.0,0.0
545257769,545157512,0.2725827,0.27258152,0.5848625,3.7339056,3.7339048,0.0,0.0,0.0,0.0,0.0,0.0,0.0,0.0,12.456455,0.0,0.0,nan,0.0,0.0,0.090354316,0.0,0.0,0.0,0.0,0.0,0.0,0.0,0.0,0.0
545757698,545657454,0.40076655,0.4007653,0.87235624,3.7870162,3.7870152,0.0,0.0,0.0,0.0,0.0,0.0,0.0,0.0,12.457048,0.0,0.0,nan,0.0,0.0,0.09035447,0.0,0.0,0.0,0.0,0.0,0.0,0.0,0.0,0.0
546257606,546157397,0.23510578,0.23510446,0.4983941,3.8136246,3.8136237,0.0,0.0,0.0,0.0,0.0,0.0,0.0,0.0,12.459432,0.0,0.0,nan,0.0,0.0,0.09035432,0.0,0.0,0.0,0.0,0.0,0.0,0.0,0.0,0.0
546757548,546657340,0.29594833,0.295947,0.6341284,3.8457606,3.8457594,0.0,0.0,0.0,0.0,0.0,0.0,0.0,0.0,12.4597025,0.0,0.0,nan,0.0,0.0,0.09035443,0.0,0.0,0.0,0.0,0.0,0.0,0.0,0.0,0.0
547257506,547157283,0.33392584,0.33392462,0.7193587,3.8743737,3.8743722,0.0,0.0,0.0,0.0,0.0,0.0,0.0,0.0,12.463629,0.0,0.0,nan,0.0,0.0,0.09035439,0.0,0.0,0.0,0.0,0.0,0.0,0.0,0.0,0.0
547757421,547657226,0.31678525,0.3167841,0.6798944,3.9090366,3.9090354,0.0,0.0,0.0,0.0,0.0,0.0,0.0,0.0,12.463626,0.0,0.0,nan,0.0,0.0,0.090354435,0.0,0.0,0.0,0.0,0.0,0.0,0.0,0.0,0.0
548257358,548157169,0.2674475,0.2674465,0.5699528,3.9421456,3.9421446,0.0,0.0,0.0,0.0,0.0,0.0,0.0,0.0,12.464097,0.0,0.0,nan,0.0,0.0,0.09035439,0.0,0.0,0.0,0.0,0.0,0.0,0.0,0.0,0.0
548757301,548657112,0.32328266,0.32328162,0.694717,4.016891,4.0168896,0.0,0.0,0.0,0.0,0.0,0.0,0.0,0.0,12.464721,0.0,0.0,nan,0.0,0.0,0.09035434,0.0,0.0,0.0,0.0,0.0,0.0,0.0,0.0,0.0
549257294,549157055,0.30965778,0.30965677,0.6630192,4.047324,4.047323,0.0,0.0,0.0,0.0,0.0,0.0,0.0,0.0,12.468427,0.0,0.0,nan,0.0,0.0,0.09035439,0.0,0.0,0.0,0.0,0.0,0.0,0.0,0.0,0.0
549757192,549656998,0.20913786,0.209137,0.43831664,4.0052333,4.0052323,0.0,0.0,0.0,0.0,0.0,0.0,0.0,0.0,12.464635,0.0,0.0,nan,0.0,0.0,0.090354525,0.0,0.0,0.0,0.0,0.0,0.0,0.0,0.0,0.0
550257181,550156941,0.22115472,0.22115396,0.46772873,3.9819858,3.981985,0.0,0.0,0.0,0.0,0.0,0.0,0.0,0.0,12.464121,0.0,0.0,nan,0.0,0.0,0.090354554,0.0,0.0,0.0,0.0,0.0,0.0,0.0,0.0,0.0
550757189,550656885,0.16216294,0.16216211,0.33581874,3.9163685,3.916368,0.0,0.0,0.0,0.0,0.0,0.0,0.0,0.0,12.459918,0.0,0.0,nan,0.0,0.0,0.090354435,0.0,0.0,0.0,0.0,0.0,0.0,0.0,0.0,0.0
551267028,551166827,0.26045057,0.2604499,0.5600485,3.8635185,3.8635178,0.0,0.0,0.0,0.0,0.0,0.0,0.0,0.0,12.460359,0.0,0.0,nan,0.0,0.0,0.090354465,0.0,0.0,0.0,0.0,0.0,0.0,0.0,0.0,0.0
551757037,551656771,0.20342216,0.20342146,0.4314383,3.8266745,3.8266742,0.0,0.0,0.0,0.0,0.0,0.0,0.0,0.0,12.456258,0.0,0.0,nan,0.0,0.0,0.09035441,0.0,0.0,0.0,0.0,0.0,0.0,0.0,0.0,0.0
552256958,552156715,0.248713,0.24871227,0.5337473,3.8140836,3.814083,0.0,0.0,0.0,0.0,0.0,0.0,0.0,0.0,12.457755,0.0,0.0,nan,0.0,0.0,0.090354644,0.0,0.0,0.0,0.0,0.0,0.0,0.0,0.0,0.0
552756850,552656658,0.14796244,0.1479616,0.306935,3.7521393,3.752139,0.0,0.0,0.0,0.0,0.0,0.0,0.0,0.0,12.453173,0.0,0.0,nan,0.0,0.0,0.09035469,0.0,0.0,0.0,0.0,0.0,0.0,0.0,0.0,0.0
553256823,553156602,0.19934833,0.19934756,0.42502573,3.699599,3.6995988,0.0,0.0,0.0,0.0,0.0,0.0,0.0,0.0,12.452306,0.0,0.0,nan,0.0,0.0,0.09035456,0.0,0.0,0.0,0.0,0.0,0.0,0.0,0.0,0.0
553756740,553656545,0.2781263,0.27812555,0.60419345,3.6163545,3.6163545,0.0,0.0,0.0,0.0,0.0,0.0,0.0,0.0,12.447848,0.0,0.0,nan,0.0,0.0,0.090354584,0.0,0.0,0.0,0.0,0.0,0.0,0.0,0.0,0.0
554266759,554166488,0.17420338,0.17420241,0.3692021,3.5768855,3.5768852,0.0,0.0,0.0,0.0,0.0,0.0,0.0,0.0,12.448563,0.0,0.0,nan,0.0,0.0,0.09035454,0.0,0.0,0.0,0.0,0.0,0.0,0.0,0.0,0.0
554766653,554666431,0.18858665,0.18858543,0.40042686,3.5397563,3.5397563,0.0,0.0,0.0,0.0,0.0,0.0,0.0,0.0,12.447809,0.0,0.0,nan,0.0,0.0,0.09035458,0.0,0.0,0.0,0.0,0.0,0.0,0.0,0.0,0.0
555256612,555156376,0.19049849,0.19049725,0.40418342,3.4915285,3.4915283,0.0,0.0,0.0,0.0,0.0,0.0,0.0,0.0,12.449623,0.0,0.0,nan,0.0,0.0,0.09035463,0.0,0.0,0.0,0.0,0.0,0.0,0.0,0.0,0.0
555756526,555656320,0.11514959,0.11514851,0.23519549,3.4277413,3.427741,0.0,0.0,0.0,0.0,0.0,0.0,0.0,0.0,12.444093,0.0,0.0,nan,0.0,0.0,0.090354584,0.0,0.0,0.0,0.0,0.0,0.0,0.0,0.0,0.0
556256457,556156264,0.27556568,0.2755647,0.5973988,3.396656,3.3966556,0.0,0.0,0.0,0.0,0.0,0.0,0.0,0.0,12.446445,0.0,0.0,nan,0.0,0.0,0.090354726,0.0,0.0,0.0,0.0,0.0,0.0,0.0,0.0,0.0
556756396,556656207,0.2026145,0.2026135,0.43257406,3.3872206,3.3872204,0.0,0.0,0.0,0.0,0.0,0.0,0.0,0.0,12.447095,0.0,0.0,nan,0.0,0.0,0.09035466,0.0,0.0,0.0,0.0,0.0,0.0,0.0,0.0,0.0
557256478,557156151,0.3860538,0.3860527,0.84393466,3.4086843,3.408684,0.0,0.0,0.0,0.0,0.0,0.0,0.0,0.0,12.450085,0.0,0.0,nan,0.0,0.0,0.090354614,0.0,0.0,0.0,0.0,0.0,0.0,0.0,0.0,0.0
557766313,557666094,0.37644437,0.37644303,0.8200164,3.4451354,3.4451349,0.0,0.0,0.0,0.0,0.0,0.0,0.0,0.0,12.450425,0.0,0.0,nan,0.0,0.0,0.09035456,0.0,0.0,0.0,0.0,0.0,0.0,0.0,0.0,0.0
558266239,558166038,0.21525824,0.21525672,0.45537755,3.4387524,3.4387522,0.0,0.0,0.0,0.0,0.0,0.0,0.0,0.0,12.452815,0.0,0.0,nan,0.0,0.0,0.09035452,0.0,0.0,0.0,0.0,0.0,0.0,0.0,0.0,0.0
558756228,558655983,0.2584234,0.25842205,0.5536213,3.4136574,3.413657,0.0,0.0,0.0,0.0,0.0,0.0,0.0,0.0,12.454756,0.0,0.0,nan,0.0,0.0,0.090354666,0.0,0.0,0.0,0.0,0.0,0.0,0.0,0.0,0.0
559256133,559155927,0.20769647,0.20769505,0.43947926,3.398285,3.3982847,0.0,0.0,0.0,0.0,0.0,0.0,0.0,0.0,12.454434,0.0,0.0,nan,0.0,0.0,0.0903547,0.0,0.0,0.0,0.0,0.0,0.0,0.0,0.0,0.0
559756208,559655871,0.24182795,0.24182653,0.5169233,3.4027712,3.4027705,0.0,0.0,0.0,0.0,0.0,0.0,0.0,0.0,12.452515,0.0,0.0,nan,0.0,0.0,0.09035465,0.0,0.0,0.0,0.0,0.0,0.0,0.0,0.0,0.0
560256020,560155816,0.29333967,0.2933383,0.6334165,3.409995,3.4099946,0.0,0.0,0.0,0.0,0.0,0.0,0.0,0.0,12.455017,0.0,0.0,nan,0.0,0.0,0.09035459,0.0,0.0,0.0,0.0,0.0,0.0,0.0,0.0,0.0
560766004,560665758,0.2536059,0.25360426,0.542904,3.437042,3.4370413,0.0,0.0,0.0,0.0,0.0,0.0,0.0,0.0,12.455353,0.0,0.0,nan,0.0,0.0,0.09035455,0.0,0.0,0.0,0.0,0.0,0.0,0.0,0.0,0.0
561265894,561165703,0.26353905,0.26353732,0.56488246,3.4564335,3.456433,0.0,0.0,0.0,0.0,0.0,0.0,0.0,0.0,12.458092,0.0,0.0,nan,0.0,0.0,0.09035458,0.0,0.0,0.0,0.0,0.0,0.0,0.0,0.0,0.0
561765838,561665647,0.19811803,0.19811617,0.4166806,3.4647284,3.4647276,0.0,0.0,0.0,0.0,0.0,0.0,0.0,0.0,12.45713,0.0,0.0,nan,0.0,0.0,0.09035472,0.0,0.0,0.0,0.0,0.0,0.0,0.0,0.0,0.0
562255784,562155592,0.16277806,0.16277641,0.33897856,3.464797,3.4647965,0.0,0.0,0.0,0.0,0.0,0.0,0.0,0.0,12.456607,0.0,0.0,nan,0.0,0.0,0.090354666,0.0,0.0,0.0,0.0,0.0,0.0,0.0,0.0,0.0
562755762,562655536,0.21369104,0.21368945,0.45337605,3.5074136,3.5074131,0.0,0.0,0.0,0.0,0.0,0.0,0.0,0.0,12.456281,0.0,0.0,nan,0.0,0.0,0.09035471,0.0,0.0,0.0,0.0,0.0,0.0,0.0,0.0,0.0
563265676,563165480,0.2553736,0.25537187,0.54713446,3.5050418,3.5050414,0.0,0.0,0.0,0.0,0.0,0.0,0.0,0.0,12.458803,0.0,0.0,nan,0.0,0.0,0.090354666,0.0,0.0,0.0,0.0,0.0,0.0,0.0,0.0,0.0
563755669,563655425,0.35101676,0.35101518,0.7622311,3.5000877,3.500087,0.0,0.0,0.0,0.0,0.0,0.0,0.0,0.0,12.458161,0.0,0.0,nan,0.0,0.0,0.09035468,0.0,0.0,0.0,0.0,0.0,0.0,0.0,0.0,0.0
564265586,564165368,0.19925849,0.19925691,0.42021912,3.512848,3.5128472,0.0,0.0,0.0,0.0,0.0,0.0,0.0,0.0,12.458497,0.0,0.0,nan,0.0,0.0,0.09035471,0.0,0.0,0.0,0.0,0.0,0.0,0.0,0.0,0.0
564765510,564665313,0.3480712,0.3480696,0.75455236,3.5575867,3.5575857,0.0,0.0,0.0,0.0,0.0,0.0,0.0,0.0,12.459446,0.0,0.0,nan,0.0,0.0,0.09035483,0.0,0.0,0.0,0.0,0.0,0.0,0.0,0.0,0.0
565265451,565165257,0.3488651,0.3488634,0.75485075,3.6053295,3.6053286,0.0,0.0,0.0,0.0,0.0,0.0,0.0,0.0,12.463149,0.0,0.0,nan,0.0,0.0,0.090354785,0.0,0.0,0.0,0.0,0.0,0.0,0.0,0.0,0.0
565755397,565655203,0.17337888,0.17337717,0.35857543,3.660418,3.660417,0.0,0.0,0.0,0.0,0.0,0.0,0.0,0.0,12.460015,0.0,0.0,nan,0.0,0.0,0.09035482,0.0,0.0,0.0,0.0,0.0,0.0,0.0,0.0,0.0
566255369,566155147,0.17358148,0.1735799,0.3601158,3.6975465,3.6975455,0.0,0.0,0.0,0.0,0.0,0.0,0.0,0.0,12.4608755,0.0,0.0,nan,0.0,0.0,0.090354726,0.0,0.0,0.0,0.0,0.0,0.0,0.0,0.0,0.0
566755314,566655092,0.33396456,0.33396313,0.72162014,3.7619584,3.7619574,0.0,0.0,0.0,0.0,0.0,0.0,0.0,0.0,12.462137,0.0,0.0,nan,0.0,0.0,0.0903547,0.0,0.0,0.0,0.0,0.0,0.0,0.0,0.0,0.0
567265246,567165035,0.2758799,0.27587843,0.59000796,3.8165784,3.8165774,0.0,0.0,0.0,0.0,0.0,0.0,0.0,0.0,12.464748,0.0,0.0,nan,0.0,0.0,0.09035473,0.0,0.0,0.0,0.0,0.0,0.0,0.0,0.0,0.0
567765191,567664980,0.393697,0.3936956,0.853666,3.903973,3.903972,0.0,0.0,0.0,0.0,0.0,0.0,0.0,0.0,12.464883,0.0,0.0,nan,0.0,0.0,0.09035462,0.0,0.0,0.0,0.0,0.0,0.0,0.0,0.0,0.0
568265143,568164924,0.2624091,0.26240766,0.5569056,3.9712758,3.9712746,0.0,0.0,0.0,0.0,0.0,0.0,0.0,0.0,12.467949,0.0,0.0,nan,0.0,0.0,0.09035481,0.0,0.0,0.0,0.0,0.0,0.0,0.0,0.0,0.0
568765108,568664869,0.39966822,0.3996668,0.8650425,4.0917196,4.091718,0.0,0.0,0.0,0.0,0.0,0.0,0.0,0.0,12.468944,0.0,0.0,nan,0.0,0.0,0.09035477,0.0,0.0,0.0,0.0,0.0,0.0,0.0,0.0,0.0
569255021,569154815,0.2607022,0.26070064,0.5505638,4.141842,4.1418405,0.0,0.0,0.0,0.0,0.0,0.0,0.0,0.0,12.470553,0.0,0.0,nan,0.0,0.0,0.09035481,0.0,0.0,0.0,0.0,0.0,0.0,0.0,0.0,0.0
569754950,569654761,0.23435657,0.23435502,0.4910437,4.216669,4.2166677,0.0,0.0,0.0,0.0,0.0,0.0,0.0,0.0,12.469723,0.0,0.0,nan,0.0,0.0,0.09035473,0.0,0.0,0.0,0.0,0.0,0.0,0.0,0.0,0.0
570264939,570164703,0.45610783,0.45610628,0.99098647,4.2823906,4.282389,0.0,0.0,0.0,0.0,0.0,0.0,0.0,0.0,12.473521,0.0,0.0,nan,0.0,0.0,0.09035468,0.0,0.0,0.0,0.0,0.0,0.0,0.0,0.0,0.0
570764866,570664648,0.66164446,0.6616426,1.4500399,4.4285326,4.4285307,0.0,0.0,0.0,0.0,0.0,0.0,0.0,0.0,12.475391,0.0,0.0,nan,0.0,0.0,0.09035472,0.0,0.0,0.0,0.0,0.0,0.0,0.0,0.0,0.0
571264782,571164592,0.42561463,0.42561257,0.91630846,4.5172205,4.5172186,0.0,0.0,0.0,0.0,0.0,0.0,0.0,0.0,12.479098,0.0,0.0,nan,0.0,0.0,0.09035484,0.0,0.0,0.0,0.0,0.0,0.0,0.0,0.0,0.0
571764731,571664537,0.4371812,0.43717882,0.9395342,4.603059,4.6030564,0.0,0.0,0.0,0.0,0.0,0.0,0.0,0.0,12.481073,0.0,0.0,nan,0.0,0.0,0.09035477,0.0,0.0,0.0,0.0,0.0,0.0,0.0,0.0,0.0
572264680,572164481,0.35270563,0.35270315,0.7489099,4.672886,4.672884,0.0,0.0,0.0,0.0,0.0,0.0,0.0,0.0,12.482901,0.0,0.0,nan,0.0,0.0,0.09035481,0.0,0.0,0.0,0.0,0.0,0.0,0.0,0.0,0.0
572754625,572654427,0.28545156,0.2854493,0.5984863,4.754459,4.754457,0.0,0.0,0.0,0.0,0.0,0.0,0.0,0.0,12.481379,0.0,0.0,nan,0.0,0.0,0.090354756,0.0,0.0,0.0,0.0,0.0,0.0,0.0,0.0,0.0
573264607,573164371,0.5196333,0.5196312,1.126612,4.802867,4.802865,0.0,0.0,0.0,0.0,0.0,0.0,0.0,0.0,12.484607,0.0,0.0,nan,0.0,0.0,0.090354696,0.0,0.0,0.0,0.0,0.0,0.0,0.0,0.0,0.0
573764517,573664315,0.44996518,0.4499638,0.9738905,4.7587357,4.758734,0.0,0.0,0.0,0.0,0.0,0.0,0.0,0.0,12.4801235,0.0,0.0,nan,0.0,0.0,0.09035473,0.0,0.0,0.0,0.0,0.0,0.0,0.0,0.0,0.0
574264483,574164260,0.3115079,0.3115075,0.6613711,4.737342,4.73734,0.0,0.0,0.0,0.0,0.0,0.0,0.0,0.0,12.481679,0.0,0.0,nan,0.0,0.0,0.09035486,0.0,0.0,0.0,0.0,0.0,0.0,0.0,0.0,0.0
574764399,574664205,0.337868,0.3378777,0.72265834,4.7208796,4.720878,0.0,0.0,0.0,0.0,0.0,0.0,0.0,0.0,12.479242,0.0,0.0,nan,0.0,0.0,0.09035479,0.0,0.0,0.0,0.0,0.0,0.0,0.0,0.0,0.0
575264396,575164149,0.29240084,0.29242077,0.62077826,4.7020183,4.702017,0.0,0.0,0.0,0.0,0.0,0.0,0.0,0.0,12.478746,0.0,0.0,nan,0.0,0.0,0.09035471,0.0,0.0,0.0,0.0,0.0,0.0,0.0,0.0,0.0
575764287,575664094,0.33056694,0.33060014,0.70972663,4.68401,4.684009,0.0,0.0,0.0,0.0,0.0,0.0,0.0,0.0,12.4734745,0.0,0.0,nan,0.0,0.0,0.09035473,0.0,0.0,0.0,0.0,0.0,0.0,0.0,0.0,0.0
576254241,576154039,0.3567822,0.35682446,0.7682376,4.6963725,4.6963725,0.0,0.0,0.0,0.0,0.0,0.0,0.0,0.0,12.475063,0.0,0.0,nan,0.0,0.0,0.09035465,0.0,0.0,0.0,0.0,0.0,0.0,0.0,0.0,0.0
576764231,576663983,0.41921988,0.41927657,0.90694743,4.742395,4.742399,0.0,0.0,0.0,0.0,0.0,0.0,0.0,0.0,12.475134,0.0,0.0,nan,0.0,0.0,0.09035477,0.0,0.0,0.0,0.0,0.0,0.0,0.0,0.0,0.0
577264119,577163927,0.33914125,0.339203,0.7251232,4.807981,4.807989,0.0,0.0,0.0,0.0,0.0,0.0,0.0,0.0,12.476264,0.0,0.0,nan,0.0,0.0,0.09035461,0.0,0.0,0.0,0.0,0.0,0.0,0.0,0.0,0.0
577764062,577663872,0.4596367,0.45970657,0.994353,4.8783956,4.8784146,0.0,0.0,0.0,0.0,0.0,0.0,0.0,0.0,12.477055,0.0,0.0,nan,0.0,0.0,0.090354726,0.0,0.0,0.0,0.0,0.0,0.0,0.0,0.0,0.0
578264018,578163817,0.43387917,0.4339521,0.93589777,4.923041,4.9230647,0.0,0.0,0.0,0.0,0.0,0.0,0.0,0.0,12.479342,0.0,0.0,nan,0.0,0.0,0.09035464,0.0,0.0,0.0,0.0,0.0,0.0,0.0,0.0,0.0
578763954,578663761,0.3265457,0.32662052,0.69300616,4.981079,4.9811087,0.0,0.0,0.0,0.0,0.0,0.0,0.0,0.0,12.477708,0.0,0.0,nan,0.0,0.0,0.090354666,0.0,0.0,0.0,0.0,0.0,0.0,0.0,0.0,0.0
579263902,579163706,0.24712655,0.24719779,0.5144302,5.0055904,5.0056176,0.0,0.0,0.0,0.0,0.0,0.0,0.0,0.0,12.47835,0.0,0.0,nan,0.0,0.0,0.09035459,0.0,0.0,0.0,0.0,0.0,0.0,0.0,0.0,0.0
579763875,579663650,0.45147827,0.4515424,0.9739719,5.1590495,5.159092,0.0,0.0,0.0,0.0,0.0,0.0,0.0,0.0,12.479716,0.0,0.0,nan,0.0,0.0,0.090354726,0.0,0.0,0.0,0.0,0.0,0.0,0.0,0.0,0.0
580263811,580163595,0.5788099,0.57886845,1.259554,5.270436,5.270487,0.0,0.0,0.0,0.0,0.0,0.0,0.0,0.0,12.482868,0.0,0.0,nan,0.0,0.0,0.09035456,0.0,0.0,0.0,0.0,0.0,0.0,0.0,0.0,0.0
580763778,580663539,0.29221016,0.29226127,0.61218286,5.422892,5.4229436,0.0,0.0,0.0,0.0,0.0,0.0,0.0,0.0,12.4817295,0.0,0.0,nan,0.0,0.0,0.09035468,0.0,0.0,0.0,0.0,0.0,0.0,0.0,0.0,0.0
581263698,581163484,0.525936,0.52597713,1.1392114,5.5154495,5.515507,0.0,0.0,0.0,0.0,0.0,0.0,0.0,0.0,12.484749,0.0,0.0,nan,0.0,0.0,0.09035461,0.0,0.0,0.0,0.0,0.0,0.0,0.0,0.0,0.0
581763740,581663428,0.29333204,0.29336527,0.6124887,5.5757704,5.5758276,0.0,0.0,0.0,0.0,0.0,0.0,0.0,0.0,12.483792,0.0,0.0,nan,0.0,0.0,0.09035457,0.0,0.0,0.0,0.0,0.0,0.0,0.0,0.0,0.0
582263611,582163372,0.29167408,0.29169595,0.61208355,5.590331,5.5903783,0.0,0.0,0.0,0.0,0.0,0.0,0.0,0.0,12.483596,0.0,0.0,nan,0.0,0.0,0.09035458,0.0,0.0,0.0,0.0,0.0,0.0,0.0,0.0,0.0
582763595,582663316,0.46551725,0.46552774,1.0063401,5.6778984,5.6779394,0.0,0.0,0.0,0.0,0.0,0.0,0.0,0.0,12.481752,0.0,0.0,nan,0.0,0.0,0.09035449,0.0,0.0,0.0,0.0,0.0,0.0,0.0,0.0,0.0
583263545,583163261,0.3680571,0.36806288,0.78498197,5.682274,5.6823144,0.0,0.0,0.0,0.0,0.0,0.0,0.0,0.0,12.483056,0.0,0.0,nan,0.0,0.0,0.09035459,0.0,0.0,0.0,0.0,0.0,0.0,0.0,0.0,0.0
583763455,583663205,0.29995704,0.29995537,0.63275415,5.637733,5.637766,0.0,0.0,0.0,0.0,0.0,0.0,0.0,0.0,12.480711,0.0,0.0,nan,0.0,0.0,0.0903546,0.0,0.0,0.0,0.0,0.0,0.0,0.0,0.0,0.0
584263341,584163149,0.44453913,0.44453344,0.9591441,5.635,5.6350303,0.0,0.0,0.0,0.0,0.0,0.0,0.0,0.0,12.4826145,0.0,0.0,nan,0.0,0.0,0.09035454,0.0,0.0,0.0,0.0,0.0,0.0,0.0,0.0,0.0
584763304,584663093,0.4877876,0.48777846,1.0603257,5.6185455,5.618568,0.0,0.0,0.0,0.0,0.0,0.0,0.0,0.0,12.477398,0.0,0.0,nan,0.0,0.0,0.090354435,0.0,0.0,0.0,0.0,0.0,0.0,0.0,0.0,0.0
585263272,585163037,0.5232714,0.523259,1.1385685,5.612608,5.6126275,0.0,0.0,0.0,0.0,0.0,0.0,0.0,0.0,12.479966,0.0,0.0,nan,0.0,0.0,0.09035446,0.0,0.0,0.0,0.0,0.0,0.0,0.0,0.0,0.0
585763218,585662981,0.5589673,0.5589496,1.2163635,5.57607,5.576083,0.0,0.0,0.0,0.0,0.0,0.0,0.0,0.0,12.480751,0.0,0.0,nan,0.0,0.0,0.090354376,0.0,0.0,0.0,0.0,0.0,0.0,0.0,0.0,0.0
586263115,586162925,0.5126445,0.5126234,1.1104245,5.587464,5.587473,0.0,0.0,0.0,0.0,0.0,0.0,0.0,0.0,12.483435,0.0,0.0,nan,0.0,0.0,0.090354495,0.0,0.0,0.0,0.0,0.0,0.0,0.0,0.0,0.0
586763058,586662869,0.2996947,0.2996707,0.6305335,5.5756717,5.5756774,0.0,0.0,0.0,0.0,0.0,0.0,0.0,0.0,12.480348,0.0,0.0,nan,0.0,0.0,0.0903543,0.0,0.0,0.0,0.0,0.0,0.0,0.0,0.0,0.0
587263012,587162813,0.4894027,0.48937872,1.0578786,5.6115317,5.611532,0.0,0.0,0.0,0.0,0.0,0.0,0.0,0.0,12.483122,0.0,0.0,nan,0.0,0.0,0.09035437,0.0,0.0,0.0,0.0,0.0,0.0,0.0,0.0,0.0
587762977,587662756,0.20031632,0.20029649,0.41037413,5.653946,5.65395,0.0,0.0,0.0,0.0,0.0,0.0,0.0,0.0,12.476804,0.0,0.0,nan,0.0,0.0,0.0903542,0.0,0.0,0.0,0.0,0.0,0.0,0.0,0.0,0.0
588262942,588162700,0.26651263,0.2664974,0.56346446,5.634098,5.6341014,0.0,0.0,0.0,0.0,0.0,0.0,0.0,0.0,12.475489,0.0,0.0,nan,0.0,0.0,0.090354115,0.0,0.0,0.0,0.0,0.0,0.0,0.0,0.0,0.0
588762839,588662645,0.5269815,0.526971,1.1506859,5.686212,5.6862116,0.0,0.0,0.0,0.0,0.0,0.0,0.0,0.0,12.474012,0.0,0.0,nan,0.0,0.0,0.090354115,0.0,0.0,0.0,0.0,0.0,0.0,0.0,0.0,0.0
589262776,589162587,0.35362712,0.35361877,0.7604345,5.7117734,5.7117724,0.0,0.0,0.0,0.0,0.0,0.0,0.0,0.0,12.474265,0.0,0.0,nan,0.0,0.0,0.09035422,0.0,0.0,0.0,0.0,0.0,0.0,0.0,0.0,0.0
589762773,589662531,0.4153102,0.41530463,0.8983432,5.765034,5.76503,0.0,0.0,0.0,0.0,0.0,0.0,0.0,0.0,12.472899,0.0,0.0,nan,0.0,0.0,0.090354145,0.0,0.0,0.0,0.0,0.0,0.0,0.0,0.0,0.0
590262690,590162474,0.3293666,0.32936218,0.70237,5.7867384,5.786732,0.0,0.0,0.0,0.0,0.0,0.0,0.0,0.0,12.475461,0.0,0.0,nan,0.0,0.0,0.09035418,0.0,0.0,0.0,0.0,0.0,0.0,0.0,0.0,0.0
590762609,590662417,0.69068,0.6906774,1.5116831,5.9074607,5.907449,0.0,0.0,0.0,0.0,0.0,0.0,0.0,0.0,12.478351,0.0,0.0,nan,0.0,0.0,0.090354115,0.0,0.0,0.0,0.0,0.0,0.0,0.0,0.0,0.0
591262579,591162361,0.4574707,0.45746925,0.9829741,5.9199953,5.919981,0.0,0.0,0.0,0.0,0.0,0.0,0.0,0.0,12.481512,0.0,0.0,nan,0.0,0.0,0.09035406,0.0,0.0,0.0,0.0,0.0,0.0,0.0,0.0,0.0
591762503,591662304,0.41086343,0.41086546,0.8795365,5.8715954,5.871583,0.0,0.0,0.0,0.0,0.0,0.0,0.0,0.0,12.479871,0.0,0.0,nan,0.0,0.0,0.090354085,0.0,0.0,0.0,0.0,0.0,0.0,0.0,0.0,0.0
592262448,592162247,0.5615907,0.56159455,1.2167193,5.91721,5.917197,0.0,0.0,0.0,0.0,0.0,0.0,0.0,0.0,12.483969,0.0,0.0,nan,0.0,0.0,0.09035403,0.0,0.0,0.0,0.0,0.0,0.0,0.0,0.0,0.0
592762379,592662190,0.64596754,0.64597595,1.4076918,5.9948325,5.9948215,0.0,0.0,0.0,0.0,0.0,0.0,0.0,0.0,12.4831085,0.0,0.0,nan,0.0,0.0,0.090354204,0.0,0.0,0.0,0.0,0.0,0.0,0.0,0.0,0.0
593262321,593162136,0.73161495,0.73162615,1.5979645,6.083513,6.083504,0.0,0.0,0.0,0.0,0.0,0.0,0.0,0.0,12.486156,0.0,0.0,nan,0.0,0.0,0.09035429,0.0,0.0,0.0,0.0,0.0,0.0,0.0,0.0,0.0
593762312,593662076,0.34243563,0.34244522,0.71862924,6.2683663,6.2683606,0.0,0.0,0.0,0.0,0.0,0.0,0.0,0.0,12.4872875,0.0,0.0,nan,0.0,0.0,0.09035422,0.0,0.0,0.0,0.0,0.0,0.0,0.0,0.0,0.0
594262276,594162019,0.6330877,0.6330974,1.3729869,6.384365,6.384363,0.0,0.0,0.0,0.0,0.0,0.0,0.0,0.0,12.490091,0.0,0.0,nan,0.0,0.0,0.09035418,0.0,0.0,0.0,0.0,0.0,0.0,0.0,0.0,0.0
594762205,594661962,0.6807592,0.6807691,1.4764485,6.5177827,6.5177875,0.0,0.0,0.0,0.0,0.0,0.0,0.0,0.0,12.491126,0.0,0.0,nan,0.0,0.0,0.09035416,0.0,0.0,0.0,0.0,0.0,0.0,0.0,0.0,0.0
595262095,595161904,0.50127625,0.5012852,1.0741366,6.5960665,6.5960712,0.0,0.0,0.0,0.0,0.0,0.0,0.0,0.0,12.491951,0.0,0.0,nan,0.0,0.0,0.09035418,0.0,0.0,0.0,0.0,0.0,0.0,0.0,0.0,0.0
595762036,595661847,0.5743787,0.57438844,1.2403883,6.7193937,6.7194,0.0,0.0,0.0,0.0,0.0,0.0,0.0,0.0,12.491136,0.0,0.0,nan,0.0,0.0,0.090354264,0.0,0.0,0.0,0.0,0.0,0.0,0.0,0.0,0.0
596262134,596161789,0.36959937,0.3696114,0.77779114,6.7879667,6.7879734,0.0,0.0,0.0,0.0,0.0,0.0,0.0,0.0,12.491476,0.0,0.0,nan,0.0,0.0,0.0903542,0.0,0.0,0.0,0.0,0.0,0.0,0.0,0.0,0.0
596761920,596661732,0.53167164,0.53168535,1.1458764,6.8754907,6.875498,0.0,0.0,0.0,0.0,0.0,0.0,0.0,0.0,12.489939,0.0,0.0,nan,0.0,0.0,0.09035422,0.0,0.0,0.0,0.0,0.0,0.0,0.0,0.0,0.0
597261940,597161674,0.5597977,0.5598131,1.2102602,6.926503,6.92651,0.0,0.0,0.0,0.0,0.0,0.0,0.0,0.0,12.491037,0.0,0.0,nan,0.0,0.0,0.090354174,0.0,0.0,0.0,0.0,0.0,0.0,0.0,0.0,0.0
597761810,597661618,0.38006118,0.3800777,0.80628616,7.001146,7.0011525,0.0,0.0,0.0,0.0,0.0,0.0,0.0,0.0,12.487529,0.0,0.0,nan,0.0,0.0,0.09035413,0.0,0.0,0.0,0.0,0.0,0.0,0.0,0.0,0.0
598261765,598161559,0.60105145,0.60106784,1.3037397,7.0788136,7.078822,0.0,0.0,0.0,0.0,0.0,0.0,0.0,0.0,12.489777,0.0,0.0,nan,0.0,0.0,0.09035418,0.0,0.0,0.0,0.0,0.0,0.0,0.0,0.0,0.0
598761693,598661501,0.34914994,0.34916675,0.7337414,7.2131658,7.2131753,0.0,0.0,0.0,0.0,0.0,0.0,0.0,0.0,12.488982,0.0,0.0,nan,0.0,0.0,0.09035432,0.0,0.0,0.0,0.0,0.0,0.0,0.0,0.0,0.0
599261687,599161443,0.6039499,0.603964,1.3104036,7.29707,7.2970796,0.0,0.0,0.0,0.0,0.0,0.0,0.0,0.0,12.490029,0.0,0.0,nan,0.0,0.0,0.09035429,0.0,0.0,0.0,0.0,0.0,0.0,0.0,0.0,0.0
599761573,599661384,0.40069324,0.40070662,0.84963274,7.3503685,7.3503795,0.0,0.0,0.0,0.0,0.0,0.0,0.0,0.0,12.489719,0.0,0.0,nan,0.0,0.0,0.09035434,0.0,0.0,0.0,0.0,0.0,0.0,0.0,0.0,0.0
600261580,600161327,0.42515525,0.42516682,0.90528804,7.356681,7.3566914,0.0,0.0,0.0,0.0,0.0,0.0,0.0,0.0,12.490961,0.0,0.0,nan,0.0,0.0,0.09035428,0.0,0.0,0.0,0.0,0.0,0.0,0.0,0.0,0.0
600761546,600661268,0.54791325,0.5479221,1.1811285,7.2928977,7.292909,0.0,0.0,0.0,0.0,0.0,0.0,0.0,0.0,12.489693,0.0,0.0,nan,0.0,0.0,0.09035424,0.0,0.0,0.0,0.0,0.0,0.0,0.0,0.0,0.0
601261428,601161210,0.53788,0.5378873,1.1584723,7.2408133,7.2408247,0.0,0.0,0.0,0.0,0.0,0.0,0.0,0.0,12.491328,0.0,0.0,nan,0.0,0.0,0.09035428,0.0,0.0,0.0,0.0,0.0,0.0,0.0,0.0,0.0
601761342,601661151,0.6159673,0.6159744,1.3313524,7.343334,7.3433466,0.0,0.0,0.0,0.0,0.0,0.0,0.0,0.0,12.492316,0.0,0.0,nan,0.0,0.0,0.09035442,0.0,0.0,0.0,0.0,0.0,0.0,0.0,0.0,0.0
602261281,602161093,0.53449106,0.53449947,1.1461031,7.4487453,7.4487586,0.0,0.0,0.0,0.0,0.0,0.0,0.0,0.0,12.493625,0.0,0.0,nan,0.0,0.0,0.090354376,0.0,0.0,0.0,0.0,0.0,0.0,0.0,0.0,0.0
602761275,602661034,0.6808312,0.68083733,1.4728894,7.62598,7.625995,0.0,0.0,0.0,0.0,0.0,0.0,0.0,0.0,12.493755,0.0,0.0,nan,0.0,0.0,0.09035432,0.0,0.0,0.0,0.0,0.0,0.0,0.0,0.0,0.0
603261212,603160976,0.57539886,0.5754033,1.2341526,7.722659,7.7226744,0.0,0.0,0.0,0.0,0.0,0.0,0.0,0.0,12.49716,0.0,0.0,nan,0.0,0.0,0.09035436,0.0,0.0,0.0,0.0,0.0,0.0,0.0,0.0,0.0
603761110,603660917,0.5295502,0.5295521,1.1304865,7.880444,7.880458,0.0,0.0,0.0,0.0,0.0,0.0,0.0,0.0,12.495488,0.0,0.0,nan,0.0,0.0,0.090354286,0.0,0.0,0.0,0.0,0.0,0.0,0.0,0.0,0.0
604261101,604160858,0.45863914,0.45863962,0.9720588,7.9553404,7.9553523,0.0,0.0,0.0,0.0,0.0,0.0,0.0,0.0,12.496447,0.0,0.0,nan,0.0,0.0,0.09035441,0.0,0.0,0.0,0.0,0.0,0.0,0.0,0.0,0.0
604761053,604660799,0.2475456,0.24754612,0.4986754,7.933482,7.9334903,0.0,0.0,0.0,0.0,0.0,0.0,0.0,0.0,12.49248,0.0,0.0,nan,0.0,0.0,0.090354405,0.0,0.0,0.0,0.0,0.0,0.0,0.0,0.0,0.0
605261033,605160740,0.45925972,0.45926023,0.9802947,7.8681264,7.868134,0.0,0.0,0.0,0.0,0.0,0.0,0.0,0.0,12.493852,0.0,0.0,nan,0.0,0.0,0.09035435,0.0,0.0,0.0,0.0,0.0,0.0,0.0,0.0,0.0
605760887,605660680,0.46700776,0.46700782,1.0035415,7.718679,7.718684,0.0,0.0,0.0,0.0,0.0,0.0,0.0,0.0,12.488233,0.0,0.0,nan,0.0,0.0,0.0903543,0.0,0.0,0.0,0.0,0.0,0.0,0.0,0.0,0.0
606260818,606160621,0.4608224,0.46082148,0.9888232,7.68641,7.686415,0.0,0.0,0.0,0.0,0.0,0.0,0.0,0.0,12.489572,0.0,0.0,nan,0.0,0.0,0.09035434,0.0,0.0,0.0,0.0,0.0,0.0,0.0,0.0,0.0
606760756,606660562,0.59383756,0.5938351,1.2898805,7.5962176,7.596222,0.0,0.0,0.0,0.0,0.0,0.0,0.0,0.0,12.487171,0.0,0.0,nan,0.0,0.0,0.0903543,0.0,0.0,0.0,0.0,0.0,0.0,0.0,0.0,0.0
607260710,607160503,0.23497501,0.23497216,0.47932538,7.5143194,7.5143228,0.0,0.0,0.0,0.0,0.0,0.0,0.0,0.0,12.486063,0.0,0.0,nan,0.0,0.0,0.090354435,0.0,0.0,0.0,0.0,0.0,0.0,0.0,0.0,0.0
607760670,607660443,0.36872226,0.36871898,0.7846058,7.385294,7.385297,0.0,0.0,0.0,0.0,0.0,0.0,0.0,0.0,12.483783,0.0,0.0,nan,0.0,0.0,0.09035428,0.0,0.0,0.0,0.0,0.0,0.0,0.0,0.0,0.0
608260575,608160383,0.48277664,0.48277363,1.0451387,7.2971935,7.297196,0.0,0.0,0.0,0.0,0.0,0.0,0.0,0.0,12.482713,0.0,0.0,nan,0.0,0.0,0.09035442,0.0,0.0,0.0,0.0,0.0,0.0,0.0,0.0,0.0
608760541,608660327,0.3122641,0.31226036,0.6587935,7.220721,7.220722,0.0,0.0,0.0,0.0,0.0,0.0,0.0,0.0,12.48071,0.0,0.0,nan,0.0,0.0,0.09035435,0.0,0.0,0.0,0.0,0.0,0.0,0.0,0.0,0.0
609260587,609160264,0.2759627,0.27595967,0.5814462,7.1143703,7.114372,0.0,0.0,0.0,0.0,0.0,0.0,0.0,0.0,12.477975,0.0,0.0,nan,0.0,0.0,0.09035431,0.0,0.0,0.0,0.0,0.0,0.0,0.0,0.0,0.0
609760407,609660204,0.46790504,0.46790093,1.0118142,7.0012293,7.001229,0.0,0.0,0.0,0.0,0.0,0.0,0.0,0.0,12.47853,0.0,0.0,nan,0.0,0.0,0.090354346,0.0,0.0,0.0,0.0,0.0,0.0,0.0,0.0,0.0
610260331,610160144,0.34913978,0.34913474,0.74294794,6.953134,6.9531326,0.0,0.0,0.0,0.0,0.0,0.0,0.0,0.0,12.47911,0.0,0.0,nan,0.0,0.0,0.0903543,0.0,0.0,0.0,0.0,0.0,0.0,0.0,0.0,0.0
610760357,610660084,0.1584825,0.15847816,0.3150816,6.865282,6.8652816,0.0,0.0,0.0,0.0,0.0,0.0,0.0,0.0,12.473147,0.0,0.0,nan,0.0,0.0,0.09035443,0.0,0.0,0.0,0.0,0.0,0.0,0.0,0.0,0.0
611260228,611160023,0.41984877,0.4198454,0.9067004,6.8053637,6.8053617,0.0,0.0,0.0,0.0,0.0,0.0,0.0,0.0,12.475913,0.0,0.0,nan,0.0,0.0,0.09035446,0.0,0.0,0.0,0.0,0.0,0.0,0.0,0.0,0.0
611760191,611659963,0.2791857,0.27918378,0.59031475,6.706428,6.7064266,0.0,0.0,0.0,0.0,0.0,0.0,0.0,0.0,12.472695,0.0,0.0,nan,0.0,0.0,0.090354405,0.0,0.0,0.0,0.0,0.0,0.0,0.0,0.0,0.0
612260092,612159902,0.23740567,0.23740467,0.4967797,6.655958,6.6559567,0.0,0.0,0.0,0.0,0.0,0.0,0.0,0.0,12.471949,0.0,0.0,nan,0.0,0.0,0.09035435,0.0,0.0,0.0,0.0,0.0,0.0,0.0,0.0,0.0
612760085,612659845,0.38189358,0.38189393,0.8236783,6.562199,6.562197,0.0,0.0,0.0,0.0,0.0,0.0,0.0,0.0,12.470007,0.0,0.0,nan,0.0,0.0,0.0903544,0.0,0.0,0.0,0.0,0.0,0.0,0.0,0.0,0.0
613259970,613159781,0.5116487,0.51165,1.1127864,6.536227,6.536225,0.0,0.0,0.0,0.0,0.0,0.0,0.0,0.0,12.474376,0.0,0.0,nan,0.0,0.0,0.09035435,0.0,0.0,0.0,0.0,0.0,0.0,0.0,0.0,0.0
613759935,613659721,0.5588239,0.55882615,1.2159201,6.4846363,6.484633,0.0,0.0,0.0,0.0,0.0,0.0,0.0,0.0,12.47472,0.0,0.0,nan,0.0,0.0,0.09035451,0.0,0.0,0.0,0.0,0.0,0.0,0.0,0.0,0.0
614260045,614159660,0.6097888,0.60979146,1.3271906,6.50101,6.5010066,0.0,0.0,0.0,0.0,0.0,0.0,0.0,0.0,12.479138,0.0,0.0,nan,0.0,0.0,0.090354376,0.0,0.0,0.0,0.0,0.0,0.0,0.0,0.0,0.0
614759831,614659599,0.42384407,0.42384747,0.9050776,6.486608,6.4866047,0.0,0.0,0.0,0.0,0.0,0.0,0.0,0.0,12.480754,0.0,0.0,nan,0.0,0.0,0.090354525,0.0,0.0,0.0,0.0,0.0,0.0,0.0,0.0,0.0
615259726,615159538,0.2727731,0.2727766,0.56660885,6.4008465,6.400844,0.0,0.0,0.0,0.0,0.0,0.0,0.0,0.0,12.479857,0.0,0.0,nan,0.0,0.0,0.090354495,0.0,0.0,0.0,0.0,0.0,0.0,0.0,0.0,0.0
615759719,615659477,0.3230561,0.32305917,0.68314546,6.317964,6.3179617,0.0,0.0,0.0,0.0,0.0,0.0,0.0,0.0,12.477892,0.0,0.0,nan,0.0,0.0,0.09035443,0.0,0.0,0.0,0.0,0.0,0.0,0.0,0.0,0.0
616259611,616159415,0.33983186,0.3398345,0.72279716,6.245981,6.24598,0.0,0.0,0.0,0.0,0.0,0.0,0.0,0.0,12.478713,0.0,0.0,nan,0.0,0.0,0.09035447,0.0,0.0,0.0,0.0,0.0,0.0,0.0,0.0,0.0
616759574,616659354,0.5079489,0.5079499,1.1007726,6.214512,6.2145104,0.0,0.0,0.0,0.0,0.0,0.0,0.0,0.0,12.479091,0.0,0.0,nan,0.0,0.0,0.09035441,0.0,0.0,0.0,0.0,0.0,0.0,0.0,0.0,0.0
617259538,617159293,0.52548563,0.52548563,1.1387583,6.2069225,6.206922,0.0,0.0,0.0,0.0,0.0,0.0,0.0,0.0,12.481234,0.0,0.0,nan,0.0,0.0,0.09035455,0.0,0.0,0.0,0.0,0.0,0.0,0.0,0.0,0.0
617759424,617659231,0.5573447,0.55734223,1.2068514,6.2592807,6.2592797,0.0,0.0,0.0,0.0,0.0,0.0,0.0,0.0,12.482857,0.0,0.0,nan,0.0,0.0,0.09035459,0.0,0.0,0.0,0.0,0.0,0.0,0.0,0.0,0.0
618259364,618159169,0.31079212,0.31078964,0.654341,6.2257314,6.225731,0.0,0.0,0.0,0.0,0.0,0.0,0.0,0.0,12.482121,0.0,0.0,nan,0.0,0.0,0.09035453,0.0,0.0,0.0,0.0,0.0,0.0,0.0,0.0,0.0
618759495,618659108,0.34251705,0.3425156,0.72784203,6.1062536,6.1062527,0.0,0.0,0.0,0.0,0.0,0.0,0.0,0.0,12.480176,0.0,0.0,nan,0.0,0.0,0.09035447,0.0,0.0,0.0,0.0,0.0,0.0,0.0,0.0,0.0
619259236,619159046,0.3706535,0.3706541,0.7971926,5.944877,5.9448767,0.0,0.0,0.0,0.0,0.0,0.0,0.0,0.0,12.477588,0.0,0.0,nan,0.0,0.0,0.09035451,0.0,0.0,0.0,0.0,0.0,0.0,0.0,0.0,0.0
619759174,619658984,0.3098218,0.3098264,0.6584309,5.8259263,5.825926,0.0,0.0,0.0,0.0,0.0,0.0,0.0,0.0,12.4756,0.0,0.0,nan,0.0,0.0,0.09035447,0.0,0.0,0.0,0.0,0.0,0.0,0.0,0.0,0.0
620259113,620158922,0.43158624,0.4315927,0.9326828,5.8205757,5.820575,0.0,0.0,0.0,0.0,0.0,0.0,0.0,0.0,12.47688,0.0,0.0,nan,0.0,0.0,0.09035461,0.0,0.0,0.0,0.0,0.0,0.0,0.0,0.0,0.0
620759079,620658860,0.5868291,0.5868368,1.2822767,5.8288155,5.8288155,0.0,0.0,0.0,0.0,0.0,0.0,0.0,0.0,12.476707,0.0,0.0,nan,0.0,0.0,0.09035465,0.0,0.0,0.0,0.0,0.0,0.0,0.0,0.0,0.0
621259001,621158797,0.3867582,0.38676682,0.82964146,5.8200192,5.82002,0.0,0.0,0.0,0.0,0.0,0.0,0.0,0.0,12.478296,0.0,0.0,nan,0.0,0.0,0.090354614,0.0,0.0,0.0,0.0,0.0,0.0,0.0,0.0,0.0
621758983,621658735,0.49004167,0.49005076,1.0605701,5.8043895,5.804392,0.0,0.0,0.0,0.0,0.0,0.0,0.0,0.0,12.477725,0.0,0.0,nan,0.0,0.0,0.09035456,0.0,0.0,0.0,0.0,0.0,0.0,0.0,0.0,0.0
622258911,622158672,0.43019444,0.430204,0.92457885,5.801194,5.8011975,0.0,0.0,0.0,0.0,0.0,0.0,0.0,0.0,12.480071,0.0,0.0,nan,0.0,0.0,0.09035451,0.0,0.0,0.0,0.0,0.0,0.0,0.0,0.0,0.0
622758853,622658610,0.63696766,0.6369763,1.3897886,5.860485,5.860489,0.0,0.0,0.0,0.0,0.0,0.0,0.0,0.0,12.480437,0.0,0.0,nan,0.0,0.0,0.09035453,0.0,0.0,0.0,0.0,0.0,0.0,0.0,0.0,0.0
623258883,623158547,0.41596925,0.41597667,0.8907585,5.91431,5.9143143,0.0,0.0,0.0,0.0,0.0,0.0,0.0,0.0,12.482338,0.0,0.0,nan,0.0,0.0,0.09035466,0.0,0.0,0.0,0.0,0.0,0.0,0.0,0.0,0.0
623758746,623658484,0.33124596,0.33124956,0.7005788,5.9556084,5.9556127,0.0,0.0,0.0,0.0,0.0,0.0,0.0,0.0,12.480635,0.0,0.0,nan,0.0,0.0,0.0903546,0.0,0.0,0.0,0.0,0.0,0.0,0.0,0.0,0.0
624258614,624158421,0.22979146,0.22979337,0.47293875,5.936202,5.9362054,0.0,0.0,0.0,0.0,0.0,0.0,0.0,0.0,12.480375,0.0,0.0,nan,0.0,0.0,0.09035462,0.0,0.0,0.0,0.0,0.0,0.0,0.0,0.0,0.0
624763597,624658358,0.46070254,0.4607031,0.9943002,5.9067464,5.9067497,0.0,0.0,0.0,0.0,0.0,0.0,0.0,0.0,12.4798975,0.0,0.0,nan,0.0,0.0,0.09035456,0.0,0.0,0.0,0.0,0.0,0.0,0.0,0.0,0.0
625258482,625158295,0.29456198,0.2945623,0.6209068,5.863818,5.8638206,0.0,0.0,0.0,0.0,0.0,0.0,0.0,0.0,12.480084,0.0,0.0,nan,0.0,0.0,0.090354495,0.0,0.0,0.0,0.0,0.0,0.0,0.0,0.0,0.0
625758422,625658232,0.4781853,0.47818646,1.0333506,5.883622,5.883624,0.0,0.0,0.0,0.0,0.0,0.0,0.0,0.0,12.480547,0.0,0.0,nan,0.0,0.0,0.09035452,0.0,0.0,0.0,0.0,0.0,0.0,0.0,0.0,0.0
626258409,626158169,0.5630962,0.56309795,1.2229187,5.901857,5.9018583,0.0,0.0,0.0,0.0,0.0,0.0,0.0,0.0,12.482957,0.0,0.0,nan,0.0,0.0,0.09035464,0.0,0.0,0.0,0.0,0.0,0.0,0.0,0.0,0.0
626758293,626658107,0.57310045,0.5731033,1.24301,5.945925,5.9459267,0.0,0.0,0.0,0.0,0.0,0.0,0.0,0.0,12.483771,0.0,0.0,nan,0.0,0.0,0.090354584,0.0,0.0,0.0,0.0,0.0,0.0,0.0,0.0,0.0
627258266,627158041,0.5711678,0.57117134,1.2366081,5.9984035,5.998405,0.0,0.0,0.0,0.0,0.0,0.0,0.0,0.0,12.48717,0.0,0.0,nan,0.0,0.0,0.090354614,0.0,0.0,0.0,0.0,0.0,0.0,0.0,0.0,0.0
627758280,627657978,0.67604166,0.6760458,1.4689739,6.106558,6.1065583,0.0,0.0,0.0,0.0,0.0,0.0,0.0,0.0,12.488044,0.0,0.0,nan,0.0,0.0,0.09035455,0.0,0.0,0.0,0.0,0.0,0.0,0.0,0.0,0.0
628258186,628157914,0.6892148,0.6892188,1.4981393,6.1677155,6.1677155,0.0,0.0,0.0,0.0,0.0,0.0,0.0,0.0,12.491124,0.0,0.0,nan,0.0,0.0,0.090354495,0.0,0.0,0.0,0.0,0.0,0.0,0.0,0.0,0.0
628758042,628657850,0.44544238,0.44544607,0.9484433,6.1943736,6.1943736,0.0,0.0,0.0,0.0,0.0,0.0,0.0,0.0,12.490515,0.0,0.0,nan,0.0,0.0,0.090354525,0.0,0.0,0.0,0.0,0.0,0.0,0.0,0.0,0.0
629257974,629157786,0.32124317,0.3212465,0.6694942,6.1868634,6.186863,0.0,0.0,0.0,0.0,0.0,0.0,0.0,0.0,12.490213,0.0,0.0,nan,0.0,0.0,0.09035447,0.0,0.0,0.0,0.0,0.0,0.0,0.0,0.0,0.0
629757912,629657722,0.42297983,0.42298317,0.89991015,6.210278,6.210277,0.0,0.0,0.0,0.0,0.0,0.0,0.0,0.0,12.489667,0.0,0.0,nan,0.0,0.0,0.09035461,0.0,0.0,0.0,0.0,0.0,0.0,0.0,0.0,0.0
630257924,630157658,0.44997445,0.44997776,0.9628552,6.192561,6.1925597,0.0,0.0,0.0,0.0,0.0,0.0,0.0,0.0,12.490781,0.0,0.0,nan,0.0,0.0,0.09035456,0.0,0.0,0.0,0.0,0.0,0.0,0.0,0.0,0.0
630757787,630657593,0.6387764,0.63878,1.3869979,6.275552,6.275551,0.0,0.0,0.0,0.0,0.0,0.0,0.0,0.0,12.491241,0.0,0.0,nan,0.0,0.0,0.09035459,0.0,0.0,0.0,0.0,0.0,0.0,0.0,0.0,0.0
631257720,631157529,0.69530636,0.69531006,1.5125877,6.3541927,6.3541913,0.0,0.0,0.0,0.0,0.0,0.0,0.0,0.0,12.492842,0.0,0.0,nan,0.0,0.0,0.09035454,0.0,0.0,0.0,0.0,0.0,0.0,0.0,0.0,0.0
631757674,631657465,0.7301674,0.7301718,1.5871578,6.490155,6.4901543,0.0,0.0,0.0,0.0,0.0,0.0,0.0,0.0,12.494209,0.0,0.0,nan,0.0,0.0,0.0903545,0.0,0.0,0.0,0.0,0.0,0.0,0.0,0.0,0.0
632257704,632157400,0.4970547,0.49705943,1.0619674,6.5547915,6.55479,0.0,0.0,0.0,0.0,0.0,0.0,0.0,0.0,12.495939,0.0,0.0,nan,0.0,0.0,0.09035453,0.0,0.0,0.0,0.0,0.0,0.0,0.0,0.0,0.0
632757545,632657337,0.53593796,0.5359435,1.1493708,6.6347113,6.6347103,0.0,0.0,0.0,0.0,0.0,0.0,0.0,0.0,12.494326,0.0,0.0,nan,0.0,0.0,0.090354666,0.0,0.0,0.0,0.0,0.0,0.0,0.0,0.0,0.0
633257462,633157270,0.28229383,0.2822998,0.5786743,6.703201,6.7031994,0.0,0.0,0.0,0.0,0.0,0.0,0.0,0.0,12.493714,0.0,0.0,nan,0.0,0.0,0.090354614,0.0,0.0,0.0,0.0,0.0,0.0,0.0,0.0,0.0
633757407,633657205,0.58277994,0.58278584,1.2570779,6.7318897,6.731889,0.0,0.0,0.0,0.0,0.0,0.0,0.0,0.0,12.493904,0.0,0.0,nan,0.0,0.0,0.09035466,0.0,0.0,0.0,0.0,0.0,0.0,0.0,0.0,0.0
634257331,634157140,0.5919645,0.5919707,1.2770644,6.7693467,6.769346,0.0,0.0,0.0,0.0,0.0,0.0,0.0,0.0,12.494985,0.0,0.0,nan,0.0,0.0,0.09035459,0.0,0.0,0.0,0.0,0.0,0.0,0.0,0.0,0.0
634757262,634657075,0.7055555,0.70556206,1.5313709,6.841947,6.8419476,0.0,0.0,0.0,0.0,0.0,0.0,0.0,0.0,12.495414,0.0,0.0,nan,0.0,0.0,0.09035455,0.0,0.0,0.0,0.0,0.0,0.0,0.0,0.0,0.0
635257202,635157010,0.62753546,0.6275416,1.3591062,6.8561063,6.8561063,0.0,0.0,0.0,0.0,0.0,0.0,0.0,0.0,12.494678,0.0,0.0,nan,0.0,0.0,0.09035457,0.0,0.0,0.0,0.0,0.0,0.0,0.0,0.0,0.0
635757139,635656944,0.63325405,0.63326114,1.369741,6.9348283,6.9348288,0.0,0.0,0.0,0.0,0.0,0.0,0.0,0.0,12.494661,0.0,0.0,nan,0.0,0.0,0.09035471,0.0,0.0,0.0,0.0,0.0,0.0,0.0,0.0,0.0
636257113,636156879,0.69410414,0.69411176,1.5056325,7.005341,7.005342,0.0,0.0,0.0,0.0,0.0,0.0,0.0,0.0,12.497092,0.0,0.0,nan,0.0,0.0,0.090354666,0.0,0.0,0.0,0.0,0.0,0.0,0.0,0.0,0.0
636757118,636656813,0.8667842,0.86679286,1.8899744,7.138896,7.138899,0.0,0.0,0.0,0.0,0.0,0.0,0.0,0.0,12.497489,0.0,0.0,nan,0.0,0.0,0.09035461,0.0,0.0,0.0,0.0,0.0,0.0,0.0,0.0,0.0
637256950,637156747,0.8884023,0.8884113,1.935666,7.216538,7.2165422,0.0,0.0,0.0,0.0,0.0,0.0,0.0,0.0,12.500536,0.0,0.0,nan,0.0,0.0,0.09035464,0.0,0.0,0.0,0.0,0.0,0.0,0.0,0.0,0.0
637756870,637656681,0.9133916,0.91339993,1.994166,7.2894864,7.2894907,0.0,0.0,0.0,0.0,0.0,0.0,0.0,0.0,12.498211,0.0,0.0,nan,0.0,0.0,0.090354584,0.0,0.0,0.0,0.0,0.0,0.0,0.0,0.0,0.0
638256900,638156615,0.80346906,0.8034771,1.7452852,7.3415833,7.341588,0.0,0.0,0.0,0.0,0.0,0.0,0.0,0.0,12.501439,0.0,0.0,nan,0.0,0.0,0.09035472,0.0,0.0,0.0,0.0,0.0,0.0,0.0,0.0,0.0
638766739,638666548,0.6880734,0.6880823,1.4840736,7.3727937,7.372799,0.0,0.0,0.0,0.0,0.0,0.0,0.0,0.0,12.50044,0.0,0.0,nan,0.0,0.0,0.09035456,0.0,0.0,0.0,0.0,0.0,0.0,0.0,0.0,0.0
639256680,639156483,0.6532688,0.65327805,1.4054191,7.365739,7.3657446,0.0,0.0,0.0,0.0,0.0,0.0,0.0,0.0,12.500867,0.0,0.0,nan,0.0,0.0,0.090354696,0.0,0.0,0.0,0.0,0.0,0.0,0.0,0.0,0.0
639756608,639656417,0.37105608,0.3710649,0.77304995,7.3219,7.3219037,0.0,0.0,0.0,0.0,0.0,0.0,0.0,0.0,12.4978075,0.0,0.0,nan,0.0,0.0,0.090354644,0.0,0.0,0.0,0.0,0.0,0.0,0.0,0.0,0.0
640256564,640156350,0.16741075,0.16741882,0.31816518,7.2420716,7.242073,0.0,0.0,0.0,0.0,0.0,0.0,0.0,0.0,12.492663,0.0,0.0,nan,0.0,0.0,0.09035468,0.0,0.0,0.0,0.0,0.0,0.0,0.0,0.0,0.0
640756489,640656285,0.49192762,0.49193338,1.0581161,7.158101,7.1581025,0.0,0.0,0.0,0.0,0.0,0.0,0.0,0.0,12.490597,0.0,0.0,nan,0.0,0.0,0.090354614,0.0,0.0,0.0,0.0,0.0,0.0,0.0,0.0,0.0
641256417,641156217,0.2552007,0.2552064,0.5234505,7.141174,7.141175,0.0,0.0,0.0,0.0,0.0,0.0,0.0,0.0,12.490101,0.0,0.0,nan,0.0,0.0,0.09035456,0.0,0.0,0.0,0.0,0.0,0.0,0.0,0.0,0.0
641766466,641666149,0.21255286,0.21255724,0.43348467,6.941934,6.941935,0.0,0.0,0.0,0.0,0.0,0.0,0.0,0.0,12.483764,0.0,0.0,nan,0.0,0.0,0.090354696,0.0,0.0,0.0,0.0,0.0,0.0,0.0,0.0,0.0
642266277,642166082,0.48688883,0.48689282,1.0543318,6.888559,6.8885593,0.0,0.0,0.0,0.0,0.0,0.0,0.0,0.0,12.484762,0.0,0.0,nan,0.0,0.0,0.09035473,0.0,0.0,0.0,0.0,0.0,0.0,0.0,0.0,0.0
642756205,642656016,0.3381277,0.33813208,0.71771353,6.7969227,6.796923,0.0,0.0,0.0,0.0,0.0,0.0,0.0,0.0,12.482732,0.0,0.0,nan,0.0,0.0,0.09035469,0.0,0.0,0.0,0.0,0.0,0.0,0.0,0.0,0.0
643256188,643155949,0.3002899,0.3002941,0.63265324,6.7110653,6.711066,0.0,0.0,0.0,0.0,0.0,0.0,0.0,0.0,12.483035,0.0,0.0,nan,0.0,0.0,0.09035462,0.0,0.0,0.0,0.0,0.0,0.0,0.0,0.0,0.0
643756118,643655883,0.41960993,0.41961363,0.9016806,6.6872125,6.6872125,0.0,0.0,0.0,0.0,0.0,0.0,0.0,0.0,12.481171,0.0,0.0,nan,0.0,0.0,0.09035466,0.0,0.0,0.0,0.0,0.0,0.0,0.0,0.0,0.0
644256005,644155815,0.5015952,0.5015991,1.0852634,6.652485,6.6524854,0.0,0.0,0.0,0.0,0.0,0.0,0.0,0.0,12.482927,0.0,0.0,nan,0.0,0.0,0.09035459,0.0,0.0,0.0,0.0,0.0,0.0,0.0,0.0,0.0
644765934,644665746,0.4636121,0.46361682,0.99748105,6.622983,6.622983,0.0,0.0,0.0,0.0,0.0,0.0,0.0,0.0,12.482698,0.0,0.0,nan,0.0,0.0,0.09035473,0.0,0.0,0.0,0.0,0.0,0.0,0.0,0.0,0.0
645265897,645165678,0.39678425,0.39678958,0.84651095,6.5707226,6.5707226,0.0,0.0,0.0,0.0,0.0,0.0,0.0,0.0,12.483665,0.0,0.0,nan,0.0,0.0,0.09035458,0.0,0.0,0.0,0.0,0.0,0.0,0.0,0.0,0.0
645765803,645665611,0.34326276,0.34326866,0.7255866,6.4943676,6.494368,0.0,0.0,0.0,0.0,0.0,0.0,0.0,0.0,12.482007,0.0,0.0,nan,0.0,0.0,0.09035471,0.0,0.0,0.0,0.0,0.0,0.0,0.0,0.0,0.0
646255744,646155544,0.43619382,0.43619925,0.9361347,6.4126315,6.412632,0.0,0.0,0.0,0.0,0.0,0.0,0.0,0.0,12.4836,0.0,0.0,nan,0.0,0.0,0.09035466,0.0,0.0,0.0,0.0,0.0,0.0,0.0,0.0,0.0
646755668,646655476,0.25980666,0.25981167,0.5401412,6.295953,6.2959533,0.0,0.0,0.0,0.0,0.0,0.0,0.0,0.0,12.479077,0.0,0.0,nan,0.0,0.0,0.090354696,0.0,0.0,0.0,0.0,0.0,0.0,0.0,0.0,0.0
647255605,647155408,0.17726727,0.17727222,0.3558963,6.227042,6.2270427,0.0,0.0,0.0,0.0,0.0,0.0,0.0,0.0,12.477352,0.0,0.0,nan,0.0,0.0,0.09035464,0.0,0.0,0.0,0.0,0.0,0.0,0.0,0.0,0.0
647765543,647665339,0.28573957,0.2857441,0.60425013,6.1195745,6.1195745,0.0,0.0,0.0,0.0,0.0,0.0,0.0,0.0,12.475578,0.0,0.0,nan,0.0,0.0,0.09035476,0.0,0.0,0.0,0.0,0.0,0.0,0.0,0.0,0.0
648265509,648165271,0.28253233,0.282537,0.5973966,6.0535097,6.0535097,0.0,0.0,0.0,0.0,0.0,0.0,0.0,0.0,12.475481,0.0,0.0,nan,0.0,0.0,0.0903547,0.0,0.0,0.0,0.0,0.0,0.0,0.0,0.0,0.0
648765392,648665203,0.27710295,0.2771083,0.5859488,5.9475765,5.9475765,0.0,0.0,0.0,0.0,0.0,0.0,0.0,0.0,12.472993,0.0,0.0,nan,0.0,0.0,0.09035473,0.0,0.0,0.0,0.0,0.0,0.0,0.0,0.0,0.0
649265370,649165134,0.25751027,0.25751564,0.5436241,5.855813,5.855813,0.0,0.0,0.0,0.0,0.0,0.0,0.0,0.0,12.472872,0.0,0.0,nan,0.0,0.0,0.090354666,0.0,0.0,0.0,0.0,0.0,0.0,0.0,0.0,0.0
649755411,649655066,0.380221,0.38022682,0.82100445,5.6826453,5.6826453,0.0,0.0,0.0,0.0,0.0,0.0,0.0,0.0,12.470921,0.0,0.0,nan,0.0,0.0,0.09035461,0.0,0.0,0.0,0.0,0.0,0.0,0.0,0.0,0.0
650255184,650154998,0.3003218,0.3003283,0.63902664,5.625606,5.6256065,0.0,0.0,0.0,0.0,0.0,0.0,0.0,0.0,12.472333,0.0,0.0,nan,0.0,0.0,0.09035463,0.0,0.0,0.0,0.0,0.0,0.0,0.0,0.0,0.0
650755128,650654929,0.47432953,0.4743362,1.0324165,5.54327,5.543271,0.0,0.0,0.0,0.0,0.0,0.0,0.0,0.0,12.470158,0.0,0.0,nan,0.0,0.0,0.09035456,0.0,0.0,0.0,0.0,0.0,0.0,0.0,0.0,0.0
651265091,651164859,0.35520932,0.35521692,0.7629188,5.486841,5.486842,0.0,0.0,0.0,0.0,0.0,0.0,0.0,0.0,12.472412,0.0,0.0,nan,0.0,0.0,0.09035467,0.0,0.0,0.0,0.0,0.0,0.0,0.0,0.0,0.0
651764976,651664790,0.26916337,0.26917255,0.56592906,5.4380693,5.4380713,0.0,0.0,0.0,0.0,0.0,0.0,0.0,0.0,12.471613,0.0,0.0,nan,0.0,0.0,0.090354696,0.0,0.0,0.0,0.0,0.0,0.0,0.0,0.0,0.0
652264906,652164720,0.18267149,0.18267892,0.37639594,5.329571,5.3295717,0.0,0.0,0.0,0.0,0.0,0.0,0.0,0.0,12.4678135,0.0,0.0,nan,0.0,0.0,0.09035462,0.0,0.0,0.0,0.0,0.0,0.0,0.0,0.0,0.0
652764840,652664651,0.27290663,0.27291328,0.58295536,5.1796517,5.179652,0.0,0.0,0.0,0.0,0.0,0.0,0.0,0.0,12.464458,0.0,0.0,nan,0.0,0.0,0.09035454,0.0,0.0,0.0,0.0,0.0,0.0,0.0,0.0,0.0
653254835,653154583,0.36794868,0.36795592,0.7965748,5.1295958,5.1295967,0.0,0.0,0.0,0.0,0.0,0.0,0.0,0.0,12.466382,0.0,0.0,nan,0.0,0.0,0.090354554,0.0,0.0,0.0,0.0,0.0,0.0,0.0,0.0,0.0
653754704,653654513,0.32183963,0.32184762,0.6916971,5.0524225,5.052424,0.0,0.0,0.0,0.0,0.0,0.0,0.0,0.0,12.464769,0.0,0.0,nan,0.0,0.0,0.09035446,0.0,0.0,0.0,0.0,0.0,0.0,0.0,0.0,0.0
654264635,654164444,0.36530536,0.36531386,0.78878456,5.0167065,5.0167084,0.0,0.0,0.0,0.0,0.0,0.0,0.0,0.0,12.467325,0.0,0.0,nan,0.0,0.0,0.090354554,0.0,0.0,0.0,0.0,0.0,0.0,0.0,0.0,0.0
654764615,654664373,0.2714427,0.2714528,0.57455397,4.9697013,4.9697046,0.0,0.0,0.0,0.0,0.0,0.0,0.0,0.0,12.467544,0.0,0.0,nan,0.0,0.0,0.090354465,0.0,0.0,0.0,0.0,0.0,0.0,0.0,0.0,0.0
655264631,655164303,0.64685166,0.64686257,1.4173702,4.9988055,4.9988112,0.0,0.0,0.0,0.0,0.0,0.0,0.0,0.0,12.473278,0.0,0.0,nan,0.0,0.0,0.090354465,0.0,0.0,0.0,0.0,0.0,0.0,0.0,0.0,0.0
655764480,655664233,0.64014214,0.6401556,1.396783,5.057669,5.0576787,0.0,0.0,0.0,0.0,0.0,0.0,0.0,0.0,12.476868,0.0,0.0,nan,0.0,0.0,0.09035436,0.0,0.0,0.0,0.0,0.0,0.0,0.0,0.0,0.0
656264352,656164163,0.17883396,0.17884813,0.3564106,5.081761,5.0817676,0.0,0.0,0.0,0.0,0.0,0.0,0.0,0.0,12.475621,0.0,0.0,nan,0.0,0.0,0.09035427,0.0,0.0,0.0,0.0,0.0,0.0,0.0,0.0,0.0
656754323,656654094,0.2171325,0.21714441,0.44703403,5.1063485,5.1063547,0.0,0.0,0.0,0.0,0.0,0.0,0.0,0.0,12.472966,0.0,0.0,nan,0.0,0.0,0.09035427,0.0,0.0,0.0,0.0,0.0,0.0,0.0,0.0,0.0
657264258,657164022,0.42297634,0.42298606,0.9154094,5.1034718,5.1034775,0.0,0.0,0.0,0.0,0.0,0.0,0.0,0.0,12.474911,0.0,0.0,nan,0.0,0.0,0.09035437,0.0,0.0,0.0,0.0,0.0,0.0,0.0,0.0,0.0
657764139,657663952,0.5879976,0.58800757,1.2858441,5.1208477,5.1208544,0.0,0.0,0.0,0.0,0.0,0.0,0.0,0.0,12.474095,0.0,0.0,nan,0.0,0.0,0.09035428,0.0,0.0,0.0,0.0,0.0,0.0,0.0,0.0,0.0
658264071,658163881,0.4346901,0.434701,0.93869275,5.1230416,5.123049,0.0,0.0,0.0,0.0,0.0,0.0,0.0,0.0,12.476557,0.0,0.0,nan,0.0,0.0,0.090354286,0.0,0.0,0.0,0.0,0.0,0.0,0.0,0.0,0.0
658764000,658663810,0.37340716,0.3734193,0.797976,5.124267,5.1242757,0.0,0.0,0.0,0.0,0.0,0.0,0.0,0.0,12.477467,0.0,0.0,nan,0.0,0.0,0.090354204,0.0,0.0,0.0,0.0,0.0,0.0,0.0,0.0,0.0
659263932,659163739,0.19050579,0.1905179,0.38636655,5.100085,5.100091,0.0,0.0,0.0,0.0,0.0,0.0,0.0,0.0,12.477052,0.0,0.0,nan,0.0,0.0,0.09035412,0.0,0.0,0.0,0.0,0.0,0.0,0.0,0.0,0.0
659763921,659663668,0.44182023,0.44183066,0.9558981,5.0537734,5.05378,0.0,0.0,0.0,0.0,0.0,0.0,0.0,0.0,12.475316,0.0,0.0,nan,0.0,0.0,0.09035414,0.0,0.0,0.0,0.0,0.0,0.0,0.0,0.0,0.0
660263801,660163597,0.4484558,0.4484665,0.9705614,5.0189157,5.018923,0.0,0.0,0.0,0.0,0.0,0.0,0.0,0.0,12.47747,0.0,0.0,nan,0.0,0.0,0.090354055,0.0,0.0,0.0,0.0,0.0,0.0,0.0,0.0,0.0
660763745,660663526,0.4165173,0.4165267,0.901259,4.9778266,4.9778323,0.0,0.0,0.0,0.0,0.0,0.0,0.0,0.0,12.474183,0.0,0.0,nan,0.0,0.0,0.090354174,0.0,0.0,0.0,0.0,0.0,0.0,0.0,0.0,0.0
661263708,661163457,0.7232797,0.7232898,1.58937,4.983995,4.984002,0.0,0.0,0.0,0.0,0.0,0.0,0.0,0.0,12.478089,0.0,0.0,nan,0.0,0.0,0.0903541,0.0,0.0,0.0,0.0,0.0,0.0,0.0,0.0,0.0
661763578,661663384,1.0174375,1.0174501,2.2450464,5.0942492,5.0942607,0.0,0.0,0.0,0.0,0.0,0.0,0.0,0.0,12.48208,0.0,0.0,nan,0.0,0.0,0.09035413,0.0,0.0,0.0,0.0,0.0,0.0,0.0,0.0,0.0
662263507,662163312,0.25508127,0.25509542,0.5256098,5.1819134,5.181924,0.0,0.0,0.0,0.0,0.0,0.0,0.0,0.0,12.483575,0.0,0.0,nan,0.0,0.0,0.09035406,0.0,0.0,0.0,0.0,0.0,0.0,0.0,0.0,0.0
662763482,662663240,1.0079056,1.0079192,2.2188048,5.35831,5.358326,0.0,0.0,0.0,0.0,0.0,0.0,0.0,0.0,12.486765,0.0,0.0,nan,0.0,0.0,0.090354,0.0,0.0,0.0,0.0,0.0,0.0,0.0,0.0,0.0
663263363,663163169,0.85838723,0.85840267,1.8774681,5.4714274,5.4714465,0.0,0.0,0.0,0.0,0.0,0.0,0.0,0.0,12.491608,0.0,0.0,nan,0.0,0.0,0.090354025,0.0,0.0,0.0,0.0,0.0,0.0,0.0,0.0,0.0
663763284,663663097,1.2754021,1.2754189,2.8109713,5.6282935,5.6283193,0.0,0.0,0.0,0.0,0.0,0.0,0.0,0.0,12.495004,0.0,0.0,nan,0.0,0.0,0.090354145,0.0,0.0,0.0,0.0,0.0,0.0,0.0,0.0,0.0
664263217,664163025,1.3820359,1.3820539,3.046674,5.7541013,5.754132,0.0,0.0,0.0,0.0,0.0,0.0,0.0,0.0,12.498938,0.0,0.0,nan,0.0,0.0,0.09035409,0.0,0.0,0.0,0.0,0.0,0.0,0.0,0.0,0.0
664763261,664662953,1.0883152,1.0883354,2.3788176,6.0143394,6.014377,0.0,0.0,0.0,0.0,0.0,0.0,0.0,0.0,12.502818,0.0,0.0,nan,0.0,0.0,0.090354145,0.0,0.0,0.0,0.0,0.0,0.0,0.0,0.0,0.0
665263069,665162880,0.14592594,0.14594619,0.25572246,6.0964293,6.096446,0.0,0.0,0.0,0.0,0.0,0.0,0.0,0.0,12.496129,0.0,0.0,nan,0.0,0.0,0.09035409,0.0,0.0,0.0,0.0,0.0,0.0,0.0,0.0,0.0
665762997,665662808,0.6986532,0.698665,1.5167322,6.1749277,6.174947,0.0,0.0,0.0,0.0,0.0,0.0,0.0,0.0,12.496573,0.0,0.0,nan,0.0,0.0,0.09035407,0.0,0.0,0.0,0.0,0.0,0.0,0.0,0.0,0.0
666262924,666162735,0.4212436,0.42125517,0.8919192,6.18339,6.183407,0.0,0.0,0.0,0.0,0.0,0.0,0.0,0.0,12.497467,0.0,0.0,nan,0.0,0.0,0.09035414,0.0,0.0,0.0,0.0,0.0,0.0,0.0,0.0,0.0
666762882,666662663,0.62875104,0.6287607,1.362796,6.1732697,6.173284,0.0,0.0,0.0,0.0,0.0,0.0,0.0,0.0,12.49551,0.0,0.0,nan,0.0,0.0,0.09035432,0.0,0.0,0.0,0.0,0.0,0.0,0.0,0.0,0.0
667262778,667162590,0.717674,0.7176839,1.5608957,6.184733,6.184747,0.0,0.0,0.0,0.0,0.0,0.0,0.0,0.0,12.498029,0.0,0.0,nan,0.0,0.0,0.090354346,0.0,0.0,0.0,0.0,0.0,0.0,0.0,0.0,0.0
667762763,667662517,0.7548402,0.7548497,1.6440179,6.1937866,6.1938004,0.0,0.0,0.0,0.0,0.0,0.0,0.0,0.0,12.496261,0.0,0.0,nan,0.0,0.0,0.09035434,0.0,0.0,0.0,0.0,0.0,0.0,0.0,0.0,0.0
668262703,668162444,0.41003042,0.41003874,0.87190616,6.203375,6.2033854,0.0,0.0,0.0,0.0,0.0,0.0,0.0,0.0,12.494373,0.0,0.0,nan,0.0,0.0,0.09035443,0.0,0.0,0.0,0.0,0.0,0.0,0.0,0.0,0.0
668762587,668662371,0.36731613,0.3673245,0.77509475,6.238158,6.2381673,0.0,0.0,0.0,0.0,0.0,0.0,0.0,0.0,12.492946,0.0,0.0,nan,0.0,0.0,0.09035443,0.0,0.0,0.0,0.0,0.0,0.0,0.0,0.0,0.0
669262651,669162297,0.76763284,0.7676407,1.6780982,6.2634983,6.263507,0.0,0.0,0.0,0.0,0.0,0.0,0.0,0.0,12.493224,0.0,0.0,nan,0.0,0.0,0.090354614,0.0,0.0,0.0,0.0,0.0,0.0,0.0,0.0,0.0
669762427,669662224,0.7589831,0.75899196,1.6552058,6.3042884,6.304297,0.0,0.0,0.0,0.0,0.0,0.0,0.0,0.0,12.493916,0.0,0.0,nan,0.0,0.0,0.090354495,0.0,0.0,0.0,0.0,0.0,0.0,0.0,0.0,0.0
670262343,670162150,0.5268569,0.52686656,1.1301477,6.3181,6.318109,0.0,0.0,0.0,0.0,0.0,0.0,0.0,0.0,12.495692,0.0,0.0,nan,0.0,0.0,0.09035467,0.0,0.0,0.0,0.0,0.0,0.0,0.0,0.0,0.0
670762263,670662077,0.61763966,0.6176493,1.3349259,6.309382,6.3093905,0.0,0.0,0.0,0.0,0.0,0.0,0.0,0.0,12.493953,0.0,0.0,nan,0.0,0.0,0.090354666,0.0,0.0,0.0,0.0,0.0,0.0,0.0,0.0,0.0
671262192,671162003,0.41982132,0.41982812,0.90184754,6.2215943,6.221599,0.0,0.0,0.0,0.0,0.0,0.0,0.0,0.0,12.487028,0.0,0.0,nan,0.0,0.0,0.09035472,0.0,0.0,0.0,0.0,0.0,0.0,0.0,0.0,0.0
671762116,671661929,0.2574695,0.25747707,0.5357862,6.0844665,6.08447,0.0,0.0,0.0,0.0,0.0,0.0,0.0,0.0,12.48349,0.0,0.0,nan,0.0,0.0,0.0903547,0.0,0.0,0.0,0.0,0.0,0.0,0.0,0.0,0.0
672262078,672161855,0.21190526,0.21191272,0.43519428,5.9742208,5.9742236,0.0,0.0,0.0,0.0,0.0,0.0,0.0,0.0,12.481327,0.0,0.0,nan,0.0,0.0,0.09035468,0.0,0.0,0.0,0.0,0.0,0.0,0.0,0.0,0.0
672762020,672661780,0.47709197,0.4770995,1.032979,5.8796215,5.8796244,0.0,0.0,0.0,0.0,0.0,0.0,0.0,0.0,12.480993,0.0,0.0,nan,0.0,0.0,0.09035473,0.0,0.0,0.0,0.0,0.0,0.0,0.0,0.0,0.0
673261897,673161706,0.29896024,0.29896793,0.6324024,5.8019934,5.8019953,0.0,0.0,0.0,0.0,0.0,0.0,0.0,0.0,12.480286,0.0,0.0,nan,0.0,0.0,0.090354875,0.0,0.0,0.0,0.0,0.0,0.0,0.0,0.0,0.0
673761979,673661631,0.5711658,0.5711735,1.2456609,5.7017164,5.701719,0.0,0.0,0.0,0.0,0.0,0.0,0.0,0.0,12.479222,0.0,0.0,nan,0.0,0.0,0.09035483,0.0,0.0,0.0,0.0,0.0,0.0,0.0,0.0,0.0
674261831,674161557,0.34527284,0.34528175,0.7330643,5.6925344,5.6925373,0.0,0.0,0.0,0.0,0.0,0.0,0.0,0.0,12.480308,0.0,0.0,nan,0.0,0.0,0.09035479,0.0,0.0,0.0,0.0,0.0,0.0,0.0,0.0,0.0
674761884,674661482,0.24279408,0.24280316,0.5018859,5.6216555,5.6216583,0.0,0.0,0.0,0.0,0.0,0.0,0.0,0.0,12.479323,0.0,0.0,nan,0.0,0.0,0.09035483,0.0,0.0,0.0,0.0,0.0,0.0,0.0,0.0,0.0
675261593,675161407,0.34508488,0.3450929,0.7353296,5.5712576,5.57126,0.0,0.0,0.0,0.0,0.0,0.0,0.0,0.0,12.47893,0.0,0.0,nan,0.0,0.0,0.09035477,0.0,0.0,0.0,0.0,0.0,0.0,0.0,0.0,0.0
675761578,675661332,0.250853,0.25086117,0.5226601,5.5150204,5.5150228,0.0,0.0,0.0,0.0,0.0,0.0,0.0,0.0,12.480087,0.0,0.0,nan,0.0,0.0,0.090354905,0.0,0.0,0.0,0.0,0.0,0.0,0.0,0.0,0.0
676261442,676161257,0.46627134,0.4662769,1.0171275,5.453704,5.4537053,0.0,0.0,0.0,0.0,0.0,0.0,0.0,0.0,12.471202,0.0,0.0,nan,0.0,0.0,0.09035493,0.0,0.0,0.0,0.0,0.0,0.0,0.0,0.0,0.0
676761371,676661182,0.46229768,0.4623043,1.0054679,5.3994555,5.3994575,0.0,0.0,0.0,0.0,0.0,0.0,0.0,0.0,12.471476,0.0,0.0,nan,0.0,0.0,0.090354875,0.0,0.0,0.0,0.0,0.0,0.0,0.0,0.0,0.0
677261295,677161106,0.42469072,0.42469826,0.91820395,5.3610225,5.361025,0.0,0.0,0.0,0.0,0.0,0.0,0.0,0.0,12.473388,0.0,0.0,nan,0.0,0.0,0.09035483,0.0,0.0,0.0,0.0,0.0,0.0,0.0,0.0,0.0
677761250,677661030,0.53196144,0.5319696,1.1575481,5.318511,5.318514,0.0,0.0,0.0,0.0,0.0,0.0,0.0,0.0,12.477041,0.0,0.0,nan,0.0,0.0,0.09035486,0.0,0.0,0.0,0.0,0.0,0.0,0.0,0.0,0.0
678261256,678160955,0.22162195,0.22163069,0.4566627,5.2207723,5.2207756,0.0,0.0,0.0,0.0,0.0,0.0,0.0,0.0,12.475245,0.0,0.0,nan,0.0,0.0,0.09035479,0.0,0.0,0.0,0.0,0.0,0.0,0.0,0.0,0.0
678761079,678660879,0.4113434,0.41135156,0.88487566,5.186798,5.186802,0.0,0.0,0.0,0.0,0.0,0.0,0.0,0.0,12.475909,0.0,0.0,nan,0.0,0.0,0.09035493,0.0,0.0,0.0,0.0,0.0,0.0,0.0,0.0,0.0
679261003,679160803,0.14167987,0.14168793,0.27727458,5.134775,5.134777,0.0,0.0,0.0,0.0,0.0,0.0,0.0,0.0,12.472874,0.0,0.0,nan,0.0,0.0,0.09035478,0.0,0.0,0.0,0.0,0.0,0.0,0.0,0.0,0.0
679760913,679660727,0.5137317,0.5137376,1.122004,5.1186786,5.1186805,0.0,0.0,0.0,0.0,0.0,0.0,0.0,0.0,12.471801,0.0,0.0,nan,0.0,0.0,0.0903549,0.0,0.0,0.0,0.0,0.0,0.0,0.0,0.0,0.0
680260869,680160651,0.347327,0.3473338,0.74513024,5.088304,5.088307,0.0,0.0,0.0,0.0,0.0,0.0,0.0,0.0,12.473112,0.0,0.0,nan,0.0,0.0,0.09035482,0.0,0.0,0.0,0.0,0.0,0.0,0.0,0.0,0.0
680760827,680660574,0.24610773,0.24611515,0.51601845,5.0386477,5.0386505,0.0,0.0,0.0,0.0,0.0,0.0,0.0,0.0,12.47143,0.0,0.0,nan,0.0,0.0,0.09035477,0.0,0.0,0.0,0.0,0.0,0.0,0.0,0.0,0.0
681260693,681160498,0.3526778,0.3526851,0.75556606,5.015049,5.0150523,0.0,0.0,0.0,0.0,0.0,0.0,0.0,0.0,12.474233,0.0,0.0,nan,0.0,0.0,0.09035479,0.0,0.0,0.0,0.0,0.0,0.0,0.0,0.0,0.0
681760764,681660421,0.38260627,0.38261375,0.8216119,4.986413,4.9864163,0.0,0.0,0.0,0.0,0.0,0.0,0.0,0.0,12.475952,0.0,0.0,nan,0.0,0.0,0.09035492,0.0,0.0,0.0,0.0,0.0,0.0,0.0,0.0,0.0
682260648,682160345,0.51421607,0.5142239,1.1163993,4.9770713,4.9770756,0.0,0.0,0.0,0.0,0.0,0.0,0.0,0.0,12.477363,0.0,0.0,nan,0.0,0.0,0.09035486,0.0,0.0,0.0,0.0,0.0,0.0,0.0,0.0,0.0
682760457,682660267,0.319446,0.31945366,0.6782003,4.947109,4.9471135,0.0,0.0,0.0,0.0,0.0,0.0,0.0,0.0,12.475801,0.0,0.0,nan,0.0,0.0,0.09035488,0.0,0.0,0.0,0.0,0.0,0.0,0.0,0.0,0.0
683260385,683160190,0.49105206,0.49105942,1.0637444,4.934198,4.934203,0.0,0.0,0.0,0.0,0.0,0.0,0.0,0.0,12.478161,0.0,0.0,nan,0.0,0.0,0.09035483,0.0,0.0,0.0,0.0,0.0,0.0,0.0,0.0,0.0
683760499,683660113,0.38317192,0.38317963,0.8193801,4.919647,4.919652,0.0,0.0,0.0,0.0,0.0,0.0,0.0,0.0,12.479764,0.0,0.0,nan,0.0,0.0,0.09035476,0.0,0.0,0.0,0.0,0.0,0.0,0.0,0.0,0.0
684260251,684160036,0.5554399,0.55544674,1.2096943,4.907604,4.9076085,0.0,0.0,0.0,0.0,0.0,0.0,0.0,0.0,12.479779,0.0,0.0,nan,0.0,0.0,0.09035478,0.0,0.0,0.0,0.0,0.0,0.0,0.0,0.0,0.0
684760174,684659958,0.32111388,0.32111883,0.6896323,4.8944793,4.8944817,0.0,0.0,0.0,0.0,0.0,0.0,0.0,0.0,12.470237,0.0,0.0,nan,0.0,0.0,0.090354726,0.0,0.0,0.0,0.0,0.0,0.0,0.0,0.0,0.0
685260125,685159881,0.20626016,0.20626515,0.43047088,4.89985,4.899852,0.0,0.0,0.0,0.0,0.0,0.0,0.0,0.0,12.469832,0.0,0.0,nan,0.0,0.0,0.090354845,0.0,0.0,0.0,0.0,0.0,0.0,0.0,0.0,0.0
685759990,685659803,0.4921877,0.49219313,1.0722831,4.902256,4.9022584,0.0,0.0,0.0,0.0,0.0,0.0,0.0,0.0,12.473629,0.0,0.0,nan,0.0,0.0,0.090354875,0.0,0.0,0.0,0.0,0.0,0.0,0.0,0.0,0.0
686259940,686159726,0.23586178,0.23586771,0.492982,4.9013915,4.9013934,0.0,0.0,0.0,0.0,0.0,0.0,0.0,0.0,12.473473,0.0,0.0,nan,0.0,0.0,0.090354815,0.0,0.0,0.0,0.0,0.0,0.0,0.0,0.0,0.0
686759908,686659648,0.6011927,0.6011988,1.3132468,4.9361815,4.936185,0.0,0.0,0.0,0.0,0.0,0.0,0.0,0.0,12.475406,0.0,0.0,nan,0.0,0.0,0.09035474,0.0,0.0,0.0,0.0,0.0,0.0,0.0,0.0,0.0
687259813,687159570,0.3832474,0.38325405,0.8192779,4.9716964,4.9717,0.0,0.0,0.0,0.0,0.0,0.0,0.0,0.0,12.478756,0.0,0.0,nan,0.0,0.0,0.09035469,0.0,0.0,0.0,0.0,0.0,0.0,0.0,0.0,0.0
687759874,687659492,0.68998533,0.6899922,1.5082546,5.0097094,5.0097146,0.0,0.0,0.0,0.0,0.0,0.0,0.0,0.0,12.482803,0.0,0.0,nan,0.0,0.0,0.09035472,0.0,0.0,0.0,0.0,0.0,0.0,0.0,0.0,0.0
688259600,688159413,0.6492994,0.64930564,1.4181974,5.0045695,5.004574,0.0,0.0,0.0,0.0,0.0,0.0,0.0,0.0,12.481233,0.0,0.0,nan,0.0,0.0,0.090354845,0.0,0.0,0.0,0.0,0.0,0.0,0.0,0.0,0.0
688759764,688659335,0.4828898,0.48289648,1.0398794,4.9866166,4.9866223,0.0,0.0,0.0,0.0,0.0,0.0,0.0,0.0,12.484816,0.0,0.0,nan,0.0,0.0,0.0903548,0.0,0.0,0.0,0.0,0.0,0.0,0.0,0.0,0.0
689259444,689159257,0.11850057,0.11850668,0.22030759,4.981892,4.9818945,0.0,0.0,0.0,0.0,0.0,0.0,0.0,0.0,12.476318,0.0,0.0,nan,0.0,0.0,0.09035481,0.0,0.0,0.0,0.0,0.0,0.0,0.0,0.0,0.0
689759543,689659178,0.30150944,0.30151373,0.6417582,4.939062,4.9390645,0.0,0.0,0.0,0.0,0.0,0.0,0.0,0.0,12.474278,0.0,0.0,nan,0.0,0.0,0.09035475,0.0,0.0,0.0,0.0,0.0,0.0,0.0,0.0,0.0
690259287,690159099,0.30960134,0.3096058,0.6606329,4.906195,4.906197,0.0,0.0,0.0,0.0,0.0,0.0,0.0,0.0,12.4751,0.0,0.0,nan,0.0,0.0,0.090354696,0.0,0.0,0.0,0.0,0.0,0.0,0.0,0.0,0.0
690759208,690659020,0.4623687,0.4623736,1.002824,4.884342,4.884344,0.0,0.0,0.0,0.0,0.0,0.0,0.0,0.0,12.477689,0.0,0.0,nan,0.0,0.0,0.0903547,0.0,0.0,0.0,0.0,0.0,0.0,0.0,0.0,0.0
691259144,691158941,0.200661,0.20066606,0.41377032,4.7744193,4.774421,0.0,0.0,0.0,0.0,0.0,0.0,0.0,0.0,12.473347,0.0,0.0,nan,0.0,0.0,0.090354644,0.0,0.0,0.0,0.0,0.0,0.0,0.0,0.0,0.0
691759186,691658862,0.42063373,0.42063856,0.9097985,4.709113,4.709115,0.0,0.0,0.0,0.0,0.0,0.0,0.0,0.0,12.475565,0.0,0.0,nan,0.0,0.0,0.09035478,0.0,0.0,0.0,0.0,0.0,0.0,0.0,0.0,0.0
692259086,692158783,0.48806426,0.48806962,1.0602396,4.7147284,4.7147307,0.0,0.0,0.0,0.0,0.0,0.0,0.0,0.0,12.476574,0.0,0.0,nan,0.0,0.0,0.09035481,0.0,0.0,0.0,0.0,0.0,0.0,0.0,0.0,0.0
692759109,692658703,0.56974363,0.56974936,1.2424477,4.7308316,4.7308345,0.0,0.0,0.0,0.0,0.0,0.0,0.0,0.0,12.478393,0.0,0.0,nan,0.0,0.0,0.09035475,0.0,0.0,0.0,0.0,0.0,0.0,0.0,0.0,0.0
693258812,693158624,0.566907,0.5669128,1.2358743,4.7470946,4.7470975,0.0,0.0,0.0,0.0,0.0,0.0,0.0,0.0,12.478074,0.0,0.0,nan,0.0,0.0,0.090354696,0.0,0.0,0.0,0.0,0.0,0.0,0.0,0.0,0.0
693758889,693658544,0.36831373,0.36832055,0.78494376,4.7835298,4.783533,0.0,0.0,0.0,0.0,0.0,0.0,0.0,0.0,12.481708,0.0,0.0,nan,0.0,0.0,0.090354726,0.0,0.0,0.0,0.0,0.0,0.0,0.0,0.0,0.0
694258653,694158465,0.22734469,0.2273515,0.46707338,4.7794476,4.779451,0.0,0.0,0.0,0.0,0.0,0.0,0.0,0.0,12.479806,0.0,0.0,nan,0.0,0.0,0.09035467,0.0,0.0,0.0,0.0,0.0,0.0,0.0,0.0,0.0
694758609,694658385,0.49073014,0.490736,1.0636889,4.7629933,4.762996,0.0,0.0,0.0,0.0,0.0,0.0,0.0,0.0,12.479966,0.0,0.0,nan,0.0,0.0,0.0903548,0.0,0.0,0.0,0.0,0.0,0.0,0.0,0.0,0.0
695258542,695158305,0.65542847,0.65543485,1.4323391,4.7941346,4.794139,0.0,0.0,0.0,0.0,0.0,0.0,0.0,0.0,12.481649,0.0,0.0,nan,0.0,0.0,0.09035474,0.0,0.0,0.0,0.0,0.0,0.0,0.0,0.0,0.0
695758458,695658225,0.47196794,0.47197464,1.0185632,4.7997923,4.7997966,0.0,0.0,0.0,0.0,0.0,0.0,0.0,0.0,12.481364,0.0,0.0,nan,0.0,0.0,0.09035477,0.0,0.0,0.0,0.0,0.0,0.0,0.0,0.0,0.0
696258330,696158145,0.7661295,0.76613677,1.6779119,4.859396,4.859401,0.0,0.0,0.0,0.0,0.0,0.0,0.0,0.0,12.484888,0.0,0.0,nan,0.0,0.0,0.09035471,0.0,0.0,0.0,0.0,0.0,0.0,0.0,0.0,0.0
696758273,696658064,0.406451,0.40645653,0.87631494,4.8513885,4.8513913,0.0,0.0,0.0,0.0,0.0,0.0,0.0,0.0,12.480089,0.0,0.0,nan,0.0,0.0,0.09035466,0.0,0.0,0.0,0.0,0.0,0.0,0.0,0.0,0.0
697258184,697157984,0.28360054,0.2836064,0.59996897,4.8483963,4.8483987,0.0,0.0,0.0,0.0,0.0,0.0,0.0,0.0,12.477778,0.0,0.0,nan,0.0,0.0,0.09035469,0.0,0.0,0.0,0.0,0.0,0.0,0.0,0.0,0.0
697758281,697657906,0.33572435,0.3357306,0.7175759,4.8662596,4.866262,0.0,0.0,0.0,0.0,0.0,0.0,0.0,0.0,12.476624,0.0,0.0,nan,0.0,0.0,0.09035482,0.0,0.0,0.0,0.0,0.0,0.0,0.0,0.0,0.0
698258007,698157826,0.52904904,0.5290559,1.1512411,4.8667474,4.8667502,0.0,0.0,0.0,0.0,0.0,0.0,0.0,0.0,12.479973,0.0,0.0,nan,0.0,0.0,0.090354756,0.0,0.0,0.0,0.0,0.0,0.0,0.0,0.0,0.0
698758110,698657741,0.36663404,0.36664087,0.7869092,4.8577056,4.857708,0.0,0.0,0.0,0.0,0.0,0.0,0.0,0.0,12.479426,0.0,0.0,nan,0.0,0.0,0.090354785,0.0,0.0,0.0,0.0,0.0,0.0,0.0,0.0,0.0
699257899,699157660,0.50238526,0.50239253,1.0914031,4.8568373,4.8568406,0.0,0.0,0.0,0.0,0.0,0.0,0.0,0.0,12.478638,0.0,0.0,nan,0.0,0.0,0.09035474,0.0,0.0,0.0,0.0,0.0,0.0,0.0,0.0,0.0
699757963,699657579,0.31640628,0.31641355,0.67316765,4.835921,4.8359237,0.0,0.0,0.0,0.0,0.0,0.0,0.0,0.0,12.476256,0.0,0.0,nan,0.0,0.0,0.090354696,0.0,0.0,0.0,0.0,0.0,0.0,0.0,0.0,0.0
700257706,700157498,0.6345135,0.63452065,1.3893427,4.8562183,4.8562217,0.0,0.0,0.0,0.0,0.0,0.0,0.0,0.0,12.478673,0.0,0.0,nan,0.0,0.0,0.09035475,0.0,0.0,0.0,0.0,0.0,0.0,0.0,0.0,0.0
700757625,700657417,0.5558431,0.55585104,1.2095637,4.89083,4.8908343,0.0,0.0,0.0,0.0,0.0,0.0,0.0,0.0,12.4810505,0.0,0.0,nan,0.0,0.0,0.09035488,0.0,0.0,0.0,0.0,0.0,0.0,0.0,0.0,0.0
701257555,701157335,0.5757813,0.57579046,1.2496818,4.961889,4.9618955,0.0,0.0,0.0,0.0,0.0,0.0,0.0,0.0,12.482574,0.0,0.0,nan,0.0,0.0,0.09035485,0.0,0.0,0.0,0.0,0.0,0.0,0.0,0.0,0.0
701757724,701657254,0.32750016,0.32750997,0.6886292,4.997719,4.9977255,0.0,0.0,0.0,0.0,0.0,0.0,0.0,0.0,12.486251,0.0,0.0,nan,0.0,0.0,0.09035481,0.0,0.0,0.0,0.0,0.0,0.0,0.0,0.0,0.0
702257361,702157172,0.59979975,0.59980935,1.3005786,5.038333,5.0383415,0.0,0.0,0.0,0.0,0.0,0.0,0.0,0.0,12.486879,0.0,0.0,nan,0.0,0.0,0.09035483,0.0,0.0,0.0,0.0,0.0,0.0,0.0,0.0,0.0
702757300,702657090,0.5402074,0.5402171,1.1651115,5.047447,5.0474563,0.0,0.0,0.0,0.0,0.0,0.0,0.0,0.0,12.489575,0.0,0.0,nan,0.0,0.0,0.09035479,0.0,0.0,0.0,0.0,0.0,0.0,0.0,0.0,0.0
703257242,703157008,0.64629215,0.64630103,1.404545,5.0715504,5.0715594,0.0,0.0,0.0,0.0,0.0,0.0,0.0,0.0,12.48854,0.0,0.0,nan,0.0,0.0,0.09035492,0.0,0.0,0.0,0.0,0.0,0.0,0.0,0.0,0.0
703762195,703656926,0.6003191,0.60032773,1.3006957,5.104034,5.104043,0.0,0.0,0.0,0.0,0.0,0.0,0.0,0.0,12.492311,0.0,0.0,nan,0.0,0.0,0.09035477,0.0,0.0,0.0,0.0,0.0,0.0,0.0,0.0,0.0
704257074,704156844,0.7369276,0.7369362,1.6059728,5.139936,5.1399465,0.0,0.0,0.0,0.0,0.0,0.0,0.0,0.0,12.492495,0.0,0.0,nan,0.0,0.0,0.090354905,0.0,0.0,0.0,0.0,0.0,0.0,0.0,0.0,0.0
704756955,704656762,0.5325891,0.5325973,1.1463091,5.1749635,5.1749725,0.0,0.0,0.0,0.0,0.0,0.0,0.0,0.0,12.493947,0.0,0.0,nan,0.0,0.0,0.09035485,0.0,0.0,0.0,0.0,0.0,0.0,0.0,0.0,0.0
705266942,705166677,0.39040715,0.39041528,0.8256231,5.2200055,5.220014,0.0,0.0,0.0,0.0,0.0,0.0,0.0,0.0,12.493271,0.0,0.0,nan,0.0,0.0,0.0903548,0.0,0.0,0.0,0.0,0.0,0.0,0.0,0.0,0.0
