timestamp,timestamp_sample,device_id,differential_pressure_pa,temperature,error_count
540143267,540140299,4728849,108.894295,13.996092,0
541172032,541169067,4728849,115.20702,13.996092,0
542161017,542158054,4728849,115.20702,13.996092,0
543071230,543068246,4728849,121.519745,14.093796,0
544179115,544176150,4728849,108.894295,14.093796,0
545168398,545165433,4728849,115.20702,14.093796,0
546170778,546167814,4728849,115.20702,14.093796,0
547173228,547170259,4728849,115.20702,14.093796,0
548175657,548172648,4728849,108.894295,14.1915,0
549085746,549082781,4728849,115.20702,14.1915,0
550127745,550124773,4728849,108.894295,14.1915,0
551169723,551166760,4728849,115.20702,14.289204,0
552172414,552169451,4728849,115.20702,14.289204,0
553174859,553171895,4728849,108.894295,14.289204,0
554177299,554174326,4728849,115.20702,14.289204,0
555126988,555123961,4728849,115.20702,14.386908,0
556142549,556139585,4728849,108.894295,14.386908,0
557171117,557168141,4728849,108.894295,14.386908,0
558120650,558117686,4728849,115.20702,14.386908,0
559175842,559172878,4728849,108.894295,14.4846115,0
560165041,560162076,4728849,121.519745,14.4846115,0
561167427,561164460,4728849,121.519745,14.4846115,0
562064216,562061252,4728849,108.894295,14.4846115,0
563092912,563089948,4728849,108.894295,14.582315,0
564174676,564171711,4728849,115.20702,14.582315,0
565176967,565173952,4728849,108.894295,14.582315,0
566166196,566163232,4728849,121.519745,14.582315,0
567168592,567165619,4728849,115.20702,14.680019,0
567960026,567957053,4728849,108.894295,14.680019,0
569173521,569170556,4728849,115.20702,14.680019,0
569912108,569909112,4728849,108.894295,14.680019,0
570993493,570990528,4728849,115.20702,14.680019,0
572167067,572164102,4728849,108.894295,14.680019,0
573169537,573166572,4728849,108.894295,14.680019,0
574172195,574169229,4728849,115.20702,14.777723,0
575174649,575171642,4728849,115.20702,14.777723,0
576150731,576147766,4728849,108.894295,14.777723,0
577100430,577097466,4728849,108.894295,14.777723,0
578115958,578112994,4728849,115.20702,14.777723,0
579170908,579167945,4728849,115.20702,14.875427,0
580173431,580170467,4728849,115.20702,14.875427,0
581175543,581172579,4728849,115.20702,14.875427,0
582177938,582174974,4728849,108.894295,14.875427,0
583167238,583164259,4728849,108.894295,14.875427,0
584169889,584166912,4728849,115.20702,14.875427,0
585172061,585169096,4728849,115.20702,14.875427,0
586029455,586026484,4728849,115.20702,14.875427,0
587176735,587173771,4728849,115.20702,14.875427,0
588165755,588162785,4728849,108.894295,14.875427,0
589154916,589151948,4728849,108.894295,14.875427,0
590170307,590167343,4728849,115.20702,14.875427,0
591159572,591156608,4728849,115.20702,14.875427,0
592175139,592172174,4728849,108.894295,14.875427,0
593098441,593095478,4728849,115.20702,14.875427,0
594166865,594163878,4728849,115.20702,14.973131,0
595169293,595166282,4728849,115.20702,14.973131,0
596171670,596168706,4728849,108.894295,14.973131,0
597174115,597171140,4728849,108.894295,14.973131,0
598163356,598160342,4728849,108.894295,14.973131,0
599033915,599030931,4728849,108.894295,15.070835,0
600168208,600165240,4728849,108.894295,15.070835,0
601170645,601167681,4728849,108.894295,15.070835,0
602106860,602103895,4728849,108.894295,15.070835,0
603175020,603172055,4728849,115.20702,15.070835,0
604163969,604160993,4728849,108.894295,15.168539,0
605166398,605163434,4728849,108.894295,15.168539,0
606168843,606165878,4728849,108.894295,15.168539,0
607105366,607102356,4728849,108.894295,15.168539,0
608134072,608131107,4728849,121.519745,15.266243,0
609057378,609054413,4728849,115.20702,15.266243,0
610178564,610175597,4728849,108.894295,15.266243,0
611167696,611164731,4728849,115.20702,15.266243,0
612170173,612167206,4728849,108.894295,15.266243,0
613172636,613169671,4728849,108.894295,15.363947,0
614122449,614119485,4728849,115.20702,15.363947,0
615164691,615161727,4728849,108.894295,15.363947,0
616167172,616164207,4728849,115.20702,15.363947,0
617169527,617166557,4728849,102.58158,15.363947,0
618171959,618168958,4728849,108.894295,15.363947,0
619174362,619171398,4728849,108.894295,15.461651,0
620176843,620173877,4728849,108.894295,15.461651,0
621165768,621162783,4728849,115.20702,15.461651,0
622168203,622165239,4728849,108.894295,15.461651,0
623170578,623167613,4728849,108.894295,15.559355,0
624173034,624170068,4728849,115.20702,15.559355,0
625175108,625172144,4728849,108.894295,15.559355,0
626164408,626161437,4728849,108.894295,15.559355,0
627140430,627137466,4728849,108.894295,15.559355,0
628168924,628165959,4728849,108.894295,15.657059,0
629170914,629167937,4728849,108.894295,15.657059,0
630173262,630170298,4728849,102.58158,15.657059,0
631175675,631172711,4728849,108.894295,15.657059,0
632164698,632161683,4728849,108.894295,15.754763,0
633153858,633150889,4728849,108.894295,15.754763,0
633998057,633995086,4728849,115.20702,15.754763,0
635171862,635168898,4728849,108.894295,15.754763,0
636147886,636144922,4728849,108.894295,15.852467,0
637176666,637173702,4728849,108.894295,15.852467,0
638165902,638162938,4728849,108.894295,15.852467,0
639168575,639165594,4728849,108.894295,15.852467,0
640171018,640168054,4728849,108.894295,15.9501705,0
641173632,641170638,4728849,108.894295,15.9501705,0
642176021,642173055,4728849,108.894295,15.9501705,0
643059746,643056734,4728849,108.894295,15.9501705,0
644167637,644164669,4728849,115.20702,15.9501705,0
645143631,645140630,4728849,115.20702,15.9501705,0
646172401,646169436,4728849,108.894295,16.047874,0
647174844,647171880,4728849,108.894295,16.047874,0
648084886,648081911,4728849,108.894295,16.047874,0
649166393,649163426,4728849,108.894295,16.047874,0
650142428,650139462,4728849,108.894295,16.145578,0
651171237,651168271,4728849,108.894295,16.145578,0
652173632,652170633,4728849,108.894295,16.145578,0
653176016,653173052,4728849,115.20702,16.145578,0
654165206,654162241,4728849,108.894295,16.243282,0
655167456,655164491,4728849,115.20702,16.243282,0
656170017,656167053,4728849,115.20702,16.243282,0
657172384,657169418,4728849,108.894295,16.243282,0
658148368,658145404,4728849,115.20702,16.340986,0
659177233,659174250,4728849,115.20702,16.340986,0
660166405,660163441,4728849,108.894295,16.340986,0
661168758,661165793,4728849,115.20702,16.340986,0
662171447,662168480,4728849,115.20702,16.340986,0
663173760,663170796,4728849,115.20702,16.43869,0
664176216,664173252,4728849,115.20702,16.43869,0
665165328,665162364,4728849,115.20702,16.43869,0
666167843,666164879,4728849,115.20702,16.43869,0
667169841,667166877,4728849,115.20702,16.43869,0
668172262,668169298,4728849,115.20702,16.43869,0
669174671,669171707,4728849,108.894295,16.43869,0
670163942,670160956,4728849,115.20702,16.536394,0
671166015,671163052,4728849,115.20702,16.536394,0
672102410,672099441,4728849,115.20702,16.536394,0
673170707,673167742,4728849,115.20702,16.536394,0
674173103,674170138,4728849,115.20702,16.536394,0
675175438,675172474,4728849,115.20702,16.634098,0
676125092,676122126,4728849,115.20702,16.634098,0
677167086,677164102,4728849,115.20702,16.634098,0
678103496,678100505,4728849,115.20702,16.634098,0
679171857,679168878,4728849,115.20702,16.634098,0
680174220,680171233,4728849,115.20702,16.634098,0
681150247,681147232,4728849,115.20702,16.731802,0
682165728,682162764,4728849,115.20702,16.731802,0
683009632,683006623,4728849,115.20702,16.731802,0
684077672,684074707,4728849,115.20702,16.731802,0
685172402,685169407,4728849,115.20702,16.829506,0
686174842,686171877,4728849,115.20702,16.829506,0
687177023,687174059,4728849,115.20702,16.829506,0
688166034,688163070,4728849,121.519745,16.829506,0
689168656,689165687,4728849,115.20702,16.829506,0
690171079,690168114,4728849,108.894295,16.829506,0
691173463,691170457,4728849,108.894295,16.92721,0
692176078,692173113,4728849,115.20702,16.92721,0
693165200,693162236,4728849,115.20702,16.92721,0
694101633,694098627,4728849,115.20702,16.92721,0
695170031,695167067,4728849,115.20702,16.92721,0
696172087,696169108,4728849,115.20702,16.92721,0
697174387,697171423,4728849,115.20702,16.92721,0
698176843,698173879,4728849,121.519745,16.92721,0
699165920,699162956,4728849,115.20702,16.92721,0
700168575,700165603,4728849,115.20702,16.92721,0
701117901,701114883,4728849,115.20702,17.024914,0
702173024,702170053,4728849,115.20702,17.024914,0
703096245,703093269,4728849,115.20702,17.024914,0
704177713,704174748,4728849,108.894295,17.024914,0
705166917,705163953,4728849,115.20702,17.024914,0
706063750,706060786,4728849,115.20702,17.024914,0
707171655,707168690,4728849,115.20702,17.024914,0
708121219,708118252,4728849,115.20702,17.024914,0
709176339,709173357,4728849,108.894295,17.024914,0
710165371,710162406,4728849,115.20702,17.024914,0
711167674,711164707,4728849,115.20702,17.122618,0
712130375,712127411,4728849,115.20702,17.122618,0
713172277,713169313,4728849,115.20702,17.122618,0
714174641,714171677,4728849,115.20702,17.122618,0
715176747,715173784,4728849,115.20702,17.122618,0
716165901,716162936,4728849,115.20702,17.122618,0
717168019,717165054,4728849,121.519745,17.122618,0
718091238,718088273,4728849,108.894295,17.122618,0
719172750,719169786,4728849,121.519745,17.220322,0
720122334,720119312,4728849,108.894295,17.220322,0
721177443,721174447,4728849,115.20702,17.220322,0
722166637,722163635,4728849,108.894295,17.220322,0
723076423,723073453,4728849,115.20702,17.220322,0
724171068,724168093,4728849,115.20702,17.220322,0
725133856,725130877,4728849,115.20702,17.318026,0
726175717,726172753,4728849,115.20702,17.318026,0
727164890,727161913,4728849,115.20702,17.318026,0
728167066,728164102,4728849,115.20702,17.318026,0
729142905,729139941,4728849,115.20702,17.318026,0
730171651,730168678,4728849,115.20702,17.318026,0
731147649,731144685,4728849,121.519745,17.41573,0
732176390,732173423,4728849,121.519745,17.41573,0
733020261,733017296,4728849,115.20702,17.41573,0
734167633,734164667,4728849,108.894295,17.41573,0
735143633,735140656,4728849,115.20702,17.41573,0
736172376,736169412,4728849,121.519745,17.41573,0
737174632,737171663,4728849,115.20702,17.41573,0
738150633,738147668,4728849,115.20702,17.41573,0
739166212,739163241,4728849,115.20702,17.513433,0
740168493,740165528,4728849,115.20702,17.513433,0
741170858,741167880,4728849,115.20702,17.513433,0
742173197,742170233,4728849,115.20702,17.513433,0
743109531,743106567,4728849,108.894295,17.513433,0
744164915,744161950,4728849,115.20702,17.611137,0
745167240,745164241,4728849,115.20702,17.611137,0
746103664,746100698,4728849,108.894295,17.611137,0
747172019,747169054,4728849,115.20702,17.611137,0
748174210,748171246,4728849,121.519745,17.611137,0
749123860,749120894,4728849,121.519745,17.611137,0
750179020,750176055,4728849,108.894295,17.611137,0
751168067,751165053,4728849,115.20702,17.611137,0
752170417,752167453,4728849,115.20702,17.708841,0
753172632,753169621,4728849,115.20702,17.708841,0
754175052,754172086,4728849,115.20702,17.708841,0
755164205,755161241,4728849,115.20702,17.708841,0
756140465,756137451,4728849,115.20702,17.708841,0
757103447,757100472,4728849,115.20702,17.708841,0
758171712,758168748,4728849,115.20702,17.806545,0
759174375,759171409,4728849,115.20702,17.806545,0
760176864,760173898,4728849,115.20702,17.806545,0
761179207,761176243,4728849,115.20702,17.806545,0
762168393,762165428,4728849,115.20702,17.806545,0
763065167,763062159,4728849,108.894295,17.806545,0
764173021,764170056,4728849,115.20702,17.806545,0
765043451,765040436,4728849,108.894295,17.90425,0
766164470,766161493,4728849,108.894295,17.90425,0
767166845,767163879,4728849,115.20702,17.90425,0
768169374,768166410,4728849,108.894295,17.90425,0
769171719,769168691,4728849,115.20702,17.90425,0
770147647,770144683,4728849,108.894295,17.90425,0
771176375,771173410,4728849,115.20702,17.90425,0
772139125,772136139,4728849,121.519745,17.90425,0
773167865,773164901,4728849,108.894295,17.90425,0
774170378,774167413,4728849,108.894295,17.90425,0
775172932,775169968,4728849,108.894295,18.001953,0
776175033,776172061,4728849,108.894295,18.001953,0
777058724,777055760,4728849,108.894295,18.001953,0
778166632,778163636,4728849,108.894295,18.001953,0
779168901,779165936,4728849,115.20702,18.001953,0
780158055,780155090,4728849,115.20702,18.001953,0
781173724,781170750,4728849,108.894295,18.001953,0
782176049,782173067,4728849,115.20702,18.001953,0
783165196,783162230,4728849,115.20702,18.001953,0
784167460,784164472,4728849,108.894295,18.001953,0
785064457,785061469,4728849,108.894295,18.001953,0
786172113,786169149,4728849,121.519745,18.099659,0
787161242,787158272,4728849,115.20702,18.099659,0
788176842,788173878,4728849,108.894295,18.099659,0
789179391,789176422,4728849,108.894295,18.099659,0
790168521,790165557,4728849,115.20702,18.099659,0
791170850,791167887,4728849,108.894295,18.099659,0
792173199,792170235,4728849,115.20702,18.099659,0
792898502,792895487,4728849,108.894295,18.099659,0
794177551,794174585,4728849,108.894295,18.099659,0
795166849,795163878,4728849,115.20702,18.099659,0
796169230,796166263,4728849,115.20702,18.099659,0
797171550,797168585,4728849,108.894295,18.099659,0
798174081,798171116,4728849,108.894295,18.099659,0
799176380,799173415,4728849,108.894295,18.197363,0
800165314,800162349,4728849,115.20702,18.197363,0
801167568,801164604,4728849,108.894295,18.197363,0
802169930,802166966,4728849,108.894295,18.197363,0
803172376,803169411,4728849,115.20702,18.197363,0
804174560,804171594,4728849,115.20702,18.197363,0
805176923,805173959,4728849,115.20702,18.197363,0
806166251,806163272,4728849,108.894295,18.197363,0
807142234,807139269,4728849,115.20702,18.197363,0
808170645,808167679,4728849,115.20702,18.197363,0
809173028,809170063,4728849,108.894295,18.295067,0
810175249,810172232,4728849,108.894295,18.295067,0
811164632,811161635,4728849,115.20702,18.197363,0
812154028,812151064,4728849,121.519745,18.197363,0
813077433,813074454,4728849,108.894295,18.295067,0
814119403,814116439,4728849,108.894295,18.295067,0
815174639,815171638,4728849,115.20702,18.295067,0
816150565,816147599,4728849,108.894295,18.295067,0
817179196,817176231,4728849,115.20702,18.295067,0
818168405,818165441,4728849,108.894295,18.295067,0
819170680,819167708,4728849,115.20702,18.295067,0
820173031,820170061,4728849,115.20702,18.295067,0
821175237,821172271,4728849,108.894295,18.295067,0
822164466,822161454,4728849,121.519745,18.295067,0
823166550,823163585,4728849,108.894295,18.295067,0
824168960,824165995,4728849,108.894295,18.295067,0
825131859,825128879,4728849,115.20702,18.295067,0
826173631,826170640,4728849,115.20702,18.39277,0
827175920,827172942,4728849,115.20702,18.39277,0
828165033,828162068,4728849,108.894295,18.39277,0
829167366,829164348,4728849,121.519745,18.39277,0
830169633,830166658,4728849,108.894295,18.39277,0
831132396,831129431,4728849,108.894295,18.39277,0
832174288,832171322,4728849,115.20702,18.39277,0
833163412,833160433,4728849,108.894295,18.39277,0
834165966,834163001,4728849,115.20702,18.39277,0
835168220,835165230,4728849,108.894295,18.39277,0
836170516,836167552,4728849,115.20702,18.39277,0
837172847,837169883,4728849,115.20702,18.39277,0
838175110,838172127,4728849,115.20702,18.39277,0
839137856,839134892,4728849,115.20702,18.39277,0
840166666,840163701,4728849,115.20702,18.39277,0
841169076,841166112,4728849,108.894295,18.39277,0
842171379,842168410,4728849,115.20702,18.39277,0
843173464,843170500,4728849,115.20702,18.39277,0
844136236,844133236,4728849,115.20702,18.39277,0
845178031,845175067,4728849,115.20702,18.39277,0
846167240,846164241,4728849,115.20702,18.39277,0
847037651,847034619,4728849,121.519745,18.39277,0
848171849,848168878,4728849,115.20702,18.39277,0
849174252,849171286,4728849,108.894295,18.39277,0
850176583,850173615,4728849,115.20702,18.39277,0
851165773,851162808,4728849,115.20702,18.39277,0
852168054,852165090,4728849,115.20702,18.39277,0
853170565,853167600,4728849,108.894295,18.39277,0
854146724,854143759,4728849,115.20702,18.39277,0
855175425,855172460,4728849,108.894295,18.39277,0
856164483,856161519,4728849,108.894295,18.39277,0
857166846,857163878,4728849,115.20702,18.295067,0
858169054,858166089,4728849,108.894295,18.295067,0
859171386,859168409,4728849,115.20702,18.295067,0
860173637,860170673,4728849,115.20702,18.295067,0
861044065,861041101,4728849,115.20702,18.295067,0
862178562,862175596,4728849,108.894295,18.295067,0
863101436,863098473,4728849,115.20702,18.295067,0
864169639,864166675,4728849,115.20702,18.295067,0
865171908,865168943,4728849,108.894295,18.295067,0
866121448,866118470,4728849,115.20702,18.295067,0
867176462,867173498,4728849,115.20702,18.295067,0
868165562,868162597,4728849,115.20702,18.295067,0
869167843,869164878,4728849,121.519745,18.295067,0
870170019,870167054,4728849,115.20702,18.295067,0
871172667,871169632,4728849,108.894295,18.295067,0
872148632,872145662,4728849,115.20702,18.295067,0
873177279,873174276,4728849,115.20702,18.295067,0
874166372,874163406,4728849,115.20702,18.295067,0
875155471,875152465,4728849,115.20702,18.295067,0
876065733,876062769,4728849,115.20702,18.295067,0
877173484,877170472,4728849,115.20702,18.295067,0
878044068,878041104,4728849,115.20702,18.295067,0
879178285,879175321,4728849,115.20702,18.295067,0
880114648,880111681,4728849,115.20702,18.295067,0
881169679,881166709,4728849,115.20702,18.295067,0
882132371,882129407,4728849,108.894295,18.295067,0
883174220,883171254,4728849,115.20702,18.295067,0
884176489,884173502,4728849,115.20702,18.295067,0
885165905,885162941,4728849,115.20702,18.295067,0
886167929,886164964,4728849,115.20702,18.295067,0
887170202,887167232,4728849,115.20702,18.295067,0
888172454,888169487,4728849,102.58158,18.295067,0
889174843,889171878,4728849,115.20702,18.295067,0
890177031,890174066,4728849,115.20702,18.295067,0
891166399,891163411,4728849,115.20702,18.295067,0
892168683,892165672,4728849,115.20702,18.295067,0
893157724,893154760,4728849,115.20702,18.295067,0
894173231,894170247,4728849,108.894295,18.295067,0
895175578,895172585,4728849,115.20702,18.295067,0
896177847,896174878,4728849,115.20702,18.295067,0
896929568,896926603,4728849,108.894295,18.295067,0
898169117,898166153,4728849,115.20702,18.295067,0
899171407,899168440,4728849,115.20702,18.295067,0
900173691,900170727,4728849,115.20702,18.295067,0
901176030,901173064,4728849,115.20702,18.295067,0
902099134,902096167,4728849,108.894295,18.295067,0
903167387,903164422,4728849,108.894295,18.295067,0
904156468,904153464,4728849,115.20702,18.295067,0
905171881,905168915,4728849,108.894295,18.295067,0
906174457,906171485,4728849,108.894295,18.39277,0
907176842,907173878,4728849,108.894295,18.39277,0
908165956,908162968,4728849,115.20702,18.39277,0
909168319,909165344,4728849,115.20702,18.39277,0
910170632,910167619,4728849,115.20702,18.39277,0
911093792,911090778,4728849,115.20702,18.39277,0
912175148,912172184,4728849,115.20702,18.39277,0
913085117,913082152,4728849,115.20702,18.39277,0
914153419,914150455,4728849,108.894295,18.39277,0
915168854,915165878,4728849,115.20702,18.39277,0
916171091,916168126,4728849,115.20702,18.39277,0
917068143,917065159,4728849,115.20702,18.39277,0
918175928,918172956,4728849,115.20702,18.39277,0
919165020,919162056,4728849,115.20702,18.39277,0
920140927,920137963,4728849,115.20702,18.39277,0
921169564,921166584,4728849,115.20702,18.39277,0
922132270,922129305,4728849,115.20702,18.39277,0
923174195,923171230,4728849,115.20702,18.39277,0
924123647,924120668,4728849,108.894295,18.490475,0
925178672,925175708,4728849,115.20702,18.39277,0
926088634,926085627,4728849,108.894295,18.490475,0
927170019,927167055,4728849,108.894295,18.490475,0
928106394,928103423,4728849,115.20702,18.490475,0
929121632,929118623,4728849,108.894295,18.490475,0
930176637,930173638,4728849,115.20702,18.490475,0
931126194,931123230,4728849,115.20702,18.490475,0
932168105,932165141,4728849,115.20702,18.490475,0
933170235,933167271,4728849,115.20702,18.490475,0
934040575,934037611,4728849,115.20702,18.490475,0
935161615,935158636,4728849,115.20702,18.490475,0
936177068,936174103,4728849,108.894295,18.490475,0
937166681,937163703,4728849,108.894295,18.490475,0
938169254,938166288,4728849,115.20702,18.490475,0
939145089,939142124,4728849,115.20702,18.588179,0
940173739,940170765,4728849,115.20702,18.588179,0
941136483,941133469,4728849,108.894295,18.588179,0
942178308,942175343,4728849,115.20702,18.588179,0
943167637,943164668,4728849,108.894295,18.588179,0
944170064,944167099,4728849,108.894295,18.588179,0
945172395,945169431,4728849,108.894295,18.588179,0
946161523,946158553,4728849,108.894295,18.490475,0
947163844,947160878,4728849,108.894295,18.490475,0
948166056,948163092,4728849,115.20702,18.490475,0
949168331,949165366,4728849,108.894295,18.490475,0
950157405,950154441,4728849,115.20702,18.490475,0
951173020,951170055,4728849,115.20702,18.490475,0
952175218,952172253,4728849,108.894295,18.490475,0
953177550,953174585,4728849,108.894295,18.490475,0
954166645,954163634,4728849,108.894295,18.490475,0
955168843,955165879,4728849,115.20702,18.39277,0
956171088,956168124,4728849,115.20702,18.39277,0
957133844,957130879,4728849,115.20702,18.39277,0
958175703,958172738,4728849,115.20702,18.39277,0
959164855,959161878,4728849,115.20702,18.39277,0
960167292,960164328,4728849,115.20702,18.39277,0
961169549,961166585,4728849,115.20702,18.39277,0
962171867,962168878,4728849,115.20702,18.39277,0
963174204,963171239,4728849,115.20702,18.39277,0
964176380,964173416,4728849,115.20702,18.39277,0
965138938,965135943,4728849,108.894295,18.39277,0
966167555,966164585,4728849,115.20702,18.39277,0
967117027,967114063,4728849,115.20702,18.39277,0
968172089,968169126,4728849,115.20702,18.39277,0
969174393,969171428,4728849,115.20702,18.39277,0
970110744,970107779,4728849,108.894295,18.39277,0
971179020,971176055,4728849,108.894295,18.39277,0
972168027,972165062,4728849,108.894295,18.39277,0
973170367,973167403,4728849,115.20702,18.39277,0
974172635,974169655,4728849,115.20702,18.39277,0
975175146,975172182,4728849,108.894295,18.39277,0
976164458,976161458,4728849,115.20702,18.39277,0
977153855,977150878,4728849,115.20702,18.39277,0
978169324,978166350,4728849,115.20702,18.39277,0
979171844,979168878,4728849,115.20702,18.39277,0
980174174,980171209,4728849,108.894295,18.39277,0
981176634,981173636,4728849,115.20702,18.39277,0
982165938,982162974,4728849,115.20702,18.39277,0
983168218,983165253,4728849,115.20702,18.39277,0
984170499,984167533,4728849,108.894295,18.295067,0
985146416,985143452,4728849,115.20702,18.295067,0
986175092,986172077,4728849,108.894295,18.295067,0
987111453,987108474,4728849,115.20702,18.295067,0
988166500,988163510,4728849,115.20702,18.295067,0
989169022,989166056,4728849,108.894295,18.295067,0
990171340,990168332,4728849,115.20702,18.295067,0
991173843,991170878,4728849,115.20702,18.295067,0
992176378,992173413,4728849,115.20702,18.295067,0
993165466,993162487,4728849,108.894295,18.295067,0
994167769,994164798,4728849,108.894295,18.295067,0
995170044,995167079,4728849,108.894295,18.295067,0
996172316,996169351,4728849,115.20702,18.295067,0
997174843,997171878,4728849,115.20702,18.295067,0
998177089,998174124,4728849,108.894295,18.295067,0
999179416,999176449,4728849,108.894295,18.295067,0
1000168565,1000165600,4728849,108.894295,18.295067,0
1001012587,1001009614,4728849,115.20702,18.295067,0
1002173081,1002170101,4728849,115.20702,18.295067,0
1003175396,1003172429,4728849,108.894295,18.295067,0
1004164518,1004161553,4728849,108.894295,18.295067,0
1005166971,1005164006,4728849,115.20702,18.295067,0
1006169342,1006166365,4728849,108.894295,18.295067,0
1007171632,1007168633,4728849,108.894295,18.295067,0
1008081561,1008078596,4728849,108.894295,18.295067,0
1009176122,1009173143,4728849,115.20702,18.295067,0
1010125719,1010122754,4728849,108.894295,18.295067,0
1011167514,1011164499,4728849,108.894295,18.295067,0
1012169842,1012166878,4728849,115.20702,18.295067,0
1013172104,1013169139,4728849,108.894295,18.295067,0
1014161205,1014158241,4728849,108.894295,18.295067,0
1015176725,1015173760,4728849,108.894295,18.295067,0
1016178955,1016175938,4728849,115.20702,18.295067,0
1017168084,1017165117,4728849,108.894295,18.295067,0
1018157124,1018154125,4728849,108.894295,18.295067,0
1019172631,1019169628,4728849,108.894295,18.295067,0
1020175160,1020172146,4728849,108.894295,18.295067,0
1021111495,1021108530,4728849,108.894295,18.295067,0
1022087240,1022084248,4728849,108.894295,18.295067,0
1023168590,1023165597,4728849,108.894295,18.295067,0
1024170842,1024167877,4728849,115.20702,18.295067,0
1025120256,1025117280,4728849,115.20702,18.295067,0
1026175460,1026172496,4728849,115.20702,18.295067,0
1027177733,1027174769,4728849,115.20702,18.295067,0
1028114139,1028111173,4728849,121.519745,18.295067,0
1029169194,1029166230,4728849,121.519745,18.295067,0
1030105540,1030102576,4728849,108.894295,18.295067,0
1031173669,1031170704,4728849,115.20702,18.295067,0
1032175744,1032172780,4728849,115.20702,18.295067,0
1033178062,1033175098,4728849,115.20702,18.295067,0
1034114660,1034111631,4728849,115.20702,18.295067,0
1035169696,1035166720,4728849,108.894295,18.39277,0
1036171963,1036168969,4728849,115.20702,18.295067,0
1037174282,1037171318,4728849,115.20702,18.295067,0
1038163473,1038160448,4728849,121.519745,18.295067,0
1039165899,1039162880,4728849,121.519745,18.295067,0
1040168196,1040165231,4728849,121.519745,18.197363,0
1041170335,1041167359,4728849,115.20702,18.197363,0
1042172555,1042169586,4728849,108.894295,18.197363,0
1043174866,1043171894,4728849,127.832466,18.197363,0
1044071632,1044068619,4728849,121.519745,18.197363,0
1045166252,1045163287,4728849,121.519745,18.197363,0
1046168519,1046165525,4728849,121.519745,18.099659,0
1047170843,1047167878,4728849,127.832466,18.099659,0
1048173079,1048170115,4728849,121.519745,18.001953,0
1049175632,1049172643,4728849,121.519745,18.001953,0
1050164984,1050162019,4728849,121.519745,18.001953,0
1051167258,1051164294,4728849,121.519745,17.90425,0
1052169870,1052166905,4728849,121.519745,17.90425,0
1053172162,1053169198,4728849,115.20702,17.90425,0
1054174456,1054171440,4728849,115.20702,17.90425,0
1055176717,1055173751,4728849,121.519745,17.90425,0
1056165846,1056162880,4728849,108.894295,17.806545,0
1057115406,1057112440,4728849,121.519745,17.806545,0
1058170450,1058167482,4728849,108.894295,17.806545,0
1059172745,1059169780,4728849,115.20702,17.806545,0
1060175249,1060172278,4728849,115.20702,17.806545,0
1061111631,1061108642,4728849,115.20702,17.806545,0
1062166668,1062163702,4728849,108.894295,17.806545,0
1063169020,1063166055,4728849,108.894295,17.806545,0
1064171514,1064168549,4728849,115.20702,17.806545,0
1065173845,1065170878,4728849,115.20702,17.806545,0
1066176373,1066173409,4728849,115.20702,17.708841,0
1067165551,1067162586,4728849,115.20702,17.708841,0
1068167843,1068164877,4728849,108.894295,17.708841,0
1069170196,1069167230,4728849,121.519745,17.708841,0
1070172367,1070169402,4728849,121.519745,17.708841,0
1071174677,1071171713,4728849,108.894295,17.708841,0
1072177032,1072174068,4728849,115.20702,17.708841,0
1073166021,1073163055,4728849,115.20702,17.708841,0
1074168134,1074165169,4728849,115.20702,17.708841,0
1075012256,1075009292,4728849,115.20702,17.708841,0
1076172747,1076169777,4728849,115.20702,17.611137,0
1077069570,1077066607,4728849,115.20702,17.611137,0
1078177388,1078174417,4728849,115.20702,17.611137,0
1079166227,1079163256,4728849,108.894295,17.611137,0
1080168571,1080165605,4728849,108.894295,17.611137,0
1081144528,1081141564,4728849,108.894295,17.611137,0
1082173203,1082170239,4728849,115.20702,17.611137,0
1083109569,1083106603,4728849,108.894295,17.611137,0
1084164612,1084161610,4728849,108.894295,17.611137,0
1085166897,1085163933,4728849,115.20702,17.611137,0
1086169245,1086166280,4728849,115.20702,17.611137,0
1087079097,1087076130,4728849,115.20702,17.611137,0
1088173644,1088170626,4728849,115.20702,17.611137,0
1089176110,1089173146,4728849,115.20702,17.611137,0
1090099386,1090096409,4728849,108.894295,17.611137,0
1091167633,1091164666,4728849,108.894295,17.611137,0
1092117140,1092114162,4728849,108.894295,17.611137,0
1093172197,1093169233,4728849,115.20702,17.611137,0
1094174549,1094171585,4728849,108.894295,17.611137,0
1095176856,1095173878,4728849,115.20702,17.611137,0
1096166032,1096163068,4728849,115.20702,17.611137,0
1097168286,1097165271,4728849,108.894295,17.611137,0
1098170709,1098167744,4728849,115.20702,17.611137,0
1099172852,1099169887,4728849,108.894295,17.611137,0
1100175194,1100172230,4728849,121.519745,17.611137,0
1101164383,1101161419,4728849,115.20702,17.611137,0
1102166692,1102163716,4728849,108.894295,17.611137,0
1103169015,1103166051,4728849,121.519745,17.513433,0
1104171339,1104168348,4728849,115.20702,17.513433,0
1105173656,1105170692,4728849,121.519745,17.513433,0
1106149518,1106146553,4728849,121.519745,17.513433,0
1107178273,1107175296,4728849,121.519745,17.513433,0
1108114652,1108111665,4728849,121.519745,17.41573,0
1109170018,1109167054,4728849,127.832466,17.41573,0
1110172572,1110169607,4728849,127.832466,17.41573,0
1111161724,1111158760,4728849,127.832466,17.41573,0
1112164047,1112161054,4728849,127.832466,17.318026,0
1113153208,1113150243,4728849,134.14519,17.318026,0
1114168772,1114165807,4728849,127.832466,17.220322,0
1115171241,1115168277,4728849,140.45792,17.220322,0
1116160437,1116157450,4728849,140.45792,17.122618,0
1117175899,1117172935,4728849,140.45792,17.122618,0
1118178228,1118175263,4728849,165.70882,17.024914,0
1119167408,1119164440,4728849,178.33426,16.92721,0
1120144967,1120141898,4728849,197.27243,16.731802,4
1121171091,1121168127,4728849,209.89787,16.536394,7
1122173447,1122170482,4728849,216.21062,16.340986,7
1123175753,1123172786,4728849,216.21062,16.145578,7
1124178244,1124175279,4728849,209.89787,15.9501705,7
1125164469,1125161485,4728849,216.21062,15.754763,15
1126166861,1126163887,4728849,209.89787,15.559355,15
1127169265,1127166300,4728849,222.52333,15.363947,15
1128172010,1128168993,4728849,228.83606,15.168539,15
1129159686,1129156697,4728849,209.89787,14.973131,24
1130174242,1130171278,4728849,216.21062,14.777723,31
1131176297,1131173332,4728849,216.21062,14.582315,32
1132165535,1132162570,4728849,203.58516,14.386908,32
1133167461,1133164478,4728849,203.58516,14.1915,32
1134117195,1134114228,4728849,190.9597,13.996092,32
1135172282,1135169310,4728849,190.9597,13.898388,32
1136174632,1136171620,4728849,190.9597,13.70298,32
1137176920,1137173955,4728849,197.27243,13.507572,32
1138166087,1138163121,4728849,178.33426,13.409868,32
1139168457,1139165429,4728849,197.27243,13.312164,32
1140170574,1140167610,4728849,197.27243,13.116756,32
1141106945,1141103956,4728849,197.27243,13.0190525,32
1142175231,1142172266,4728849,184.64699,12.823645,32
1143098454,1143095490,4728849,184.64699,12.725941,32
1144166843,1144163878,4728849,184.64699,12.628237,32
1145169110,1145166146,4728849,178.33426,12.432829,32
1146158198,1146155234,4728849,178.33426,12.335125,32
1147173639,1147170675,4728849,190.9597,12.237421,32
1148162745,1148159775,4728849,197.27243,12.139717,32
1149112274,1149109311,4728849,165.70882,12.042013,32
1150154199,1150151234,4728849,172.02153,11.944308,32
1150879644,1150876660,4728849,172.02153,11.846604,32
1152171878,1152168913,4728849,165.70882,11.7489,32
1153174255,1153171291,4728849,153.08336,11.6511965,32
1154163633,1154160630,4728849,159.39609,11.553493,32
1155166020,1155163055,4728849,159.39609,11.455789,32
1156168457,1156165475,4728849,165.70882,11.455789,32
1157170844,1157167880,4728849,172.02153,11.358085,32
1158173018,1158170054,4728849,172.02153,11.358085,32
1159175195,1159172231,4728849,165.70882,11.260381,32
1160177632,1160174630,4728849,178.33426,11.260381,32
1161166842,1161163878,4728849,172.02153,11.162677,32
1162169093,1162166129,4728849,178.33426,11.162677,32
1163171471,1163168503,4728849,172.02153,11.162677,32
1164173633,1164170654,4728849,159.39609,11.064973,32
1165162718,1165159753,4728849,172.02153,11.064973,32
1166006631,1166003648,4728849,178.33426,11.064973,32
1167167238,1167164245,4728849,178.33426,11.064973,32
1168156371,1168153407,4728849,172.02153,10.967269,32
1169171958,1169168939,4728849,172.02153,10.967269,32
1170174829,1170171863,4728849,172.02153,10.967269,34
1171164028,1171161058,4728849,165.70882,10.967269,34
1172166390,1172163409,4728849,165.70882,10.967269,34
1173168773,1173165790,4728849,172.02153,10.869565,34
1174171101,1174168093,4728849,184.64699,10.869565,34
1175173518,1175170553,4728849,190.9597,10.869565,34
1176176053,1176173089,4728849,184.64699,10.869565,34
1177165204,1177162239,4728849,190.9597,10.869565,34
1178114632,1178111627,4728849,197.27243,10.869565,34
1179169713,1179166748,4728849,209.89787,10.771861,34
1180172083,1180169114,4728849,209.89787,10.771861,34
1181174945,1181171967,4728849,203.58516,10.771861,35
1182164211,1182161235,4728849,203.58516,10.674157,35
1183174134,1183171057,4728849,197.27243,10.576453,38
1184176388,1184173423,4728849,178.33426,10.576453,39
1185165471,1185162507,4728849,159.39609,10.478749,39
1186167633,1186164668,4728849,153.08336,10.381045,39
1187169906,1187166940,4728849,159.39609,10.381045,39
1188172386,1188169420,4728849,159.39609,10.381045,39
1189174727,1189171763,4728849,153.08336,10.283341,39
1190176852,1190173888,4728849,146.77065,10.283341,39
1191166067,1191163103,4728849,153.08336,10.185637,39
1192168406,1192165442,4728849,159.39609,10.185637,39
1193170584,1193167582,4728849,159.39609,10.087934,39
1194173023,1194170057,4728849,146.77065,10.087934,39
1195175317,1195172352,4728849,153.08336,10.087934,39
1196164228,1196161263,4728849,159.39609,10.087934,39
1197166685,1197163706,4728849,153.08336,9.99023,39
1198169056,1198166085,4728849,165.70882,9.99023,39
1199171407,1199168443,4728849,172.02153,9.99023,39
1200173760,1200170782,4728849,184.64699,9.892526,39
1201175963,1201172963,4728849,178.33426,9.892526,39
1202178384,1202175387,4728849,178.33426,9.892526,39
1203167462,1203164490,4728849,165.70882,9.794822,39
1204169857,1204166892,4728849,159.39609,9.794822,39
1205172216,1205169251,4728849,165.70882,9.697118,39
1206174561,1206171594,4728849,165.70882,9.697118,39
1207176952,1207173987,4728849,172.02153,9.697118,39
1208166244,1208163257,4728849,165.70882,9.599414,39
1209168391,1209165425,4728849,172.02153,9.599414,39
1210170638,1210167662,4728849,165.70882,9.599414,39
1211173034,1211170055,4728849,165.70882,9.50171,39
1212175674,1212172710,4728849,159.39609,9.50171,39
1213164856,1213161882,4728849,165.70882,9.50171,39
1213890206,1213887241,4728849,165.70882,9.50171,39
1215169619,1215166611,4728849,165.70882,9.50171,39
1216172026,1216169062,4728849,159.39609,9.404006,39
1217174390,1217171425,4728849,153.08336,9.404006,39
1218150409,1218147445,4728849,165.70882,9.404006,39
1219178842,1219175878,4728849,159.39609,9.404006,39
1220168041,1220165074,4728849,153.08336,9.404006,39
1221117680,1221114714,4728849,159.39609,9.404006,39
1222172841,1222169877,4728849,159.39609,9.404006,39
1223175020,1223172057,4728849,159.39609,9.404006,39
1224164206,1224161231,4728849,140.45792,9.404006,39
1225166634,1225163632,4728849,153.08336,9.306302,39
1226168764,1226165800,4728849,159.39609,9.306302,39
1227171339,1227168336,4728849,146.77065,9.306302,39
1228120933,1228117968,4728849,153.08336,9.306302,39
1229176034,1229173068,4728849,153.08336,9.306302,39
1230178405,1230175434,4728849,159.39609,9.306302,39
1231167567,1231164600,4728849,159.39609,9.306302,39
1232170026,1232167056,4728849,146.77065,9.306302,39
1233172396,1233169419,4728849,153.08336,9.208598,39
1234174739,1234171763,4728849,153.08336,9.208598,39
1235177215,1235174251,4728849,153.08336,9.208598,39
1236166198,1236163234,4728849,153.08336,9.208598,39
1237168434,1237165470,4728849,159.39609,9.208598,39
1238170841,1238167877,4728849,159.39609,9.208598,39
1239054517,1239051499,4728849,165.70882,9.110894,39
1240175633,1240172636,4728849,153.08336,9.110894,39
1241164872,1241161886,4728849,153.08336,9.110894,39
1242167140,1242164176,4728849,146.77065,9.01319,39
1243116763,1243113782,4728849,140.45792,9.01319,39
1244171561,1244168592,4728849,153.08336,9.01319,39
1245174017,1245171052,4728849,153.08336,9.01319,39
1245939043,1245936065,4728849,153.08336,8.915486,39
1247178843,1247175878,4728849,146.77065,8.915486,39
1248168039,1248165075,4728849,153.08336,8.915486,39
1249170411,1249167424,4728849,153.08336,8.915486,39
1250133020,1250130055,4728849,159.39609,8.817782,39
1251174751,1251171784,4728849,165.70882,8.817782,39
1252164020,1252161054,4728849,172.02153,8.817782,39
1253008208,1253005236,4728849,165.70882,8.817782,39
1254168850,1254165886,4728849,190.9597,8.720078,39
1255171260,1255168296,4728849,197.27243,8.720078,39
1256173645,1256170649,4728849,190.9597,8.720078,39
1257083725,1257080761,4728849,190.9597,8.622375,39
1258178451,1258175487,4728849,172.02153,8.622375,39
1259167633,1259164669,4728849,178.33426,8.622375,39
1260170020,1260167053,4728849,184.64699,8.622375,39
1261172385,1261169420,4728849,203.58516,8.524671,39
1262174750,1262171786,4728849,235.14879,8.524671,39
1263177102,1263174138,4728849,273.02512,8.524671,39
1264034417,1264031405,4728849,304.58875,8.524671,39
1265169029,1265166065,4728849,348.7778,8.524671,39
1266171339,1266168337,4728849,342.4651,8.426967,39
1267173737,1267170773,4728849,342.4651,8.426967,39
1268176074,1268173109,4728849,380.34143,8.426967,39
1269165339,1269162343,4728849,367.71597,8.329263,39
1270167640,1270164675,4728849,348.7778,8.329263,39
1271170021,1271167055,4728849,355.09055,8.329263,39
1272172405,1272169440,4728849,348.7778,8.329263,39
1273174802,1273171771,4728849,336.15237,8.329263,39
1274177194,1274174229,4728849,329.83963,8.231559,39
1275166400,1275163427,4728849,310.90146,8.231559,39
1276155557,1276152580,4728849,291.9633,8.231559,40
1277141917,1277138953,4728849,260.3997,8.133855,41
1278171375,1278168411,4728849,247.77423,8.133855,43
1279173671,1279170706,4728849,235.14879,8.133855,43
1280136105,1280133129,4728849,216.21062,8.036151,43
1281178031,1281175067,4728849,203.58516,8.036151,43
1282167088,1282164124,4728849,209.89787,8.036151,43
1283169233,1283166266,4728849,216.21062,7.9384465,43
1284171635,1284168643,4728849,216.21062,7.9384465,43
1285055314,1285052350,4728849,209.89787,7.9384465,43
1286176370,1286173406,4728849,203.58516,7.9384465,43
1287165548,1287162583,4728849,203.58516,7.8407426,43
1288102018,1288099053,4728849,190.9597,7.8407426,43
1289170397,1289167433,4728849,184.64699,7.8407426,43
1290172842,1290169878,4728849,178.33426,7.8407426,43
1291161920,1291158908,4728849,172.02153,7.8407426,43
1292177467,1292174502,4728849,165.70882,7.8407426,43
1293166675,1293163710,4728849,153.08336,7.8407426,43
1294050394,1294047429,4728849,153.08336,7.8407426,43
1295171444,1295168472,4728849,172.02153,7.8407426,43
1296173871,1296170906,4728849,190.9597,7.8407426,43
1297176223,1297173259,4728849,184.64699,7.8407426,43
1298165428,1298162463,4728849,159.39609,7.8407426,43
1299101842,1299098878,4728849,159.39609,7.8407426,43
1300169970,1300166967,4728849,153.08336,7.8407426,43
1301172341,1301169333,4728849,159.39609,7.8407426,43
1302174647,1302171682,4728849,172.02153,7.8407426,43
1303177051,1303174085,4728849,178.33426,7.9384465,43
1304166238,1304163274,4728849,184.64699,7.9384465,43
1305142019,1305139054,4728849,190.9597,7.9384465,43
1306091703,1306088738,4728849,203.58516,7.9384465,43
1307173206,1307170241,4728849,184.64699,7.9384465,43
1308030691,1308027725,4728849,197.27243,7.8407426,43
1309164921,1309161931,4728849,203.58516,7.9384465,43
1310167381,1310164416,4728849,203.58516,7.8407426,43
1311103748,1311100783,4728849,222.52333,7.8407426,43
1312172064,1312169100,4728849,216.21062,7.8407426,43
1313174738,1313171774,4728849,209.89787,7.8407426,43
1314177742,1314174778,4728849,197.27243,7.8407426,44
1315114040,1315111050,4728849,190.9597,7.8407426,44
1316156195,1316153232,4728849,178.33426,7.8407426,44
1317132234,1317129227,4728849,172.02153,7.8407426,44
1318174145,1318171181,4728849,172.02153,7.8407426,44
1319176543,1319173579,4728849,165.70882,7.8407426,44
1320165843,1320162879,4728849,165.70882,7.8407426,44
1321168018,1321165054,4728849,165.70882,7.8407426,44
1322170523,1322167559,4728849,159.39609,7.8407426,44
1323172897,1323169878,4728849,184.64699,7.8407426,44
1324135691,1324132726,4728849,190.9597,7.8407426,44
1325137841,1325134878,4728849,197.27243,7.8407426,44
1326166631,1326163628,4728849,190.9597,7.8407426,44
1327169021,1327166057,4728849,184.64699,7.8407426,44
1328171390,1328168403,4728849,184.64699,7.8407426,44
1329173686,1329170722,4728849,197.27243,7.8407426,44
1330176138,1330173156,4728849,203.58516,7.8407426,44
1331178456,1331175480,4728849,203.58516,7.8407426,44
1332167845,1332164878,4728849,203.58516,7.8407426,44
1333170287,1333167314,4728849,203.58516,7.8407426,44
1334172727,1334169763,4728849,203.58516,7.8407426,44
1335175043,1335172078,4728849,190.9597,7.9384465,44
1336164106,1336161142,4728849,184.64699,7.9384465,44
1337166383,1337163419,4728849,178.33426,7.9384465,44
1338168739,1338165766,4728849,165.70882,7.9384465,44
1339171278,1339168313,4728849,172.02153,7.9384465,44
1340002118,1339999123,4728849,190.9597,7.8407426,44
1341175960,1341172955,4728849,172.02153,7.8407426,44
1342178309,1342175345,4728849,159.39609,7.8407426,44
1343167368,1343164404,4728849,172.02153,7.8407426,44
1344169581,1344166615,4728849,172.02153,7.8407426,44
1345172021,1345169056,4728849,178.33426,7.8407426,44
1346174385,1346171420,4728849,184.64699,7.8407426,44
1347097663,1347094699,4728849,197.27243,7.8407426,44
1348165917,1348162953,4728849,197.27243,7.8407426,44
1349168403,1349165438,4728849,209.89787,7.8407426,44
1350131120,1350128154,4728849,197.27243,7.8407426,44
1351146447,1351143469,4728849,203.58516,7.8407426,44
1352175255,1352172277,4728849,216.21062,7.7430387,44
1353164655,1353161647,4728849,209.89787,7.7430387,44
1354167065,1354164101,4728849,222.52333,7.7430387,44
1355103510,1355100544,4728849,203.58516,7.7430387,44
1356171841,1356168877,4728849,178.33426,7.7430387,44
1357174229,1357171262,4728849,146.77065,7.7430387,44
1358176558,1358173588,4728849,165.70882,7.7430387,44
1359179024,1359176060,4728849,184.64699,7.7430387,44
1360141842,1360138878,4728849,190.9597,7.7430387,44
1361170575,1361167610,4728849,190.9597,7.7430387,44
1362173019,1362170055,4728849,203.58516,7.7430387,44
1363175261,1363172298,4728849,209.89787,7.8407426,44
1364164547,1364161583,4728849,209.89787,7.8407426,44
1365166915,1365163882,4728849,203.58516,7.8407426,44
1366116582,1366113596,4728849,197.27243,7.8407426,44
1367158683,1367155718,4728849,190.9597,7.9384465,44
1368174256,1368171292,4728849,184.64699,7.9384465,44
1369176725,1369173761,4728849,172.02153,7.9384465,44
1370179039,1370176074,4728849,165.70882,8.036151,44
1371167843,1371164879,4728849,178.33426,8.036151,44
1372170422,1372167457,4728849,184.64699,8.036151,44
1373172557,1373169592,4728849,172.02153,8.036151,44
1374174897,1374171926,4728849,172.02153,8.133855,44
1375177401,1375174424,4728849,165.70882,8.133855,44
1376166382,1376163417,4728849,172.02153,8.133855,44
1377168631,1377165648,4728849,159.39609,8.231559,44
1378171018,1378168053,4728849,159.39609,8.231559,44
1379173280,1379170315,4728849,134.14519,8.231559,44
1380175847,1380172881,4728849,121.519745,8.231559,44
1381165025,1381162054,4728849,121.519745,8.329263,44
1382154157,1382151188,4728849,121.519745,8.329263,44
1383169741,1383166777,4728849,121.519745,8.329263,44
1384171866,1384168885,4728849,115.20702,8.329263,44
1385174262,1385171288,4728849,108.894295,8.329263,44
1386176666,1386173634,4728849,121.519745,8.426967,44
1387166033,1387163069,4728849,121.519745,8.426967,44
1388168278,1388165299,4728849,115.20702,8.426967,44
1389170882,1389167917,4728849,121.519745,8.524671,44
1390173291,1390170325,4728849,115.20702,8.524671,44
1391175672,1391172708,4728849,115.20702,8.524671,44
1392164856,1392161884,4728849,115.20702,8.622375,44
1393035339,1393032330,4728849,121.519745,8.622375,44
1394169631,1394166632,4728849,115.20702,8.622375,44
1395171519,1395168553,4728849,121.519745,8.720078,44
1396160664,1396157700,4728849,115.20702,8.720078,44
1397176345,1397173371,4728849,115.20702,8.817782,44
1398178653,1398175688,4728849,115.20702,8.817782,44
1399128339,1399125332,4728849,108.894295,8.817782,44
1400170330,1400167366,4728849,115.20702,8.817782,44
1401172672,1401169643,4728849,108.894295,8.915486,44
1402161878,1402158910,4728849,121.519745,8.915486,44
1403177429,1403174465,4728849,115.20702,9.01319,44
1404166665,1404163700,4728849,108.894295,9.01319,44
1405155855,1405152880,4728849,115.20702,9.01319,44
1406171170,1406168205,4728849,115.20702,9.01319,44
1407173631,1407170644,4728849,115.20702,9.110894,44
1408176239,1408173261,4728849,121.519745,9.110894,44
1409165467,1409162503,4728849,121.519745,9.208598,44
1410075209,1410072243,4728849,121.519745,9.208598,44
1411169941,1411166976,4728849,121.519745,9.208598,44
1412172340,1412169338,4728849,115.20702,9.306302,44
1413174545,1413171581,4728849,127.832466,9.306302,44
1414176930,1414173965,4728849,121.519745,9.306302,44
1415166052,1415163087,4728849,115.20702,9.306302,44
1416168476,1416165512,4728849,115.20702,9.404006,44
1417170868,1417167903,4728849,108.894295,9.404006,44
1418173234,1418170270,4728849,108.894295,9.404006,44
1419175687,1419172709,4728849,115.20702,9.404006,44
1420125552,1420122588,4728849,115.20702,9.404006,44
1421167317,1421164341,4728849,115.20702,9.50171,44
1422169632,1422166641,4728849,108.894295,9.50171,44
1422961029,1422958057,4728849,115.20702,9.50171,44
1424174450,1424171436,4728849,115.20702,9.50171,44
1425084673,1425081699,4728849,108.894295,9.599414,44
1426179099,1426176132,4728849,115.20702,9.599414,44
1427115493,1427112495,4728849,108.894295,9.599414,44
1428025573,1428022609,4728849,108.894295,9.599414,44
1428948843,1428945878,4728849,115.20702,9.599414,44
1430043458,1430040488,4728849,108.894295,9.697118,44
1431164570,1431161603,4728849,108.894295,9.697118,44
1432140567,1432137601,4728849,115.20702,9.697118,44
1433103448,1433100440,4728849,108.894295,9.697118,44
1434158600,1434155597,4728849,115.20702,9.794822,44
1435174174,1435171209,4728849,108.894295,9.794822,44
1436176571,1436173606,4728849,115.20702,9.794822,44
1437165761,1437162769,4728849,108.894295,9.794822,44
1438168200,1438165236,4728849,108.894295,9.794822,44
1439170385,1439167421,4728849,115.20702,9.794822,44
1440172736,1440169771,4728849,121.519745,9.892526,44
1441175125,1441172159,4728849,108.894295,9.892526,44
1442138033,1442135067,4728849,108.894295,9.892526,44
1443166842,1443163878,4728849,115.20702,9.892526,44
1444169217,1444166253,4728849,115.20702,9.892526,44
1445158643,1445155636,4728849,115.20702,9.892526,44
1446121414,1446118450,4728849,115.20702,9.99023,44
1447176379,1447173415,4728849,108.894295,9.99023,44
1448165860,1448162896,4728849,121.519745,9.99023,44
1449168207,1449165243,4728849,121.519745,9.99023,44
1450170637,1450167672,4728849,115.20702,9.99023,44
1451133419,1451130455,4728849,115.20702,9.99023,44
1452122693,1452119728,4728849,108.894295,9.99023,44
1453177866,1453174902,4728849,115.20702,10.087934,44
1454140562,1454137594,4728849,115.20702,10.087934,44
1455169449,1455166485,4728849,108.894295,10.087934,44
1456172022,1456169058,4728849,108.894295,10.087934,44
1457174246,1457171273,4728849,115.20702,10.087934,44
1458031589,1458028575,4728849,108.894295,10.087934,44
1459165943,1459162978,4728849,108.894295,10.087934,44
1460154854,1460151889,4728849,108.894295,10.087934,44
1461170191,1461167213,4728849,115.20702,10.185637,44
1462172549,1462169585,4728849,115.20702,10.185637,44
1463174741,1463171777,4728849,108.894295,10.185637,44
1464005738,1464002773,4728849,115.20702,10.185637,44
1465126843,1465123878,4728849,115.20702,10.283341,44
1466129401,1466126437,4728849,102.58158,10.283341,44
1467171478,1467168514,4728849,102.58158,10.283341,44
1468173857,1468170890,4728849,108.894295,10.283341,44
1469176270,1469173306,4728849,108.894295,10.283341,44
1470165478,1470162514,4728849,108.894295,10.283341,44
1471022846,1471019878,4728849,108.894295,10.381045,44
1472156879,1472153877,4728849,102.58158,10.381045,44
1473172435,1473169471,4728849,115.20702,10.381045,44
1474175020,1474172056,4728849,108.894295,10.381045,44
1475177257,1475174292,4728849,121.519745,10.381045,44
1476034313,1476031347,4728849,115.20702,10.381045,44
1477168692,1477165728,4728849,115.20702,10.478749,44
1478170908,1478167943,4728849,121.519745,10.478749,44
1479173218,1479170234,4728849,115.20702,10.478749,44
1480175708,1480172742,4728849,115.20702,10.478749,44
1481178094,1481175068,4728849,121.519745,10.576453,44
1482167269,1482164305,4728849,115.20702,10.576453,44
1483077375,1483074411,4728849,121.519745,10.576453,44
1484172196,1484169231,4728849,115.20702,10.576453,44
1485029463,1485026486,4728849,115.20702,10.674157,44
1486163769,1486160787,4728849,121.519745,10.674157,44
1487166245,1487163279,4728849,121.519745,10.674157,44
1488168582,1488165614,4728849,121.519745,10.674157,44
1489171039,1489168073,4728849,108.894295,10.771861,44
1490173420,1490170454,4728849,121.519745,10.771861,44
1491176137,1491173173,4728849,121.519745,10.771861,44
1492178211,1492175242,4728849,115.20702,10.771861,44
1493167406,1493164442,4728849,115.20702,10.869565,44
1494143573,1494140608,4728849,121.519745,10.869565,44
1495172397,1495169433,4728849,115.20702,10.869565,44
1496161463,1496158498,4728849,121.519745,10.869565,44
1497176907,1497173943,4728849,121.519745,10.967269,44
1498126491,1498123486,4728849,115.20702,10.967269,44
1499168449,1499165483,4728849,115.20702,10.967269,44
1500171018,1500168053,4728849,121.519745,10.967269,44
1501054611,1501051580,4728849,115.20702,11.064973,44
1502004032,1502001066,4728849,108.894295,11.064973,44
1503125076,1503122112,4728849,121.519745,11.064973,44
1504166915,1504163951,4728849,115.20702,11.064973,44
1505169340,1505166329,4728849,115.20702,11.162677,44
1506171688,1506168723,4728849,121.519745,11.162677,44
1507174111,1507171147,4728849,115.20702,11.162677,44
1508176556,1508173591,4728849,115.20702,11.162677,44
1509165741,1509162775,4728849,121.519745,11.260381,44
1510168100,1510165136,4728849,121.519745,11.260381,44
1511170635,1511167634,4728849,115.20702,11.260381,44
1512173019,1512170054,4728849,115.20702,11.260381,44
1513175395,1513172430,4728849,121.519745,11.260381,44
