timestamp,timestamp_sample,device_id,x,y,z,temperature,error_count
540044538,540043598,396321,-0.19621211,-0.12499999,0.47575757,nan,0
541059826,541058886,396321,-0.19848484,-0.12272727,0.47121212,nan,0
542053423,542052483,396321,-0.18787879,-0.12424242,0.4780303,nan,0
543047056,543046064,396321,-0.20378788,-0.12499999,0.47424242,nan,0
544062231,544061291,396321,-0.19393939,-0.12575758,0.46969697,nan,0
545055802,545054850,396321,-0.19242424,-0.12727273,0.47954544,nan,0
546049527,546048587,396321,-0.20378788,-0.12727273,0.47575757,nan,0
547064694,547063754,396321,-0.18787879,-0.12651515,0.47424242,nan,0
548058268,548057328,396321,-0.19696969,-0.12651515,0.47575757,nan,0
549051824,549050884,396321,-0.19393939,-0.12575758,0.47651514,nan,0
550045471,550044531,396321,-0.18712121,-0.12348484,0.47575757,nan,0
551060685,551059745,396321,-0.2030303,-0.12424242,0.48257574,nan,0
552054246,552053272,396321,-0.18863636,-0.12196969,0.47272727,nan,0
553047903,553046963,396321,-0.19469696,-0.12424242,0.47575757,nan,0
554041412,554040472,396321,-0.20075756,-0.12424242,0.47575757,nan,0
555056674,555055734,396321,-0.19166666,-0.12878788,0.47954544,nan,0
556050268,556049268,396321,-0.19848484,-0.12575758,0.4780303,nan,0
557043794,557042854,396321,-0.19621211,-0.12651515,0.47651514,nan,0
558059025,558058086,396321,-0.19318181,-0.12651515,0.48257574,nan,0
559052684,559051744,396321,-0.20530303,-0.12651515,0.4780303,nan,0
560046195,560045255,396321,-0.19166666,-0.12651515,0.47954544,nan,0
561061431,561060473,396321,-0.19090909,-0.12651515,0.47575757,nan,0
562055026,562054087,396321,-0.20151514,-0.13030303,0.4780303,nan,0
563048677,563047738,396321,-0.2121212,-0.11742424,0.47272727,nan,0
564063845,564062905,396321,-0.2219697,-0.12045454,0.4643939,nan,0
565057402,565056462,396321,-0.2189394,-0.11893939,0.4674242,nan,0
566051024,566050085,396321,-0.21136363,-0.11742424,0.47272727,nan,0
567044641,567043702,396321,-0.23030302,-0.11893939,0.4674242,nan,0
568059841,568058902,396321,-0.21439393,-0.11818182,0.47272727,nan,0
569053457,569052516,396321,-0.21439393,-0.11818182,0.4780303,nan,0
570046989,570046050,396321,-0.21136363,-0.11893939,0.47121212,nan,0
571062230,571061290,396321,-0.21969697,-0.11969697,0.46969697,nan,0
572055817,572054878,396321,-0.21818182,-0.11666666,0.47424242,nan,0
573049462,573048515,396321,-0.20984848,-0.11742424,0.4689394,nan,0
574043004,574042065,396321,-0.22575757,-0.10530303,0.47121212,nan,0
575058245,575057306,396321,-0.21363635,-0.09015151,0.47651514,nan,0
576051807,576050867,396321,-0.20984848,-0.08712121,0.47575757,nan,0
577045403,577044464,396321,-0.2189394,-0.09166666,0.47575757,nan,0
578060664,578059724,396321,-0.20984848,-0.087878786,0.47272727,nan,0
579054202,579053262,396321,-0.22348484,-0.08257575,0.46590906,nan,0
580047863,580046923,396321,-0.20984848,-0.08257575,0.4689394,nan,0
581063040,581062100,396321,-0.19772726,-0.073484845,0.47651514,nan,0
582056629,582055689,396321,-0.23030302,-0.089393936,0.4613636,nan,0
583050198,583049258,396321,-0.22272727,-0.087878786,0.47121212,nan,0
584043879,584042940,396321,-0.21363635,-0.089393936,0.47651514,nan,0
585059067,585058127,396321,-0.20984848,-0.08712121,0.47651514,nan,0
586052692,586051747,396321,-0.22045454,-0.08560606,0.4674242,nan,0
587046210,587045271,396321,-0.20227273,-0.08030303,0.47575757,nan,0
588061444,588060505,396321,-0.21287878,-0.0810606,0.46590906,nan,0
589055091,589054151,396321,-0.21136363,-0.08030303,0.47272727,nan,0
590048643,590047704,396321,-0.20833333,-0.093939394,0.47424242,nan,0
591063786,591062846,396321,-0.22727272,-0.09166666,0.46590906,nan,0
592057439,592056499,396321,-0.2151515,-0.09015151,0.4643939,nan,0
593051015,593050075,396321,-0.21666665,-0.06742424,0.47272727,nan,0
594044709,594043759,396321,-0.2090909,-0.08333333,0.47272727,nan,0
595059778,595058838,396321,-0.20075756,-0.0810606,0.46969697,nan,0
596053405,596052465,396321,-0.2151515,-0.0780303,0.47575757,nan,0
597047017,597046063,396321,-0.20227273,-0.076515146,0.47651514,nan,0
598062188,598061248,396321,-0.21287878,-0.08181818,0.47651514,nan,0
599055787,599054847,396321,-0.19848484,-0.07727273,0.47651514,nan,0
600049430,600048491,396321,-0.2090909,-0.0810606,0.47272727,nan,0
601043049,601042109,396321,-0.21439393,-0.08863636,0.47651514,nan,0
602058207,602057267,396321,-0.20833333,-0.08333333,0.47575757,nan,0
603051815,603050875,396321,-0.2121212,-0.08560606,0.47651514,nan,0
604045404,604044464,396321,-0.2121212,-0.074999996,0.47424242,nan,0
605060717,605059777,396321,-0.22045454,-0.074999996,0.47651514,nan,0
606054233,606053293,396321,-0.20681818,-0.076515146,0.4674242,nan,0
607047780,607046840,396321,-0.21136363,-0.074999996,0.46969697,nan,0
608063021,608062082,396321,-0.21363635,-0.0780303,0.46969697,nan,0
609056629,609055689,396321,-0.20227273,-0.07575757,0.47954544,nan,0
610050291,610049351,396321,-0.2189394,-0.07954545,0.47424242,nan,0
611043863,611042924,396321,-0.20833333,-0.076515146,0.47651514,nan,0
612059012,612058073,396321,-0.20833333,-0.073484845,0.47424242,nan,0
613052673,613051724,396321,-0.2151515,-0.071969695,0.47272727,nan,0
614046199,614045259,396321,-0.20757575,-0.0780303,0.46969697,nan,0
615061402,615060462,396321,-0.21287878,-0.07727273,0.47272727,nan,0
616054986,616054046,396321,-0.2151515,-0.076515146,0.46590906,nan,0
617048670,617047730,396321,-0.21666665,-0.06969697,0.46590906,nan,0
618042235,618041295,396321,-0.2189394,-0.073484845,0.4643939,nan,0
619057433,619056494,396321,-0.20757575,-0.07121212,0.4810606,nan,0
620051039,620050099,396321,-0.21969697,-0.08030303,0.47272727,nan,0
621044666,621043727,396321,-0.22121212,-0.08257575,0.4674242,nan,0
622059796,622058854,396321,-0.22272727,-0.08333333,0.4643939,nan,0
623053403,623052463,396321,-0.22651514,-0.08181818,0.4674242,nan,0
624047004,624046064,396321,-0.23636363,-0.08257575,0.46590906,nan,0
625062249,625061310,396321,-0.22272727,-0.0810606,0.46287876,nan,0
626055812,626054873,396321,-0.2280303,-0.08181818,0.4689394,nan,0
627049403,627048463,396321,-0.22727272,-0.08030303,0.4674242,nan,0
628064666,628063726,396321,-0.22121212,-0.08257575,0.4643939,nan,0
629058192,629057252,396321,-0.23484848,-0.07954545,0.47272727,nan,0
630051825,630050885,396321,-0.22272727,-0.0810606,0.4643939,nan,0
631045423,631044483,396321,-0.22272727,-0.0810606,0.4674242,nan,0
632060623,632059684,396321,-0.23181817,-0.07954545,0.47121212,nan,0
633054253,633053313,396321,-0.21969697,-0.07878788,0.46969697,nan,0
634047835,634046895,396321,-0.22954544,-0.08333333,0.4643939,nan,0
635041401,635040462,396321,-0.22424242,-0.08030303,0.46287876,nan,0
636056630,636055691,396321,-0.22121212,-0.0810606,0.4643939,nan,0
637050232,637049292,396321,-0.23787878,-0.08560606,0.4674242,nan,0
638043832,638042892,396321,-0.22272727,-0.08333333,0.4613636,nan,0
639059053,639058113,396321,-0.22878787,-0.08181818,0.4643939,nan,0
640052628,640051688,396321,-0.23181817,-0.08712121,0.4643939,nan,0
641046220,641045281,396321,-0.22348484,-0.086363636,0.4643939,nan,0
642061406,642060466,396321,-0.23181817,-0.0810606,0.4613636,nan,0
643055035,643054095,396321,-0.22727272,-0.08560606,0.47121212,nan,0
644048668,644047728,396321,-0.22121212,-0.08030303,0.47121212,nan,0
645063847,645062907,396321,-0.23181817,-0.08257575,0.46590906,nan,0
646057403,646056463,396321,-0.22272727,-0.08484848,0.46590906,nan,0
647050999,647050059,396321,-0.23181817,-0.086363636,0.4643939,nan,0
648044731,648043792,396321,-0.23560606,-0.08484848,0.4613636,nan,0
649059847,649058907,396321,-0.22348484,-0.0840909,0.4689394,nan,0
650053496,650052556,396321,-0.23333332,-0.08257575,0.4643939,nan,0
651047035,651046095,396321,-0.22878787,-0.08484848,0.46590906,nan,0
652062226,652061287,396321,-0.2280303,-0.08484848,0.46287876,nan,0
653055910,653054969,396321,-0.2340909,-0.08257575,0.4689394,nan,0
654049403,654048463,396321,-0.22575757,-0.08333333,0.4643939,nan,0
655064637,655063697,396321,-0.23030302,-0.087878786,0.4689394,nan,0
656058265,656057325,396321,-0.23484848,-0.08257575,0.46287876,nan,0
657051820,657050880,396321,-0.22651514,-0.08257575,0.4689394,nan,0
658045418,658044478,396321,-0.23712121,-0.08484848,0.4613636,nan,0
659060705,659059765,396321,-0.22878787,-0.07954545,0.4590909,nan,0
660054212,660053272,396321,-0.22878787,-0.0810606,0.46590906,nan,0
661047812,661046844,396321,-0.24393938,-0.08333333,0.46590906,nan,0
662063005,662062053,396321,-0.22575757,-0.07954545,0.4674242,nan,0
663056653,663055713,396321,-0.23712121,-0.07954545,0.46060604,nan,0
664050204,664049264,396321,-0.23484848,-0.07954545,0.4590909,nan,0
665043814,665042874,396321,-0.22651514,-0.076515146,0.4674242,nan,0
666059049,666058110,396321,-0.23712121,-0.08181818,0.4689394,nan,0
667052707,667051722,396321,-0.2310606,-0.08030303,0.46590906,nan,0
668046232,668045292,396321,-0.22878787,-0.08484848,0.4613636,nan,0
669061402,669060462,396321,-0.24166666,-0.0810606,0.46287876,nan,0
670055010,670054071,396321,-0.22651514,-0.0840909,0.4643939,nan,0
671048708,671047769,396321,-0.22954544,-0.0810606,0.4643939,nan,0
672063909,672062969,396321,-0.23257574,-0.0810606,0.4643939,nan,0
673057428,673056488,396321,-0.22575757,-0.08257575,0.46287876,nan,0
674050996,674050056,396321,-0.23636363,-0.08257575,0.46969697,nan,0
675044689,675043749,396321,-0.2280303,-0.08333333,0.4689394,nan,0
676059872,676058932,396321,-0.22424242,-0.08257575,0.47121212,nan,0
677053218,677052279,396321,-0.23939393,-0.08181818,0.4689394,nan,0
678046826,678045886,396321,-0.22424242,-0.08030303,0.46590906,nan,0
679061996,679061055,396321,-0.23030302,-0.0810606,0.4674242,nan,0
680055633,680054693,396321,-0.23030302,-0.0810606,0.4613636,nan,0
681049196,681048256,396321,-0.22727272,-0.0840909,0.46969697,nan,0
682042859,682041919,396321,-0.23787878,-0.08257575,0.46969697,nan,0
683058030,683057090,396321,-0.22727272,-0.0810606,0.4689394,nan,0
684051599,684050644,396321,-0.22878787,-0.08484848,0.4674242,nan,0
685045280,685044340,396321,-0.23787878,-0.08484848,0.4689394,nan,0
686060516,686059576,396321,-0.22121212,-0.0810606,0.4689394,nan,0
687054085,687053145,396321,-0.22878787,-0.08333333,0.46287876,nan,0
688047661,688046721,396321,-0.2280303,-0.08257575,0.46287876,nan,0
689062790,689061850,396321,-0.22045454,-0.08030303,0.4674242,nan,0
690056438,690055498,396321,-0.23787878,-0.08333333,0.46287876,nan,0
691050036,691049096,396321,-0.225,-0.0810606,0.4613636,nan,0
692043649,692042709,396321,-0.22878787,-0.0840909,0.4674242,nan,0
693058863,693057923,396321,-0.23863636,-0.08257575,0.46287876,nan,0
694052523,694051583,396321,-0.22348484,-0.08030303,0.4689394,nan,0
695046020,695045080,396321,-0.23030302,-0.08257575,0.4643939,nan,0
696061193,696060253,396321,-0.22954544,-0.08181818,0.4643939,nan,0
697054822,697053883,396321,-0.22348484,-0.0810606,0.4689394,nan,0
698048462,698047511,396321,-0.23560606,-0.08560606,0.46969697,nan,0
699042045,699041105,396321,-0.22727272,-0.08030303,0.46287876,nan,0
700057233,700056293,396321,-0.22727272,-0.08030303,0.4643939,nan,0
701050845,701049905,396321,-0.23939393,-0.08484848,0.4613636,nan,0
702044489,702043549,396321,-0.22575757,-0.08181818,0.4643939,nan,0
703059602,703058655,396321,-0.23484848,-0.0810606,0.4613636,nan,0
704053405,704052465,396321,-0.23257574,-0.08257575,0.4643939,nan,0
705047002,705046062,396321,-0.22727272,-0.08030303,0.4674242,nan,0
706062229,706061289,396321,-0.24166666,-0.08181818,0.46590906,nan,0
707055800,707054860,396321,-0.22575757,-0.08030303,0.46287876,nan,0
708049453,708048514,396321,-0.22727272,-0.0810606,0.46287876,nan,0
709043069,709042130,396321,-0.23484848,-0.07954545,0.4674242,nan,0
710058238,710057299,396321,-0.22348484,-0.07954545,0.46969697,nan,0
711051788,711050848,396321,-0.23257574,-0.07954545,0.4643939,nan,0
712045401,712044462,396321,-0.23030302,-0.0810606,0.46590906,nan,0
713060734,713059795,396321,-0.22348484,-0.07954545,0.46287876,nan,0
714054238,714053298,396321,-0.24090908,-0.08181818,0.4590909,nan,0
715047910,715046971,396321,-0.22575757,-0.08030303,0.46060604,nan,0
716041443,716040503,396321,-0.2280303,-0.07954545,0.4613636,nan,0
717056654,717055714,396321,-0.23484848,-0.0810606,0.4674242,nan,0
718050307,718049367,396321,-0.22424242,-0.0810606,0.46287876,nan,0
719065403,719064463,396321,-0.2340909,-0.0810606,0.4643939,nan,0
720059002,720058062,396321,-0.22727272,-0.0810606,0.4674242,nan,0
721052674,721051734,396321,-0.22651514,-0.08181818,0.46590906,nan,0
722046253,722045313,396321,-0.24166666,-0.08257575,0.4643939,nan,0
723061426,723060476,396321,-0.2280303,-0.08030303,0.4689394,nan,0
724055062,724054122,396321,-0.22727272,-0.0810606,0.4613636,nan,0
725048648,725047708,396321,-0.225,-0.08257575,0.46590906,nan,0
726042192,726041253,396321,-0.23560606,-0.0810606,0.46287876,nan,0
727057436,727056497,396321,-0.22272727,-0.08560606,0.4674242,nan,0
728051033,728050093,396321,-0.20757575,-0.089393936,0.4674242,nan,0
729044671,729043731,396321,-0.22651514,-0.09015151,0.4689394,nan,0
730059864,730058923,396321,-0.20681818,-0.087878786,0.4643939,nan,0
731053411,731052470,396321,-0.21060605,-0.089393936,0.47272727,nan,0
732046986,732046046,396321,-0.2189394,-0.08863636,0.47121212,nan,0
733062265,733061291,396321,-0.2060606,-0.08863636,0.47272727,nan,0
734056022,734055081,396321,-0.21969697,-0.09924242,0.46590906,nan,0
735049697,735048758,396321,-0.2090909,-0.08863636,0.46969697,nan,0
736064946,736064006,396321,-0.20833333,-0.089393936,0.4674242,nan,0
737058583,737057643,396321,-0.22272727,-0.086363636,0.46969697,nan,0
738052209,738051269,396321,-0.2090909,-0.087878786,0.4674242,nan,0
739045835,739044895,396321,-0.21136363,-0.090909086,0.4674242,nan,0
740061090,740060151,396321,-0.20833333,-0.087878786,0.47575757,nan,0
741054710,741053771,396321,-0.19999999,-0.08863636,0.4689394,nan,0
742048197,742047257,396321,-0.21136363,-0.09015151,0.4674242,nan,0
743063465,743062526,396321,-0.20681818,-0.089393936,0.47575757,nan,0
744057095,744056155,396321,-0.20227273,-0.087878786,0.4674242,nan,0
745050640,745049700,396321,-0.21818182,-0.0840909,0.46287876,nan,0
746044232,746043291,396321,-0.19848484,-0.089393936,0.46969697,nan,0
747059452,747058505,396321,-0.21060605,-0.089393936,0.4689394,nan,0
748053044,748052104,396321,-0.20984848,-0.089393936,0.4643939,nan,0
749046641,749045689,396321,-0.2060606,-0.08712121,0.46590906,nan,0
750061787,750060847,396321,-0.21818182,-0.089393936,0.46969697,nan,0
751055426,751054486,396321,-0.21060605,-0.089393936,0.47121212,nan,0
752049042,752048101,396321,-0.20984848,-0.08560606,0.45075756,nan,0
753064247,753063267,396321,-0.22575757,-0.09015151,0.47121212,nan,0
754057799,754056859,396321,-0.20833333,-0.087878786,0.46287876,nan,0
755051406,755050466,396321,-0.2151515,-0.089393936,0.4674242,nan,0
756045040,756044101,396321,-0.21666665,-0.09015151,0.46969697,nan,0
757060217,757059277,396321,-0.20757575,-0.089393936,0.4643939,nan,0
758053857,758052911,396321,-0.22045454,-0.089393936,0.46287876,nan,0
759047415,759046475,396321,-0.21060605,-0.09015151,0.46590906,nan,0
760062604,760061663,396321,-0.21287878,-0.087878786,0.46590906,nan,0
761056195,761055255,396321,-0.22272727,-0.0840909,0.4643939,nan,0
762049823,762048883,396321,-0.2060606,-0.086363636,0.4643939,nan,0
763043571,763042632,396321,-0.21590908,-0.0840909,0.46590906,nan,0
764058839,764057878,396321,-0.21363635,-0.0840909,0.4674242,nan,0
765052413,765051474,396321,-0.20681818,-0.0810606,0.47121212,nan,0
766046060,766045120,396321,-0.22121212,-0.08257575,0.4674242,nan,0
767061355,767060392,396321,-0.20833333,-0.07954545,0.4780303,nan,0
768054867,768053927,396321,-0.2121212,-0.0840909,0.4780303,nan,0
769048436,769047496,396321,-0.22272727,-0.089393936,0.46590906,nan,0
770063714,770062774,396321,-0.2090909,-0.087878786,0.4780303,nan,0
771057319,771056379,396321,-0.21590908,-0.086363636,0.47121212,nan,0
772050913,772049973,396321,-0.21742423,-0.09166666,0.46287876,nan,0
773044409,773043469,396321,-0.2090909,-0.09015151,0.47121212,nan,0
774059609,774058669,396321,-0.225,-0.090909086,0.4674242,nan,0
775053247,775052308,396321,-0.21287878,-0.09166666,0.4643939,nan,0
776046653,776045707,396321,-0.2121212,-0.090909086,0.46060604,nan,0
777061793,777060853,396321,-0.2219697,-0.092424236,0.46287876,nan,0
778055447,778054508,396321,-0.21136363,-0.08863636,0.47272727,nan,0
779049041,779048101,396321,-0.21969697,-0.09166666,0.46287876,nan,0
780042581,780041641,396321,-0.2151515,-0.090909086,0.4613636,nan,0
781057780,781056840,396321,-0.2090909,-0.090909086,0.4674242,nan,0
782051403,782050463,396321,-0.22575757,-0.09318182,0.46590906,nan,0
783045043,783044103,396321,-0.21136363,-0.09924242,0.45757574,nan,0
784060207,784059267,396321,-0.2121212,-0.09166666,0.47651514,nan,0
785053819,785052879,396321,-0.22272727,-0.092424236,0.4590909,nan,0
786047474,786046534,396321,-0.20681818,-0.09015151,0.47272727,nan,0
787062604,787061664,396321,-0.2189394,-0.090909086,0.4674242,nan,0
788056248,788055308,396321,-0.21439393,-0.09166666,0.46969697,nan,0
789049781,789048841,396321,-0.20833333,-0.092424236,0.4689394,nan,0
790043425,790042485,396321,-0.22575757,-0.09015151,0.4643939,nan,0
791058590,791057650,396321,-0.21136363,-0.09166666,0.46969697,nan,0
792052195,792051254,396321,-0.2121212,-0.09015151,0.4674242,nan,0
793045837,793044883,396321,-0.22121212,-0.087878786,0.46590906,nan,0
794061053,794060113,396321,-0.21136363,-0.09015151,0.4613636,nan,0
795054614,795053674,396321,-0.2219697,-0.09166666,0.46590906,nan,0
796048232,796047292,396321,-0.2189394,-0.090909086,0.47424242,nan,0
797041892,797040953,396321,-0.21136363,-0.08863636,0.4674242,nan,0
798057074,798056135,396321,-0.22878787,-0.092424236,0.46287876,nan,0
799050589,799049649,396321,-0.21060605,-0.089393936,0.4689394,nan,0
800044198,800043258,396321,-0.21363635,-0.09015151,0.47575757,nan,0
801059404,801058464,396321,-0.22121212,-0.092424236,0.46969697,nan,0
802053040,802052100,396321,-0.2090909,-0.09318182,0.4643939,nan,0
803046577,803045637,396321,-0.21969697,-0.09166666,0.4674242,nan,0
804061786,804060846,396321,-0.21742423,-0.090909086,0.4674242,nan,0
805055405,805054462,396321,-0.21060605,-0.09015151,0.4643939,nan,0
806049125,806048185,396321,-0.2189394,-0.09166666,0.46590906,nan,0
807042612,807041672,396321,-0.21363635,-0.089393936,0.46969697,nan,0
808057825,808056885,396321,-0.21666665,-0.08863636,0.4643939,nan,0
809051471,809050531,396321,-0.21969697,-0.09015151,0.4674242,nan,0
810045113,810044173,396321,-0.21060605,-0.089393936,0.46590906,nan,0
811060193,811059254,396321,-0.22045454,-0.09772727,0.47121212,nan,0
812053790,812052850,396321,-0.21439393,-0.09318182,0.46969697,nan,0
813047403,813046463,396321,-0.21060605,-0.087878786,0.4689394,nan,0
814062583,814061644,396321,-0.2189394,-0.09166666,0.47121212,nan,0
815056239,815055286,396321,-0.2121212,-0.08863636,0.4643939,nan,0
816049804,816048864,396321,-0.21742423,-0.092424236,0.46060604,nan,0
817065182,817064243,396321,-0.2219697,-0.087878786,0.4689394,nan,0
818058635,818057695,396321,-0.2121212,-0.09166666,0.4674242,nan,0
819052236,819051296,396321,-0.225,-0.086363636,0.46287876,nan,0
820045853,820044914,396321,-0.21363635,-0.090909086,0.47424242,nan,0
821061112,821060172,396321,-0.21363635,-0.09166666,0.4613636,nan,0
822054645,822053667,396321,-0.23030302,-0.09015151,0.46969697,nan,0
823048218,823047278,396321,-0.2090909,-0.08712121,0.47272727,nan,0
824063407,824062467,396321,-0.21439393,-0.08863636,0.46590906,nan,0
825057049,825056109,396321,-0.2189394,-0.089393936,0.46590906,nan,0
826050609,826049670,396321,-0.20833333,-0.08484848,0.46969697,nan,0
827044236,827043296,396321,-0.225,-0.087878786,0.47651514,nan,0
828059453,828058513,396321,-0.21439393,-0.08712121,0.4674242,nan,0
829053051,829052111,396321,-0.21439393,-0.09166666,0.4689394,nan,0
830046583,830045643,396321,-0.22727272,-0.087878786,0.46590906,nan,0
831061820,831060881,396321,-0.21136363,-0.087878786,0.4643939,nan,0
832055437,832054497,396321,-0.2189394,-0.089393936,0.47121212,nan,0
833049111,833048171,396321,-0.2189394,-0.08712121,0.4674242,nan,0
834064197,834063257,396321,-0.21136363,-0.086363636,0.47121212,nan,0
835057815,835056875,396321,-0.22272727,-0.089393936,0.46969697,nan,0
836051407,836050461,396321,-0.21287878,-0.08333333,0.47424242,nan,0
837045042,837044102,396321,-0.24242423,-0.10833333,0.46060604,nan,0
838060235,838059286,396321,-0.23863636,-0.10378788,0.47575757,nan,0
839053815,839052876,396321,-0.23712121,-0.12424242,0.4560606,nan,0
840047402,840046463,396321,-0.24242423,-0.11666666,0.45757574,nan,0
841062683,841061737,396321,-0.24924241,-0.11969697,0.4590909,nan,0
842056196,842055257,396321,-0.23030302,-0.10681818,0.45757574,nan,0
843049834,843048894,396321,-0.25454545,-0.11742424,0.45757574,nan,0
844043414,844042474,396321,-0.2280303,-0.111363634,0.4590909,nan,0
845058680,845057740,396321,-0.23030302,-0.11363636,0.4613636,nan,0
846052287,846051347,396321,-0.24393938,-0.115909085,0.46060604,nan,0
847045811,847044871,396321,-0.22651514,-0.112878785,0.45378786,nan,0
848061056,848060116,396321,-0.23333332,-0.112878785,0.46060604,nan,0
849054615,849053661,396321,-0.23484848,-0.11363636,0.46590906,nan,0
850048195,850047255,396321,-0.22575757,-0.11666666,0.4689394,nan,0
851063410,851062470,396321,-0.24166666,-0.111363634,0.46590906,nan,0
852057052,852056112,396321,-0.22878787,-0.11515151,0.46287876,nan,0
853050613,853049673,396321,-0.22575757,-0.12121212,0.46287876,nan,0
854044216,854043262,396321,-0.23712121,-0.09166666,0.47121212,nan,0
855059452,855058513,396321,-0.22272727,-0.0810606,0.46060604,nan,0
856053053,856052114,396321,-0.225,-0.090909086,0.4643939,nan,0
857046647,857045707,396321,-0.22575757,-0.092424236,0.4689394,nan,0
858061816,858060876,396321,-0.21742423,-0.09166666,0.4689394,nan,0
859055463,859054523,396321,-0.22651514,-0.093939394,0.4674242,nan,0
860049055,860048115,396321,-0.22121212,-0.090909086,0.46060604,nan,0
861064266,861063326,396321,-0.2189394,-0.095454544,0.4689394,nan,0
862057824,862056884,396321,-0.2280303,-0.09318182,0.46590906,nan,0
863051519,863050579,396321,-0.21666665,-0.090909086,0.46287876,nan,0
864045321,864044381,396321,-0.22424242,-0.09469697,0.46590906,nan,0
865060443,865059463,396321,-0.22045454,-0.092424236,0.4674242,nan,0
866054128,866053188,396321,-0.21590908,-0.09318182,0.4590909,nan,0
867047921,867046982,396321,-0.21742423,-0.09166666,0.4689394,nan,0
868063239,868062299,396321,-0.21742423,-0.095454544,0.46590906,nan,0
869056863,869055923,396321,-0.22424242,-0.09924242,0.4674242,nan,0
870050438,870049498,396321,-0.23030302,-0.08560606,0.4613636,nan,0
871044043,871043104,396321,-0.21742423,-0.09469697,0.4674242,nan,0
872059267,872058327,396321,-0.2340909,-0.111363634,0.46060604,nan,0
873052856,873051863,396321,-0.23257574,-0.10909091,0.46060604,nan,0
874046676,874045735,396321,-0.23787878,-0.11969697,0.45454544,nan,0
875061885,875060946,396321,-0.24242423,-0.115909085,0.45075756,nan,0
876055401,876054462,396321,-0.22878787,-0.11212121,0.45378786,nan,0
877049064,877048087,396321,-0.2310606,-0.109848484,0.4560606,nan,0
878042576,878041636,396321,-0.23787878,-0.10757575,0.46287876,nan,0
879057843,879056893,396321,-0.22424242,-0.11363636,0.46287876,nan,0
880051452,880050512,396321,-0.23484848,-0.10909091,0.4643939,nan,0
881044993,881044053,396321,-0.22651514,-0.10757575,0.46060604,nan,0
882060246,882059306,396321,-0.2189394,-0.10909091,0.46590906,nan,0
883054052,883053101,396321,-0.2189394,-0.109848484,0.4643939,nan,0
884047697,884046757,396321,-0.21287878,-0.109848484,0.4643939,nan,0
885062995,885062055,396321,-0.22121212,-0.10757575,0.46060604,nan,0
886056604,886055665,396321,-0.22575757,-0.10909091,0.4643939,nan,0
887050258,887049311,396321,-0.22121212,-0.11060606,0.46060604,nan,0
888043812,888042872,396321,-0.22727272,-0.1060606,0.4560606,nan,0
889058993,889058053,396321,-0.22651514,-0.111363634,0.45757574,nan,0
890052651,890051711,396321,-0.22045454,-0.109848484,0.4560606,nan,0
891046302,891045362,396321,-0.23712121,-0.11212121,0.46287876,nan,0
892061412,892060464,396321,-0.2189394,-0.11060606,0.46590906,nan,0
893055023,893054067,396321,-0.22424242,-0.109848484,0.4689394,nan,0
894048651,894047711,396321,-0.225,-0.10909091,0.46287876,nan,0
895042267,895041328,396321,-0.21590908,-0.10833333,0.4613636,nan,0
896057456,896056485,396321,-0.23257574,-0.111363634,0.4643939,nan,0
897050998,897050058,396321,-0.22272727,-0.11060606,0.46590906,nan,0
898044737,898043797,396321,-0.22272727,-0.10833333,0.4689394,nan,0
899059948,899059008,396321,-0.23787878,-0.114393935,0.46590906,nan,0
900053495,900052555,396321,-0.21969697,-0.10909091,0.4613636,nan,0
901047035,901046095,396321,-0.22348484,-0.10681818,0.4643939,nan,0
902062252,902061312,396321,-0.23030302,-0.10757575,0.46969697,nan,0
903055876,903054936,396321,-0.21969697,-0.109848484,0.4590909,nan,0
904049450,904048463,396321,-0.22878787,-0.10833333,0.4643939,nan,0
905043021,905042081,396321,-0.22348484,-0.11060606,0.46287876,nan,0
906058270,906057330,396321,-0.2219697,-0.10833333,0.46590906,nan,0
907051776,907050836,396321,-0.23333332,-0.109848484,0.46060604,nan,0
908045407,908044467,396321,-0.2189394,-0.11212121,0.45454544,nan,0
909060620,909059681,396321,-0.22878787,-0.11212121,0.46287876,nan,0
910054219,910053279,396321,-0.22727272,-0.109848484,0.4613636,nan,0
911047821,911046881,396321,-0.21818182,-0.111363634,0.4643939,nan,0
912041407,912040467,396321,-0.23333332,-0.11212121,0.4613636,nan,0
913056620,913055681,396321,-0.22121212,-0.111363634,0.4674242,nan,0
914050264,914049324,396321,-0.22121212,-0.111363634,0.46060604,nan,0
915065443,915064503,396321,-0.23787878,-0.11212121,0.4613636,nan,0
916059023,916058083,396321,-0.21666665,-0.10909091,0.4590909,nan,0
917052593,917051653,396321,-0.21818182,-0.10757575,0.46060604,nan,0
918046284,918045345,396321,-0.22954544,-0.10909091,0.4613636,nan,0
919061401,919060462,396321,-0.22121212,-0.111363634,0.46060604,nan,0
920055105,920054165,396321,-0.21969697,-0.10757575,0.4613636,nan,0
921048868,921047928,396321,-0.23333332,-0.10833333,0.48257574,nan,0
922063995,922063055,396321,-0.21363635,-0.10909091,0.4643939,nan,0
923057604,923056665,396321,-0.21818182,-0.10757575,0.46287876,nan,0
924051249,924050309,396321,-0.225,-0.10909091,0.47121212,nan,0
925044838,925043898,396321,-0.21590908,-0.109848484,0.46287876,nan,0
926060108,926059169,396321,-0.225,-0.10909091,0.47272727,nan,0
927053574,927052634,396321,-0.22121212,-0.109848484,0.45757574,nan,0
928047240,928046293,396321,-0.21590908,-0.10757575,0.46060604,nan,0
929062458,929061518,396321,-0.21969697,-0.10757575,0.46287876,nan,0
930056302,930055362,396321,-0.22121212,-0.10757575,0.4643939,nan,0
931050010,931049070,396321,-0.21818182,-0.10909091,0.46287876,nan,0
932043599,932042658,396321,-0.20984848,-0.10833333,0.4590909,nan,0
933058853,933057913,396321,-0.22954544,-0.109848484,0.46287876,nan,0
934052459,934051519,396321,-0.21136363,-0.10454545,0.4674242,nan,0
935046059,935045119,396321,-0.21363635,-0.10454545,0.46590906,nan,0
936061478,936060538,396321,-0.22727272,-0.10833333,0.4674242,nan,0
937055231,937054287,396321,-0.21136363,-0.10681818,0.45378786,nan,0
938049039,938048099,396321,-0.2219697,-0.10833333,0.45378786,nan,0
939064194,939063253,396321,-0.21818182,-0.10833333,0.4613636,nan,0
940057779,940056839,396321,-0.21439393,-0.10909091,0.4560606,nan,0
941051440,941050501,396321,-0.2340909,-0.109848484,0.4674242,nan,0
942045005,942044066,396321,-0.21439393,-0.10530303,0.46287876,nan,0
943060226,943059286,396321,-0.21818182,-0.10757575,0.4613636,nan,0
944053857,944052917,396321,-0.22348484,-0.10681818,0.46060604,nan,0
945047446,945046506,396321,-0.2121212,-0.10909091,0.45454544,nan,0
946062695,946061756,396321,-0.2219697,-0.10454545,0.46287876,nan,0
947056202,947055262,396321,-0.2189394,-0.1060606,0.4590909,nan,0
948049823,948048883,396321,-0.21287878,-0.10757575,0.4643939,nan,0
949043579,949042639,396321,-0.22348484,-0.1060606,0.46590906,nan,0
950058615,950057675,396321,-0.2121212,-0.10909091,0.4674242,nan,0
951052275,951051335,396321,-0.21818182,-0.10454545,0.4590909,nan,0
952045812,952044873,396321,-0.22121212,-0.10909091,0.46287876,nan,0
953061024,953060084,396321,-0.2121212,-0.10530303,0.4613636,nan,0
954054660,954053711,396321,-0.22575757,-0.1060606,0.4674242,nan,0
955048206,955047266,396321,-0.2151515,-0.10757575,0.4689394,nan,0
956063425,956062486,396321,-0.21363635,-0.10530303,0.46590906,nan,0
957057002,957056050,396321,-0.2219697,-0.1060606,0.4590909,nan,0
958050624,958049681,396321,-0.21363635,-0.10530303,0.45454544,nan,0
959044196,959043256,396321,-0.22272727,-0.10681818,0.4643939,nan,0
960059476,960058537,396321,-0.22272727,-0.10833333,0.46969697,nan,0
961053131,961052178,396321,-0.21590908,-0.10833333,0.4643939,nan,0
962046861,962045921,396321,-0.225,-0.10681818,0.47424242,nan,0
963062001,963061050,396321,-0.2189394,-0.10681818,0.4643939,nan,0
964055654,964054714,396321,-0.2151515,-0.10757575,0.46287876,nan,0
965049232,965048292,396321,-0.225,-0.10757575,0.4613636,nan,0
966043038,966042098,396321,-0.21287878,-0.10530303,0.46969697,nan,0
967058401,967057461,396321,-0.21439393,-0.10530303,0.4674242,nan,0
968052039,968051100,396321,-0.22121212,-0.1060606,0.4613636,nan,0
969045575,969044635,396321,-0.21363635,-0.10757575,0.46287876,nan,0
970061026,970060086,396321,-0.225,-0.10681818,0.4643939,nan,0
971054597,971053657,396321,-0.21742423,-0.10681818,0.4689394,nan,0
972048229,972047290,396321,-0.21590908,-0.10378788,0.46287876,nan,0
973063411,973062471,396321,-0.23030302,-0.10833333,0.47121212,nan,0
974056988,974056048,396321,-0.2121212,-0.10454545,0.46969697,nan,0
975050584,975049645,396321,-0.2189394,-0.10454545,0.4590909,nan,0
976044270,976043330,396321,-0.22348484,-0.10757575,0.4590909,nan,0
977059402,977058463,396321,-0.21287878,-0.1060606,0.4590909,nan,0
978053059,978052119,396321,-0.22651514,-0.10833333,0.4643939,nan,0
979046674,979045734,396321,-0.2189394,-0.1060606,0.46060604,nan,0
980062000,980061060,396321,-0.21818182,-0.10454545,0.46590906,nan,0
981055790,981054850,396321,-0.22878787,-0.10681818,0.4689394,nan,0
982049508,982048532,396321,-0.21439393,-0.1060606,0.4643939,nan,0
983043046,983042106,396321,-0.21818182,-0.1060606,0.47575757,nan,0
984058197,984057257,396321,-0.21969697,-0.10530303,0.47121212,nan,0
985051781,985050842,396321,-0.2121212,-0.1060606,0.4643939,nan,0
986045520,986044580,396321,-0.22424242,-0.10681818,0.4689394,nan,0
987060915,987059924,396321,-0.21742423,-0.109848484,0.46287876,nan,0
988054575,988053635,396321,-0.21287878,-0.1060606,0.4613636,nan,0
989048411,989047471,396321,-0.225,-0.10833333,0.46969697,nan,0
990063628,990062688,396321,-0.2121212,-0.10454545,0.4613636,nan,0
991057317,991056378,396321,-0.2189394,-0.10378788,0.46590906,nan,0
992050887,992049947,396321,-0.21666665,-0.10681818,0.46060604,nan,0
993044407,993043467,396321,-0.21363635,-0.10530303,0.46287876,nan,0
994059729,994058774,396321,-0.22727272,-0.10530303,0.46590906,nan,0
995053498,995052557,396321,-0.2151515,-0.1060606,0.4674242,nan,0
996046985,996046045,396321,-0.21363635,-0.10681818,0.4613636,nan,0
997062194,997061255,396321,-0.22575757,-0.10681818,0.46969697,nan,0
998056110,998055170,396321,-0.2151515,-0.10378788,0.4560606,nan,0
999049899,999048960,396321,-0.21818182,-0.10833333,0.45757574,nan,0
1000043484,1000042544,396321,-0.22272727,-0.10530303,0.4674242,nan,0
1001058650,1001057693,396321,-0.21060605,-0.10378788,0.46287876,nan,0
1002052242,1002051302,396321,-0.2280303,-0.10681818,0.4689394,nan,0
1003045909,1003044969,396321,-0.2151515,-0.1060606,0.46060604,nan,0
1004060996,1004060049,396321,-0.21818182,-0.1060606,0.4643939,nan,0
1005054579,1005053639,396321,-0.22651514,-0.10681818,0.4613636,nan,0
1006048232,1006047292,396321,-0.21287878,-0.10454545,0.4613636,nan,0
1007041827,1007040888,396321,-0.22121212,-0.10681818,0.46287876,nan,0
1008056999,1008056059,396321,-0.22045454,-0.10681818,0.46969697,nan,0
1009050577,1009049637,396321,-0.21742423,-0.10378788,0.46969697,nan,0
1010044215,1010043272,396321,-0.22878787,-0.10833333,0.4613636,nan,0
1011059402,1011058463,396321,-0.21666665,-0.10681818,0.45454544,nan,0
1012053018,1012052078,396321,-0.2151515,-0.10530303,0.46060604,nan,0
1013046816,1013045876,396321,-0.22651514,-0.10530303,0.4689394,nan,0
1014062092,1014061153,396321,-0.2121212,-0.10378788,0.4674242,nan,0
1015055636,1015054674,396321,-0.22272727,-0.10454545,0.4689394,nan,0
1016049227,1016048287,396321,-0.22121212,-0.1030303,0.46287876,nan,0
1017042834,1017041882,396321,-0.21666665,-0.10227273,0.46287876,nan,0
1018058070,1018057131,396321,-0.2310606,-0.1030303,0.4643939,nan,0
1019051628,1019050688,396321,-0.21666665,-0.10227273,0.4590909,nan,0
1020045272,1020044332,396321,-0.2189394,-0.10454545,0.46060604,nan,0
1021060412,1021059472,396321,-0.225,-0.1060606,0.4689394,nan,0
1022054134,1022053174,396321,-0.21439393,-0.10378788,0.46287876,nan,0
1023047638,1023046699,396321,-0.21969697,-0.10530303,0.46287876,nan,0
1024041294,1024040354,396321,-0.21969697,-0.10378788,0.4613636,nan,0
1025056500,1025055561,396321,-0.21818182,-0.10227273,0.45454544,nan,0
1026050041,1026049097,396321,-0.23484848,-0.10378788,0.4674242,nan,0
1027065267,1027064286,396321,-0.22121212,-0.1060606,0.4613636,nan,0
1028058798,1028057859,396321,-0.22348484,-0.10530303,0.46590906,nan,0
1029052416,1029051476,396321,-0.2310606,-0.10378788,0.4522727,nan,0
1030046070,1030045129,396321,-0.21969697,-0.1030303,0.46060604,nan,0
1031061226,1031060286,396321,-0.23333332,-0.10681818,0.4674242,nan,0
1032054848,1032053908,396321,-0.22575757,-0.099999994,0.4643939,nan,0
1033048421,1033047481,396321,-0.16893938,-0.10757575,0.48939392,nan,0
1034063623,1034062683,396321,-0.08257575,-0.09924242,0.4931818,nan,0
1035057244,1035056304,396321,-0.087878786,-0.074999996,0.49772725,nan,0
1036050906,1036049966,396321,-0.06590909,-0.115909085,0.49848482,nan,0
1037044452,1037043512,396321,-0.04090909,-0.14772727,0.48939392,nan,0
1038059647,1038058707,396321,-0.025757575,-0.16893938,0.48636362,nan,0
1039053232,1039052292,396321,-0.014393939,-0.22575757,0.47272727,nan,0
1040046847,1040045907,396321,0.0,-0.24015151,0.45757574,nan,0
1041062050,1041061110,396321,-0.049242422,-0.23863636,0.47272727,nan,0
1042055629,1042054689,396321,-0.090909086,-0.24621211,0.4590909,nan,0
1043049264,1043048321,396321,-0.089393936,-0.23030302,0.4613636,nan,0
1044064633,1044063693,396321,-0.10227273,-0.23939393,0.4522727,nan,0
1045058244,1045057301,396321,-0.00075757573,-0.23939393,0.46590906,nan,0
1046052039,1046051099,396321,0.06969697,-0.2280303,0.4590909,nan,0
1047045646,1047044706,396321,0.093939394,-0.21666665,0.44545454,nan,0
1048060790,1048059851,396321,0.047727272,-0.24393938,0.46590906,nan,0
1049054484,1049053520,396321,0.018181818,-0.2030303,0.47121212,nan,0
1050048016,1050047076,396321,0.03560606,-0.16590908,0.4780303,nan,0
1051063281,1051062342,396321,0.014393939,-0.20378788,0.47272727,nan,0
1052056815,1052055875,396321,-0.024242423,-0.23333332,0.47424242,nan,0
1053050700,1053049719,396321,-0.05151515,-0.21742423,0.47424242,nan,0
1054044196,1054043256,396321,-0.087878786,-0.20227273,0.47424242,nan,0
1055059402,1055058462,396321,-0.13030303,-0.17575757,0.48257574,nan,0
1056053022,1056052082,396321,-0.17272727,-0.13333333,0.4780303,nan,0
1057046647,1057045707,396321,-0.1780303,-0.09621212,0.48333332,nan,0
1058061795,1058060855,396321,-0.20454545,-0.04242424,0.47272727,nan,0
1059055591,1059054651,396321,-0.1719697,-0.012878788,0.47651514,nan,0
1060049288,1060048348,396321,-0.16060606,-0.037878785,0.4810606,nan,0
1061064614,1061063674,396321,-0.175,-0.036363635,0.48333332,nan,0
1062058237,1062057271,396321,-0.1621212,-0.05530303,0.4810606,nan,0
1063051809,1063050869,396321,-0.14090909,-0.052272726,0.49469694,nan,0
1064045404,1064044464,396321,-0.16666666,-0.06287879,0.48787877,nan,0
1065060625,1065059686,396321,-0.14772727,-0.053787876,0.48636362,nan,0
1066054232,1066053288,396321,-0.16742423,-0.044696968,0.4931818,nan,0
1067047864,1067046924,396321,-0.14848484,-0.029545454,0.48484847,nan,0
1068063044,1068062104,396321,-0.16363636,-0.07272727,0.4780303,nan,0
1069056619,1069055677,396321,-0.16666666,-0.073484845,0.48333332,nan,0
1070050243,1070049302,396321,-0.16363636,-0.07954545,0.48484847,nan,0
1071043889,1071042935,396321,-0.14318182,-0.093939394,0.48939392,nan,0
1072059080,1072058141,396321,-0.16287878,-0.08560606,0.48484847,nan,0
1073052631,1073051677,396321,-0.14469697,-0.08333333,0.48484847,nan,0
1074046243,1074045293,396321,-0.17348485,-0.07424242,0.4810606,nan,0
1075061404,1075060464,396321,-0.14393939,-0.073484845,0.49166664,nan,0
1076055039,1076054100,396321,-0.17424242,-0.06060606,0.48333332,nan,0
1077048621,1077047681,396321,-0.18560605,-0.056060605,0.4810606,nan,0
1078063802,1078062863,396321,-0.19999999,-0.034090906,0.4780303,nan,0
1079057473,1079056533,396321,-0.19242424,-0.04242424,0.47272727,nan,0
1080051047,1080050107,396321,-0.21060605,-0.03560606,0.46969697,nan,0
1081044615,1081043675,396321,-0.19393939,-0.04242424,0.47424242,nan,0
1082059858,1082058918,396321,-0.21287878,-0.03712121,0.46590906,nan,0
1083053401,1083052462,396321,-0.20075756,-0.04242424,0.4689394,nan,0
1084047040,1084046101,396321,-0.20075756,-0.041666664,0.47272727,nan,0
1085062233,1085061293,396321,-0.2219697,-0.041666664,0.4613636,nan,0
1086055799,1086054847,396321,-0.19772726,-0.048484847,0.46969697,nan,0
1087049414,1087048473,396321,-0.19999999,-0.071969695,0.47272727,nan,0
1088043060,1088042120,396321,-0.20151514,-0.07272727,0.4674242,nan,0
1089058269,1089057329,396321,-0.19772726,-0.070454545,0.4643939,nan,0
1090051844,1090050904,396321,-0.21287878,-0.070454545,0.4674242,nan,0
1091045403,1091044463,396321,-0.20075756,-0.06666666,0.47272727,nan,0
1092060615,1092059675,396321,-0.19848484,-0.049242422,0.47575757,nan,0
1093054285,1093053345,396321,-0.2090909,-0.034090906,0.47424242,nan,0
1094047780,1094046841,396321,-0.21060605,-0.044696968,0.47121212,nan,0
1095063047,1095062108,396321,-0.24166666,0.016666666,0.4560606,nan,0
1096056641,1096055701,396321,-0.27575758,0.046212118,0.4371212,nan,0
1097050191,1097049251,396321,-0.26287878,0.011363636,0.4469697,nan,0
1098043799,1098042860,396321,-0.26060605,0.011363636,0.44242424,nan,0
1099059138,1099058198,396321,-0.24469696,-0.034090906,0.4492424,nan,0
1100052625,1100051685,396321,-0.23863636,-0.0780303,0.4560606,nan,0
1101046269,1101045329,396321,-0.2090909,-0.15454546,0.4643939,nan,0
1102061444,1102060504,396321,-0.1371212,-0.22045454,0.4613636,nan,0
1103055075,1103054135,396321,-0.14621212,-0.25530303,0.45454544,nan,0
1104048651,1104047712,396321,-0.15681818,-0.25757575,0.44772726,nan,0
1105042277,1105041308,396321,-0.14924242,-0.25757575,0.4409091,nan,0
1106057416,1106056476,396321,-0.15378788,-0.21969697,0.46287876,nan,0
1107051108,1107050154,396321,-0.13257575,-0.21969697,0.46590906,nan,0
1108044573,1108043633,396321,-0.1030303,-0.23712121,0.45757574,nan,0
1109059820,1109058880,396321,-0.13030303,-0.24924241,0.4469697,nan,0
1110053407,1110052467,396321,-0.12196969,-0.25681818,0.4272727,nan,0
1111047130,1111046191,396321,-0.14166667,-0.22954544,0.45454544,nan,0
1112062197,1112061257,396321,-0.1340909,-0.21969697,0.4409091,nan,0
1113055858,1113054918,396321,-0.1310606,-0.24772726,0.42045453,nan,0
1114049401,1114048461,396321,-0.13636363,-0.22348484,0.43181816,nan,0
1115043041,1115042101,396321,-0.089393936,-0.2121212,0.42499998,nan,0
1116058261,1116057309,396321,-0.08712121,-0.18484847,0.43560603,nan,0
1117051780,1117050840,396321,-0.12348484,-0.16893938,0.43939394,nan,0
1118045402,1118044462,396321,-0.14696969,-0.18560605,0.42348483,nan,0
1119060635,1119059695,396321,-0.16439393,-0.13257575,0.43560603,nan,0
1120054298,1120053358,396321,-0.18030302,-0.15984848,0.4371212,nan,0
1121047841,1121046901,396321,-0.16060606,-0.15151514,0.4371212,nan,0
1122041403,1122040464,396321,-0.16363636,-0.26742423,0.40378785,nan,0
1123056597,1123055657,396321,-0.13181818,-0.23787878,0.43257573,nan,0
1124050195,1124049255,396321,-0.12121212,-0.1810606,0.4643939,nan,0
1125065404,1125064464,396321,-0.14545454,-0.19090909,0.4590909,nan,0
1126059075,1126058135,396321,-0.12575758,-0.22424242,0.4560606,nan,0
1127052636,1127051696,396321,-0.09621212,-0.2219697,0.44772726,nan,0
1128046247,1128045307,396321,-0.10151515,-0.19999999,0.4613636,nan,0
1129061553,1129060612,396321,-0.15681818,-0.13030303,0.4689394,nan,0
1130055133,1130054193,396321,-0.17424242,-0.05909091,0.47575757,nan,0
1131048853,1131047913,396321,-0.19924241,0.009848485,0.45757574,nan,0
1132064418,1132063478,396321,-0.23863636,0.09318182,0.41893938,nan,0
1133058248,1133057309,396321,-0.26060605,0.09621212,0.41666666,nan,0
1134051882,1134050942,396321,-0.25075758,0.10681818,0.41893938,nan,0
1135045423,1135044483,396321,-0.23560606,0.22272727,0.3780303,nan,0
1136060604,1136059663,396321,-0.2121212,0.21439393,0.3931818,nan,0
1137054276,1137053336,396321,-0.13787879,0.19166666,0.41893938,nan,0
1138047894,1138046955,396321,-0.1310606,0.14393939,0.4469697,nan,0
1139062989,1139062049,396321,-0.12651515,0.17045455,0.43181816,nan,0
1140056595,1140055655,396321,-0.049242422,0.20378788,0.42575756,nan,0
1141050232,1141049292,396321,-0.068939395,0.14772727,0.4492424,nan,0
1142043838,1142042898,396321,-0.10378788,0.11666666,0.4492424,nan,0
1143059052,1143058112,396321,-0.12424242,0.17348485,0.43409088,nan,0
1144052647,1144051707,396321,-0.099999994,0.16060606,0.43863636,nan,0
1145046279,1145045339,396321,-0.06590909,0.23181817,0.40833333,nan,0
1146061410,1146060470,396321,-0.036363635,0.19999999,0.42196968,nan,0
1147054991,1147054052,396321,-0.03560606,0.28787878,0.36969694,nan,0
1148048634,1148047694,396321,-0.012878788,0.26893938,0.38787878,nan,0
1149063898,1149062959,396321,-0.01969697,0.32272726,0.3409091,nan,0
1150057402,1150056462,396321,0.061363634,0.2121212,0.40833333,nan,0
1151051075,1151050130,396321,0.14318182,0.12727273,0.4272727,nan,0
1152044695,1152043755,396321,0.11818182,0.15454546,0.41893938,nan,0
1153059851,1153058906,396321,0.1371212,0.11212121,0.4409091,nan,0
1154053404,1154052464,396321,0.17045455,0.12878788,0.4409091,nan,0
1155047025,1155046085,396321,0.13560605,0.087878786,0.44772726,nan,0
1156062223,1156061283,396321,0.114393935,-0.008333333,0.47575757,nan,0
1157055847,1157054906,396321,0.1621212,-0.14242424,0.4780303,nan,0
1158049412,1158048472,396321,-0.009090909,-0.22727272,0.46590906,nan,0
1159064584,1159063644,396321,0.024999999,-0.31363636,0.43560603,nan,0
1160058195,1160057256,396321,0.08181818,-0.26363635,0.4371212,nan,0
1161051856,1161050917,396321,0.06818181,-0.24469696,0.45075756,nan,0
1162045403,1162044463,396321,0.012121212,-0.19999999,0.4810606,nan,0
1163060660,1163059721,396321,-0.006818182,-0.25757575,0.4560606,nan,0
1164054210,1164053252,396321,0.011363636,-0.30833334,0.43257573,nan,0
1165047881,1165046942,396321,0.098484844,-0.2651515,0.44242424,nan,0
1166063078,1166062138,396321,0.0840909,-0.24924241,0.4439394,nan,0
1167056600,1167055660,396321,0.037878785,-0.25530303,0.45454544,nan,0
1168050254,1168049314,396321,0.046212118,-0.24772726,0.4613636,nan,0
1169043894,1169042954,396321,0.08030303,-0.19469696,0.4613636,nan,0
1170059056,1170058115,396321,0.029545454,-0.2901515,0.43181816,nan,0
1171052668,1171051729,396321,0.043939393,-0.19242424,0.46060604,nan,0
1172046288,1172045348,396321,0.03560606,-0.33181816,0.4121212,nan,0
1173061402,1173060462,396321,0.032575756,-0.31060606,0.42499998,nan,0
1174054992,1174054053,396321,0.049242422,-0.29696968,0.4151515,nan,0
1175048591,1175047651,396321,0.09924242,-0.22121212,0.4469697,nan,0
1176063928,1176062988,396321,0.08257575,-0.1280303,0.4780303,nan,0
1177057405,1177056465,396321,0.06590909,-0.13787879,0.47575757,nan,0
1178051038,1178050098,396321,0.014393939,-0.16287878,0.47575757,nan,0
1179044577,1179043636,396321,0.006060606,-0.2060606,0.4674242,nan,0
1180059879,1180058938,396321,-0.02651515,-0.17424242,0.4810606,nan,0
1181053403,1181052463,396321,-0.048484847,-0.18030302,0.48333332,nan,0
1182047010,1182046070,396321,-0.076515146,-0.13257575,0.4780303,nan,0
1183062247,1183061307,396321,-0.15227272,-0.06969697,0.49090907,nan,0
1184055896,1184054956,396321,-0.21666665,-0.06742424,0.47424242,nan,0
1185049402,1185048462,396321,-0.2871212,-0.016666666,0.430303,nan,0
1186042996,1186042056,396321,-0.3159091,0.04090909,0.41742423,nan,0
1187058203,1187057263,396321,-0.21666665,-0.06060606,0.4689394,nan,0
1188051902,1188050962,396321,-0.22878787,-0.05833333,0.46287876,nan,0
1189045403,1189044463,396321,-0.23560606,-0.17727272,0.4439394,nan,0
1190060654,1190059703,396321,-0.22424242,-0.24318181,0.42196968,nan,0
1191054292,1191053352,396321,-0.22651514,-0.30454543,0.39545453,nan,0
1192047855,1192046896,396321,-0.15378788,-0.38787878,0.34621212,nan,0
1193063214,1193062275,396321,-0.07727273,-0.43863636,0.30378786,nan,0
1194056812,1194055872,396321,0.013636364,-0.42196968,0.32575756,nan,0
1195050578,1195049639,396321,0.095454544,-0.35454544,0.3681818,nan,0
1196044220,1196043280,396321,0.13560605,-0.2742424,0.41363636,nan,0
1197059433,1197058493,396321,0.20227273,-0.23333332,0.42575756,nan,0
1198053052,1198052112,396321,0.19469696,-0.13787879,0.46287876,nan,0
1199046697,1199045757,396321,0.16742423,-0.12424242,0.4780303,nan,0
1200061863,1200060923,396321,0.08560606,-0.10681818,0.48257574,nan,0
1201055403,1201054463,396321,0.008333333,-0.009090909,0.48787877,nan,0
1202048999,1202048060,396321,-0.073484845,-0.074999996,0.48257574,nan,0
1203042637,1203041698,396321,-0.19469696,-0.16287878,0.4689394,nan,0
1204057835,1204056896,396321,-0.25151515,-0.25454545,0.40984848,nan,0
1205051450,1205050510,396321,-0.23863636,-0.36287877,0.33257574,nan,0
1206045000,1206044060,396321,-0.1560606,-0.36439392,0.3712121,nan,0
1207060236,1207059295,396321,-0.07878788,-0.3393939,0.40833333,nan,0
1208053802,1208052862,396321,-0.043181818,-0.30681816,0.42878786,nan,0
1209047403,1209046463,396321,0.00530303,-0.31439394,0.42878786,nan,0
1210062641,1210061701,396321,0.023484848,-0.26136363,0.45075756,nan,0
1211056270,1211055331,396321,0.032575756,-0.27196968,0.43409088,nan,0
1212049794,1212048854,396321,0.046969697,-0.24696968,0.44772726,nan,0
1213043435,1213042495,396321,0.01969697,-0.27272725,0.4469697,nan,0
1214058589,1214057649,396321,0.0,-0.26590908,0.4492424,nan,0
1215052254,1215051315,396321,0.008333333,-0.28333333,0.43939394,nan,0
1216045903,1216044963,396321,0.05151515,-0.27045453,0.4409091,nan,0
1217061014,1217060073,396321,0.06439394,-0.2742424,0.43863636,nan,0
1218054608,1218053668,396321,0.06363636,-0.22272727,0.45757574,nan,0
1219048229,1219047289,396321,0.01969697,-0.24242423,0.46287876,nan,0
1220041808,1220040868,396321,0.05530303,-0.27878788,0.43560603,nan,0
1221057023,1221056084,396321,0.073484845,-0.25833333,0.43560603,nan,0
1222050577,1222049637,396321,0.061363634,-0.2530303,0.4439394,nan,0
1223065849,1223064893,396321,0.044696968,-0.18863636,0.47575757,nan,0
1224059409,1224058469,396321,0.01060606,-0.25227273,0.44772726,nan,0
1225052987,1225052047,396321,-0.023484848,-0.19621211,0.47575757,nan,0
1226046631,1226045691,396321,0.011363636,-0.13863637,0.47954544,nan,0
1227061812,1227060873,396321,-0.053787876,-0.19166666,0.46969697,nan,0
1228055411,1228054471,396321,-0.11212121,-0.21363635,0.47121212,nan,0
1229049072,1229048132,396321,-0.12196969,-0.21060605,0.47424242,nan,0
1230064239,1230063300,396321,-0.13181818,-0.2219697,0.4613636,nan,0
1231057787,1231056847,396321,-0.12045454,-0.225,0.46287876,nan,0
1232051433,1232050494,396321,-0.1590909,-0.20833333,0.4560606,nan,0
1233045054,1233044114,396321,-0.1371212,-0.2121212,0.46287876,nan,0
1234060275,1234059335,396321,-0.15075757,-0.17651515,0.4689394,nan,0
1235053792,1235052853,396321,-0.18030302,-0.11742424,0.47575757,nan,0
1236047438,1236046498,396321,-0.20530303,-0.05833333,0.47121212,nan,0
1237062576,1237061636,396321,-0.23636363,-0.003030303,0.45378786,nan,0
1238056264,1238055323,396321,-0.26666665,-0.015151515,0.44545454,nan,0
1239049792,1239048852,396321,-0.25984848,0.14318182,0.39999998,nan,0
1240043622,1240042682,396321,-0.2590909,0.13787879,0.39848483,nan,0
1241058857,1241057917,396321,-0.22045454,0.1621212,0.40833333,nan,0
1242052459,1242051519,396321,-0.22045454,0.053787876,0.44772726,nan,0
1243046211,1243045271,396321,-0.19393939,0.095454544,0.4522727,nan,0
1244061441,1244060476,396321,-0.17575757,0.14469697,0.43863636,nan,0
1245054987,1245054047,396321,-0.19393939,0.17727272,0.41363636,nan,0
1246048665,1246047725,396321,-0.21363635,0.17954545,0.39545453,nan,0
1247063843,1247062901,396321,-0.18939394,0.1310606,0.43181816,nan,0
1248057427,1248056487,396321,-0.14924242,0.18939394,0.41666666,nan,0
1249051196,1249050256,396321,-0.11363636,0.18257575,0.4272727,nan,0
1250044860,1250043920,396321,-0.06969697,0.20530303,0.41893938,nan,0
1251059986,1251059046,396321,-0.06666666,0.20227273,0.42575756,nan,0
1252053610,1252052670,396321,-0.061363634,0.23636363,0.40530303,nan,0
1253047225,1253046286,396321,-0.034848485,0.28257576,0.3712121,nan,0
1254062435,1254061495,396321,0.05530303,0.33181816,0.32575756,nan,0
1255056020,1255055080,396321,0.11893939,0.3121212,0.32045454,nan,0
1256049675,1256048735,396321,0.10454545,0.29469696,0.34469697,nan,0
1257043212,1257042272,396321,0.037878785,0.24166666,0.38863635,nan,0
1258058458,1258057518,396321,-0.025757575,0.19999999,0.41893938,nan,0
1259052003,1259051063,396321,0.021969697,-0.029545454,0.48484847,nan,0
1260045652,1260044705,396321,0.021969697,-0.21136363,0.46287876,nan,0
1261060844,1261059904,396321,0.047727272,-0.31969696,0.39469695,nan,0
1262054402,1262053461,396321,0.07954545,-0.33484846,0.3681818,nan,0
1263048014,1263047074,396321,0.15757576,-0.21060605,0.42348483,nan,0
1264063192,1264062252,396321,0.08712121,-0.26893938,0.41666666,nan,0
1265056890,1265055951,396321,0.13560605,-0.24848484,0.40151513,nan,0
1266050480,1266049523,396321,0.096969694,-0.19848484,0.430303,nan,0
1267044064,1267043124,396321,0.0810606,-0.31363636,0.3780303,nan,0
1268059195,1268058255,396321,0.13560605,-0.18030302,0.43181816,nan,0
1269052871,1269051931,396321,0.11515151,-0.20833333,0.42575756,nan,0
1270046433,1270045493,396321,0.0840909,-0.17121212,0.4643939,nan,0
1271061630,1271060691,396321,0.06439394,-0.1060606,0.46590906,nan,0
1272055278,1272054338,396321,0.037878785,-0.09469697,0.4613636,nan,0
1273048923,1273047983,396321,-0.006060606,-0.14393939,0.4643939,nan,0
1274063991,1274063051,396321,-0.020454545,-0.14848484,0.4613636,nan,0
1275057606,1275056666,396321,-0.071969695,-0.15151514,0.45454544,nan,0
1276051215,1276050275,396321,-0.10075757,-0.16060606,0.48636362,nan,0
1277044898,1277043958,396321,-0.11893939,-0.14621212,0.47121212,nan,0
1278060199,1278059259,396321,-0.14242424,-0.050757576,0.48939392,nan,0
1279053804,1279052864,396321,-0.16060606,0.029545454,0.47272727,nan,0
1280047432,1280046493,396321,-0.23712121,0.11742424,0.41893938,nan,0
1281062586,1281061646,396321,-0.24999999,0.095454544,0.4272727,nan,0
1282056197,1282055257,396321,-0.18712121,0.17954545,0.41742423,nan,0
1283049782,1283048842,396321,-0.16363636,0.15303029,0.43939394,nan,0
1284043446,1284042506,396321,-0.1560606,0.2310606,0.38636363,nan,0
1285058622,1285057682,396321,-0.1371212,0.13939394,0.4439394,nan,0
1286052201,1286051261,396321,-0.1060606,0.14696969,0.44772726,nan,0
1287045795,1287044856,396321,-0.11818182,0.20757575,0.40303028,nan,0
1288061065,1288060125,396321,-0.059848484,0.1280303,0.45378786,nan,0
1289054585,1289053645,396321,-0.08863636,0.13257575,0.45757574,nan,0
1290048245,1290047305,396321,-0.13257575,0.15454546,0.43863636,nan,0
1291063422,1291062482,396321,-0.11363636,0.13181818,0.4590909,nan,0
1292057062,1292056122,396321,-0.08333333,-0.009848485,0.48333332,nan,0
1293050633,1293049693,396321,-0.2030303,-0.12045454,0.4674242,nan,0
1294044242,1294043297,396321,-0.19015151,-0.2992424,0.41666666,nan,0
1295059402,1295058462,396321,-0.13181818,-0.38333333,0.34924242,nan,0
1296053078,1296052138,396321,-0.14696969,-0.4022727,0.3310606,nan,0
1297046620,1297045679,396321,-0.07878788,-0.39393938,0.35151514,nan,0
1298061791,1298060852,396321,-0.043939393,-0.37651515,0.3681818,nan,0
1299055429,1299054489,396321,0.031060604,-0.34621212,0.39999998,nan,0
1300049068,1300048128,396321,0.089393936,-0.33560604,0.38333333,nan,0
1301042645,1301041706,396321,0.14696969,-0.29772726,0.3931818,nan,0
1302057865,1302056925,396321,0.19015151,-0.225,0.4371212,nan,0
1303051446,1303050506,396321,0.21742423,-0.086363636,0.45378786,nan,0
1304045051,1304044104,396321,0.2219697,0.041666664,0.4409091,nan,0
1305060234,1305059294,396321,0.21287878,0.09924242,0.4371212,nan,0
1306053787,1306052847,396321,0.1840909,0.089393936,0.45075756,nan,0
1307047437,1307046497,396321,0.17878787,0.089393936,0.4560606,nan,0
1308062597,1308061657,396321,0.1371212,0.034090906,0.45454544,nan,0
1309056251,1309055305,396321,0.05151515,0.020454545,0.47575757,nan,0
1310049815,1310048875,396321,0.044696968,-0.05833333,0.48484847,nan,0
1311043424,1311042476,396321,-0.037878785,-0.02121212,0.48787877,nan,0
1312058801,1312057860,396321,-0.14469697,-0.090909086,0.48257574,nan,0
1313052488,1313051548,396321,-0.19999999,0.032575756,0.4643939,nan,0
1314046226,1314045286,396321,-0.2560606,0.14696969,0.40833333,nan,0
1315061432,1315060493,396321,-0.27045453,0.14166667,0.40378785,nan,0
1316055075,1316054135,396321,-0.24924241,0.26893938,0.34242424,nan,0
1317048647,1317047708,396321,-0.1651515,0.31666666,0.3371212,nan,0
1318042197,1318041258,396321,-0.06060606,0.41060606,0.24166666,nan,0
1319057449,1319056510,396321,0.0022727272,0.3560606,0.3022727,nan,0
1320051037,1320050097,396321,0.109848484,0.24393938,0.3712121,nan,0
1321044655,1321043715,396321,0.12727273,0.19621211,0.40303028,nan,0
1322059799,1322058860,396321,0.12651515,0.06060606,0.44772726,nan,0
1323053488,1323052546,396321,0.11363636,-0.048484847,0.46969697,nan,0
1324047008,1324046068,396321,0.087878786,-0.15303029,0.46590906,nan,0
1325062216,1325061277,396321,0.041666664,-0.20530303,0.47272727,nan,0
1326055808,1326054869,396321,0.012878788,-0.24848484,0.4492424,nan,0
1327049443,1327048504,396321,0.049242422,-0.26893938,0.43863636,nan,0
1328064614,1328063674,396321,0.024999999,-0.2810606,0.4371212,nan,0
1329058316,1329057358,396321,0.040151514,-0.23712121,0.45454544,nan,0
1330051792,1330050845,396321,0.03712121,-0.21590908,0.4613636,nan,0
1331045452,1331044512,396321,0.024999999,-0.24772726,0.4522727,nan,0
1332060628,1332059687,396321,0.048484847,-0.2340909,0.44772726,nan,0
1333054217,1333053277,396321,0.028030302,-0.19924241,0.4643939,nan,0
1334047800,1334046860,396321,-0.009090909,-0.15530303,0.48257574,nan,0
1335041433,1335040493,396321,-0.0780303,-0.12348484,0.48484847,nan,0
1336056620,1336055680,396321,-0.14469697,-0.15075757,0.47954544,nan,0
1337050246,1337049293,396321,-0.12651515,-0.1340909,0.49469694,nan,0
1338043808,1338042868,396321,-0.15378788,-0.07575757,0.48333332,nan,0
1339059048,1339058108,396321,-0.19696969,0.056060605,0.4674242,nan,0
1340052668,1340051729,396321,-0.20378788,0.01969697,0.46287876,nan,0
1341046257,1341045317,396321,-0.23560606,-0.040151514,0.45757574,nan,0
1342061441,1342060501,396321,-0.27348483,0.06666666,0.42575756,nan,0
1343054996,1343054056,396321,-0.25227273,0.14772727,0.40151513,nan,0
1344048607,1344047668,396321,-0.19848484,0.2030303,0.39848483,nan,0
1345063854,1345062914,396321,-0.14166667,0.19621211,0.41060606,nan,0
1346057485,1346056545,396321,-0.13257575,0.23030302,0.40303028,nan,0
1347051004,1347050064,396321,-0.12348484,0.26136363,0.3901515,nan,0
1348044633,1348043682,396321,-0.028030302,0.20075756,0.41742423,nan,0
1349059804,1349058865,396321,-0.045454543,0.10833333,0.4522727,nan,0
1350053487,1350052547,396321,-0.06666666,0.041666664,0.46590906,nan,0
1351047028,1351046088,396321,-0.09621212,0.15681818,0.4439394,nan,0
1352062234,1352061294,396321,-0.14848484,0.28333333,0.3681818,nan,0
1353056089,1353055150,396321,-0.040151514,0.4242424,0.22575757,nan,0
1354049645,1354048706,396321,0.049242422,0.38560605,0.24621211,nan,0
1355043202,1355042262,396321,0.06363636,0.31136364,0.32954544,nan,0
1356058402,1356057462,396321,0.014393939,0.20984848,0.4151515,nan,0
1357052019,1357051069,396321,0.07121212,0.08181818,0.45757574,nan,0
1358045637,1358044698,396321,0.111363634,-0.014393939,0.47121212,nan,0
1359060853,1359059914,396321,0.08863636,-0.22121212,0.44772726,nan,0
1360054706,1360053766,396321,0.05909091,-0.3280303,0.40984848,nan,0
1361048405,1361047465,396321,0.11515151,-0.2810606,0.41666666,nan,0
1362063689,1362062738,396321,0.09318182,-0.26893938,0.430303,nan,0
1363057211,1363056271,396321,0.11742424,-0.25075758,0.4272727,nan,0
1364050777,1364049837,396321,0.12651515,-0.22878787,0.43409088,nan,0
1365044437,1365043498,396321,0.06590909,-0.25378788,0.44242424,nan,0
1366059642,1366058702,396321,0.09621212,-0.15303029,0.47954544,nan,0
1367053243,1367052303,396321,0.09924242,-0.225,0.4522727,nan,0
1368046865,1368045925,396321,0.06363636,-0.26287878,0.4492424,nan,0
1369062051,1369061112,396321,0.0530303,-0.25681818,0.4371212,nan,0
1370055578,1370054638,396321,0.099999994,-0.23484848,0.45454544,nan,0
1371049229,1371048290,396321,0.07878788,-0.27651516,0.43257573,nan,0
1372042833,1372041893,396321,0.112878785,-0.26060605,0.43257573,nan,0
1373058109,1373057169,396321,0.11060606,-0.21742423,0.4560606,nan,0
1374051625,1374050685,396321,0.06969697,-0.24166666,0.44545454,nan,0
1375045226,1375044287,396321,0.054545455,-0.20075756,0.46590906,nan,0
1376060402,1376059463,396321,0.031060604,-0.24621211,0.45757574,nan,0
1377054099,1377053142,396321,-0.016666666,-0.19090909,0.48636362,nan,0
1378047607,1378046667,396321,0.0,-0.24393938,0.46590906,nan,0
1379062914,1379061974,396321,-0.07878788,-0.2151515,0.47121212,nan,0
1380056621,1380055682,396321,-0.12196969,-0.24696968,0.46969697,nan,0
1381050266,1381049327,396321,-0.11818182,-0.21136363,0.47954544,nan,0
1382043776,1382042837,396321,-0.11515151,-0.19393939,0.48939392,nan,0
1383059009,1383058069,396321,-0.13181818,-0.19469696,0.4780303,nan,0
1384052647,1384051707,396321,-0.14545454,-0.19772726,0.47575757,nan,0
1385046319,1385045379,396321,-0.14772727,-0.19848484,0.47272727,nan,0
1386061466,1386060495,396321,-0.13333333,-0.19924241,0.47651514,nan,0
1387055037,1387054097,396321,-0.11969697,-0.20151514,0.47575757,nan,0
1388048618,1388047671,396321,-0.112878785,-0.21287878,0.47651514,nan,0
1389063843,1389062899,396321,-0.10151515,-0.19772726,0.47954544,nan,0
1390057462,1390056522,396321,-0.099999994,-0.20984848,0.47954544,nan,0
1391051032,1391050092,396321,-0.07272727,-0.20378788,0.47424242,nan,0
1392044588,1392043645,396321,-0.045454543,-0.21969697,0.46969697,nan,0
1393059800,1393058853,396321,-0.046969697,-0.22045454,0.47424242,nan,0
1394053405,1394052465,396321,-0.01590909,-0.21742423,0.47272727,nan,0
1395047027,1395046087,396321,-0.02121212,-0.2090909,0.47954544,nan,0
1396062329,1396061388,396321,-0.031060604,-0.2060606,0.48333332,nan,0
1397055787,1397054847,396321,-0.024999999,-0.22272727,0.46969697,nan,0
1398049427,1398048487,396321,-0.04090909,-0.21742423,0.46969697,nan,0
1399043132,1399042192,396321,-0.03712121,-0.22272727,0.47651514,nan,0
1400058249,1400057301,396321,-0.048484847,-0.21287878,0.4674242,nan,0
1401051818,1401050878,396321,-0.0780303,-0.20757575,0.47121212,nan,0
1402045446,1402044507,396321,-0.071969695,-0.20151514,0.46969697,nan,0
1403060600,1403059648,396321,-0.08560606,-0.21590908,0.47424242,nan,0
1404054233,1404053293,396321,-0.089393936,-0.19393939,0.47272727,nan,0
1405047833,1405046876,396321,-0.07121212,-0.21590908,0.47272727,nan,0
1406063042,1406062102,396321,-0.08257575,-0.20378788,0.4613636,nan,0
1407056612,1407055672,396321,-0.06363636,-0.22954544,0.47272727,nan,0
1408050319,1408049379,396321,-0.04242424,-0.21969697,0.47651514,nan,0
1409043798,1409042859,396321,-0.03181818,-0.23636363,0.4689394,nan,0
1410058989,1410058050,396321,0.006060606,-0.2780303,0.45454544,nan,0
1411052638,1411051684,396321,-0.018939393,-0.29393938,0.4439394,nan,0
1412046322,1412045380,396321,-0.043181818,-0.29545453,0.43939394,nan,0
1413061475,1413060535,396321,-0.06969697,-0.27727273,0.4469697,nan,0
1414054993,1414054053,396321,-0.114393935,-0.23787878,0.47424242,nan,0
1415048628,1415047688,396321,-0.13333333,-0.16969696,0.47651514,nan,0
1416042270,1416041330,396321,-0.14090909,-0.17727272,0.47272727,nan,0
1417057421,1417056469,396321,-0.1590909,-0.17272727,0.47954544,nan,0
