timestamp,timestamp_sample,gps_hvel[0],gps_hvel[1],gps_vvel,gps_hpos[0],gps_hpos[1],gps_vpos,ev_hvel[0],ev_hvel[1],ev_vvel,ev_hpos[0],ev_hpos[1],ev_vpos,rng_vpos,baro_vpos,aux_hvel[0],aux_hvel[1],aux_vvel,flow[0],flow[1],heading,mag_field[0],mag_field[1],mag_field[2],drag[0],drag[1],airspeed,beta,hagl,hagl_rate
539702680,539602539,0.09977661,-0.09209438,-0.21087386,-0.17725992,0.25873113,0.0,0.0,0.0,0.0,0.0,0.0,0.0,0.0,0.3224182,0.0,0.0,nan,0.0,0.0,0.0846262,0.0,0.0,0.0,0.0,0.0,0.0,0.0,0.0,0.0
540210135,540110224,0.006150678,0.022986252,-0.08692864,-0.22104359,0.31187916,0.0,0.0,0.0,0.0,0.0,0.0,0.0,0.0,0.14670563,0.0,0.0,nan,0.0,0.0,0.10037851,0.0,0.0,0.0,0.0,0.0,0.0,0.0,0.0,0.0
540708043,540607954,0.071343794,0.064225264,-0.01964447,-0.26705885,0.34512472,0.0,0.0,0.0,0.0,0.0,0.0,0.0,0.0,0.06476593,0.0,0.0,nan,0.0,0.0,0.09306908,0.0,0.0,0.0,0.0,0.0,0.0,0.0,0.0,0.0
541205624,541105684,0.03140311,0.057034872,0.024787778,-0.27003598,0.31679797,0.0,0.0,0.0,0.0,0.0,0.0,0.0,0.0,-0.12445831,0.0,0.0,nan,0.0,0.0,0.080244064,0.0,0.0,0.0,0.0,0.0,0.0,0.0,0.0,0.0
541703362,541603414,0.0076518096,-0.08430179,0.007858584,-0.2136023,0.27370667,0.0,0.0,0.0,0.0,0.0,0.0,0.0,0.0,-0.02141571,0.0,0.0,nan,0.0,0.0,0.062205076,0.0,0.0,0.0,0.0,0.0,0.0,0.0,0.0,0.0
542201062,542101145,0.056633063,0.11107183,0.07970011,-0.18241239,0.25554824,0.0,0.0,0.0,0.0,0.0,0.0,0.0,0.0,0.11971283,0.0,0.0,nan,0.0,0.0,0.054554462,0.0,0.0,0.0,0.0,0.0,0.0,0.0,0.0,0.0
542708884,542608830,0.016206108,-0.09117084,0.021688432,-0.1590991,0.22034836,0.0,0.0,0.0,0.0,0.0,0.0,0.0,0.0,0.14798737,0.0,0.0,nan,0.0,0.0,0.06282425,0.0,0.0,0.0,0.0,0.0,0.0,0.0,0.0,0.0
543206466,543106560,0.18890819,0.031884562,-0.0168931,-0.11264467,0.212224,0.0,0.0,0.0,0.0,0.0,0.0,0.0,0.0,0.10649109,0.0,0.0,nan,0.0,0.0,0.064263344,0.0,0.0,0.0,0.0,0.0,0.0,0.0,0.0,0.0
543704213,543604291,-0.042027965,-0.18592222,-0.10134557,-0.111270905,0.15139103,0.0,0.0,0.0,0.0,0.0,0.0,0.0,0.0,-0.121414185,0.0,0.0,nan,0.0,0.0,0.053197145,0.0,0.0,0.0,0.0,0.0,0.0,0.0,0.0,0.0
544201958,544102021,-0.005538361,-0.16443537,-0.0012837928,0.004282713,0.11394024,0.0,0.0,0.0,0.0,0.0,0.0,0.0,0.0,0.31201172,0.0,0.0,nan,0.0,0.0,0.043553114,0.0,0.0,0.0,0.0,0.0,0.0,0.0,0.0,0.0
544699656,544599752,-0.11300117,-0.061323993,-0.13196197,0.046258688,0.0924201,0.0,0.0,0.0,0.0,0.0,0.0,0.0,0.0,-0.03479767,0.0,0.0,nan,0.0,0.0,0.052613735,0.0,0.0,0.0,0.0,0.0,0.0,0.0,0.0,0.0
545207377,545107437,-0.11017419,-0.096468344,-0.04121191,0.07843161,0.10015559,0.0,0.0,0.0,0.0,0.0,0.0,0.0,0.0,0.100097656,0.0,0.0,nan,0.0,0.0,0.045413733,0.0,0.0,0.0,0.0,0.0,0.0,0.0,0.0,0.0
545705111,545605168,0.06793216,-0.062157497,-0.08152358,0.09929943,0.09604454,0.0,0.0,0.0,0.0,0.0,0.0,0.0,0.0,0.39779663,0.0,0.0,nan,0.0,0.0,0.04622674,0.0,0.0,0.0,0.0,0.0,0.0,0.0,0.0,0.0
546202873,546102898,-0.0063797776,-0.036369964,-0.0043668495,0.051474094,0.096508026,0.0,0.0,0.0,0.0,0.0,0.0,0.0,0.0,0.05190277,0.0,0.0,nan,0.0,0.0,0.062015772,0.0,0.0,0.0,0.0,0.0,0.0,0.0,0.0,0.0
546700534,546600629,-0.016394446,-0.14227046,-0.10728045,0.011525869,0.06372905,0.0,0.0,0.0,0.0,0.0,0.0,0.0,0.0,-0.043312073,0.0,0.0,nan,0.0,0.0,0.04854703,0.0,0.0,0.0,0.0,0.0,0.0,0.0,0.0,0.0
547208215,547108315,0.012534387,-0.13644183,-0.15884537,-0.050209045,0.03446579,0.0,0.0,0.0,0.0,0.0,0.0,0.0,0.0,0.027313232,0.0,0.0,nan,0.0,0.0,0.044500113,0.0,0.0,0.0,0.0,0.0,0.0,0.0,0.0,0.0
547705967,547606045,0.14763631,-0.2113897,-0.13515085,-0.06340122,0.014580965,0.0,0.0,0.0,0.0,0.0,0.0,0.0,0.0,0.017951965,0.0,0.0,nan,0.0,0.0,0.051824808,0.0,0.0,0.0,0.0,0.0,0.0,0.0,0.0,0.0
548203698,548103776,-0.10670681,-0.05372043,-0.1587759,-0.09358144,0.020514965,0.0,0.0,0.0,0.0,0.0,0.0,0.0,0.0,0.22541046,0.0,0.0,nan,0.0,0.0,0.045575142,0.0,0.0,0.0,0.0,0.0,0.0,0.0,0.0,0.0
548701410,548601507,-0.030728556,-0.20916055,-0.20043132,-0.092839,0.018551826,0.0,0.0,0.0,0.0,0.0,0.0,0.0,0.0,0.1279602,0.0,0.0,nan,0.0,0.0,0.0411973,0.0,0.0,0.0,0.0,0.0,0.0,0.0,0.0,0.0
549209123,549109193,0.16680521,0.061704032,-0.15694311,-0.068466425,0.0756824,0.0,0.0,0.0,0.0,0.0,0.0,0.0,0.0,0.1865921,0.0,0.0,nan,0.0,0.0,0.049561977,0.0,0.0,0.0,0.0,0.0,0.0,0.0,0.0,0.0
549706829,549606924,0.14184098,0.06806271,-0.03143541,-0.11357212,0.0926733,0.0,0.0,0.0,0.0,0.0,0.0,0.0,0.0,0.21927643,0.0,0.0,nan,0.0,0.0,0.06496,0.0,0.0,0.0,0.0,0.0,0.0,0.0,0.0,0.0
550204596,550104655,-0.07764445,0.010018624,-0.08040408,-0.11869073,0.054507494,0.0,0.0,0.0,0.0,0.0,0.0,0.0,0.0,0.27629852,0.0,0.0,nan,0.0,0.0,0.06988883,0.0,0.0,0.0,0.0,0.0,0.0,0.0,0.0,0.0
550702315,550602386,0.1038645,-0.05660745,-0.0050035864,-0.08017063,0.066222906,0.0,0.0,0.0,0.0,0.0,0.0,0.0,0.0,0.22042084,0.0,0.0,nan,0.0,0.0,0.057513475,0.0,0.0,0.0,0.0,0.0,0.0,0.0,0.0,0.0
551210053,551110072,0.057678282,-0.036573965,-0.0074527226,-0.08636141,0.122015,0.0,0.0,0.0,0.0,0.0,0.0,0.0,0.0,0.29499817,0.0,0.0,nan,0.0,0.0,0.06682706,0.0,0.0,0.0,0.0,0.0,0.0,0.0,0.0,0.0
551707752,551607803,0.031469457,0.022524323,-0.031727903,-0.1030364,0.15300584,0.0,0.0,0.0,0.0,0.0,0.0,0.0,0.0,0.0954895,0.0,0.0,nan,0.0,0.0,0.05101943,0.0,0.0,0.0,0.0,0.0,0.0,0.0,0.0,0.0
552205463,552105534,-0.06683973,0.01964955,0.008292353,-0.12432909,0.19815707,0.0,0.0,0.0,0.0,0.0,0.0,0.0,0.0,0.30665588,0.0,0.0,nan,0.0,0.0,0.041267157,0.0,0.0,0.0,0.0,0.0,0.0,0.0,0.0,0.0
552703402,552603266,0.1089302,0.06446985,-0.08209255,-0.03761196,0.23867083,0.0,0.0,0.0,0.0,0.0,0.0,0.0,0.0,0.1913681,0.0,0.0,nan,0.0,0.0,0.056352377,0.0,0.0,0.0,0.0,0.0,0.0,0.0,0.0,0.0
553200987,553100999,-0.029393967,-0.07176273,-0.04887569,-0.03316927,0.2162416,0.0,0.0,0.0,0.0,0.0,0.0,0.0,0.0,0.033714294,0.0,0.0,nan,0.0,0.0,0.045116186,0.0,0.0,0.0,0.0,0.0,0.0,0.0,0.0,0.0
553708737,553608683,-0.010148022,0.09910248,0.046218857,0.010386944,0.20344567,0.0,0.0,0.0,0.0,0.0,0.0,0.0,0.0,0.22085571,0.0,0.0,nan,0.0,0.0,0.044877052,0.0,0.0,0.0,0.0,0.0,0.0,0.0,0.0,0.0
554206330,554106415,0.19307782,-0.012144197,-0.01014344,0.058292866,0.1714437,0.0,0.0,0.0,0.0,0.0,0.0,0.0,0.0,0.08692932,0.0,0.0,nan,0.0,0.0,0.042759657,0.0,0.0,0.0,0.0,0.0,0.0,0.0,0.0,0.0
554704253,554604146,0.005640276,-0.091973096,0.051704224,0.11939907,0.11218524,0.0,0.0,0.0,0.0,0.0,0.0,0.0,0.0,0.23523712,0.0,0.0,nan,0.0,0.0,0.041359663,0.0,0.0,0.0,0.0,0.0,0.0,0.0,0.0,0.0
555201794,555101878,-0.18928678,0.10052477,-0.11236189,0.13591814,0.062472582,0.0,0.0,0.0,0.0,0.0,0.0,0.0,0.0,0.14115906,0.0,0.0,nan,0.0,0.0,0.04711175,0.0,0.0,0.0,0.0,0.0,0.0,0.0,0.0,0.0
555699509,555599610,0.07211659,-0.018686602,0.04890433,0.10423803,0.044741154,0.0,0.0,0.0,0.0,0.0,0.0,0.0,0.0,0.1062088,0.0,0.0,nan,0.0,0.0,0.046347618,0.0,0.0,0.0,0.0,0.0,0.0,0.0,0.0,0.0
556207235,556107296,-0.062376313,0.12082718,0.04587031,0.028537273,0.09318805,0.0,0.0,0.0,0.0,0.0,0.0,0.0,0.0,0.049209595,0.0,0.0,nan,0.0,0.0,0.034607887,0.0,0.0,0.0,0.0,0.0,0.0,0.0,0.0,0.0
556704956,556605028,-0.096194774,-0.06603698,0.0054761786,-0.038167,0.08808088,0.0,0.0,0.0,0.0,0.0,0.0,0.0,0.0,0.043930054,0.0,0.0,nan,0.0,0.0,0.0331285,0.0,0.0,0.0,0.0,0.0,0.0,0.0,0.0,0.0
557202668,557102760,0.07301015,-0.21811998,-0.054922372,-0.08945465,0.09625363,0.0,0.0,0.0,0.0,0.0,0.0,0.0,0.0,0.07068634,0.0,0.0,nan,0.0,0.0,0.041954756,0.0,0.0,0.0,0.0,0.0,0.0,0.0,0.0,0.0
557710397,557610446,0.007891646,0.011174156,0.05165873,-0.11948824,0.09015727,0.0,0.0,0.0,0.0,0.0,0.0,0.0,0.0,-0.09844208,0.0,0.0,nan,0.0,0.0,0.03516221,0.0,0.0,0.0,0.0,0.0,0.0,0.0,0.0,0.0
558208079,558108178,-0.04239337,-0.08520779,-0.110368595,-0.15482044,0.03389454,0.0,0.0,0.0,0.0,0.0,0.0,0.0,0.0,0.05518341,0.0,0.0,nan,0.0,0.0,0.030215979,0.0,0.0,0.0,0.0,0.0,0.0,0.0,0.0,0.0
558705891,558605910,-0.030155137,-0.04538462,-0.084800474,-0.12551975,0.03677845,0.0,0.0,0.0,0.0,0.0,0.0,0.0,0.0,0.063697815,0.0,0.0,nan,0.0,0.0,0.021449327,0.0,0.0,0.0,0.0,0.0,0.0,0.0,0.0,0.0
559203660,559103642,-0.0039750626,0.13020526,0.060424224,-0.0099282265,0.07190156,0.0,0.0,0.0,0.0,0.0,0.0,0.0,0.0,0.4983368,0.0,0.0,nan,0.0,0.0,0.043745518,0.0,0.0,0.0,0.0,0.0,0.0,0.0,0.0,0.0
559701323,559601374,0.031934015,-0.0684147,-0.061533056,0.022350788,0.035805225,0.0,0.0,0.0,0.0,0.0,0.0,0.0,0.0,-0.024169922,0.0,0.0,nan,0.0,0.0,0.033756733,0.0,0.0,0.0,0.0,0.0,0.0,0.0,0.0,0.0
560208964,560109061,-0.10644153,0.13042934,0.007270303,0.057681084,-0.010817766,0.0,0.0,0.0,0.0,0.0,0.0,0.0,0.0,0.21246338,0.0,0.0,nan,0.0,0.0,0.031732082,0.0,0.0,0.0,0.0,0.0,0.0,0.0,0.0,0.0
560706881,560606793,-0.13259062,-0.031846084,-0.007924162,0.059690952,-0.034000635,0.0,0.0,0.0,0.0,0.0,0.0,0.0,0.0,0.020195007,0.0,0.0,nan,0.0,0.0,0.040347815,0.0,0.0,0.0,0.0,0.0,0.0,0.0,0.0,0.0
561204436,561104525,0.108546466,0.15806924,0.024055509,0.14654446,-0.03736162,0.0,0.0,0.0,0.0,0.0,0.0,0.0,0.0,-0.08248901,0.0,0.0,nan,0.0,0.0,0.02985859,0.0,0.0,0.0,0.0,0.0,0.0,0.0,0.0,0.0
561702160,561602257,0.0071160514,0.12663744,-0.032309424,0.16145849,-0.061139822,0.0,0.0,0.0,0.0,0.0,0.0,0.0,0.0,0.061813354,0.0,0.0,nan,0.0,0.0,0.03031683,0.0,0.0,0.0,0.0,0.0,0.0,0.0,0.0,0.0
562199895,562099990,0.034364313,0.0038901605,0.006538756,0.15902996,-0.10166764,0.0,0.0,0.0,0.0,0.0,0.0,0.0,0.0,0.24648285,0.0,0.0,nan,0.0,0.0,0.038330555,0.0,0.0,0.0,0.0,0.0,0.0,0.0,0.0,0.0
562707766,562607677,0.010570854,0.03460997,-0.030863825,0.19545841,-0.19352436,0.0,0.0,0.0,0.0,0.0,0.0,0.0,0.0,0.10977173,0.0,0.0,nan,0.0,0.0,0.031362534,0.0,0.0,0.0,0.0,0.0,0.0,0.0,0.0,0.0
563205341,563105409,0.06821332,0.15951827,-0.057804488,0.2670002,-0.24668932,0.0,0.0,0.0,0.0,0.0,0.0,0.0,0.0,0.29071045,0.0,0.0,nan,0.0,0.0,0.035247087,0.0,0.0,0.0,0.0,0.0,0.0,0.0,0.0,0.0
563703140,563603141,0.0140221175,0.11969461,-0.029193308,0.37670898,-0.29872417,0.0,0.0,0.0,0.0,0.0,0.0,0.0,0.0,2.2888184e-05,0.0,0.0,nan,0.0,0.0,0.03378272,0.0,0.0,0.0,0.0,0.0,0.0,0.0,0.0,0.0
564200793,564100874,-0.10852592,0.056452893,-0.069958106,0.41841865,-0.303854,0.0,0.0,0.0,0.0,0.0,0.0,0.0,0.0,0.122276306,0.0,0.0,nan,0.0,0.0,0.042870283,0.0,0.0,0.0,0.0,0.0,0.0,0.0,0.0,0.0
564708461,564608561,-0.08771896,0.047756705,0.023631616,0.4734459,-0.2812941,0.0,0.0,0.0,0.0,0.0,0.0,0.0,0.0,0.11992645,0.0,0.0,nan,0.0,0.0,0.027600527,0.0,0.0,0.0,0.0,0.0,0.0,0.0,0.0,0.0
565206198,565106294,0.0032928514,-0.10180888,-0.041003868,0.52167916,-0.24626637,0.0,0.0,0.0,0.0,0.0,0.0,0.0,0.0,0.10626984,0.0,0.0,nan,0.0,0.0,0.03721571,0.0,0.0,0.0,0.0,0.0,0.0,0.0,0.0,0.0
565703988,565604026,-0.116188,-0.006730124,-0.009173259,0.526747,-0.22988677,0.0,0.0,0.0,0.0,0.0,0.0,0.0,0.0,0.2803955,0.0,0.0,nan,0.0,0.0,0.044773817,0.0,0.0,0.0,0.0,0.0,0.0,0.0,0.0,0.0
566201670,566101759,0.055673316,0.0038281335,-0.10738859,0.51259637,-0.26559496,0.0,0.0,0.0,0.0,0.0,0.0,0.0,0.0,0.15603638,0.0,0.0,nan,0.0,0.0,0.02864337,0.0,0.0,0.0,0.0,0.0,0.0,0.0,0.0,0.0
566699486,566599491,0.039243385,-0.01649143,-0.006516261,0.46452594,-0.28604412,0.0,0.0,0.0,0.0,0.0,0.0,0.0,0.0,0.23223877,0.0,0.0,nan,0.0,0.0,0.031551123,0.0,0.0,0.0,0.0,0.0,0.0,0.0,0.0,0.0
567207084,567107179,-0.07258993,-0.04785277,-0.09531963,0.3882382,-0.3337748,0.0,0.0,0.0,0.0,0.0,0.0,0.0,0.0,0.17848969,0.0,0.0,nan,0.0,0.0,0.040757656,0.0,0.0,0.0,0.0,0.0,0.0,0.0,0.0,0.0
567704818,567604911,-0.21570575,-0.08762936,-0.16753319,0.37552333,-0.3642094,0.0,0.0,0.0,0.0,0.0,0.0,0.0,0.0,0.04891205,0.0,0.0,nan,0.0,0.0,0.031365633,0.0,0.0,0.0,0.0,0.0,0.0,0.0,0.0,0.0
568202582,568102644,0.12114058,0.12525977,-0.07619208,0.39398932,-0.39387488,0.0,0.0,0.0,0.0,0.0,0.0,0.0,0.0,-0.08618164,0.0,0.0,nan,0.0,0.0,0.02449441,0.0,0.0,0.0,0.0,0.0,0.0,0.0,0.0,0.0
568710287,568610331,0.18159433,1.0095031,-0.08203788,0.36923385,-0.31420207,0.0,0.0,0.0,0.0,0.0,0.0,0.0,0.0,0.35679626,0.0,0.0,nan,0.0,0.0,0.038209915,0.0,0.0,0.0,0.0,0.0,0.0,0.0,0.0,0.0
569208005,569108064,-0.1452359,0.03884159,-0.20333506,0.33124447,-0.38182497,0.0,0.0,0.0,0.0,0.0,0.0,0.0,0.0,0.25421143,0.0,0.0,nan,0.0,0.0,0.0317955,0.0,0.0,0.0,0.0,0.0,0.0,0.0,0.0,0.0
569705706,569605797,-0.21417654,0.34969047,-0.087144695,0.29269814,-0.34337687,0.0,0.0,0.0,0.0,0.0,0.0,0.0,0.0,0.21552277,0.0,0.0,nan,0.0,0.0,0.038294315,0.0,0.0,0.0,0.0,0.0,0.0,0.0,0.0,0.0
570203432,570103529,0.033866905,-0.21118243,-0.050988555,0.32750154,-0.3535695,0.0,0.0,0.0,0.0,0.0,0.0,0.0,0.0,0.43777466,0.0,0.0,nan,0.0,0.0,0.031799078,0.0,0.0,0.0,0.0,0.0,0.0,0.0,0.0,0.0
570701160,570601262,-0.14730558,0.06304728,0.015291642,0.27353573,-0.29782486,0.0,0.0,0.0,0.0,0.0,0.0,0.0,0.0,0.31430817,0.0,0.0,nan,0.0,0.0,0.037147284,0.0,0.0,0.0,0.0,0.0,0.0,0.0,0.0,0.0
571208850,571108949,-0.100591,0.001459606,-0.18573259,0.2122395,-0.24759007,0.0,0.0,0.0,0.0,0.0,0.0,0.0,0.0,0.17054749,0.0,0.0,nan,0.0,0.0,0.030859709,0.0,0.0,0.0,0.0,0.0,0.0,0.0,0.0,0.0
571706589,571606682,-0.18399464,0.21407448,0.028058214,0.19697738,-0.15521622,0.0,0.0,0.0,0.0,0.0,0.0,0.0,0.0,0.25565338,0.0,0.0,nan,0.0,0.0,0.022859812,0.0,0.0,0.0,0.0,0.0,0.0,0.0,0.0,0.0
572204404,572104415,0.18948385,-0.10306817,-0.10044834,0.2255516,-0.17112708,0.0,0.0,0.0,0.0,0.0,0.0,0.0,0.0,0.28199768,0.0,0.0,nan,0.0,0.0,0.031130075,0.0,0.0,0.0,0.0,0.0,0.0,0.0,0.0,0.0
572702123,572602147,-0.015860468,0.05291948,-0.06264904,0.20912194,-0.14779353,0.0,0.0,0.0,0.0,0.0,0.0,0.0,0.0,0.11779022,0.0,0.0,nan,0.0,0.0,0.03434682,0.0,0.0,0.0,0.0,0.0,0.0,0.0,0.0,0.0
573199824,573099880,-0.02815738,0.16105147,-0.018068228,0.24633431,-0.1877439,0.0,0.0,0.0,0.0,0.0,0.0,0.0,0.0,0.21775818,0.0,0.0,nan,0.0,0.0,0.014388323,0.0,0.0,0.0,0.0,0.0,0.0,0.0,0.0,0.0
573707514,573607568,-0.02352608,0.08291476,-0.0267681,0.2590556,-0.29629397,0.0,0.0,0.0,0.0,0.0,0.0,0.0,0.0,0.27684784,0.0,0.0,nan,0.0,0.0,0.019629478,0.0,0.0,0.0,0.0,0.0,0.0,0.0,0.0,0.0
574205238,574105300,0.032722574,0.16231982,-0.0112349205,0.31040907,-0.418985,0.0,0.0,0.0,0.0,0.0,0.0,0.0,0.0,0.17915344,0.0,0.0,nan,0.0,0.0,0.020419598,0.0,0.0,0.0,0.0,0.0,0.0,0.0,0.0,0.0
574702935,574603033,-0.0035375762,0.13613251,0.058323815,0.31809115,-0.4251927,0.0,0.0,0.0,0.0,0.0,0.0,0.0,0.0,0.36228943,0.0,0.0,nan,0.0,0.0,-0.016791105,0.0,0.0,0.0,0.0,0.0,0.0,0.0,0.0,0.0
575210627,575110720,0.06373577,-0.0002941098,0.073424496,0.28422332,-0.4153192,0.0,0.0,0.0,0.0,0.0,0.0,0.0,0.0,0.1367569,0.0,0.0,nan,0.0,0.0,-0.0102722645,0.0,0.0,0.0,0.0,0.0,0.0,0.0,0.0,0.0
575708362,575608453,0.055367593,0.05357506,0.017986191,0.28873134,-0.39077497,0.0,0.0,0.0,0.0,0.0,0.0,0.0,0.0,-0.0027160645,0.0,0.0,nan,0.0,0.0,0.0028195381,0.0,0.0,0.0,0.0,0.0,0.0,0.0,0.0,0.0
576206144,576106185,-0.08735921,0.010903577,-0.057045657,0.26626897,-0.37502778,0.0,0.0,0.0,0.0,0.0,0.0,0.0,0.0,-0.27801514,0.0,0.0,nan,0.0,0.0,-0.026256323,0.0,0.0,0.0,0.0,0.0,0.0,0.0,0.0,0.0
576703856,576603918,-0.04144507,0.12737231,0.066248044,0.28819418,-0.38364148,0.0,0.0,0.0,0.0,0.0,0.0,0.0,0.0,0.2818222,0.0,0.0,nan,0.0,0.0,-0.016036987,0.0,0.0,0.0,0.0,0.0,0.0,0.0,0.0,0.0
577201586,577101651,-0.01879693,0.03606672,0.13715361,0.24872208,-0.33857512,0.0,0.0,0.0,0.0,0.0,0.0,0.0,0.0,0.09554291,0.0,0.0,nan,0.0,0.0,-0.0035784245,0.0,0.0,0.0,0.0,0.0,0.0,0.0,0.0,0.0
577709288,577609338,-0.17547092,0.03426696,0.004784031,0.15371871,-0.33699155,0.0,0.0,0.0,0.0,0.0,0.0,0.0,0.0,0.2732315,0.0,0.0,nan,0.0,0.0,-0.003644228,0.0,0.0,0.0,0.0,0.0,0.0,0.0,0.0,0.0
578207001,578107070,-0.03334647,0.14160088,0.06105384,0.123771906,-0.29555583,0.0,0.0,0.0,0.0,0.0,0.0,0.0,0.0,0.35105896,0.0,0.0,nan,0.0,0.0,-0.01275444,0.0,0.0,0.0,0.0,0.0,0.0,0.0,0.0,0.0
578704914,578604803,0.074555576,0.09535695,0.07443019,0.10412526,-0.2631147,0.0,0.0,0.0,0.0,0.0,0.0,0.0,0.0,0.43584442,0.0,0.0,nan,0.0,0.0,-0.015700817,0.0,0.0,0.0,0.0,0.0,0.0,0.0,0.0,0.0
579202506,579102535,0.029839287,0.024625065,-0.047777962,0.12311101,-0.26251173,0.0,0.0,0.0,0.0,0.0,0.0,0.0,0.0,0.11356354,0.0,0.0,nan,0.0,0.0,-0.0087172985,0.0,0.0,0.0,0.0,0.0,0.0,0.0,0.0,0.0
579700207,579600267,0.04128194,0.018411167,0.05046379,0.17724872,-0.25010383,0.0,0.0,0.0,0.0,0.0,0.0,0.0,0.0,0.12042236,0.0,0.0,nan,0.0,0.0,-0.021101952,0.0,0.0,0.0,0.0,0.0,0.0,0.0,0.0,0.0
580207857,580107955,0.05472579,-0.12944774,-0.03843773,0.16989517,-0.30570257,0.0,0.0,0.0,0.0,0.0,0.0,0.0,0.0,0.05632782,0.0,0.0,nan,0.0,0.0,-0.023357153,0.0,0.0,0.0,0.0,0.0,0.0,0.0,0.0,0.0
580705621,580605687,-0.17938353,0.10738227,-0.074276485,0.19505978,-0.2534951,0.0,0.0,0.0,0.0,0.0,0.0,0.0,0.0,-0.0032958984,0.0,0.0,nan,0.0,0.0,-0.023963213,0.0,0.0,0.0,0.0,0.0,0.0,0.0,0.0,0.0
581203355,581103419,-0.28382528,0.056863762,-0.1093919,0.054928303,-0.3615508,0.0,0.0,0.0,0.0,0.0,0.0,0.0,0.0,0.14440155,0.0,0.0,nan,0.0,0.0,-0.044801235,0.0,0.0,0.0,0.0,0.0,0.0,0.0,0.0,0.0
581701085,581601151,0.64817435,-0.28333688,-0.2484724,0.13546133,-0.45904505,0.0,0.0,0.0,0.0,0.0,0.0,0.0,0.0,0.27767944,0.0,0.0,nan,0.0,0.0,-0.0020971298,0.0,0.0,0.0,0.0,0.0,0.0,0.0,0.0,0.0
582208797,582108838,0.06465067,-0.026193842,-0.08354443,0.17480993,-0.3035761,0.0,0.0,0.0,0.0,0.0,0.0,0.0,0.0,0.008293152,0.0,0.0,nan,0.0,0.0,0.011990786,0.0,0.0,0.0,0.0,0.0,0.0,0.0,0.0,0.0
582706628,582606570,-0.014502395,0.019868845,0.038898475,0.26955676,-0.042464137,0.0,0.0,0.0,0.0,0.0,0.0,0.0,0.0,0.20774078,0.0,0.0,nan,0.0,0.0,-0.0025043488,0.0,0.0,0.0,0.0,0.0,0.0,0.0,0.0,0.0
583204204,583104302,0.013122231,0.18333964,0.1431092,0.2313788,-0.007104993,0.0,0.0,0.0,0.0,0.0,0.0,0.0,0.0,0.05922699,0.0,0.0,nan,0.0,0.0,0.0017158985,0.0,0.0,0.0,0.0,0.0,0.0,0.0,0.0,0.0
583701969,583602034,0.029012319,0.075773984,0.076089956,0.24030256,0.0022025108,0.0,0.0,0.0,0.0,0.0,0.0,0.0,0.0,-0.04714203,0.0,0.0,nan,0.0,0.0,0.016105413,0.0,0.0,0.0,0.0,0.0,0.0,0.0,0.0,0.0
584199705,584099766,0.37484184,0.1327381,0.17552072,0.21159124,0.08981264,0.0,0.0,0.0,0.0,0.0,0.0,0.0,0.0,0.13179779,0.0,0.0,nan,0.0,0.0,-0.01092124,0.0,0.0,0.0,0.0,0.0,0.0,0.0,0.0,0.0
584707558,584607453,0.23431194,0.03292496,-0.010621142,0.12373114,0.13711488,0.0,0.0,0.0,0.0,0.0,0.0,0.0,0.0,0.029205322,0.0,0.0,nan,0.0,0.0,-0.0030953884,0.0,0.0,0.0,0.0,0.0,0.0,0.0,0.0,0.0
585205134,585105184,0.3098306,0.15406017,0.017359015,0.11637211,0.16250265,0.0,0.0,0.0,0.0,0.0,0.0,0.0,0.0,0.004638672,0.0,0.0,nan,0.0,0.0,-0.026515484,0.0,0.0,0.0,0.0,0.0,0.0,0.0,0.0,0.0
585702827,585602916,0.33033574,-0.07848996,0.098972976,0.12174082,0.06667113,0.0,0.0,0.0,0.0,0.0,0.0,0.0,0.0,0.19889069,0.0,0.0,nan,0.0,0.0,-0.030133724,0.0,0.0,0.0,0.0,0.0,0.0,0.0,0.0,0.0
586210562,586110602,0.03253886,-0.10600409,-0.022942107,0.085436344,0.031118989,0.0,0.0,0.0,0.0,0.0,0.0,0.0,0.0,-0.04244995,0.0,0.0,nan,0.0,0.0,-0.017597198,0.0,0.0,0.0,0.0,0.0,0.0,0.0,0.0,0.0
586698338,586598379,-0.18714078,-0.36954284,-0.11036534,0.02163434,-0.043141007,0.0,0.0,0.0,0.0,0.0,0.0,0.0,0.0,0.26072693,0.0,0.0,nan,0.0,0.0,-0.032904863,0.0,0.0,0.0,0.0,0.0,0.0,0.0,0.0,0.0
587206003,587106065,-0.28289768,-0.07651987,-0.07463364,0.00090789795,-0.091036916,0.0,0.0,0.0,0.0,0.0,0.0,0.0,0.0,0.008773804,0.0,0.0,nan,0.0,0.0,-0.038511038,0.0,0.0,0.0,0.0,0.0,0.0,0.0,0.0,0.0
587703708,587603797,-0.09139126,-0.020056691,-0.16300747,-0.050908804,-0.085787654,0.0,0.0,0.0,0.0,0.0,0.0,0.0,0.0,0.0766449,0.0,0.0,nan,0.0,0.0,-0.034835577,0.0,0.0,0.0,0.0,0.0,0.0,0.0,0.0,0.0
588201428,588101528,0.064915545,-0.014871069,-0.14241777,-0.0013988018,-0.08346546,0.0,0.0,0.0,0.0,0.0,0.0,0.0,0.0,0.18034363,0.0,0.0,nan,0.0,0.0,-0.03157997,0.0,0.0,0.0,0.0,0.0,0.0,0.0,0.0,0.0
588709118,588609214,-0.18614691,-0.25259304,-0.12686956,0.065481186,-0.1678716,0.0,0.0,0.0,0.0,0.0,0.0,0.0,0.0,0.11047363,0.0,0.0,nan,0.0,0.0,-0.04118395,0.0,0.0,0.0,0.0,0.0,0.0,0.0,0.0,0.0
589206859,589106945,-0.09125869,0.22711219,-0.057609163,0.124191284,-0.1766355,0.0,0.0,0.0,0.0,0.0,0.0,0.0,0.0,0.14011383,0.0,0.0,nan,0.0,0.0,-0.031531334,0.0,0.0,0.0,0.0,0.0,0.0,0.0,0.0,0.0
589704815,589604676,0.139744,0.09227502,-0.037754312,0.20715976,-0.18061137,0.0,0.0,0.0,0.0,0.0,0.0,0.0,0.0,0.0920105,0.0,0.0,nan,0.0,0.0,-0.022185802,0.0,0.0,0.0,0.0,0.0,0.0,0.0,0.0,0.0
590202325,590102407,0.017299809,-0.11971896,-0.22466728,0.21720576,-0.21350002,0.0,0.0,0.0,0.0,0.0,0.0,0.0,0.0,0.16241455,0.0,0.0,nan,0.0,0.0,-0.020442247,0.0,0.0,0.0,0.0,0.0,0.0,0.0,0.0,0.0
590700225,590600138,-0.17746003,-0.101000674,-0.05039549,0.1862781,-0.2350092,0.0,0.0,0.0,0.0,0.0,0.0,0.0,0.0,0.18532562,0.0,0.0,nan,0.0,0.0,0.00030374527,0.0,0.0,0.0,0.0,0.0,0.0,0.0,0.0,0.0
591207780,591107823,-0.0541187,-0.09420377,-0.10777573,0.30613327,-0.22861671,0.0,0.0,0.0,0.0,0.0,0.0,0.0,0.0,0.14098358,0.0,0.0,nan,0.0,0.0,0.015489578,0.0,0.0,0.0,0.0,0.0,0.0,0.0,0.0,0.0
591705657,591605554,-0.046182726,-0.007599652,0.020100698,0.30931342,-0.36752808,0.0,0.0,0.0,0.0,0.0,0.0,0.0,0.0,0.13988495,0.0,0.0,nan,0.0,0.0,0.0054297447,0.0,0.0,0.0,0.0,0.0,0.0,0.0,0.0,0.0
592203192,592103285,0.2482992,0.21403234,0.08300558,0.35088146,-0.2678039,0.0,0.0,0.0,0.0,0.0,0.0,0.0,0.0,0.15287018,0.0,0.0,nan,0.0,0.0,0.0073974133,0.0,0.0,0.0,0.0,0.0,0.0,0.0,0.0,0.0
592700918,592601015,0.10483443,0.2586619,0.0121028945,0.3171841,-0.21277809,0.0,0.0,0.0,0.0,0.0,0.0,0.0,0.0,0.37189484,0.0,0.0,nan,0.0,0.0,0.041623354,0.0,0.0,0.0,0.0,0.0,0.0,0.0,0.0,0.0
593208637,593108700,0.052500617,0.30308947,0.052776806,0.33579826,-0.03845048,0.0,0.0,0.0,0.0,0.0,0.0,0.0,0.0,0.012489319,0.0,0.0,nan,0.0,0.0,0.08839536,0.0,0.0,0.0,0.0,0.0,0.0,0.0,0.0,0.0
593706483,593606431,0.057942152,0.10130302,-0.09489239,0.2591145,-0.023581505,0.0,0.0,0.0,0.0,0.0,0.0,0.0,0.0,-0.020553589,0.0,0.0,nan,0.0,0.0,0.026958227,0.0,0.0,0.0,0.0,0.0,0.0,0.0,0.0,0.0
594204066,594104161,0.18076988,0.20936994,-0.045948096,0.2902912,0.0070796013,0.0,0.0,0.0,0.0,0.0,0.0,0.0,0.0,0.35601044,0.0,0.0,nan,0.0,0.0,0.023082256,0.0,0.0,0.0,0.0,0.0,0.0,0.0,0.0,0.0
594701980,594601891,0.2885021,0.11432123,-0.0074161515,0.33571267,0.04734814,0.0,0.0,0.0,0.0,0.0,0.0,0.0,0.0,0.25042725,0.0,0.0,nan,0.0,0.0,0.02528739,0.0,0.0,0.0,0.0,0.0,0.0,0.0,0.0,0.0
595209563,595109575,0.03810986,0.084226444,-0.13618143,0.33918917,0.027335763,0.0,0.0,0.0,0.0,0.0,0.0,0.0,0.0,0.20050049,0.0,0.0,nan,0.0,0.0,0.002789259,0.0,0.0,0.0,0.0,0.0,0.0,0.0,0.0,0.0
595707417,595607305,-0.48562253,0.1406098,-0.16398627,0.24175644,0.023828864,0.0,0.0,0.0,0.0,0.0,0.0,0.0,0.0,0.11075592,0.0,0.0,nan,0.0,0.0,-0.0003452301,0.0,0.0,0.0,0.0,0.0,0.0,0.0,0.0,0.0
596204979,596105035,-0.12101357,-0.15143755,-0.09964198,0.17673242,0.005333066,0.0,0.0,0.0,0.0,0.0,0.0,0.0,0.0,0.28427124,0.0,0.0,nan,0.0,0.0,0.0009989738,0.0,0.0,0.0,0.0,0.0,0.0,0.0,0.0,0.0
596702683,596602765,-0.13512456,0.030973643,-0.2052562,0.18238413,-0.0056449175,0.0,0.0,0.0,0.0,0.0,0.0,0.0,0.0,0.16677856,0.0,0.0,nan,0.0,0.0,-0.0072102547,0.0,0.0,0.0,0.0,0.0,0.0,0.0,0.0,0.0
597200401,597100494,-0.0811614,-0.08975393,0.035225186,0.17554677,-0.026376724,0.0,0.0,0.0,0.0,0.0,0.0,0.0,0.0,0.10045624,0.0,0.0,nan,0.0,0.0,-0.013668299,0.0,0.0,0.0,0.0,0.0,0.0,0.0,0.0,0.0
597708227,597608178,0.04703864,-0.061295822,-0.05818658,0.18661797,-0.06491542,0.0,0.0,0.0,0.0,0.0,0.0,0.0,0.0,0.27392578,0.0,0.0,nan,0.0,0.0,-0.011957407,0.0,0.0,0.0,0.0,0.0,0.0,0.0,0.0,0.0
598205862,598105907,-0.12808263,-0.09250471,-0.03933493,0.18698144,-0.10478461,0.0,0.0,0.0,0.0,0.0,0.0,0.0,0.0,0.12120819,0.0,0.0,nan,0.0,0.0,0.008213282,0.0,0.0,0.0,0.0,0.0,0.0,0.0,0.0,0.0
598703583,598603637,-0.23621693,-0.06903448,-0.10958638,0.13775992,-0.13125885,0.0,0.0,0.0,0.0,0.0,0.0,0.0,0.0,0.13182831,0.0,0.0,nan,0.0,0.0,-0.011469364,0.0,0.0,0.0,0.0,0.0,0.0,0.0,0.0,0.0
599201284,599101366,0.15693586,-0.049178652,0.04418741,0.2678299,-0.16725528,0.0,0.0,0.0,0.0,0.0,0.0,0.0,0.0,0.15490723,0.0,0.0,nan,0.0,0.0,-0.011144161,0.0,0.0,0.0,0.0,0.0,0.0,0.0,0.0,0.0
599709139,599609049,-0.10908657,-0.01716041,0.07897389,0.2735771,-0.27874422,0.0,0.0,0.0,0.0,0.0,0.0,0.0,0.0,0.16951752,0.0,0.0,nan,0.0,0.0,0.0068337917,0.0,0.0,0.0,0.0,0.0,0.0,0.0,0.0,0.0
600206749,600106778,-0.015510719,-0.013615501,0.058877293,0.3383224,-0.34264922,0.0,0.0,0.0,0.0,0.0,0.0,0.0,0.0,0.2395935,0.0,0.0,nan,0.0,0.0,0.02060914,0.0,0.0,0.0,0.0,0.0,0.0,0.0,0.0,0.0
600704565,600604507,0.064342976,-0.08248784,0.012091519,0.3835045,-0.42195296,0.0,0.0,0.0,0.0,0.0,0.0,0.0,0.0,0.09572601,0.0,0.0,nan,0.0,0.0,0.024613857,0.0,0.0,0.0,0.0,0.0,0.0,0.0,0.0,0.0
601202170,601102235,0.46467376,-0.19065647,0.35118482,0.43844426,-0.48797858,0.0,0.0,0.0,0.0,0.0,0.0,0.0,0.0,0.09320068,0.0,0.0,nan,0.0,0.0,0.032414675,0.0,0.0,0.0,0.0,0.0,0.0,0.0,0.0,0.0
601700042,601599963,0.034120724,0.022377815,0.1366279,0.43310237,-0.5434372,0.0,0.0,0.0,0.0,0.0,0.0,0.0,0.0,0.004638672,0.0,0.0,nan,0.0,0.0,0.04267192,0.0,0.0,0.0,0.0,0.0,0.0,0.0,0.0,0.0
602207545,602107646,-0.15584701,-0.09280173,0.07937065,0.35392898,-0.5384777,0.0,0.0,0.0,0.0,0.0,0.0,0.0,0.0,-0.10984802,0.0,0.0,nan,0.0,0.0,0.02191186,0.0,0.0,0.0,0.0,0.0,0.0,0.0,0.0,0.0
602705487,602605374,0.07144345,0.050133258,-0.030556932,0.29113996,-0.5266653,0.0,0.0,0.0,0.0,0.0,0.0,0.0,0.0,-0.1541214,0.0,0.0,nan,0.0,0.0,0.03072381,0.0,0.0,0.0,0.0,0.0,0.0,0.0,0.0,0.0
603203058,603103102,-0.061356105,0.26505697,0.082587875,0.30217075,-0.51567495,0.0,0.0,0.0,0.0,0.0,0.0,0.0,0.0,-0.0026626587,0.0,0.0,nan,0.0,0.0,0.025339127,0.0,0.0,0.0,0.0,0.0,0.0,0.0,0.0,0.0
603710833,603610785,-0.036537543,0.21723095,0.13368815,0.20192212,-0.4577043,0.0,0.0,0.0,0.0,0.0,0.0,0.0,0.0,0.1010437,0.0,0.0,nan,0.0,0.0,0.046676397,0.0,0.0,0.0,0.0,0.0,0.0,0.0,0.0,0.0
604198503,604098558,-0.1806409,0.29518747,-0.1555033,0.10032982,-0.42614073,0.0,0.0,0.0,0.0,0.0,0.0,0.0,0.0,0.023117065,0.0,0.0,nan,0.0,0.0,0.043839693,0.0,0.0,0.0,0.0,0.0,0.0,0.0,0.0,0.0
604706275,604606240,-0.1321867,0.23336127,-0.16025907,0.034721076,-0.40311754,0.0,0.0,0.0,0.0,0.0,0.0,0.0,0.0,-0.121040344,0.0,0.0,nan,0.0,0.0,0.021161318,0.0,0.0,0.0,0.0,0.0,0.0,0.0,0.0,0.0
605203914,605103968,-0.70132625,0.28222755,0.13179557,0.0043096542,-0.42122835,0.0,0.0,0.0,0.0,0.0,0.0,0.0,0.0,-0.052345276,0.0,0.0,nan,0.0,0.0,0.04286027,0.0,0.0,0.0,0.0,0.0,0.0,0.0,0.0,0.0
605701774,605601695,0.16210549,-0.08830403,-0.11522564,0.13056153,-0.3109983,0.0,0.0,0.0,0.0,0.0,0.0,0.0,0.0,-0.06474304,0.0,0.0,nan,0.0,0.0,0.021995544,0.0,0.0,0.0,0.0,0.0,0.0,0.0,0.0,0.0
606209279,606109377,0.018565297,0.16218114,-0.003560097,0.07261896,-0.20275941,0.0,0.0,0.0,0.0,0.0,0.0,0.0,0.0,-0.16262817,0.0,0.0,nan,0.0,0.0,0.009196758,0.0,0.0,0.0,0.0,0.0,0.0,0.0,0.0,0.0
606707155,606607104,0.30233628,-0.12709506,-0.073341995,0.08080685,-0.020503104,0.0,0.0,0.0,0.0,0.0,0.0,0.0,0.0,0.007194519,0.0,0.0,nan,0.0,0.0,0.02840066,0.0,0.0,0.0,0.0,0.0,0.0,0.0,0.0,0.0
607204801,607104831,-0.085909836,0.16289902,-0.04984664,0.109000236,0.141366,0.0,0.0,0.0,0.0,0.0,0.0,0.0,0.0,-0.12995148,0.0,0.0,nan,0.0,0.0,0.002991438,0.0,0.0,0.0,0.0,0.0,0.0,0.0,0.0,0.0
607702610,607602558,-0.09732895,0.25954595,0.12229052,0.14045691,0.22451949,0.0,0.0,0.0,0.0,0.0,0.0,0.0,0.0,-0.05117035,0.0,0.0,nan,0.0,0.0,0.0041997433,0.0,0.0,0.0,0.0,0.0,0.0,0.0,0.0,0.0
608200194,608100284,0.039816283,0.01926469,0.04424315,0.15774846,0.24226606,0.0,0.0,0.0,0.0,0.0,0.0,0.0,0.0,0.22871399,0.0,0.0,nan,0.0,0.0,0.0057845116,0.0,0.0,0.0,0.0,0.0,0.0,0.0,0.0,0.0
608707928,608607968,-0.0693935,0.067579255,-0.046621986,0.050656617,0.30743462,0.0,0.0,0.0,0.0,0.0,0.0,0.0,0.0,0.08283234,0.0,0.0,nan,0.0,0.0,0.009995937,0.0,0.0,0.0,0.0,0.0,0.0,0.0,0.0,0.0
609205669,609105692,-0.021059552,0.05090136,0.016865034,0.057014704,0.40783888,0.0,0.0,0.0,0.0,0.0,0.0,0.0,0.0,0.14176178,0.0,0.0,nan,0.0,0.0,-0.018245935,0.0,0.0,0.0,0.0,0.0,0.0,0.0,0.0,0.0
609703532,609603418,0.17430069,-0.06401578,-0.1062564,0.06576896,0.4757638,0.0,0.0,0.0,0.0,0.0,0.0,0.0,0.0,0.005531311,0.0,0.0,nan,0.0,0.0,-0.009421587,0.0,0.0,0.0,0.0,0.0,0.0,0.0,0.0,0.0
610201049,610101144,0.04390083,0.04893389,-0.008665921,0.11088222,0.4958372,0.0,0.0,0.0,0.0,0.0,0.0,0.0,0.0,0.119758606,0.0,0.0,nan,0.0,0.0,0.0173707,0.0,0.0,0.0,0.0,0.0,0.0,0.0,0.0,0.0
610708758,610608825,0.05236066,0.0510485,-0.10023233,0.089232355,0.47881788,0.0,0.0,0.0,0.0,0.0,0.0,0.0,0.0,0.19442749,0.0,0.0,nan,0.0,0.0,0.02387309,0.0,0.0,0.0,0.0,0.0,0.0,0.0,0.0,0.0
611206547,611106551,0.060832497,-0.089600086,-0.04599162,0.08558425,0.48803663,0.0,0.0,0.0,0.0,0.0,0.0,0.0,0.0,-0.10132599,0.0,0.0,nan,0.0,0.0,0.016207695,0.0,0.0,0.0,0.0,0.0,0.0,0.0,0.0,0.0
611704319,611604276,-0.020839758,-0.018116366,-0.12668805,0.09477827,0.51113534,0.0,0.0,0.0,0.0,0.0,0.0,0.0,0.0,0.09270477,0.0,0.0,nan,0.0,0.0,0.034154177,0.0,0.0,0.0,0.0,0.0,0.0,0.0,0.0,0.0
612201903,612102002,-0.040828384,-0.11361906,0.085141025,0.12182906,0.5093406,0.0,0.0,0.0,0.0,0.0,0.0,0.0,0.0,-0.009017944,0.0,0.0,nan,0.0,0.0,0.02330923,0.0,0.0,0.0,0.0,0.0,0.0,0.0,0.0,0.0
612709789,612609682,-0.019235998,0.004804004,0.10665857,0.049666524,0.47912347,0.0,0.0,0.0,0.0,0.0,0.0,0.0,0.0,0.076690674,0.0,0.0,nan,0.0,0.0,0.04029417,0.0,0.0,0.0,0.0,0.0,0.0,0.0,0.0,0.0
613207327,613107407,-0.23606372,0.24345699,0.20790346,-0.019098401,0.5035306,0.0,0.0,0.0,0.0,0.0,0.0,0.0,0.0,0.06322479,0.0,0.0,nan,0.0,0.0,0.049296856,0.0,0.0,0.0,0.0,0.0,0.0,0.0,0.0,0.0
613705252,613605132,0.24358374,-0.2649361,0.13237357,0.039651036,0.49389565,0.0,0.0,0.0,0.0,0.0,0.0,0.0,0.0,0.07985687,0.0,0.0,nan,0.0,0.0,0.012440205,0.0,0.0,0.0,0.0,0.0,0.0,0.0,0.0,0.0
614202768,614102857,0.22028165,-0.15360901,0.05822677,0.049320757,0.46520436,0.0,0.0,0.0,0.0,0.0,0.0,0.0,0.0,0.281456,0.0,0.0,nan,0.0,0.0,0.024736404,0.0,0.0,0.0,0.0,0.0,0.0,0.0,0.0,0.0
614700665,614600582,0.03197904,0.09843862,0.02382725,0.004629731,0.45832658,0.0,0.0,0.0,0.0,0.0,0.0,0.0,0.0,-0.01864624,0.0,0.0,nan,0.0,0.0,0.027394056,0.0,0.0,0.0,0.0,0.0,0.0,0.0,0.0,0.0
615208161,615108261,0.04051654,-0.13923214,-0.15142652,0.03923309,0.41428828,0.0,0.0,0.0,0.0,0.0,0.0,0.0,0.0,-0.053329468,0.0,0.0,nan,0.0,0.0,0.029738188,0.0,0.0,0.0,0.0,0.0,0.0,0.0,0.0,0.0
615705890,615605986,-0.10126904,-0.2165328,-0.13421024,0.055034578,0.44082737,0.0,0.0,0.0,0.0,0.0,0.0,0.0,0.0,-0.0013656616,0.0,0.0,nan,0.0,0.0,0.024416685,0.0,0.0,0.0,0.0,0.0,0.0,0.0,0.0,0.0
616203629,616103710,0.0023578554,-0.0857406,-0.08250472,0.09884989,0.4665128,0.0,0.0,0.0,0.0,0.0,0.0,0.0,0.0,0.13858032,0.0,0.0,nan,0.0,0.0,0.039343834,0.0,0.0,0.0,0.0,0.0,0.0,0.0,0.0,0.0
616701379,616601435,0.0052612424,-0.11609125,-0.10763102,0.120862365,0.44183338,0.0,0.0,0.0,0.0,0.0,0.0,0.0,0.0,0.023910522,0.0,0.0,nan,0.0,0.0,0.046317577,0.0,0.0,0.0,0.0,0.0,0.0,0.0,0.0,0.0
617209030,617109113,0.008397739,-0.030713487,0.005246522,0.18289328,0.3919375,0.0,0.0,0.0,0.0,0.0,0.0,0.0,0.0,0.19335938,0.0,0.0,nan,0.0,0.0,0.019070148,0.0,0.0,0.0,0.0,0.0,0.0,0.0,0.0,0.0
617707005,617606837,0.09156254,-0.14225328,-0.013519734,0.22813031,0.2988031,0.0,0.0,0.0,0.0,0.0,0.0,0.0,0.0,0.04497528,0.0,0.0,nan,0.0,0.0,0.021795034,0.0,0.0,0.0,0.0,0.0,0.0,0.0,0.0,0.0
618204558,618104561,0.08239257,-0.055831574,-0.016009804,0.24178076,0.24080181,0.0,0.0,0.0,0.0,0.0,0.0,0.0,0.0,0.12866974,0.0,0.0,nan,0.0,0.0,0.012852669,0.0,0.0,0.0,0.0,0.0,0.0,0.0,0.0,0.0
618702361,618602285,-0.04821764,0.0703341,0.14540443,0.23279673,0.22499657,0.0,0.0,0.0,0.0,0.0,0.0,0.0,0.0,-0.021781921,0.0,0.0,nan,0.0,0.0,0.0046794415,0.0,0.0,0.0,0.0,0.0,0.0,0.0,0.0,0.0
619200027,619100008,-0.040156417,0.01922048,0.2227169,0.13419881,0.14836049,0.0,0.0,0.0,0.0,0.0,0.0,0.0,0.0,-0.023544312,0.0,0.0,nan,0.0,0.0,0.016221285,0.0,0.0,0.0,0.0,0.0,0.0,0.0,0.0,0.0
619707735,619607686,-0.012068484,-0.010777573,-0.07194115,0.03305596,0.04006338,0.0,0.0,0.0,0.0,0.0,0.0,0.0,0.0,-0.04790497,0.0,0.0,nan,0.0,0.0,0.04025793,0.0,0.0,0.0,0.0,0.0,0.0,0.0,0.0,0.0
620205331,620105409,0.032088663,-0.1404994,-0.06981204,0.007926762,-0.02291894,0.0,0.0,0.0,0.0,0.0,0.0,0.0,0.0,0.010940552,0.0,0.0,nan,0.0,0.0,0.03383684,0.0,0.0,0.0,0.0,0.0,0.0,0.0,0.0,0.0
620703242,620603132,0.09123608,-0.10568192,-0.04173044,0.037183642,-0.10795581,0.0,0.0,0.0,0.0,0.0,0.0,0.0,0.0,-0.054252625,0.0,0.0,nan,0.0,0.0,0.03258896,0.0,0.0,0.0,0.0,0.0,0.0,0.0,0.0,0.0
621210710,621110810,-0.0021094233,-0.06519812,0.10135172,0.1509651,-0.16968834,0.0,0.0,0.0,0.0,0.0,0.0,0.0,0.0,0.12385559,0.0,0.0,nan,0.0,0.0,0.04421091,0.0,0.0,0.0,0.0,0.0,0.0,0.0,0.0,0.0
621698635,621598578,-0.21179554,0.18451881,0.18542938,0.12552336,-0.13612318,0.0,0.0,0.0,0.0,0.0,0.0,0.0,0.0,0.20448303,0.0,0.0,nan,0.0,0.0,0.050192595,0.0,0.0,0.0,0.0,0.0,0.0,0.0,0.0,0.0
622206208,622106255,-0.041772746,-0.066101104,0.008131972,0.1013999,-0.12102187,0.0,0.0,0.0,0.0,0.0,0.0,0.0,0.0,0.01752472,0.0,0.0,nan,0.0,0.0,0.03585863,0.0,0.0,0.0,0.0,0.0,0.0,0.0,0.0,0.0
622704128,622603978,-0.2767344,0.31046647,0.09013131,0.047717422,-0.061199903,0.0,0.0,0.0,0.0,0.0,0.0,0.0,0.0,0.19203949,0.0,0.0,nan,0.0,0.0,0.020252943,0.0,0.0,0.0,0.0,0.0,0.0,0.0,0.0,0.0
623201606,623101700,-0.16928665,0.07279169,0.05132085,0.062264383,0.007750511,0.0,0.0,0.0,0.0,0.0,0.0,0.0,0.0,-0.032165527,0.0,0.0,nan,0.0,0.0,-0.0069921017,0.0,0.0,0.0,0.0,0.0,0.0,0.0,0.0,0.0
623709459,623609377,-0.05340998,-0.08535251,0.15471312,0.09238407,0.0897125,0.0,0.0,0.0,0.0,0.0,0.0,0.0,0.0,-0.07707977,0.0,0.0,nan,0.0,0.0,2.3841858e-06,0.0,0.0,0.0,0.0,0.0,0.0,0.0,0.0,0.0
624207079,624107099,-0.11692138,-0.056527622,-0.0037912745,0.060373396,0.12675595,0.0,0.0,0.0,0.0,0.0,0.0,0.0,0.0,0.049049377,0.0,0.0,nan,0.0,0.0,0.019605637,0.0,0.0,0.0,0.0,0.0,0.0,0.0,0.0,0.0
624704942,624604821,0.022604916,-0.03325241,0.14577639,0.06983012,0.16167271,0.0,0.0,0.0,0.0,0.0,0.0,0.0,0.0,-0.028266907,0.0,0.0,nan,0.0,0.0,0.011332035,0.0,0.0,0.0,0.0,0.0,0.0,0.0,0.0,0.0
625202447,625102542,-0.11111716,-0.23909731,-0.07906079,-0.013733834,0.1361444,0.0,0.0,0.0,0.0,0.0,0.0,0.0,0.0,-0.06302643,0.0,0.0,nan,0.0,0.0,0.0062339306,0.0,0.0,0.0,0.0,0.0,0.0,0.0,0.0,0.0
625700332,625600264,-0.022460336,0.007499069,-0.1338201,0.07245326,0.15270829,0.0,0.0,0.0,0.0,0.0,0.0,0.0,0.0,0.086242676,0.0,0.0,nan,0.0,0.0,0.018029451,0.0,0.0,0.0,0.0,0.0,0.0,0.0,0.0,0.0
626207885,626107940,0.18069081,-0.16527727,-0.0657762,0.09401256,0.09660876,0.0,0.0,0.0,0.0,0.0,0.0,0.0,0.0,-0.119895935,0.0,0.0,nan,0.0,0.0,0.01850605,0.0,0.0,0.0,0.0,0.0,0.0,0.0,0.0,0.0
626705835,626605661,-0.084629476,-0.03076984,-0.13839836,0.04769072,0.125826,0.0,0.0,0.0,0.0,0.0,0.0,0.0,0.0,0.058525085,0.0,0.0,nan,0.0,0.0,0.007325411,0.0,0.0,0.0,0.0,0.0,0.0,0.0,0.0,0.0
627203383,627103382,-0.15936182,0.09150817,0.0719434,-0.045184404,0.17205667,0.0,0.0,0.0,0.0,0.0,0.0,0.0,0.0,-0.03328705,0.0,0.0,nan,0.0,0.0,0.014097214,0.0,0.0,0.0,0.0,0.0,0.0,0.0,0.0,0.0
627701000,627601103,-0.24731752,0.24574408,0.114029005,-0.0466246,0.17355847,0.0,0.0,0.0,0.0,0.0,0.0,0.0,0.0,0.019882202,0.0,0.0,nan,0.0,0.0,0.020659924,0.0,0.0,0.0,0.0,0.0,0.0,0.0,0.0,0.0
628208688,628108779,-0.17179868,0.13877255,-0.08584066,-0.067968816,0.21276414,0.0,0.0,0.0,0.0,0.0,0.0,0.0,0.0,-0.0066452026,0.0,0.0,nan,0.0,0.0,0.006922245,0.0,0.0,0.0,0.0,0.0,0.0,0.0,0.0,0.0
628706417,628606499,-0.053003725,0.12630163,-0.020879813,-0.059449345,0.2597288,0.0,0.0,0.0,0.0,0.0,0.0,0.0,0.0,-0.13269806,0.0,0.0,nan,0.0,0.0,0.008651733,0.0,0.0,0.0,0.0,0.0,0.0,0.0,0.0,0.0
629204140,629104220,0.055979885,0.11562782,-0.1200538,-0.047249645,0.26151824,0.0,0.0,0.0,0.0,0.0,0.0,0.0,0.0,0.21525574,0.0,0.0,nan,0.0,0.0,0.016468287,0.0,0.0,0.0,0.0,0.0,0.0,0.0,0.0,0.0
629701993,629601940,-0.024991827,0.08419946,-0.066026166,0.08878946,0.22316372,0.0,0.0,0.0,0.0,0.0,0.0,0.0,0.0,0.07488251,0.0,0.0,nan,0.0,0.0,0.0045466423,0.0,0.0,0.0,0.0,0.0,0.0,0.0,0.0,0.0
630209520,630109615,0.14605838,-0.07160184,0.052137543,0.21952714,0.16202343,0.0,0.0,0.0,0.0,0.0,0.0,0.0,0.0,-0.16236115,0.0,0.0,nan,0.0,0.0,0.0039405823,0.0,0.0,0.0,0.0,0.0,0.0,0.0,0.0,0.0
630707284,630607335,0.12258851,-0.13740781,0.10816091,0.312554,0.14214969,0.0,0.0,0.0,0.0,0.0,0.0,0.0,0.0,-0.11769104,0.0,0.0,nan,0.0,0.0,0.008615971,0.0,0.0,0.0,0.0,0.0,0.0,0.0,0.0,0.0
631204958,631105055,0.19882062,-0.36579955,0.16239996,0.33056653,0.099488854,0.0,0.0,0.0,0.0,0.0,0.0,0.0,0.0,0.0925827,0.0,0.0,nan,0.0,0.0,0.011743069,0.0,0.0,0.0,0.0,0.0,0.0,0.0,0.0,0.0
631702776,631602774,0.15228522,-0.06933567,0.15207708,0.43369547,0.124114394,0.0,0.0,0.0,0.0,0.0,0.0,0.0,0.0,-0.21274567,0.0,0.0,nan,0.0,0.0,0.0026068687,0.0,0.0,0.0,0.0,0.0,0.0,0.0,0.0,0.0
632200441,632100494,-0.17040981,0.1683827,0.24862343,0.3753034,0.16316533,0.0,0.0,0.0,0.0,0.0,0.0,0.0,0.0,0.15625763,0.0,0.0,nan,0.0,0.0,0.009004116,0.0,0.0,0.0,0.0,0.0,0.0,0.0,0.0,0.0
632708075,632608168,0.024273269,0.11119954,0.10375096,0.3462271,0.25399947,0.0,0.0,0.0,0.0,0.0,0.0,0.0,0.0,-0.055038452,0.0,0.0,nan,0.0,0.0,0.012296677,0.0,0.0,0.0,0.0,0.0,0.0,0.0,0.0,0.0
633205848,633105887,-0.16167566,-0.1259678,0.08717035,0.27699488,0.24174857,0.0,0.0,0.0,0.0,0.0,0.0,0.0,0.0,-0.15798187,0.0,0.0,nan,0.0,0.0,0.007922649,0.0,0.0,0.0,0.0,0.0,0.0,0.0,0.0,0.0
633703665,633603606,-0.14964792,0.09547101,0.0071389116,0.28468665,0.34155786,0.0,0.0,0.0,0.0,0.0,0.0,0.0,0.0,-0.08455658,0.0,0.0,nan,0.0,0.0,0.024096489,0.0,0.0,0.0,0.0,0.0,0.0,0.0,0.0,0.0
634201274,634101325,-0.10895892,0.10789761,0.1542317,0.2950371,0.36030066,0.0,0.0,0.0,0.0,0.0,0.0,0.0,0.0,-0.21498108,0.0,0.0,nan,0.0,0.0,0.025858402,0.0,0.0,0.0,0.0,0.0,0.0,0.0,0.0,0.0
634708918,634608999,-0.01579561,-0.031748123,-0.07365353,0.32401592,0.33695924,0.0,0.0,0.0,0.0,0.0,0.0,0.0,0.0,0.099365234,0.0,0.0,nan,0.0,0.0,0.004888773,0.0,0.0,0.0,0.0,0.0,0.0,0.0,0.0,0.0
635206620,635106717,-0.1523082,0.07354774,0.097102195,0.38204625,0.33303404,0.0,0.0,0.0,0.0,0.0,0.0,0.0,0.0,-0.06619263,0.0,0.0,nan,0.0,0.0,0.013741255,0.0,0.0,0.0,0.0,0.0,0.0,0.0,0.0,0.0
635704521,635604436,-0.021327168,0.060724974,0.18902048,0.45871356,0.2780168,0.0,0.0,0.0,0.0,0.0,0.0,0.0,0.0,-0.004425049,0.0,0.0,nan,0.0,0.0,0.018001795,0.0,0.0,0.0,0.0,0.0,0.0,0.0,0.0,0.0
636202139,636102154,0.0025426373,-0.3147901,-0.04266475,0.46248612,0.20818567,0.0,0.0,0.0,0.0,0.0,0.0,0.0,0.0,-0.09451294,0.0,0.0,nan,0.0,0.0,-0.014358282,0.0,0.0,0.0,0.0,0.0,0.0,0.0,0.0,0.0
636699772,636599872,-0.20860039,0.13404651,0.17041373,0.44956625,0.1742351,0.0,0.0,0.0,0.0,0.0,0.0,0.0,0.0,-0.11921692,0.0,0.0,nan,0.0,0.0,-0.005519867,0.0,0.0,0.0,0.0,0.0,0.0,0.0,0.0,0.0
637207503,637107545,-0.32577634,0.160615,0.09362319,0.35905498,0.18332994,0.0,0.0,0.0,0.0,0.0,0.0,0.0,0.0,-0.0160141,0.0,0.0,nan,0.0,0.0,0.0062532425,0.0,0.0,0.0,0.0,0.0,0.0,0.0,0.0,0.0
637705338,637605263,-0.27433148,0.18488093,0.002955893,0.3416468,0.19186628,0.0,0.0,0.0,0.0,0.0,0.0,0.0,0.0,0.032455444,0.0,0.0,nan,0.0,0.0,-0.010625124,0.0,0.0,0.0,0.0,0.0,0.0,0.0,0.0,0.0
638202878,638102981,0.032053106,-0.036856778,-0.025318783,0.2968741,0.15824223,0.0,0.0,0.0,0.0,0.0,0.0,0.0,0.0,-0.27655792,0.0,0.0,nan,0.0,0.0,-0.0086603165,0.0,0.0,0.0,0.0,0.0,0.0,0.0,0.0,0.0
638710582,638610653,-0.12087959,0.11158574,-0.09270583,0.32435954,0.12936497,0.0,0.0,0.0,0.0,0.0,0.0,0.0,0.0,-0.21263123,0.0,0.0,nan,0.0,0.0,0.006521702,0.0,0.0,0.0,0.0,0.0,0.0,0.0,0.0,0.0
639198358,639098416,-0.07498552,-0.045531906,-0.16951784,0.26183653,0.09847391,0.0,0.0,0.0,0.0,0.0,0.0,0.0,0.0,0.103637695,0.0,0.0,nan,0.0,0.0,-0.009682655,0.0,0.0,0.0,0.0,0.0,0.0,0.0,0.0,0.0
639706057,639606088,-0.2042858,-0.053004872,-0.119326755,0.25600904,0.04356253,0.0,0.0,0.0,0.0,0.0,0.0,0.0,0.0,0.013633728,0.0,0.0,nan,0.0,0.0,-0.006261587,0.0,0.0,0.0,0.0,0.0,0.0,0.0,0.0,0.0
640203708,640103805,0.007698007,0.14452909,0.007975329,0.28871953,0.07438004,0.0,0.0,0.0,0.0,0.0,0.0,0.0,0.0,0.26733398,0.0,0.0,nan,0.0,0.0,0.009570599,0.0,0.0,0.0,0.0,0.0,0.0,0.0,0.0,0.0
640701540,640601522,0.0008338187,-0.14289042,-0.06246928,0.2932129,0.06815815,0.0,0.0,0.0,0.0,0.0,0.0,0.0,0.0,0.096199036,0.0,0.0,nan,0.0,0.0,0.017290115,0.0,0.0,0.0,0.0,0.0,0.0,0.0,0.0,0.0
641209128,641109193,0.025359478,0.041685313,-0.053749733,0.28633505,0.013635993,0.0,0.0,0.0,0.0,0.0,0.0,0.0,0.0,0.22008514,0.0,0.0,nan,0.0,0.0,0.0036981106,0.0,0.0,0.0,0.0,0.0,0.0,0.0,0.0,0.0
641707269,641606910,-0.0031573102,0.082510486,0.02214217,0.23228669,-0.03039217,0.0,0.0,0.0,0.0,0.0,0.0,0.0,0.0,0.07707977,0.0,0.0,nan,0.0,0.0,0.013185263,0.0,0.0,0.0,0.0,0.0,0.0,0.0,0.0,0.0
642204534,642104627,0.018312626,-0.10613403,0.011552138,0.1732077,-0.04882586,0.0,0.0,0.0,0.0,0.0,0.0,0.0,0.0,0.2496872,0.0,0.0,nan,0.0,0.0,0.014077187,0.0,0.0,0.0,0.0,0.0,0.0,0.0,0.0,0.0
642702242,642602343,0.28541505,-0.10377346,0.05678555,0.15889692,-0.075918674,0.0,0.0,0.0,0.0,0.0,0.0,0.0,0.0,0.0439682,0.0,0.0,nan,0.0,0.0,0.0034210682,0.0,0.0,0.0,0.0,0.0,0.0,0.0,0.0,0.0
643199955,643100059,-0.0018075891,0.08018082,0.047702048,0.018750072,-0.09698713,0.0,0.0,0.0,0.0,0.0,0.0,0.0,0.0,-0.04096222,0.0,0.0,nan,0.0,0.0,0.011764765,0.0,0.0,0.0,0.0,0.0,0.0,0.0,0.0,0.0
643707711,643607733,-0.041878466,0.11452833,0.056583766,-0.021536231,-0.03270185,0.0,0.0,0.0,0.0,0.0,0.0,0.0,0.0,-0.054107666,0.0,0.0,nan,0.0,0.0,0.017608643,0.0,0.0,0.0,0.0,0.0,0.0,0.0,0.0,0.0
644205382,644105446,-0.07896769,0.1486199,0.042267777,-0.055437267,0.030400991,0.0,0.0,0.0,0.0,0.0,0.0,0.0,0.0,-0.039146423,0.0,0.0,nan,0.0,0.0,0.0020840168,0.0,0.0,0.0,0.0,0.0,0.0,0.0,0.0,0.0
644703215,644603161,0.010930788,-0.015048258,0.039430257,-0.17011994,0.047269106,0.0,0.0,0.0,0.0,0.0,0.0,0.0,0.0,-0.1280365,0.0,0.0,nan,0.0,0.0,0.007042408,0.0,0.0,0.0,0.0,0.0,0.0,0.0,0.0,0.0
645200957,645100877,-0.10904418,0.092334636,-0.007844843,-0.31056654,8.916855e-05,0.0,0.0,0.0,0.0,0.0,0.0,0.0,0.0,0.013595581,0.0,0.0,nan,0.0,0.0,0.019119978,0.0,0.0,0.0,0.0,0.0,0.0,0.0,0.0,0.0
645708623,645608547,0.032109514,0.03949287,-0.0981614,-0.44065708,-0.0171175,0.0,0.0,0.0,0.0,0.0,0.0,0.0,0.0,0.02067566,0.0,0.0,nan,0.0,0.0,0.012536526,0.0,0.0,0.0,0.0,0.0,0.0,0.0,0.0,0.0
646206164,646106262,0.10442306,-0.036436148,0.12160909,-0.47458938,-0.052755117,0.0,0.0,0.0,0.0,0.0,0.0,0.0,0.0,-0.08679199,0.0,0.0,nan,0.0,0.0,0.012016535,0.0,0.0,0.0,0.0,0.0,0.0,0.0,0.0,0.0
646703900,646603977,-0.023093734,0.14715733,-0.046817,-0.5661814,-0.05245185,0.0,0.0,0.0,0.0,0.0,0.0,0.0,0.0,-0.10028839,0.0,0.0,nan,0.0,0.0,0.029398441,0.0,0.0,0.0,0.0,0.0,0.0,0.0,0.0,0.0
647201601,647101692,0.009296665,-0.028559756,0.03738323,-0.53657746,-0.10110736,0.0,0.0,0.0,0.0,0.0,0.0,0.0,0.0,-0.35559082,0.0,0.0,nan,0.0,0.0,0.021524668,0.0,0.0,0.0,0.0,0.0,0.0,0.0,0.0,0.0
647709425,647609362,0.026247796,0.01316943,-0.018482922,-0.5500499,-0.122915745,0.0,0.0,0.0,0.0,0.0,0.0,0.0,0.0,-0.0040283203,0.0,0.0,nan,0.0,0.0,0.06631422,0.0,0.0,0.0,0.0,0.0,0.0,0.0,0.0,0.0
648206975,648107076,0.024648048,-0.0491057,0.024398753,-0.47301358,-0.1458596,0.0,0.0,0.0,0.0,0.0,0.0,0.0,0.0,-0.102500916,0.0,0.0,nan,0.0,0.0,0.07733798,0.0,0.0,0.0,0.0,0.0,0.0,0.0,0.0,0.0
648704857,648604791,0.041128084,0.09982634,-0.031013466,-0.42109758,-0.16841471,0.0,0.0,0.0,0.0,0.0,0.0,0.0,0.0,0.0066604614,0.0,0.0,nan,0.0,0.0,0.09048414,0.0,0.0,0.0,0.0,0.0,0.0,0.0,0.0,0.0
649202405,649102505,0.025692176,-0.035026852,0.047301095,-0.4320252,-0.20820642,0.0,0.0,0.0,0.0,0.0,0.0,0.0,0.0,0.016204834,0.0,0.0,nan,0.0,0.0,0.099000216,0.0,0.0,0.0,0.0,0.0,0.0,0.0,0.0,0.0
649700417,649600219,-0.05800374,0.100011766,0.0074544027,-0.5024066,-0.2519747,0.0,0.0,0.0,0.0,0.0,0.0,0.0,0.0,0.054023743,0.0,0.0,nan,0.0,0.0,0.10058975,0.0,0.0,0.0,0.0,0.0,0.0,0.0,0.0,0.0
650207870,650107888,0.08428699,-0.033318877,0.14007357,-0.5240796,-0.26090956,0.0,0.0,0.0,0.0,0.0,0.0,0.0,0.0,-0.27365112,0.0,0.0,nan,0.0,0.0,0.102679014,0.0,0.0,0.0,0.0,0.0,0.0,0.0,0.0,0.0
650705946,650605605,-0.042795926,0.11665382,-0.02074948,-0.57792413,-0.21143031,0.0,0.0,0.0,0.0,0.0,0.0,0.0,0.0,0.18361664,0.0,0.0,nan,0.0,0.0,0.09868407,0.0,0.0,0.0,0.0,0.0,0.0,0.0,0.0,0.0
651203214,651103315,0.03036533,0.047509868,0.018818678,-0.5443535,-0.21165276,0.0,0.0,0.0,0.0,0.0,0.0,0.0,0.0,0.09151459,0.0,0.0,nan,0.0,0.0,0.097947836,0.0,0.0,0.0,0.0,0.0,0.0,0.0,0.0,0.0
651701010,651601029,-0.0031234547,0.071499735,0.043965142,-0.5210192,-0.20693326,0.0,0.0,0.0,0.0,0.0,0.0,0.0,0.0,0.13894653,0.0,0.0,nan,0.0,0.0,0.11220646,0.0,0.0,0.0,0.0,0.0,0.0,0.0,0.0,0.0
652208592,652108697,-0.03126037,0.043920152,0.04261481,-0.5298178,-0.20058596,0.0,0.0,0.0,0.0,0.0,0.0,0.0,0.0,-0.02924347,0.0,0.0,nan,0.0,0.0,0.13881612,0.0,0.0,0.0,0.0,0.0,0.0,0.0,0.0,0.0
652706352,652606410,0.22457594,-0.055890962,0.02748119,-0.4372466,-0.25570583,0.0,0.0,0.0,0.0,0.0,0.0,0.0,0.0,0.062026978,0.0,0.0,nan,0.0,0.0,0.16782236,0.0,0.0,0.0,0.0,0.0,0.0,0.0,0.0,0.0
653204080,653104123,-0.091242015,0.09278855,-0.07936725,-0.38992023,-0.2720555,0.0,0.0,0.0,0.0,0.0,0.0,0.0,0.0,0.041755676,0.0,0.0,nan,0.0,0.0,0.19431305,0.0,0.0,0.0,0.0,0.0,0.0,0.0,0.0,0.0
653701745,653601836,0.008169634,0.05843066,-0.060268972,-0.34365758,-0.26730788,0.0,0.0,0.0,0.0,0.0,0.0,0.0,0.0,0.112701416,0.0,0.0,nan,0.0,0.0,0.19351888,0.0,0.0,0.0,0.0,0.0,0.0,0.0,0.0,0.0
654199592,654099549,-0.05596809,0.05854646,-0.004537804,-0.27828363,-0.24652994,0.0,0.0,0.0,0.0,0.0,0.0,0.0,0.0,0.06591797,0.0,0.0,nan,0.0,0.0,0.18828225,0.0,0.0,0.0,0.0,0.0,0.0,0.0,0.0,0.0
654707400,654607215,0.015833933,0.10411553,0.11427198,-0.1642794,-0.272902,0.0,0.0,0.0,0.0,0.0,0.0,0.0,0.0,0.1536789,0.0,0.0,nan,0.0,0.0,0.19317126,0.0,0.0,0.0,0.0,0.0,0.0,0.0,0.0,0.0
655204987,655104928,0.06296355,0.012298569,0.030496445,-0.10396646,-0.23825955,0.0,0.0,0.0,0.0,0.0,0.0,0.0,0.0,-0.015785217,0.0,0.0,nan,0.0,0.0,0.18354797,0.0,0.0,0.0,0.0,0.0,0.0,0.0,0.0,0.0
655702564,655602640,-0.27439746,0.30397907,-0.010629653,-0.0806521,-0.20479882,0.0,0.0,0.0,0.0,0.0,0.0,0.0,0.0,-0.0035858154,0.0,0.0,nan,0.0,0.0,0.17440009,0.0,0.0,0.0,0.0,0.0,0.0,0.0,0.0,0.0
656210206,656110306,-0.009537817,0.010998707,0.029956345,-0.093955934,-0.13027036,0.0,0.0,0.0,0.0,0.0,0.0,0.0,0.0,-0.07865143,0.0,0.0,nan,0.0,0.0,0.17317271,0.0,0.0,0.0,0.0,0.0,0.0,0.0,0.0,0.0
656707985,656608018,-0.050214335,0.07382863,-0.20001727,-0.089938864,-0.11556363,0.0,0.0,0.0,0.0,0.0,0.0,0.0,0.0,0.09446716,0.0,0.0,nan,0.0,0.0,0.15950298,0.0,0.0,0.0,0.0,0.0,0.0,0.0,0.0,0.0
657205680,657105730,0.06828831,-0.064122714,0.0450425,-0.10230538,-0.15147698,0.0,0.0,0.0,0.0,0.0,0.0,0.0,0.0,0.03438568,0.0,0.0,nan,0.0,0.0,0.1580379,0.0,0.0,0.0,0.0,0.0,0.0,0.0,0.0,0.0
657703343,657603443,-0.021016773,-0.063245974,-0.0465534,-0.093755364,-0.16029477,0.0,0.0,0.0,0.0,0.0,0.0,0.0,0.0,-0.28861237,0.0,0.0,nan,0.0,0.0,0.15546918,0.0,0.0,0.0,0.0,0.0,0.0,0.0,0.0,0.0
658201149,658101153,0.12747502,-0.00770811,-0.07569748,-0.065298766,-0.18850523,0.0,0.0,0.0,0.0,0.0,0.0,0.0,0.0,0.029830933,0.0,0.0,nan,0.0,0.0,0.15354872,0.0,0.0,0.0,0.0,0.0,0.0,0.0,0.0,0.0
658708958,658608821,0.09713425,-0.16842784,0.03806014,-0.06893574,-0.21591347,0.0,0.0,0.0,0.0,0.0,0.0,0.0,0.0,0.16031647,0.0,0.0,nan,0.0,0.0,0.13599777,0.0,0.0,0.0,0.0,0.0,0.0,0.0,0.0,0.0
659206491,659106529,-0.02646002,0.10838639,-0.028534463,-0.088106304,-0.18142009,0.0,0.0,0.0,0.0,0.0,0.0,0.0,0.0,-0.1836319,0.0,0.0,nan,0.0,0.0,0.11991358,0.0,0.0,0.0,0.0,0.0,0.0,0.0,0.0,0.0
659704247,659604240,-0.009206248,-0.053189173,-0.077291995,-0.087890506,-0.20438534,0.0,0.0,0.0,0.0,0.0,0.0,0.0,0.0,0.024414062,0.0,0.0,nan,0.0,0.0,0.12558651,0.0,0.0,0.0,0.0,0.0,0.0,0.0,0.0,0.0
660201848,660101951,0.037015267,0.058380775,0.026493093,-0.14134316,-0.19875526,0.0,0.0,0.0,0.0,0.0,0.0,0.0,0.0,0.08785248,0.0,0.0,nan,0.0,0.0,0.11595106,0.0,0.0,0.0,0.0,0.0,0.0,0.0,0.0,0.0
660699556,660599662,0.023127701,-0.011337385,-0.031606838,-0.1856034,-0.22233617,0.0,0.0,0.0,0.0,0.0,0.0,0.0,0.0,-0.20303345,0.0,0.0,nan,0.0,0.0,0.113298655,0.0,0.0,0.0,0.0,0.0,0.0,0.0,0.0,0.0
661207222,661107326,0.19897291,-0.24065056,0.057028655,-0.1945657,-0.20808017,0.0,0.0,0.0,0.0,0.0,0.0,0.0,0.0,-0.009239197,0.0,0.0,nan,0.0,0.0,0.10742736,0.0,0.0,0.0,0.0,0.0,0.0,0.0,0.0,0.0
661704982,661605036,0.15790313,-0.053653143,-0.0055413404,-0.07188507,-0.2556922,0.0,0.0,0.0,0.0,0.0,0.0,0.0,0.0,0.13227081,0.0,0.0,nan,0.0,0.0,0.10902548,0.0,0.0,0.0,0.0,0.0,0.0,0.0,0.0,0.0
662202660,662102747,-0.078663595,0.12569329,-0.005368204,-0.096740164,-0.22496715,0.0,0.0,0.0,0.0,0.0,0.0,0.0,0.0,0.1517868,0.0,0.0,nan,0.0,0.0,0.09684181,0.0,0.0,0.0,0.0,0.0,0.0,0.0,0.0,0.0
662710497,662610411,0.100674815,-0.0611782,0.14226826,-0.02538972,-0.25751987,0.0,0.0,0.0,0.0,0.0,0.0,0.0,0.0,-0.04483795,0.0,0.0,nan,0.0,0.0,0.096279144,0.0,0.0,0.0,0.0,0.0,0.0,0.0,0.0,0.0
663208088,663108120,0.099961676,0.0012721121,0.27835473,0.008709819,-0.2678986,0.0,0.0,0.0,0.0,0.0,0.0,0.0,0.0,0.14411163,0.0,0.0,nan,0.0,0.0,0.08970404,0.0,0.0,0.0,0.0,0.0,0.0,0.0,0.0,0.0
663705766,663605830,-0.20106255,0.20681196,-0.070039675,0.008604772,-0.2945537,0.0,0.0,0.0,0.0,0.0,0.0,0.0,0.0,0.0058517456,0.0,0.0,nan,0.0,0.0,0.08247304,0.0,0.0,0.0,0.0,0.0,0.0,0.0,0.0,0.0
664203582,664103539,-0.08961906,0.10893014,-0.0019862829,-0.05255966,-0.25529915,0.0,0.0,0.0,0.0,0.0,0.0,0.0,0.0,0.184021,0.0,0.0,nan,0.0,0.0,0.084168196,0.0,0.0,0.0,0.0,0.0,0.0,0.0,0.0,0.0
664701199,664601249,0.049482077,-0.022806928,-0.011796778,0.07626808,-0.32092395,0.0,0.0,0.0,0.0,0.0,0.0,0.0,0.0,0.07384491,0.0,0.0,nan,0.0,0.0,0.07388234,0.0,0.0,0.0,0.0,0.0,0.0,0.0,0.0,0.0
665208812,665108912,-0.16535442,0.12051377,0.024796864,-0.036377355,-0.214299,0.0,0.0,0.0,0.0,0.0,0.0,0.0,0.0,0.055343628,0.0,0.0,nan,0.0,0.0,0.0014252663,0.0,0.0,0.0,0.0,0.0,0.0,0.0,0.0,0.0
665706560,665606621,-0.4031119,0.20440522,0.011128296,-0.08399399,-0.19384192,0.0,0.0,0.0,0.0,0.0,0.0,0.0,0.0,0.06238556,0.0,0.0,nan,0.0,0.0,-0.03610897,0.0,0.0,0.0,0.0,0.0,0.0,0.0,0.0,0.0
666204280,666104329,-0.021358268,0.09530059,0.09762831,-0.13671519,-0.09252912,0.0,0.0,0.0,0.0,0.0,0.0,0.0,0.0,-0.15876007,0.0,0.0,nan,0.0,0.0,-0.051229954,0.0,0.0,0.0,0.0,0.0,0.0,0.0,0.0,0.0
666701935,666602038,0.025608186,0.098684646,0.13972805,-0.14322418,-0.08457947,0.0,0.0,0.0,0.0,0.0,0.0,0.0,0.0,0.02142334,0.0,0.0,nan,0.0,0.0,-0.07280946,0.0,0.0,0.0,0.0,0.0,0.0,0.0,0.0,0.0
667199681,667099746,0.09975205,-0.01330819,-0.058939073,-0.08690443,-0.043365087,0.0,0.0,0.0,0.0,0.0,0.0,0.0,0.0,-0.11096954,0.0,0.0,nan,0.0,0.0,-0.07218671,0.0,0.0,0.0,0.0,0.0,0.0,0.0,0.0,0.0
667707310,667607408,-0.21501833,0.17456411,-0.11423373,-0.112086155,-0.0006714836,0.0,0.0,0.0,0.0,0.0,0.0,0.0,0.0,0.12221527,0.0,0.0,nan,0.0,0.0,-0.09696913,0.0,0.0,0.0,0.0,0.0,0.0,0.0,0.0,0.0
668205048,668105116,0.052998364,0.072752886,0.04671601,-0.11809988,0.0052369386,0.0,0.0,0.0,0.0,0.0,0.0,0.0,0.0,-0.090148926,0.0,0.0,nan,0.0,0.0,-0.13166857,0.0,0.0,0.0,0.0,0.0,0.0,0.0,0.0,0.0
668702987,668602824,-0.17531662,0.16037388,-0.06414494,-0.16059586,0.021511443,0.0,0.0,0.0,0.0,0.0,0.0,0.0,0.0,-0.117507935,0.0,0.0,nan,0.0,0.0,-0.12932181,0.0,0.0,0.0,0.0,0.0,0.0,0.0,0.0,0.0
669200476,669100532,-0.1004385,0.043008007,-0.020268278,-0.18083361,0.043727905,0.0,0.0,0.0,0.0,0.0,0.0,0.0,0.0,-0.14965057,0.0,0.0,nan,0.0,0.0,-0.11924672,0.0,0.0,0.0,0.0,0.0,0.0,0.0,0.0,0.0
669708200,669608193,0.052155804,-0.025529234,-0.0034610173,-0.1802236,0.04340945,0.0,0.0,0.0,0.0,0.0,0.0,0.0,0.0,0.16819763,0.0,0.0,nan,0.0,0.0,-0.12672544,0.0,0.0,0.0,0.0,0.0,0.0,0.0,0.0,0.0
670205805,670105901,0.055834487,-0.052811727,0.1342628,-0.19072099,0.049837768,0.0,0.0,0.0,0.0,0.0,0.0,0.0,0.0,0.14936829,0.0,0.0,nan,0.0,0.0,-0.13103867,0.0,0.0,0.0,0.0,0.0,0.0,0.0,0.0,0.0
670703560,670603608,0.1267015,-0.08909834,0.07996805,-0.19005176,0.040732086,0.0,0.0,0.0,0.0,0.0,0.0,0.0,0.0,0.0630188,0.0,0.0,nan,0.0,0.0,-0.11001325,0.0,0.0,0.0,0.0,0.0,0.0,0.0,0.0,0.0
671201262,671101315,-0.020173782,0.030824762,-0.027740393,-0.21256,0.10665922,0.0,0.0,0.0,0.0,0.0,0.0,0.0,0.0,0.15155792,0.0,0.0,nan,0.0,0.0,-0.11536765,0.0,0.0,0.0,0.0,0.0,0.0,0.0,0.0,0.0
671708877,671608975,0.062067408,0.015724303,0.080337375,-0.19533089,0.1342774,0.0,0.0,0.0,0.0,0.0,0.0,0.0,0.0,-0.010139465,0.0,0.0,nan,0.0,0.0,-0.1179471,0.0,0.0,0.0,0.0,0.0,0.0,0.0,0.0,0.0
672206581,672106682,0.13321581,0.024994465,-0.032988966,-0.12931457,0.15661731,0.0,0.0,0.0,0.0,0.0,0.0,0.0,0.0,-0.0007324219,0.0,0.0,nan,0.0,0.0,-0.102540255,0.0,0.0,0.0,0.0,0.0,0.0,0.0,0.0,0.0
672704316,672604388,0.12762842,-0.084833734,0.06296139,-0.090897165,0.17004763,0.0,0.0,0.0,0.0,0.0,0.0,0.0,0.0,-0.0062942505,0.0,0.0,nan,0.0,0.0,-0.1000762,0.0,0.0,0.0,0.0,0.0,0.0,0.0,0.0,0.0
673202293,673102095,-0.06015254,0.058953527,0.08232175,-0.107377455,0.19471845,0.0,0.0,0.0,0.0,0.0,0.0,0.0,0.0,0.036842346,0.0,0.0,nan,0.0,0.0,-0.11207032,0.0,0.0,0.0,0.0,0.0,0.0,0.0,0.0,0.0
673709824,673609755,-0.08078384,0.06425565,0.026587058,-0.10236347,0.17575073,0.0,0.0,0.0,0.0,0.0,0.0,0.0,0.0,-0.20002747,0.0,0.0,nan,0.0,0.0,-0.10007143,0.0,0.0,0.0,0.0,0.0,0.0,0.0,0.0,0.0
674207424,674107460,-0.026452824,-0.0104096625,0.052969407,-0.13434352,0.20428821,0.0,0.0,0.0,0.0,0.0,0.0,0.0,0.0,-0.09037781,0.0,0.0,nan,0.0,0.0,-0.10031986,0.0,0.0,0.0,0.0,0.0,0.0,0.0,0.0,0.0
674705084,674605166,0.090968944,-0.050939158,0.11365152,-0.1725688,0.20506914,0.0,0.0,0.0,0.0,0.0,0.0,0.0,0.0,-0.044761658,0.0,0.0,nan,0.0,0.0,-0.10466361,0.0,0.0,0.0,0.0,0.0,0.0,0.0,0.0,0.0
675202796,675102871,-0.052365623,0.034574427,0.040782277,-0.25900885,0.23603696,0.0,0.0,0.0,0.0,0.0,0.0,0.0,0.0,0.08453369,0.0,0.0,nan,0.0,0.0,-0.089024544,0.0,0.0,0.0,0.0,0.0,0.0,0.0,0.0,0.0
675700470,675600577,-0.031721108,-0.045642704,0.00918088,-0.35628006,0.26213527,0.0,0.0,0.0,0.0,0.0,0.0,0.0,0.0,0.03753662,0.0,0.0,nan,0.0,0.0,-0.05882907,0.0,0.0,0.0,0.0,0.0,0.0,0.0,0.0,0.0
676208208,676108236,-0.23271972,0.10351318,-0.071031086,-0.51630443,0.38896057,0.0,0.0,0.0,0.0,0.0,0.0,0.0,0.0,-0.034461975,0.0,0.0,nan,0.0,0.0,-0.068596125,0.0,0.0,0.0,0.0,0.0,0.0,0.0,0.0,0.0
676705870,676605941,0.15836832,-0.29688057,-0.143023,-0.5607683,0.40061328,0.0,0.0,0.0,0.0,0.0,0.0,0.0,0.0,0.049552917,0.0,0.0,nan,0.0,0.0,-0.06815028,0.0,0.0,0.0,0.0,0.0,0.0,0.0,0.0,0.0
677203625,677103645,0.11184146,-0.12872067,0.121327534,-0.67671645,0.44108403,0.0,0.0,0.0,0.0,0.0,0.0,0.0,0.0,0.09664154,0.0,0.0,nan,0.0,0.0,-0.07270169,0.0,0.0,0.0,0.0,0.0,0.0,0.0,0.0,0.0
677701736,677601350,0.09375433,-0.06491822,0.034681514,-0.6933701,0.46112162,0.0,0.0,0.0,0.0,0.0,0.0,0.0,0.0,0.08129883,0.0,0.0,nan,0.0,0.0,-0.10332012,0.0,0.0,0.0,0.0,0.0,0.0,0.0,0.0,0.0
678198953,678099054,-0.18303002,0.075670466,0.004739873,-0.7715846,0.53265476,0.0,0.0,0.0,0.0,0.0,0.0,0.0,0.0,-0.00078582764,0.0,0.0,nan,0.0,0.0,-0.09997821,0.0,0.0,0.0,0.0,0.0,0.0,0.0,0.0,0.0
678706607,678606713,-0.0032892749,-0.040367533,0.044761606,-0.6473263,0.47787577,0.0,0.0,0.0,0.0,0.0,0.0,0.0,0.0,0.061645508,0.0,0.0,nan,0.0,0.0,-0.08790636,0.0,0.0,0.0,0.0,0.0,0.0,0.0,0.0,0.0
679204311,679104417,0.0075407512,-0.11063193,0.00041723216,-0.63169044,0.40200698,0.0,0.0,0.0,0.0,0.0,0.0,0.0,0.0,-0.033546448,0.0,0.0,nan,0.0,0.0,-0.08242965,0.0,0.0,0.0,0.0,0.0,0.0,0.0,0.0,0.0
679702057,679602120,-0.056087866,0.040891718,-0.08460571,-0.6743856,0.40392667,0.0,0.0,0.0,0.0,0.0,0.0,0.0,0.0,0.10638428,0.0,0.0,nan,0.0,0.0,-0.0853889,0.0,0.0,0.0,0.0,0.0,0.0,0.0,0.0,0.0
680209738,680109778,0.04778242,-0.017350413,-0.08868189,-0.7116302,0.37632293,0.0,0.0,0.0,0.0,0.0,0.0,0.0,0.0,-0.11766052,0.0,0.0,nan,0.0,0.0,-0.085059404,0.0,0.0,0.0,0.0,0.0,0.0,0.0,0.0,0.0
680707380,680607482,-0.018046595,-0.051382847,-0.108923286,-0.73345506,0.3501312,0.0,0.0,0.0,0.0,0.0,0.0,0.0,0.0,0.049591064,0.0,0.0,nan,0.0,0.0,-0.07502055,0.0,0.0,0.0,0.0,0.0,0.0,0.0,0.0,0.0
681205090,681105185,0.10423042,-0.08217272,-0.06479016,-0.70747876,0.3389874,0.0,0.0,0.0,0.0,0.0,0.0,0.0,0.0,0.061264038,0.0,0.0,nan,0.0,0.0,-0.08191681,0.0,0.0,0.0,0.0,0.0,0.0,0.0,0.0,0.0
681702785,681602888,-0.08162708,0.07976337,-0.10712694,-0.6689271,0.33927548,0.0,0.0,0.0,0.0,0.0,0.0,0.0,0.0,-0.123939514,0.0,0.0,nan,0.0,0.0,-0.07552791,0.0,0.0,0.0,0.0,0.0,0.0,0.0,0.0,0.0
682200868,682100591,-0.062309027,0.0908148,-0.017587941,-0.60721827,0.31955457,0.0,0.0,0.0,0.0,0.0,0.0,0.0,0.0,0.24294281,0.0,0.0,nan,0.0,0.0,-0.060729265,0.0,0.0,0.0,0.0,0.0,0.0,0.0,0.0,0.0
682708234,682608248,0.26572847,-0.16153614,0.063268706,-0.50559795,0.2549001,0.0,0.0,0.0,0.0,0.0,0.0,0.0,0.0,0.05229187,0.0,0.0,nan,0.0,0.0,-0.07718754,0.0,0.0,0.0,0.0,0.0,0.0,0.0,0.0,0.0
683205846,683105950,0.09468721,-0.081170104,0.015155951,-0.4479983,0.22459567,0.0,0.0,0.0,0.0,0.0,0.0,0.0,0.0,0.1311264,0.0,0.0,nan,0.0,0.0,-0.064775944,0.0,0.0,0.0,0.0,0.0,0.0,0.0,0.0,0.0
683703556,683603653,-0.01969098,0.044757485,0.1275486,-0.39311945,0.22869658,0.0,0.0,0.0,0.0,0.0,0.0,0.0,0.0,0.19819641,0.0,0.0,nan,0.0,0.0,-0.05859995,0.0,0.0,0.0,0.0,0.0,0.0,0.0,0.0,0.0
684201354,684101355,0.15400629,-0.07895477,0.07425274,-0.43314135,0.24422026,0.0,0.0,0.0,0.0,0.0,0.0,0.0,0.0,0.05092621,0.0,0.0,nan,0.0,0.0,-0.078944206,0.0,0.0,0.0,0.0,0.0,0.0,0.0,0.0,0.0
684698964,684599057,0.013221841,-0.010110183,-0.0049158055,-0.4761938,0.24413097,0.0,0.0,0.0,0.0,0.0,0.0,0.0,0.0,0.24711609,0.0,0.0,nan,0.0,0.0,-0.06257939,0.0,0.0,0.0,0.0,0.0,0.0,0.0,0.0,0.0
685206609,685106713,0.061792504,0.046697095,-0.056375597,-0.4552449,0.24115503,0.0,0.0,0.0,0.0,0.0,0.0,0.0,0.0,-0.052520752,0.0,0.0,nan,0.0,0.0,-0.05728817,0.0,0.0,0.0,0.0,0.0,0.0,0.0,0.0,0.0
685704311,685604415,-0.07202267,0.067425676,-0.07356619,-0.44626868,0.20900083,0.0,0.0,0.0,0.0,0.0,0.0,0.0,0.0,-0.09336853,0.0,0.0,nan,0.0,0.0,-0.06497455,0.0,0.0,0.0,0.0,0.0,0.0,0.0,0.0,0.0
686202046,686102117,0.024043493,-0.10671323,0.07799521,-0.42788792,0.18875921,0.0,0.0,0.0,0.0,0.0,0.0,0.0,0.0,0.06944275,0.0,0.0,nan,0.0,0.0,-0.06888032,0.0,0.0,0.0,0.0,0.0,0.0,0.0,0.0,0.0
686709692,686609772,0.19278613,-0.083953544,0.2374536,-0.43094504,0.19986749,0.0,0.0,0.0,0.0,0.0,0.0,0.0,0.0,0.09480286,0.0,0.0,nan,0.0,0.0,-0.053115606,0.0,0.0,0.0,0.0,0.0,0.0,0.0,0.0,0.0
687207401,687107473,0.05773714,-0.12638277,-0.08582245,-0.36640072,0.1435312,0.0,0.0,0.0,0.0,0.0,0.0,0.0,0.0,-0.26876068,0.0,0.0,nan,0.0,0.0,-0.06500101,0.0,0.0,0.0,0.0,0.0,0.0,0.0,0.0,0.0
687705067,687605174,-0.3531424,0.18551277,-0.1565186,-0.40351987,0.15481329,0.0,0.0,0.0,0.0,0.0,0.0,0.0,0.0,-0.1717453,0.0,0.0,nan,0.0,0.0,-0.0639739,0.0,0.0,0.0,0.0,0.0,0.0,0.0,0.0,0.0
688202816,688102875,0.13742344,-0.05132018,0.10573305,-0.20934367,0.106851935,0.0,0.0,0.0,0.0,0.0,0.0,0.0,0.0,0.111946106,0.0,0.0,nan,0.0,0.0,-0.034620762,0.0,0.0,0.0,0.0,0.0,0.0,0.0,0.0,0.0
688700473,688600576,-0.18892452,0.06558653,0.031277232,-0.17092156,0.0635103,0.0,0.0,0.0,0.0,0.0,0.0,0.0,0.0,0.2538376,0.0,0.0,nan,0.0,0.0,-0.02917409,0.0,0.0,0.0,0.0,0.0,0.0,0.0,0.0,0.0
689208224,689108231,-0.076573946,-0.06071014,-0.008884107,-0.13094616,0.070216656,0.0,0.0,0.0,0.0,0.0,0.0,0.0,0.0,0.13450623,0.0,0.0,nan,0.0,0.0,-0.048244715,0.0,0.0,0.0,0.0,0.0,0.0,0.0,0.0,0.0
689705863,689605931,0.17291088,-0.11281121,-0.095323324,-0.108588934,0.088697195,0.0,0.0,0.0,0.0,0.0,0.0,0.0,0.0,0.05088806,0.0,0.0,nan,0.0,0.0,-0.04092455,0.0,0.0,0.0,0.0,0.0,0.0,0.0,0.0,0.0
690203530,690103631,-0.07690534,0.037473,-0.28937343,-0.15697265,0.14023805,0.0,0.0,0.0,0.0,0.0,0.0,0.0,0.0,-0.003967285,0.0,0.0,nan,0.0,0.0,-0.043174744,0.0,0.0,0.0,0.0,0.0,0.0,0.0,0.0,0.0
690701308,690601331,-0.21962613,0.099868804,-0.11590171,-0.22623014,0.20811284,0.0,0.0,0.0,0.0,0.0,0.0,0.0,0.0,0.129776,0.0,0.0,nan,0.0,0.0,-0.030126572,0.0,0.0,0.0,0.0,0.0,0.0,0.0,0.0,0.0
691208878,691108985,0.040983677,-0.02204485,0.072264254,-0.4963169,0.33480775,0.0,0.0,0.0,0.0,0.0,0.0,0.0,0.0,0.12563324,0.0,0.0,nan,0.0,0.0,-0.02122426,0.0,0.0,0.0,0.0,0.0,0.0,0.0,0.0,0.0
691706661,691606685,0.18375139,-0.11541801,0.06359622,-0.5460062,0.34616625,0.0,0.0,0.0,0.0,0.0,0.0,0.0,0.0,0.29206085,0.0,0.0,nan,0.0,0.0,-0.0065288544,0.0,0.0,0.0,0.0,0.0,0.0,0.0,0.0,0.0
692204286,692104384,-0.21389133,0.098091155,0.08062683,-0.54031897,0.38966703,0.0,0.0,0.0,0.0,0.0,0.0,0.0,0.0,-0.0010223389,0.0,0.0,nan,0.0,0.0,-0.015779257,0.0,0.0,0.0,0.0,0.0,0.0,0.0,0.0,0.0
692701984,692602084,0.06306727,-0.024892043,-0.04386491,-0.52944446,0.3947327,0.0,0.0,0.0,0.0,0.0,0.0,0.0,0.0,0.002960205,0.0,0.0,nan,0.0,0.0,-0.006417036,0.0,0.0,0.0,0.0,0.0,0.0,0.0,0.0,0.0
693209647,693109737,0.22389504,-0.11015216,0.08241764,-0.49985528,0.39295578,0.0,0.0,0.0,0.0,0.0,0.0,0.0,0.0,-0.0010757446,0.0,0.0,nan,0.0,0.0,0.0042510033,0.0,0.0,0.0,0.0,0.0,0.0,0.0,0.0,0.0
693707392,693607436,0.13250795,-0.10091852,0.07658824,-0.5046005,0.42846847,0.0,0.0,0.0,0.0,0.0,0.0,0.0,0.0,0.162323,0.0,0.0,nan,0.0,0.0,-0.002662897,0.0,0.0,0.0,0.0,0.0,0.0,0.0,0.0,0.0
694205033,694105135,0.09936175,-0.012148794,0.13573305,-0.63909626,0.5098109,0.0,0.0,0.0,0.0,0.0,0.0,0.0,0.0,0.06765747,0.0,0.0,nan,0.0,0.0,-0.008027077,0.0,0.0,0.0,0.0,0.0,0.0,0.0,0.0,0.0
694702751,694602834,-0.07646027,-0.024565604,0.09030595,-0.8400376,0.55799985,0.0,0.0,0.0,0.0,0.0,0.0,0.0,0.0,0.010505676,0.0,0.0,nan,0.0,0.0,-0.013719797,0.0,0.0,0.0,0.0,0.0,0.0,0.0,0.0,0.0
695200430,695100532,0.09098308,-0.1039283,0.024313696,-0.7261164,0.49650753,0.0,0.0,0.0,0.0,0.0,0.0,0.0,0.0,-0.010955811,0.0,0.0,nan,0.0,0.0,-0.026634455,0.0,0.0,0.0,0.0,0.0,0.0,0.0,0.0,0.0
695708155,695608185,0.18193448,-0.15962738,0.08270003,-0.74498343,0.48931897,0.0,0.0,0.0,0.0,0.0,0.0,0.0,0.0,0.123680115,0.0,0.0,nan,0.0,0.0,-0.02887702,0.0,0.0,0.0,0.0,0.0,0.0,0.0,0.0,0.0
696205822,696105883,-0.219614,0.074039295,-0.018475339,-0.7505474,0.47765672,0.0,0.0,0.0,0.0,0.0,0.0,0.0,0.0,0.08983612,0.0,0.0,nan,0.0,0.0,-0.016361952,0.0,0.0,0.0,0.0,0.0,0.0,0.0,0.0,0.0
