timestamp,timestamp_sample,states[0],states[1],states[2],states[3],states[4],states[5],states[6],states[7],states[8],states[9],states[10],states[11],states[12],states[13],states[14],states[15],states[16],states[17],states[18],states[19],states[20],states[21],states[22],states[23],covariances[0],covariances[1],covariances[2],covariances[3],covariances[4],covariances[5],covariances[6],covariances[7],covariances[8],covariances[9],covariances[10],covariances[11],covariances[12],covariances[13],covariances[14],covariances[15],covariances[16],covariances[17],covariances[18],covariances[19],covariances[20],covariances[21],covariances[22],covariances[23],n_states
540258278,540158085,0.08626225,0.026302416,0.024065262,0.99563444,0.045519367,0.006556592,0.022690812,3.5292947,-3.0099938,5.3937297,3.1333853e-05,-6.9089656e-05,-1.4622798e-05,-0.0016390583,0.003723956,-0.0010811699,0.76582104,-0.19441523,0.12537791,0.0,0.0,0.0,0.0,0.0,8.7925495e-05,6.093012e-06,6.025425e-06,1.6453634e-05,0.01993827,0.019937111,0.015945695,0.19360894,0.19360813,0.20982657,2.0535107e-11,2.0558322e-11,4.305824e-11,5.019001e-08,5.0159706e-08,5.000018e-08,0.0,0.0,0.0,0.0,0.0,0.0,0.0,0.0,24
541248180,541147972,0.08701299,0.02530635,0.023662264,0.99560463,0.03419992,-0.032041434,0.0147571,3.5690112,-3.1230159,5.36738,3.110276e-05,-6.876681e-05,-1.3886185e-05,-0.0016390126,0.0037241417,-0.0010753553,0.76582104,-0.19441523,0.12537791,0.0,0.0,0.0,0.0,0.0,8.803798e-05,5.723881e-06,5.6567496e-06,1.6451826e-05,0.016184242,0.016183436,0.014654084,0.17510243,0.17510225,0.20107073,2.0216835e-11,2.0238321e-11,4.3075526e-11,5.0198537e-08,5.0168097e-08,5.0000363e-08,0.0,0.0,0.0,0.0,0.0,0.0,0.0,0.0,24
542258063,542157858,0.08709457,0.026946435,0.02386948,0.9955495,0.027392877,-0.044546153,0.012832146,3.6082253,-3.222364,5.3301086,3.1044034e-05,-6.856321e-05,-1.3494452e-05,-0.0016390013,0.0037242095,-0.0010648302,0.76582104,-0.19441523,0.12537791,0.0,0.0,0.0,0.0,0.0,8.788238e-05,5.9642334e-06,5.8967166e-06,1.6439308e-05,0.017573575,0.017572733,0.014985095,0.17509867,0.17509827,0.20134342,2.0457204e-11,2.047691e-11,4.304091e-11,5.0207397e-08,5.017688e-08,5.000018e-08,0.0,0.0,0.0,0.0,0.0,0.0,0.0,0.0,24
543257935,543157741,0.087195,0.026870728,0.02382618,0.9955437,0.013034355,-0.07044688,-0.018796029,3.6314015,-3.3411818,5.2773223,3.0966447e-05,-6.836188e-05,-1.3130462e-05,-0.0016389721,0.003724278,-0.0010544772,0.76582104,-0.19441523,0.12537791,0.0,0.0,0.0,0.0,0.0,8.8031295e-05,6.0004963e-06,5.932408e-06,1.6435919e-05,0.017941087,0.017940035,0.015170263,0.17363325,0.17363273,0.20342632,2.0486706e-11,2.0504914e-11,4.3069708e-11,5.0216148e-08,5.018556e-08,5.000036e-08,0.0,0.0,0.0,0.0,0.0,0.0,0.0,0.0,24
544247824,544147627,0.08712204,0.025516072,0.023087999,0.9956032,0.015885713,-0.047403328,-0.01385193,3.6836152,-3.35491,5.239002,3.1438656e-05,-6.8403744e-05,-1.2852523e-05,-0.001639229,0.0037243052,-0.0010568767,0.76582104,-0.19441523,0.12537791,0.0,0.0,0.0,0.0,0.0,8.8138455e-05,5.9774466e-06,5.9086447e-06,1.6436692e-05,0.017869407,0.017868327,0.015083156,0.1709693,0.17096864,0.2008507,2.0465135e-11,2.0481804e-11,4.308853e-11,5.022479e-08,5.0194178e-08,5.0000093e-08,0.0,0.0,0.0,0.0,0.0,0.0,0.0,0.0,24
545257771,545157512,0.08693732,0.026279148,0.023129517,0.9955985,0.03509994,-0.034893233,0.0011481337,3.7374196,-3.3702514,5.2177763,3.173878e-05,-6.85929e-05,-1.257234e-05,-0.0016394377,0.0037244163,-0.0010622548,0.76582104,-0.19441523,0.12537791,0.0,0.0,0.0,0.0,0.0,8.798174e-05,6.1426636e-06,6.07331e-06,1.6426735e-05,0.019284602,0.01928343,0.015516656,0.17520106,0.1752,0.2030336,2.0614881e-11,2.0630088e-11,4.3054126e-11,5.0233663e-08,5.0203077e-08,5e-08,0.0,0.0,0.0,0.0,0.0,0.0,0.0,0.0,24
546257608,546157397,0.08682866,0.026053648,0.022772774,0.9956221,0.020477423,-0.03529853,-0.011058905,3.7285101,-3.4060667,5.195269,3.183941e-05,-6.847511e-05,-1.2329671e-05,-0.0016394939,0.0037244328,-0.0010652033,0.76582104,-0.19441523,0.12537791,0.0,0.0,0.0,0.0,0.0,8.8129214e-05,6.1842857e-06,6.1148935e-06,1.6425985e-05,0.020030688,0.020029457,0.015878342,0.17944257,0.17944139,0.20755516,2.0646537e-11,2.0660498e-11,4.3083523e-11,5.0242456e-08,5.02119e-08,5.000018e-08,0.0,0.0,0.0,0.0,0.0,0.0,0.0,0.0,24
547257508,547157283,0.08692982,0.027190553,0.021751009,0.9956058,0.030107161,0.008092065,-0.00026493092,3.7849278,-3.35123,5.205289,3.2308264e-05,-6.8550755e-05,-1.2017296e-05,-0.0016398006,0.003724414,-0.0010775046,0.76582104,-0.19441523,0.12537791,0.0,0.0,0.0,0.0,0.0,8.7925655e-05,6.28332e-06,6.2139175e-06,1.6418693e-05,0.021217877,0.021216704,0.016221458,0.18693852,0.18693706,0.20996721,2.072963e-11,2.0743221e-11,4.3038618e-11,5.0251124e-08,5.022078e-08,5e-08,0.0,0.0,0.0,0.0,0.0,0.0,0.0,0.0,24
548247420,548147170,0.08681204,0.027091088,0.022107182,0.9956109,0.03732798,0.02227132,0.00884436,3.8400733,-3.3213453,5.2150607,3.2415614e-05,-6.856435e-05,-1.1724256e-05,-0.0016400067,0.0037244137,-0.001089412,0.76582104,-0.19441523,0.12537791,0.0,0.0,0.0,0.0,0.0,8.8023655e-05,6.20013e-06,6.127739e-06,1.6413782e-05,0.020716395,0.020715434,0.01620214,0.18824087,0.18823957,0.21211521,2.0644214e-11,2.0657889e-11,4.3057332e-11,5.025968e-08,5.0229584e-08,5.0000178e-08,0.0,0.0,0.0,0.0,0.0,0.0,0.0,0.0,24
549257297,549157055,0.08655887,0.027205199,0.02179173,0.9956368,0.045095656,0.04874984,0.017730966,3.9121807,-3.2566378,5.239205,3.2568365e-05,-6.853109e-05,-1.1497172e-05,-0.001640186,0.0037244135,-0.0011054594,0.76582104,-0.19441523,0.12537791,0.0,0.0,0.0,0.0,0.0,8.821548e-05,6.3213997e-06,6.246783e-06,1.6410562e-05,0.02189663,0.021895673,0.01647909,0.19697526,0.19697386,0.21460037,2.0758006e-11,2.0771775e-11,4.3096467e-11,5.026846e-08,5.0238604e-08,5e-08,0.0,0.0,0.0,0.0,0.0,0.0,0.0,0.0,24
550257184,550156941,0.08694751,0.026569538,0.02247482,0.99560493,0.06216905,0.03703421,0.016525337,4.007129,-3.270336,5.2426333,3.2377015e-05,-6.866688e-05,-1.1006457e-05,-0.0016403769,0.0037244777,-0.0011108271,0.76582104,-0.19441523,0.12537791,0.0,0.0,0.0,0.0,0.0,8.801162e-05,6.082257e-06,6.0049797e-06,1.640713e-05,0.01972054,0.019719798,0.015940882,0.1902913,0.19029047,0.21296263,2.0535938e-11,2.0549715e-11,4.3049286e-11,5.02772e-08,5.0247507e-08,5.000027e-08,0.0,0.0,0.0,0.0,0.0,0.0,0.0,0.0,24
551257130,551156831,0.08738629,0.027488219,0.022325126,0.99554497,0.040535286,0.03896236,0.017193418,4.0131764,-3.2553303,5.215816,3.2301654e-05,-6.835211e-05,-1.0519716e-05,-0.0016404709,0.0037244398,-0.0011036365,0.76582104,-0.19441523,0.12537791,0.0,0.0,0.0,0.0,0.0,8.815042e-05,5.950045e-06,5.8726732e-06,1.6403506e-05,0.01814282,0.018142149,0.015298544,0.18252599,0.18252547,0.2068073,2.0422044e-11,2.0435499e-11,4.3076844e-11,5.028602e-08,5.0256432e-08,5e-08,0.0,0.0,0.0,0.0,0.0,0.0,0.0,0.0,24
552256961,552156715,0.08746369,0.026513033,0.022449436,0.9955617,0.05565572,0.031138543,0.013252097,4.0977707,-3.2807045,5.186421,3.218787e-05,-6.8444555e-05,-1.019104e-05,-0.0016405736,0.0037244675,-0.0010995476,0.76582104,-0.19441523,0.12537791,0.0,0.0,0.0,0.0,0.0,8.794765e-05,5.9827134e-06,5.9039276e-06,1.6403817e-05,0.018025728,0.018024996,0.015239134,0.17892313,0.1789228,0.2066783,2.0465045e-11,2.0477859e-11,4.3030253e-11,5.0294833e-08,5.026537e-08,5.000027e-08,0.0,0.0,0.0,0.0,0.0,0.0,0.0,0.0,24
553256825,553156602,0.08748857,0.026786044,0.022214673,0.9955575,0.03952768,0.029737582,0.027297875,4.1227655,-3.3068266,5.182547,3.2101572e-05,-6.8277324e-05,-9.869978e-06,-0.0016406038,0.0037245078,-0.0011094266,0.76582104,-0.19441523,0.12537791,0.0,0.0,0.0,0.0,0.0,8.808635e-05,5.8357914e-06,5.758186e-06,1.6402566e-05,0.016583703,0.016582943,0.014618472,0.16999787,0.16999768,0.19977765,2.0327977e-11,2.0339983e-11,4.305736e-11,5.0303736e-08,5.0274284e-08,5.000009e-08,0.0,0.0,0.0,0.0,0.0,0.0,0.0,0.0,24
554256692,554156489,0.08760643,0.026340174,0.022545105,0.9955517,0.022302065,0.008041092,0.022562353,4.137426,-3.3854237,5.1862392,3.1783544e-05,-6.815539e-05,-9.556443e-06,-0.0016405942,0.0037245553,-0.0011115294,0.76582104,-0.19441523,0.12537791,0.0,0.0,0.0,0.0,0.0,8.8225366e-05,5.8165874e-06,5.7396787e-06,1.6404898e-05,0.016132642,0.016131688,0.014416203,0.16324851,0.16324838,0.1976172,2.0317787e-11,2.0329188e-11,4.3085306e-11,5.031266e-08,5.028322e-08,5.000027e-08,0.0,0.0,0.0,0.0,0.0,0.0,0.0,0.0,24
555256614,555156376,0.087769836,0.026970971,0.02220883,0.9955279,-0.007908327,0.04483068,0.023055362,4.0926814,-3.3256881,5.158261,3.2126816e-05,-6.790245e-05,-9.24662e-06,-0.0016406565,0.0037245338,-0.0011040708,0.76582104,-0.19441523,0.12537791,0.0,0.0,0.0,0.0,0.0,8.8014494e-05,5.9166114e-06,5.8411624e-06,1.6402375e-05,0.016902674,0.016901562,0.0146294385,0.1620437,0.16204344,0.19642222,2.0409374e-11,2.0420362e-11,4.3039648e-11,5.0321553e-08,5.0292158e-08,5e-08,0.0,0.0,0.0,0.0,0.0,0.0,0.0,0.0,24
556256459,556156264,0.0877665,0.026743595,0.023216559,0.9955114,-0.024666948,0.04212748,0.008162423,4.0525837,-3.3170836,5.1178694,3.2028893e-05,-6.788058e-05,-8.971225e-06,-0.0016406603,0.003724583,-0.0010907424,0.76582104,-0.19441523,0.12537791,0.0,0.0,0.0,0.0,0.0,8.8147804e-05,5.849284e-06,5.774686e-06,1.6401844e-05,0.016368644,0.016367722,0.014504622,0.15658733,0.15658702,0.19555584,2.0340611e-11,2.0351046e-11,4.3067983e-11,5.033049e-08,5.0301086e-08,5.000027e-08,0.0,0.0,0.0,0.0,0.0,0.0,0.0,0.0,24
557256481,557156151,0.08762688,0.026667137,0.022620294,0.9955394,-0.00049112446,0.041628476,0.008054638,4.096209,-3.3042986,5.094071,3.2056552e-05,-6.814495e-05,-8.747462e-06,-0.0016407219,0.003724654,-0.0010860318,0.76582104,-0.19441523,0.12537791,0.0,0.0,0.0,0.0,0.0,8.79396e-05,6.0183133e-06,5.946954e-06,1.640188e-05,0.01781909,0.017817931,0.014980063,0.1589387,0.15893824,0.19686946,2.0503986e-11,2.0513638e-11,4.3022762e-11,5.033946e-08,5.0310017e-08,5e-08,0.0,0.0,0.0,0.0,0.0,0.0,0.0,0.0,24
558256262,558156039,0.08742851,0.02838045,0.022530703,0.99551153,-0.0031470833,0.039932154,0.007077306,4.1350193,-3.2996552,5.073593,3.2003736e-05,-6.824622e-05,-8.538813e-06,-0.0016407998,0.003724655,-0.0010817079,0.76582104,-0.19441523,0.12537791,0.0,0.0,0.0,0.0,0.0,8.80699e-05,6.1237065e-06,6.0544153e-06,1.6395692e-05,0.019063022,0.019061662,0.015567994,0.16414325,0.16414283,0.20267957,2.0585478e-11,2.0595251e-11,4.3051812e-11,5.0348312e-08,5.031899e-08,5.000036e-08,0.0,0.0,0.0,0.0,0.0,0.0,0.0,0.0,24
559256135,559155927,0.08738235,0.027625253,0.022694133,0.99553317,0.009187456,0.00960703,0.0014897158,4.1683908,-3.3456037,5.0561647,3.1640484e-05,-6.838564e-05,-8.34684e-06,-0.0016408452,0.0037246752,-0.0010801395,0.76582104,-0.19441523,0.12537791,0.0,0.0,0.0,0.0,0.0,8.820919e-05,6.026226e-06,5.9566282e-06,1.64003e-05,0.018603003,0.018601667,0.01546441,0.16392219,0.16392155,0.20187284,2.0487475e-11,2.0497536e-11,4.3080074e-11,5.0357155e-08,5.032797e-08,5.0000093e-08,0.0,0.0,0.0,0.0,0.0,0.0,0.0,0.0,24
560256023,560155816,0.08740934,0.027903982,0.022316461,0.99553156,0.010825765,0.019706804,0.003933421,4.1896377,-3.316999,5.0761957,3.175873e-05,-6.8465095e-05,-8.116123e-06,-0.001640948,0.0037246456,-0.0010899367,0.76582104,-0.19441523,0.12537791,0.0,0.0,0.0,0.0,0.0,8.799798e-05,6.027915e-06,5.9583103e-06,1.6399392e-05,0.018640447,0.018639054,0.01557751,0.1648814,0.16488083,0.20485102,2.0491128e-11,2.0501113e-11,4.303407e-11,5.0365998e-08,5.0336933e-08,5.000036e-08,0.0,0.0,0.0,0.0,0.0,0.0,0.0,0.0,24
561255953,561155704,0.0874717,0.027844572,0.022312872,0.99552774,0.024204575,0.0065330775,0.0054469947,4.2145076,-3.3167307,5.0779567,3.167688e-05,-6.858145e-05,-7.869726e-06,-0.0016410323,0.0037246363,-0.0010912054,0.76582104,-0.19441523,0.12537791,0.0,0.0,0.0,0.0,0.0,8.8132976e-05,6.083259e-06,6.0124157e-06,1.6401162e-05,0.01912353,0.01912183,0.01568885,0.16811185,0.16811123,0.20542984,2.0544571e-11,2.0554272e-11,4.306289e-11,5.0374855e-08,5.034591e-08,5.000009e-08,0.0,0.0,0.0,0.0,0.0,0.0,0.0,0.0,24
562255786,562155592,0.08745205,0.027193679,0.023064604,0.99553037,0.010094335,0.011112992,0.026231851,4.17721,-3.2755094,5.1014333,3.1774e-05,-6.840602e-05,-7.658901e-06,-0.0016410837,0.00372462,-0.0010997949,0.76582104,-0.19441523,0.12537791,0.0,0.0,0.0,0.0,0.0,8.826563e-05,5.9353138e-06,5.8618316e-06,1.6403768e-05,0.01792635,0.017924896,0.015386292,0.16527577,0.16527517,0.20558308,2.0401554e-11,2.040973e-11,4.3090122e-11,5.038378e-08,5.0354856e-08,5.000027e-08,0.0,0.0,0.0,0.0,0.0,0.0,0.0,0.0,24
563255679,563155484,0.08749464,0.027677692,0.023059636,0.99551344,-0.0008153474,0.0011562518,0.018980825,4.1542697,-3.2235076,5.093584,3.1792497e-05,-6.841173e-05,-7.4125196e-06,-0.0016411182,0.0037246358,-0.0011004566,0.76582104,-0.19441523,0.12537791,0.0,0.0,0.0,0.0,0.0,8.80503e-05,6.056637e-06,5.9829463e-06,1.6402697e-05,0.018788522,0.018786894,0.015571085,0.16928151,0.16928072,0.2061158,2.0521298e-11,2.0527911e-11,4.3044224e-11,5.039269e-08,5.0363795e-08,5.000009e-08,0.0,0.0,0.0,0.0,0.0,0.0,0.0,0.0,24
564255590,564155370,0.087667234,0.026807861,0.02246515,0.9955357,-0.0023199818,0.007501963,0.016001143,4.1054616,-3.1612606,5.114384,3.1816795e-05,-6.8537265e-05,-7.141296e-06,-0.001641182,0.0037246614,-0.0011083324,0.76582104,-0.19441523,0.12537791,0.0,0.0,0.0,0.0,0.0,8.818836e-05,6.018161e-06,5.9446647e-06,1.6409995e-05,0.01852784,0.01852645,0.01554731,0.16897069,0.1689699,0.2076781,2.048984e-11,2.049484e-11,4.307281e-11,5.040162e-08,5.0372726e-08,5.000036e-08,0.0,0.0,0.0,0.0,0.0,0.0,0.0,0.0,24
565255502,565155258,0.08779154,0.026097959,0.022932341,0.9955329,-0.01952011,-0.0048859143,0.038387854,4.011386,-3.137902,5.111849,3.1726366e-05,-6.8540154e-05,-6.8326567e-06,-0.0016411819,0.0037246945,-0.0011069289,0.76582104,-0.19441523,0.12537791,0.0,0.0,0.0,0.0,0.0,8.797639e-05,6.227864e-06,6.153666e-06,1.641289e-05,0.020342238,0.020340571,0.01603364,0.17722912,0.17722796,0.21034281,2.0690347e-11,2.0693969e-11,4.3027505e-11,5.0410577e-08,5.03817e-08,5.0000093e-08,0.0,0.0,0.0,0.0,0.0,0.0,0.0,0.0,24
566255372,566155147,0.08817738,0.028019387,0.02332064,0.99543756,-0.039639954,-0.009706472,0.029843181,3.8666275,-3.104506,5.1309237,3.169644e-05,-6.843491e-05,-6.505594e-06,-0.0016412337,0.0037246724,-0.0011130328,0.76582104,-0.19441523,0.12537791,0.0,0.0,0.0,0.0,0.0,8.80987e-05,6.059213e-06,5.985934e-06,1.6409651e-05,0.019120341,0.019118985,0.015770176,0.17532262,0.17532168,0.2106055,2.0515206e-11,2.0518032e-11,4.3055056e-11,5.0419487e-08,5.0390646e-08,5.000036e-08,0.0,0.0,0.0,0.0,0.0,0.0,0.0,0.0,24
567255230,567155036,0.08824404,0.026444403,0.022961613,0.99548304,-0.04656671,0.04110153,0.04129097,3.7793238,-2.949949,5.1374345,3.218095e-05,-6.854738e-05,-6.259268e-06,-0.0016413075,0.0037246852,-0.0011145354,0.76582104,-0.19441523,0.12537791,0.0,0.0,0.0,0.0,0.0,8.823625e-05,6.201109e-06,6.1280243e-06,1.6418115e-05,0.020372886,0.0203715,0.016066002,0.18269646,0.18269525,0.21189234,2.0657732e-11,2.0659502e-11,4.3084425e-11,5.0428458e-08,5.0399635e-08,5.0000093e-08,0.0,0.0,0.0,0.0,0.0,0.0,0.0,0.0,24
568255118,568154925,0.08821164,0.025955094,0.022487015,0.9955097,-0.02479773,0.09709383,0.045768943,3.7329028,-2.7223988,5.1756463,3.2669926e-05,-6.87138e-05,-6.0779785e-06,-0.0016414223,0.0037246733,-0.0011240911,0.76582104,-0.19441523,0.12537791,0.0,0.0,0.0,0.0,0.0,8.802309e-05,6.3069383e-06,6.234646e-06,1.6421123e-05,0.021545155,0.021543832,0.016482595,0.19138607,0.1913847,0.21707232,2.0754308e-11,2.075589e-11,4.303887e-11,5.043738e-08,5.04086e-08,5.000036e-08,0.0,0.0,0.0,0.0,0.0,0.0,0.0,0.0,24
569255024,569154815,0.0883037,0.027018562,0.023807002,0.99544245,-0.06383012,0.062886834,0.05503369,3.578483,-2.677771,5.1969147,3.2119446e-05,-6.8609865e-05,-5.823183e-06,-0.001641333,0.003724717,-0.0011282032,0.76582104,-0.19441523,0.12537791,0.0,0.0,0.0,0.0,0.0,8.814649e-05,6.3918105e-06,6.3210177e-06,1.6420503e-05,0.02254287,0.022541484,0.016697688,0.20106551,0.20106398,0.2184161,2.0822958e-11,2.0824226e-11,4.3067633e-11,5.0446356e-08,5.04176e-08,5.000018e-08,0.0,0.0,0.0,0.0,0.0,0.0,0.0,0.0,24
570254968,570154704,0.08868561,0.026476778,0.023390181,0.9954329,-0.05812512,0.05966293,0.056146808,3.521935,-2.5889761,5.220714,3.2052834e-05,-6.887572e-05,-5.523705e-06,-0.0016413338,0.0037247632,-0.001131438,0.76582104,-0.19441523,0.12537791,0.0,0.0,0.0,0.0,0.0,8.793239e-05,6.414724e-06,6.3473344e-06,1.642714e-05,0.023020046,0.023018489,0.016919222,0.20857015,0.20856862,0.2226131,2.0845535e-11,2.084679e-11,4.302164e-11,5.045534e-08,5.0426593e-08,5.0000363e-08,0.0,0.0,0.0,0.0,0.0,0.0,0.0,0.0,24
571254785,571154593,0.08895386,0.027246516,0.023861604,0.99537706,-0.02447609,0.052805703,0.042710163,3.5138035,-2.5162714,5.2069225,3.201736e-05,-6.9291236e-05,-5.250184e-06,-0.0016413743,0.003724821,-0.0011252739,0.76582104,-0.19441523,0.12537791,0.0,0.0,0.0,0.0,0.0,8.8054956e-05,6.6698267e-06,6.605029e-06,1.6427835e-05,0.025636928,0.025634922,0.017466294,0.22706145,0.22705932,0.22675508,2.1072541e-11,2.1073756e-11,4.3050948e-11,5.046432e-08,5.0435585e-08,5.0000178e-08,0.0,0.0,0.0,0.0,0.0,0.0,0.0,0.0,24
572254711,572154482,0.089043066,0.02722079,0.025924524,0.99531823,-0.0083355075,0.033849686,0.0451489,3.5140622,-2.4845328,5.2036405,3.1895168e-05,-6.947897e-05,-5.0569224e-06,-0.0016413864,0.0037248537,-0.0011208404,0.76582104,-0.19441523,0.12537791,0.0,0.0,0.0,0.0,0.0,8.8175104e-05,6.726526e-06,6.6611483e-06,1.6428325e-05,0.026659194,0.026656948,0.017634934,0.24059507,0.24059245,0.22855498,2.1105354e-11,2.1106653e-11,4.3079526e-11,5.0473314e-08,5.0444573e-08,5e-08,0.0,0.0,0.0,0.0,0.0,0.0,0.0,0.0,24
573254594,573154372,0.08914405,0.027014166,0.027456746,0.9952737,-0.01590603,0.017305098,0.03693858,3.445777,-2.4468238,5.189719,3.1805404e-05,-6.9369555e-05,-4.8388347e-06,-0.0016413816,0.0037248547,-0.0011140696,0.76582104,-0.19441523,0.12537791,0.0,0.0,0.0,0.0,0.0,8.795355e-05,6.688637e-06,6.6234365e-06,1.6428876e-05,0.026496576,0.026494566,0.017693002,0.24731079,0.24730833,0.23210905,2.1064862e-11,2.1066099e-11,4.303313e-11,5.048231e-08,5.0453536e-08,5.000018e-08,0.0,0.0,0.0,0.0,0.0,0.0,0.0,0.0,24
574254452,574154261,0.08918918,0.028142462,0.04954743,0.9943834,-0.016774477,-0.0074668396,0.02376899,3.3816261,-2.418665,5.1655397,3.1619686e-05,-6.941739e-05,-4.6906866e-06,-0.0016413946,0.0037248614,-0.001107427,0.76582104,-0.19441523,0.12537791,0.0,0.0,0.0,0.0,0.0,8.7935434e-05,6.6039083e-06,6.4694427e-06,1.6371905e-05,0.024132485,0.024133328,0.017220706,0.23943137,0.23942979,0.2307367,2.0867585e-11,2.0868784e-11,4.305997e-11,5.04913e-08,5.0462457e-08,5.000045e-08,0.0,0.0,0.0,0.0,0.0,0.0,0.0,0.0,24
575254343,575154150,0.08919621,0.029117208,0.060614634,0.9937415,-0.032932866,-0.07146443,0.012907914,3.31879,-2.3622284,5.080537,3.169073e-05,-6.9522364e-05,-4.9269806e-06,-0.0016414191,0.0037250037,-0.0010854024,0.76582104,-0.19441523,0.12537791,0.0,0.0,0.0,0.0,0.0,8.7956956e-05,6.626396e-06,6.46159e-06,1.633924e-05,0.023208754,0.023231532,0.01682891,0.23536156,0.23536128,0.22637029,2.0821716e-11,2.0822023e-11,4.308915e-11,5.0500162e-08,5.047084e-08,5.000018e-08,0.0,0.0,0.0,0.0,0.0,0.0,0.0,0.0,24
576254244,576154039,0.08849129,0.028574396,0.060230166,0.9938436,-0.038182314,-0.08951208,0.012448809,3.2688282,-2.227602,5.085231,3.2334778e-05,-6.960435e-05,-5.16544e-06,-0.0016410658,0.003724867,-0.0010918505,0.76582104,-0.19441523,0.12537791,0.0,0.0,0.0,0.0,0.0,8.7750486e-05,6.5604404e-06,6.4448554e-06,1.6324233e-05,0.022417014,0.022461578,0.016618233,0.22948413,0.22948693,0.22545986,2.0796014e-11,2.0793919e-11,4.3044998e-11,5.0508667e-08,5.047748e-08,5.0000452e-08,0.0,0.0,0.0,0.0,0.0,0.0,0.0,0.0,24
577254120,577153929,0.08741867,0.028284788,0.058997434,0.99402076,-0.078570835,-0.13994819,-0.017600784,3.1403422,-2.2077873,5.03504,3.2580967e-05,-6.9481044e-05,-5.438928e-06,-0.0016408742,0.0037252535,-0.0010801554,0.76582104,-0.19441523,0.12537791,0.0,0.0,0.0,0.0,0.0,8.790319e-05,6.676331e-06,6.6181597e-06,1.6310238e-05,0.02374119,0.023801388,0.016815947,0.23428375,0.23429844,0.2248572,2.0937793e-11,2.0933302e-11,4.307574e-11,5.051696e-08,5.048246e-08,5.000027e-08,0.0,0.0,0.0,0.0,0.0,0.0,0.0,0.0,24
578254219,578153818,0.08659241,0.027819548,0.058902465,0.99411184,-0.048975036,-0.10655221,-0.038499095,3.138781,-2.0922604,4.970092,3.347939e-05,-6.976673e-05,-5.6295507e-06,-0.0016401688,0.0037254696,-0.0010778881,0.76582104,-0.19441523,0.12537791,0.0,0.0,0.0,0.0,0.0,8.769306e-05,6.782095e-06,6.7777296e-06,1.6284677e-05,0.025185294,0.02525649,0.017061427,0.24215616,0.2421896,0.22512801,2.1046581e-11,2.1040222e-11,4.3030975e-11,5.0525088e-08,5.048531e-08,5e-08,0.0,0.0,0.0,0.0,0.0,0.0,0.0,0.0,24
579253900,579153707,0.085589126,0.027568933,0.05784169,0.994268,-0.056990784,-0.09177241,-0.056692254,3.0827475,-2.028801,4.8901463,3.3936445e-05,-6.971695e-05,-5.901083e-06,-0.0016397296,0.0037254656,-0.0010774811,0.76582104,-0.19441523,0.12537791,0.0,0.0,0.0,0.0,0.0,8.78393e-05,6.659208e-06,6.723264e-06,1.625931e-05,0.024646096,0.024708023,0.01707031,0.24305584,0.24309386,0.22690956,2.095362e-11,2.0946689e-11,4.3055632e-11,5.0532943e-08,5.0484655e-08,5.000027e-08,0.0,0.0,0.0,0.0,0.0,0.0,0.0,0.0,24
580253820,580153596,0.08432591,0.02590376,0.057345778,0.9944495,-0.08184336,-0.08768448,-0.039323367,2.9718971,-2.0178592,4.848287,3.405729e-05,-6.961479e-05,-6.3099133e-06,-0.0016395869,0.0037253445,-0.0010805496,0.76582104,-0.19441523,0.12537791,0.0,0.0,0.0,0.0,0.0,8.798653e-05,6.8418963e-06,6.9576604e-06,1.6248923e-05,0.026773334,0.026829716,0.01743619,0.25661883,0.2566816,0.22852369,2.1147181e-11,2.1141085e-11,4.307956e-11,5.0541164e-08,5.0484097e-08,5e-08,0.0,0.0,0.0,0.0,0.0,0.0,0.0,0.0,24
581253687,581153485,0.0825939,0.026149083,0.057122495,0.9946012,-0.036669917,-0.056848332,-0.020013826,3.0050735,-1.922156,4.876482,3.457309e-05,-7.011362e-05,-6.7603205e-06,-0.0016392468,0.0037244083,-0.0010998837,0.76582104,-0.19441523,0.12537791,0.0,0.0,0.0,0.0,0.0,8.7771165e-05,6.8432096e-06,7.014535e-06,1.6219836e-05,0.02721919,0.027256796,0.017631857,0.26509824,0.2651641,0.23223668,2.115534e-11,2.1152795e-11,4.30223e-11,5.054935e-08,5.0481113e-08,5.0000178e-08,0.0,0.0,0.0,0.0,0.0,0.0,0.0,0.0,24
582253676,582153373,0.08203157,0.026305638,0.056224763,0.9946948,-0.08726511,0.018352855,0.000429743,2.8392916,-1.6761805,4.939223,3.5237834e-05,-6.965039e-05,-7.0112987e-06,-0.0016385162,0.0037228803,-0.0011321064,0.76582104,-0.19441523,0.12537791,0.0,0.0,0.0,0.0,0.0,8.789371e-05,6.679481e-06,6.9039133e-06,1.6205273e-05,0.025984537,0.026001826,0.017312035,0.2659328,0.26598468,0.22922507,2.1016777e-11,2.1021913e-11,4.3031557e-11,5.0557613e-08,5.047603e-08,5e-08,0.0,0.0,0.0,0.0,0.0,0.0,0.0,0.0,24
583253462,583153262,0.08114482,0.02544062,0.05629669,0.9947859,-0.08598467,-0.014499422,-0.014218898,2.7504623,-1.7289748,4.9555473,3.4885565e-05,-6.987278e-05,-7.106695e-06,-0.0016387453,0.0037222807,-0.0011404824,0.76582104,-0.19441523,0.12537791,0.0,0.0,0.0,0.0,0.0,8.8022476e-05,6.7080196e-06,6.9741027e-06,1.619555e-05,0.02615864,0.026162175,0.017391672,0.26972273,0.26976496,0.2315219,2.1066636e-11,2.1080237e-11,4.3042604e-11,5.0566168e-08,5.0472416e-08,5.000027e-08,0.0,0.0,0.0,0.0,0.0,0.0,0.0,0.0,24
584253372,584153150,0.08036712,0.027626706,0.055210236,0.99485165,-0.110036075,-0.0089362115,-0.020780824,2.6094596,-1.7515893,4.913015,3.4771394e-05,-6.9815775e-05,-7.26508e-06,-0.0016388063,0.0037226886,-0.0011321584,0.76582104,-0.19441523,0.12537791,0.0,0.0,0.0,0.0,0.0,8.779105e-05,6.657251e-06,6.962896e-06,1.6183309e-05,0.025521692,0.02551478,0.01714589,0.26843545,0.26846498,0.22828,2.1033524e-11,2.105957e-11,4.297376e-11,5.0574826e-08,5.0468696e-08,5e-08,0.0,0.0,0.0,0.0,0.0,0.0,0.0,0.0,24
585253237,585153038,0.07907529,0.030227058,0.054073352,0.994942,-0.093198754,-0.014855321,-0.0041135713,2.508952,-1.824262,4.8900666,3.4554723e-05,-6.989464e-05,-7.56902e-06,-0.0016389275,0.0037228419,-0.0011275125,0.76582104,-0.19441523,0.12537791,0.0,0.0,0.0,0.0,0.0,8.789826e-05,6.6168554e-06,6.952813e-06,1.6173295e-05,0.024785079,0.024771634,0.017026613,0.26429573,0.26431322,0.22848007,2.1005989e-11,2.1046867e-11,4.2976806e-11,5.058363e-08,5.046645e-08,5.000027e-08,0.0,0.0,0.0,0.0,0.0,0.0,0.0,0.0,24
586253223,586152926,0.07751392,0.03174417,0.053672224,0.99503934,-0.117813036,0.022240348,-0.0011416789,2.3312674,-1.8207774,4.9062877,3.4525197e-05,-6.967587e-05,-8.06323e-06,-0.0016389556,0.0037227245,-0.0011306608,0.76582104,-0.19441523,0.12537791,0.0,0.0,0.0,0.0,0.0,8.766083e-05,6.825304e-06,7.1801032e-06,1.6164626e-05,0.02670304,0.026681295,0.017315552,0.27276984,0.27277493,0.22906914,2.119111e-11,2.1243724e-11,4.291178e-11,5.0592543e-08,5.0466713e-08,5e-08,0.0,0.0,0.0,0.0,0.0,0.0,0.0,0.0,24
587253031,587152814,0.07596132,0.030178247,0.054325033,0.9951723,-0.062035024,0.07413528,-0.011324362,2.3257825,-1.7321675,4.947094,3.472296e-05,-7.0099e-05,-8.478068e-06,-0.001638878,0.0037220486,-0.0011472893,0.76582104,-0.19441523,0.12537791,0.0,0.0,0.0,0.0,0.0,8.7756256e-05,6.827043e-06,7.181828e-06,1.6158074e-05,0.026783308,0.026759738,0.017424082,0.27376375,0.27375925,0.2315847,2.1170047e-11,2.123981e-11,4.2913006e-11,5.0601432e-08,5.0468007e-08,5.000027e-08,0.0,0.0,0.0,0.0,0.0,0.0,0.0,0.0,24
588252950,588152701,0.07451649,0.029890481,0.05535318,0.99523365,-0.04841855,0.06226665,-0.003978306,2.3239243,-1.7355165,5.0133224,3.4306388e-05,-7.036901e-05,-8.889154e-06,-0.0016390098,0.0037210817,-0.0011780125,0.76582104,-0.19441523,0.12537791,0.0,0.0,0.0,0.0,0.0,8.7831315e-05,6.44147e-06,6.7817655e-06,1.614872e-05,0.022706987,0.022693507,0.01642292,0.25477532,0.254775,0.2222966,2.0790489e-11,2.088615e-11,4.290288e-11,5.0610254e-08,5.046959e-08,5.0000093e-08,0.0,0.0,0.0,0.0,0.0,0.0,0.0,0.0,24
589252780,589152588,0.07285687,0.02872368,0.05547799,0.99538386,-0.01697196,0.056393813,0.008201002,2.3225293,-1.6804773,5.0392933,3.4124754e-05,-7.0629074e-05,-9.407196e-06,-0.0016390717,0.0037206542,-0.0011948108,0.76582104,-0.19441523,0.12537791,0.0,0.0,0.0,0.0,0.0,8.7601875e-05,6.4954565e-06,6.830505e-06,1.614638e-05,0.02270926,0.022701867,0.01644016,0.25253516,0.25253084,0.22287422,2.084151e-11,2.0951725e-11,4.2840245e-11,5.0619104e-08,5.047385e-08,5.000027e-08,0.0,0.0,0.0,0.0,0.0,0.0,0.0,0.0,24
590252677,590152475,0.071392246,0.030389702,0.054264013,0.9955074,0.0068624457,0.07896732,0.043833453,2.2963955,-1.5745647,5.0721774,3.4147066e-05,-7.0691196e-05,-9.682688e-06,-0.0016391616,0.0037204626,-0.0012076774,0.76582104,-0.19441523,0.12537791,0.0,0.0,0.0,0.0,0.0,8.772905e-05,6.6646194e-06,7.000745e-06,1.6139149e-05,0.024092263,0.024088759,0.016651375,0.25766057,0.25765145,0.22227654,2.09912e-11,2.111286e-11,4.2858276e-11,5.062793e-08,5.047934e-08,5.000009e-08,0.0,0.0,0.0,0.0,0.0,0.0,0.0,0.0,24
591252629,591152362,0.07081937,0.029971007,0.053468183,0.99560416,0.04140093,0.10790381,0.051887136,2.318752,-1.4452082,5.107057,3.4170167e-05,-7.0857444e-05,-9.654915e-06,-0.0016391095,0.0037204633,-0.00120921,0.76582104,-0.19441523,0.12537791,0.0,0.0,0.0,0.0,0.0,8.752341e-05,7.0254246e-06,7.3622573e-06,1.6138321e-05,0.027885914,0.027885374,0.017541364,0.27731586,0.27730012,0.23056482,2.1308615e-11,2.1436485e-11,4.280941e-11,5.0636707e-08,5.0486015e-08,5.000036e-08,0.0,0.0,0.0,0.0,0.0,0.0,0.0,0.0,24
592252442,592152248,0.07068932,0.031603664,0.056592856,0.9953901,0.027279353,0.08475689,0.020311909,2.2508461,-1.3678579,5.088213,3.3777564e-05,-7.068223e-05,-9.6542235e-06,-0.0016390228,0.003720802,-0.0011954127,0.76582104,-0.19441523,0.12537791,0.0,0.0,0.0,0.0,0.0,8.7612294e-05,7.0631104e-06,7.380578e-06,1.6117321e-05,0.02841839,0.028423185,0.017612487,0.28392842,0.28391507,0.23053113,2.1286523e-11,2.1427153e-11,4.2827127e-11,5.0645383e-08,5.0493103e-08,5.000009e-08,0.0,0.0,0.0,0.0,0.0,0.0,0.0,0.0,24
593252329,593152134,0.07122931,0.03828111,0.07550503,0.9938612,-0.019243585,-0.11401535,0.0039849905,2.1303217,-1.4600245,5.0672994,3.329024e-05,-7.041702e-05,-9.179482e-06,-0.0016389128,0.0037210956,-0.001184988,0.76582104,-0.19441523,0.12537791,0.0,0.0,0.0,0.0,0.0,8.75324e-05,7.3567207e-06,7.6002843e-06,1.5987274e-05,0.0295478,0.029557047,0.017925547,0.2940371,0.29403055,0.235557,2.1346518e-11,2.1494178e-11,4.2852145e-11,5.0653977e-08,5.0500795e-08,5.0000363e-08,0.0,0.0,0.0,0.0,0.0,0.0,0.0,0.0,24
594252244,594152020,0.06978691,0.03657296,0.06369805,0.99485415,-0.04992908,-0.24082369,0.0089268,2.0095377,-1.5589658,5.039788,3.359535e-05,-7.01822e-05,-8.908523e-06,-0.001639038,0.0037211715,-0.0011835289,0.76582104,-0.19441523,0.12537791,0.0,0.0,0.0,0.0,0.0,8.749407e-05,7.2891885e-06,7.5809235e-06,1.6038302e-05,0.030721983,0.03073143,0.018046672,0.30791482,0.3079163,0.2364561,2.1396104e-11,2.1543102e-11,4.2812025e-11,5.0662344e-08,5.0508678e-08,5.000009e-08,0.0,0.0,0.0,0.0,0.0,0.0,0.0,0.0,24
595252097,595151905,0.06938963,0.037920743,0.06220357,0.99492604,-0.111012444,-0.32343632,0.010047975,1.7334939,-1.7485358,5.042536,3.3943583e-05,-6.9581205e-05,-8.803449e-06,-0.0016394237,0.0037211895,-0.0011859526,0.76582104,-0.19441523,0.12537791,0.0,0.0,0.0,0.0,0.0,8.7651824e-05,7.286281e-06,7.5766484e-06,1.6033617e-05,0.031347513,0.031355824,0.018251704,0.3207935,0.32080138,0.24124625,2.1392757e-11,2.153814e-11,4.28464e-11,5.0670433e-08,5.0516864e-08,5.000036e-08,0.0,0.0,0.0,0.0,0.0,0.0,0.0,0.0,24
596252019,596151791,0.068718754,0.03494654,0.060832873,0.99516624,-0.059721287,-0.33511323,0.005337718,1.747512,-1.881335,5.0524616,3.4779587e-05,-7.008551e-05,-8.914798e-06,-0.001639669,0.0037209978,-0.0011962743,0.76582104,-0.19441523,0.12537791,0.0,0.0,0.0,0.0,0.0,8.7818604e-05,7.168711e-06,7.4442337e-06,1.6041244e-05,0.030423395,0.030435095,0.017981071,0.32422563,0.32423502,0.23877494,2.1302361e-11,2.1447292e-11,4.287925e-11,5.067822e-08,5.0525227e-08,5.0000178e-08,0.0,0.0,0.0,0.0,0.0,0.0,0.0,0.0,24
597251871,597151675,0.06774295,0.03436616,0.058762528,0.9953778,-0.03546864,-0.2901666,0.011175248,1.7238276,-1.9318852,5.0627255,3.5771813e-05,-7.0190836e-05,-9.159753e-06,-0.0016400939,0.0037208027,-0.0012047354,0.76582104,-0.19441523,0.12537791,0.0,0.0,0.0,0.0,0.0,8.76363e-05,7.0753126e-06,7.3417536e-06,1.6042151e-05,0.029413132,0.029428745,0.01786725,0.32440275,0.32441235,0.24004784,2.1237458e-11,2.138334e-11,4.2836623e-11,5.0686005e-08,5.05338e-08,5.000036e-08,0.0,0.0,0.0,0.0,0.0,0.0,0.0,0.0,24
598251784,598151560,0.06649298,0.037046473,0.057096872,0.9954628,-0.016264847,-0.22815344,-0.0025001853,1.6741464,-1.9518814,5.0346746,3.659336e-05,-7.013187e-05,-9.421333e-06,-0.0016403496,0.0037207,-0.0012043539,0.76582104,-0.19441523,0.12537791,0.0,0.0,0.0,0.0,0.0,8.7780216e-05,7.0964247e-06,7.358027e-06,1.60292e-05,0.029245839,0.02926182,0.01768435,0.32673877,0.3267497,0.23710911,2.1261524e-11,2.1410651e-11,4.286525e-11,5.069386e-08,5.05425e-08,5.000018e-08,0.0,0.0,0.0,0.0,0.0,0.0,0.0,0.0,24
599251699,599151444,0.06541152,0.036301993,0.055812888,0.9956347,0.00791166,-0.15511996,0.0031078819,1.6468179,-1.9352521,5.0095983,3.7252867e-05,-7.0078466e-05,-9.711979e-06,-0.0016405641,0.0037206244,-0.0012065418,0.76582104,-0.19441523,0.12537791,0.0,0.0,0.0,0.0,0.0,8.7590604e-05,7.093086e-06,7.3405467e-06,1.6030372e-05,0.029179445,0.02919299,0.017733281,0.33026913,0.33028078,0.23904839,2.126154e-11,2.141603e-11,4.2815095e-11,5.070174e-08,5.0551318e-08,5.0000363e-08,0.0,0.0,0.0,0.0,0.0,0.0,0.0,0.0,24
600251537,600151328,0.06475207,0.03527524,0.05462691,0.9957805,0.019994853,-0.07078021,-0.0142284455,1.5832387,-1.8535609,4.968137,3.7759008e-05,-6.990994e-05,-9.814288e-06,-0.0016405544,0.0037205955,-0.001197924,0.76582104,-0.19441523,0.12537791,0.0,0.0,0.0,0.0,0.0,8.774093e-05,7.1487098e-06,7.381354e-06,1.6035032e-05,0.029765535,0.029775798,0.017713984,0.33682945,0.3368422,0.23728336,2.1310818e-11,2.1472374e-11,4.2835232e-11,5.0709595e-08,5.0560207e-08,5.000009e-08,0.0,0.0,0.0,0.0,0.0,0.0,0.0,0.0,24
601251403,601151211,0.06441677,0.034377567,0.05391251,0.99587256,-0.025546338,0.01312977,-0.036912072,1.3821912,-1.7060611,4.9126678,3.805605e-05,-6.927908e-05,-9.784012e-06,-0.0016405188,0.0037206067,-0.0011869823,0.76582104,-0.19441523,0.12537791,0.0,0.0,0.0,0.0,0.0,8.788426e-05,7.2090065e-06,7.4263435e-06,1.6039688e-05,0.030401843,0.03040848,0.01791116,0.34190473,0.34191763,0.24033879,2.1361699e-11,2.1531504e-11,4.285243e-11,5.0717567e-08,5.0569124e-08,5.000045e-08,0.0,0.0,0.0,0.0,0.0,0.0,0.0,0.0,24
602251333,602151094,0.06449394,0.033316903,0.054917824,0.99584866,-0.10375746,0.09038566,-0.047989145,1.0820787,-1.4167898,4.8528852,3.8476166e-05,-6.862322e-05,-9.578039e-06,-0.0016405177,0.0037205764,-0.0011785551,0.76582104,-0.19441523,0.12537791,0.0,0.0,0.0,0.0,0.0,8.766788e-05,7.407978e-06,7.611786e-06,1.6035181e-05,0.03255226,0.032559525,0.018149668,0.3560702,0.3560854,0.24085847,2.1522204e-11,2.1698025e-11,4.2799056e-11,5.0725742e-08,5.0578087e-08,5.0000178e-08,0.0,0.0,0.0,0.0,0.0,0.0,0.0,0.0,24
603251184,603150977,0.0643325,0.0340052,0.05512217,0.9958245,-0.12858014,0.13835336,-0.0403704,0.87778294,-1.1942115,4.8417926,3.843239e-05,-6.849256e-05,-9.387238e-06,-0.0016406202,0.003720563,-0.0011845134,0.76582104,-0.19441523,0.12537791,0.0,0.0,0.0,0.0,0.0,8.779294e-05,7.551128e-06,7.74872e-06,1.6028967e-05,0.034462918,0.034466613,0.018533329,0.3725249,0.37254182,0.24613224,2.162787e-11,2.1810685e-11,4.281864e-11,5.0734144e-08,5.0587072e-08,5.0000452e-08,0.0,0.0,0.0,0.0,0.0,0.0,0.0,0.0,24
604251104,604150859,0.06543533,0.033784997,0.059691843,0.99549675,-0.11906516,0.12122861,-0.032556344,0.75246006,-1.0852948,4.848561,3.7970396e-05,-6.867325e-05,-8.922315e-06,-0.0016407344,0.0037205482,-0.0011925689,0.76582104,-0.19441523,0.12537791,0.0,0.0,0.0,0.0,0.0,8.787334e-05,7.4733703e-06,7.651494e-06,1.6011838e-05,0.03357692,0.033577897,0.01831877,0.37553868,0.37555164,0.24359868,2.1512665e-11,2.1705925e-11,4.2833074e-11,5.0742656e-08,5.059605e-08,5.000018e-08,0.0,0.0,0.0,0.0,0.0,0.0,0.0,0.0,24
605250942,605150741,0.065499656,0.030224506,0.061890893,0.99547267,-0.061445307,0.10870853,-0.017807959,0.7881163,-0.91569537,4.8825703,3.7885628e-05,-6.923283e-05,-8.603691e-06,-0.0016409365,0.003720491,-0.0012100752,0.76582104,-0.19441523,0.12537791,0.0,0.0,0.0,0.0,0.0,8.764984e-05,7.2306016e-06,7.3948977e-06,1.6008697e-05,0.030742727,0.030743314,0.017983383,0.36414504,0.36415306,0.24285218,2.1294723e-11,2.1497333e-11,4.2774596e-11,5.0751332e-08,5.0605042e-08,5.0000452e-08,0.0,0.0,0.0,0.0,0.0,0.0,0.0,0.0,24
606250874,606150622,0.06457476,0.030338885,0.05698281,0.9958226,-0.07693497,0.120988704,-0.0010559532,0.6773116,-0.707867,4.896792,3.7989477e-05,-6.915332e-05,-8.506243e-06,-0.001640957,0.003720463,-0.0012161708,0.76582104,-0.19441523,0.12537791,0.0,0.0,0.0,0.0,0.0,8.783581e-05,7.051593e-06,7.2390185e-06,1.6024464e-05,0.028641623,0.028640186,0.017499436,0.3504538,0.35045886,0.2368946,2.1195358e-11,2.1403617e-11,4.279676e-11,5.0760093e-08,5.0614034e-08,5.000018e-08,0.0,0.0,0.0,0.0,0.0,0.0,0.0,0.0,24
607250781,607150504,0.06415514,0.03086557,0.055269193,0.99593014,-0.054826524,0.14108661,0.011998202,0.62642854,-0.58517087,4.925437,3.790764e-05,-6.928902e-05,-8.402564e-06,-0.0016409786,0.0037204428,-0.0012245885,0.76582104,-0.19441523,0.12537791,0.0,0.0,0.0,0.0,0.0,8.764022e-05,6.9387283e-06,7.1404525e-06,1.6026139e-05,0.027179848,0.027177287,0.017121969,0.3382128,0.33821577,0.23159954,2.1119712e-11,2.133235e-11,4.2747503e-11,5.0768875e-08,5.062302e-08,5e-08,0.0,0.0,0.0,0.0,0.0,0.0,0.0,0.0,24
608250586,608150385,0.06370608,0.031179713,0.054935817,0.9959676,-0.02114525,0.10989197,0.0064303335,0.6011598,-0.64318097,4.920316,3.730695e-05,-6.9537455e-05,-8.384794e-06,-0.0016409606,0.0037204672,-0.0012186025,0.76582104,-0.19441523,0.12537791,0.0,0.0,0.0,0.0,0.0,8.7777684e-05,6.838793e-06,7.049691e-06,1.6027796e-05,0.025715455,0.025712386,0.016902434,0.3239218,0.32392335,0.23021041,2.1046304e-11,2.1265026e-11,4.2770516e-11,5.077772e-08,5.0632007e-08,5.000018e-08,0.0,0.0,0.0,0.0,0.0,0.0,0.0,0.0,24
609250490,609150265,0.06329075,0.02993181,0.054605182,0.99605054,0.013064102,0.12136923,0.007748985,0.60409415,-0.62952095,4.914513,3.7076836e-05,-6.969082e-05,-8.424739e-06,-0.0016409421,0.0037204886,-0.0012172974,0.76582104,-0.19441523,0.12537791,0.0,0.0,0.0,0.0,0.0,8.791613e-05,6.674322e-06,6.887775e-06,1.6034832e-05,0.02385654,0.023853566,0.0164179,0.30764735,0.30764815,0.22380939,2.090737e-11,2.113416e-11,4.2791336e-11,5.078656e-08,5.0641006e-08,5e-08,0.0,0.0,0.0,0.0,0.0,0.0,0.0,0.0,24
610250340,610150145,0.06246932,0.030548332,0.054298446,0.9961004,0.0077489773,0.10978231,0.026957214,0.56888074,-0.7173445,4.9289412,3.649338e-05,-6.9628004e-05,-8.5303445e-06,-0.0016408312,0.0037205066,-0.0012163348,0.76582104,-0.19441523,0.12537791,0.0,0.0,0.0,0.0,0.0,8.771018e-05,6.903361e-06,7.123056e-06,1.6034219e-05,0.025834199,0.02582943,0.01690256,0.30877522,0.30877256,0.2276255,2.112261e-11,2.1351615e-11,4.2746296e-11,5.0795443e-08,5.0649998e-08,5.000027e-08,0.0,0.0,0.0,0.0,0.0,0.0,0.0,0.0,24
611250247,611150024,0.06196294,0.029944047,0.05598771,0.9960569,0.020384932,0.0768118,0.020990621,0.55539405,-0.8313502,4.9494257,3.5958772e-05,-6.96208e-05,-8.413055e-06,-0.001640709,0.0037205124,-0.0012192792,0.76582104,-0.19441523,0.12537791,0.0,0.0,0.0,0.0,0.0,8.783128e-05,6.753238e-06,6.9671073e-06,1.6026243e-05,0.024136806,0.024133738,0.016469542,0.2941383,0.29413566,0.22182189,2.0973445e-11,2.1211767e-11,4.276664e-11,5.080425e-08,5.0658997e-08,5e-08,0.0,0.0,0.0,0.0,0.0,0.0,0.0,0.0,24
612250145,612149904,0.06241289,0.02954771,0.06113753,0.9957378,0.033402245,0.04523808,0.017134244,0.56197125,-0.91243637,4.961532,3.5750014e-05,-6.962034e-05,-8.118924e-06,-0.0016406693,0.0037204935,-0.0012197244,0.76582104,-0.19441523,0.12537791,0.0,0.0,0.0,0.0,0.0,8.756868e-05,6.676056e-06,6.870834e-06,1.6000642e-05,0.022806587,0.022806054,0.016257323,0.2816449,0.28164253,0.22059745,2.0858742e-11,2.1102757e-11,4.2717514e-11,5.081304e-08,5.0667992e-08,5.0000267e-08,0.0,0.0,0.0,0.0,0.0,0.0,0.0,0.0,24
613250003,613149782,0.06303342,0.0319573,0.058949944,0.99575627,0.06307282,-0.022752546,0.017172053,0.636216,-1.0785176,4.947851,3.5358502e-05,-6.984117e-05,-7.646955e-06,-0.0016406894,0.003720494,-0.0012103346,0.76582104,-0.19441523,0.12537791,0.0,0.0,0.0,0.0,0.0,8.7722554e-05,6.857888e-06,7.074395e-06,1.6005737e-05,0.02451975,0.024521586,0.016549591,0.2822008,0.28219754,0.22034004,2.1045977e-11,2.1289508e-11,4.2749866e-11,5.08218e-08,5.0676984e-08,5e-08,0.0,0.0,0.0,0.0,0.0,0.0,0.0,0.0,24
614260047,614159660,0.06277899,0.030908402,0.05641306,0.9959523,0.04963448,-0.026366685,0.017896194,0.625601,-1.2123502,4.9312224,3.5308723e-05,-6.9497924e-05,-7.4417844e-06,-0.0016407266,0.0037204686,-0.0011993604,0.76582104,-0.19441523,0.12537791,0.0,0.0,0.0,0.0,0.0,8.7945875e-05,7.1399627e-06,7.367697e-06,1.6022195e-05,0.027896993,0.02789995,0.017389197,0.2950859,0.29508254,0.22863203,2.1318357e-11,2.155917e-11,4.2795305e-11,5.083073e-08,5.0686072e-08,5.000036e-08,0.0,0.0,0.0,0.0,0.0,0.0,0.0,0.0,24
615249730,615149539,0.061905522,0.016856566,0.06629816,0.995735,0.030571727,-0.034361366,0.0131053645,0.6119921,-1.3435615,4.9410815,3.5240755e-05,-6.924129e-05,-7.153936e-06,-0.0016407083,0.003720409,-0.0011982279,0.76582104,-0.19441523,0.12537791,0.0,0.0,0.0,0.0,0.0,8.766409e-05,7.0232327e-06,7.1946365e-06,1.6009511e-05,0.027075853,0.027078891,0.017226098,0.29288658,0.29288426,0.22654712,2.1143816e-11,2.1386887e-11,4.2739798e-11,5.083943e-08,5.0694947e-08,5.000009e-08,0.0,0.0,0.0,0.0,0.0,0.0,0.0,0.0,24
616249612,616149417,0.06248745,0.02040513,0.060710456,0.9959886,0.04548904,-0.071997434,0.012098364,0.67857134,-1.4629496,4.9621525,3.5400542e-05,-6.938188e-05,-6.7585656e-06,-0.0016406947,0.0037203096,-0.0012078536,0.76582104,-0.19441523,0.12537791,0.0,0.0,0.0,0.0,0.0,8.7848486e-05,6.8036006e-06,7.010078e-06,1.602618e-05,0.025478022,0.02548037,0.017035302,0.28496763,0.28496605,0.2272663,2.099209e-11,2.1237187e-11,4.277035e-11,5.084805e-08,5.0703893e-08,5.000027e-08,0.0,0.0,0.0,0.0,0.0,0.0,0.0,0.0,24
617259541,617159293,0.06312011,0.017536258,0.059357647,0.9960848,0.031549443,-0.07991953,0.059303917,0.69504064,-1.5820159,4.9781537,3.5620844e-05,-6.929711e-05,-6.287786e-06,-0.0016407083,0.0037201873,-0.0012096403,0.76582104,-0.19441523,0.12537791,0.0,0.0,0.0,0.0,0.0,8.771192e-05,6.9524617e-06,7.1743248e-06,1.6041457e-05,0.027068708,0.027067868,0.017300325,0.29132146,0.29132074,0.22881,2.1162374e-11,2.1404219e-11,4.2743222e-11,5.085654e-08,5.0712927e-08,5.000018e-08,0.0,0.0,0.0,0.0,0.0,0.0,0.0,0.0,24
618249406,618149171,0.063201174,0.020017562,0.05752099,0.99614066,-0.005791076,-0.0742673,0.060883697,0.61459154,-1.6915714,5.003132,3.571985e-05,-6.902939e-05,-6.132156e-06,-0.0016407417,0.0037201724,-0.0012025384,0.76582104,-0.19441523,0.12537791,0.0,0.0,0.0,0.0,0.0,8.7812776e-05,6.8564177e-06,7.0988285e-06,1.604267e-05,0.026590439,0.026588002,0.017298238,0.28956276,0.28956193,0.23060767,2.1088862e-11,2.133249e-11,4.2766412e-11,5.0864248e-08,5.0721788e-08,5.000027e-08,0.0,0.0,0.0,0.0,0.0,0.0,0.0,0.0,24
619249268,619149047,0.06396201,0.027362585,0.061365027,0.99568796,-0.00309577,-0.043392736,0.027898245,0.5900747,-1.7229608,4.968549,3.5957353e-05,-6.9071655e-05,-6.0316456e-06,-0.0016412596,0.0037201708,-0.0011790176,0.76582104,-0.19441523,0.12537791,0.0,0.0,0.0,0.0,0.0,8.7870874e-05,6.608392e-06,6.8547874e-06,1.6002676e-05,0.02340846,0.023410141,0.01652304,0.27259523,0.2725949,0.22343656,2.0825737e-11,2.1076571e-11,4.279537e-11,5.0871293e-08,5.073075e-08,5e-08,0.0,0.0,0.0,0.0,0.0,0.0,0.0,0.0,24
620259115,620158922,0.064207256,0.02592627,0.056872413,0.9959773,0.0027069876,-0.04720023,0.047489595,0.6020487,-1.742286,4.9829946,3.6187197e-05,-6.9093105e-05,-5.582813e-06,-0.0016414162,0.003720124,-0.0011752994,0.76582104,-0.19441523,0.12537791,0.0,0.0,0.0,0.0,0.0,8.776599e-05,6.7146075e-06,6.985835e-06,1.6028096e-05,0.024497094,0.024504073,0.016834004,0.2726933,0.27269363,0.22727112,2.0985783e-11,2.1236244e-11,4.276615e-11,5.087906e-08,5.0739835e-08,5.0000452e-08,0.0,0.0,0.0,0.0,0.0,0.0,0.0,0.0,24
621259004,621158797,0.06450803,0.02299216,0.05710452,0.9960167,-0.0398182,0.035625175,0.034529556,0.4578865,-1.6462662,4.9900093,3.6552156e-05,-6.846267e-05,-5.2674563e-06,-0.0016416517,0.0037200057,-0.0011617834,0.76582104,-0.19441523,0.12537791,0.0,0.0,0.0,0.0,0.0,8.791354e-05,6.7933706e-06,7.060173e-06,1.6036312e-05,0.025258608,0.025266998,0.016893867,0.2725703,0.27257255,0.22593506,2.1064622e-11,2.1317266e-11,4.2798678e-11,5.0886857e-08,5.0748817e-08,5.0000178e-08,0.0,0.0,0.0,0.0,0.0,0.0,0.0,0.0,24
622248864,622148674,0.06499511,0.02039926,0.055757467,0.99611783,-0.04416426,0.077424735,0.01234587,0.3976304,-1.5536988,4.960134,3.661934e-05,-6.845271e-05,-4.7829067e-06,-0.0016418971,0.0037199457,-0.0011467421,0.76582104,-0.19441523,0.12537791,0.0,0.0,0.0,0.0,0.0,8.80246e-05,6.889606e-06,7.1603286e-06,1.6050471e-05,0.026579391,0.026588527,0.01724139,0.27666664,0.27667147,0.22952919,2.1161968e-11,2.1418216e-11,4.281897e-11,5.089476e-08,5.0757667e-08,5.000036e-08,0.0,0.0,0.0,0.0,0.0,0.0,0.0,0.0,24
623248930,623148548,0.06524532,0.013746904,0.052867442,0.99637306,-0.028948126,0.11086479,0.010371768,0.39487743,-1.5246253,4.918927,3.632559e-05,-6.871735e-05,-4.5089323e-06,-0.0016420983,0.003719973,-0.0011311058,0.76582104,-0.19441523,0.12537791,0.0,0.0,0.0,0.0,0.0,8.785548e-05,6.8679215e-06,7.1490267e-06,1.6086742e-05,0.027178986,0.027185159,0.017307125,0.28042823,0.28043386,0.22894654,2.1173284e-11,2.1435487e-11,4.2773115e-11,5.0902592e-08,5.0766587e-08,5.000009e-08,0.0,0.0,0.0,0.0,0.0,0.0,0.0,0.0,24
624258619,624158421,0.064975835,0.013181666,0.05685169,0.99617887,-0.04149831,0.111395955,0.01903695,0.3531138,-1.5750196,4.8863807,3.57221e-05,-6.886574e-05,-4.4718254e-06,-0.0016423269,0.0037200032,-0.0011118143,0.76582104,-0.19441523,0.12537791,0.0,0.0,0.0,0.0,0.0,8.798998e-05,6.6823095e-06,6.9503267e-06,1.606997e-05,0.025287485,0.025288662,0.017091667,0.274528,0.27453175,0.22980785,2.0965566e-11,2.1242666e-11,4.2803133e-11,5.091001e-08,5.0775615e-08,5.0000363e-08,0.0,0.0,0.0,0.0,0.0,0.0,0.0,0.0,24
625248543,625148297,0.065254346,0.016526736,0.05572281,0.9961745,-0.054595053,0.12442213,0.0060496083,0.30511263,-1.5394005,4.866623,3.555119e-05,-6.895062e-05,-4.3061286e-06,-0.001642537,0.0037199773,-0.0011011985,0.76582104,-0.19441523,0.12537791,0.0,0.0,0.0,0.0,0.0,8.772235e-05,6.6748175e-06,6.95247e-06,1.606807e-05,0.025137205,0.025137605,0.016944569,0.27315515,0.27315757,0.22675638,2.0966538e-11,2.1252304e-11,4.274571e-11,5.091697e-08,5.0784468e-08,5.000009e-08,0.0,0.0,0.0,0.0,0.0,0.0,0.0,0.0,24
626248367,626148170,0.06553833,0.017832365,0.0554118,0.99615073,-0.03992745,0.15364115,0.007865483,0.26770306,-1.4834813,4.866373,3.532724e-05,-6.905442e-05,-4.0716695e-06,-0.0016425,0.003719964,-0.0011019646,0.76582104,-0.19441523,0.12537791,0.0,0.0,0.0,0.0,0.0,8.784817e-05,6.8834056e-06,7.165997e-06,1.6069393e-05,0.027139008,0.027140962,0.017427795,0.28214005,0.28214142,0.23200685,2.1159808e-11,2.1450381e-11,4.2775748e-11,5.092419e-08,5.0793417e-08,5.0000363e-08,0.0,0.0,0.0,0.0,0.0,0.0,0.0,0.0,24
627258268,627158041,0.06562164,0.016853897,0.055442173,0.9961606,-0.010137833,0.14034258,0.014223962,0.28772354,-1.4999243,4.8755603,3.4788052e-05,-6.936342e-05,-3.8661087e-06,-0.0016424448,0.003719995,-0.0011018971,0.76582104,-0.19441523,0.12537791,0.0,0.0,0.0,0.0,0.0,8.802774e-05,7.0749616e-06,7.359733e-06,1.6076026e-05,0.029393317,0.029396929,0.017802779,0.29593372,0.2959349,0.23459224,2.1328888e-11,2.162422e-11,4.281556e-11,5.0931494e-08,5.0802452e-08,5.0000178e-08,0.0,0.0,0.0,0.0,0.0,0.0,0.0,0.0,24
628258188,628157914,0.065711066,0.017274596,0.05469293,0.99618894,0.022016507,0.158273,0.018237727,0.32984954,-1.4663864,4.8835926,3.4486642e-05,-6.9507536e-05,-3.6242993e-06,-0.0016424169,0.0037199943,-0.0011012224,0.76582104,-0.19441523,0.12537791,0.0,0.0,0.0,0.0,0.0,8.781806e-05,7.2239386e-06,7.513752e-06,1.6079666e-05,0.031539615,0.031543527,0.018093098,0.31197268,0.31197315,0.23646997,2.1454451e-11,2.1753072e-11,4.2771883e-11,5.0938773e-08,5.081138e-08,5e-08,0.0,0.0,0.0,0.0,0.0,0.0,0.0,0.0,24
629247980,629147787,0.065735266,0.016320722,0.056169096,0.99612135,0.048474375,0.11063433,0.020950029,0.39162624,-1.5904678,4.892544,3.3641496e-05,-6.9664464e-05,-3.4026357e-06,-0.0016422436,0.003720028,-0.0011023614,0.76582104,-0.19441523,0.12537791,0.0,0.0,0.0,0.0,0.0,8.7892244e-05,7.0299952e-06,7.312836e-06,1.6078078e-05,0.029920062,0.029923057,0.01794018,0.3098294,0.30982897,0.23754933,2.1259385e-11,2.1567428e-11,4.2786066e-11,5.094594e-08,5.0820216e-08,5.0000178e-08,0.0,0.0,0.0,0.0,0.0,0.0,0.0,0.0,24
630257926,630157658,0.06580538,0.015884979,0.056216005,0.9961211,0.03251127,0.10514528,0.015032349,0.34699067,-1.6059798,4.8938565,3.330224e-05,-6.9400936e-05,-3.3009396e-06,-0.0016421999,0.0037199783,-0.0011012476,0.76582104,-0.19441523,0.12537791,0.0,0.0,0.0,0.0,0.0,8.772417e-05,6.9832627e-06,7.2649837e-06,1.6081998e-05,0.029439325,0.029442528,0.017781876,0.31159168,0.31159046,0.23613976,2.1220642e-11,2.1532451e-11,4.2750654e-11,5.0953503e-08,5.082923e-08,5e-08,0.0,0.0,0.0,0.0,0.0,0.0,0.0,0.0,24
631257723,631157529,0.06603086,0.016162483,0.055080824,0.99616504,-0.008256861,0.1372047,0.013217622,0.20969903,-1.5543305,4.8633,3.318199e-05,-6.901178e-05,-3.1431994e-06,-0.0016423956,0.0037198716,-0.0010870936,0.76582104,-0.19441523,0.12537791,0.0,0.0,0.0,0.0,0.0,8.786541e-05,7.1605036e-06,7.4457907e-06,1.6091242e-05,0.031281363,0.031285193,0.01815139,0.32378465,0.32378358,0.24109937,2.1391425e-11,2.1702976e-11,4.278329e-11,5.0961326e-08,5.083816e-08,5.000027e-08,0.0,0.0,0.0,0.0,0.0,0.0,0.0,0.0,24
632247724,632147401,0.06588333,0.015972018,0.05611215,0.9961204,-0.046269227,0.1455997,0.006660828,0.018169103,-1.5191184,4.8508706,3.284145e-05,-6.872703e-05,-3.0245858e-06,-0.001642505,0.0037197818,-0.0010737521,0.76582104,-0.19441523,0.12537791,0.0,0.0,0.0,0.0,0.0,8.794456e-05,7.2655653e-06,7.544915e-06,1.608842e-05,0.032539275,0.03254401,0.0184092,0.33526054,0.3352597,0.24491812,2.1468974e-11,2.178118e-11,4.2804853e-11,5.0969188e-08,5.0847e-08,5.0000363e-08,0.0,0.0,0.0,0.0,0.0,0.0,0.0,0.0,24
633257465,633157270,0.06626166,0.016067015,0.057574246,0.9960103,-0.04607361,0.115774736,-0.016007533,-0.08160357,-1.5460128,4.7995853,3.2496544e-05,-6.8840054e-05,-2.763692e-06,-0.0016426179,0.0037197454,-0.0010574876,0.76582104,-0.19441523,0.12537791,0.0,0.0,0.0,0.0,0.0,8.7762775e-05,7.0845244e-06,7.356582e-06,1.6082684e-05,0.030775242,0.030780556,0.018067798,0.33264393,0.33264318,0.24193491,2.1286884e-11,2.1601528e-11,4.277006e-11,5.097727e-08,5.0856045e-08,5.000027e-08,0.0,0.0,0.0,0.0,0.0,0.0,0.0,0.0,24
634257333,634157140,0.066769116,0.015620798,0.056469094,0.9960468,-0.04882932,0.076281585,-0.0049431794,-0.1891395,-1.6432459,4.7969923,3.2031643e-05,-6.884686e-05,-2.4161977e-06,-0.0016425255,0.003719717,-0.0010562267,0.76582104,-0.19441523,0.12537791,0.0,0.0,0.0,0.0,0.0,8.791286e-05,7.2096345e-06,7.4875293e-06,1.6094376e-05,0.03211549,0.032121565,0.018145269,0.3431914,0.3431917,0.2411776,2.1416403e-11,2.172836e-11,4.2803913e-11,5.0985506e-08,5.086501e-08,5.000009e-08,0.0,0.0,0.0,0.0,0.0,0.0,0.0,0.0,24
635247207,635147011,0.06697142,0.015064197,0.05789824,0.9959597,-0.040071722,0.06660345,-0.008549647,-0.2677422,-1.7001185,4.77256,3.18626e-05,-6.899e-05,-2.145633e-06,-0.0016425254,0.0037197012,-0.0010501563,0.76582104,-0.19441523,0.12537791,0.0,0.0,0.0,0.0,0.0,8.798894e-05,7.138365e-06,7.4085187e-06,1.60891e-05,0.031289633,0.03129579,0.018076006,0.3417859,0.34178647,0.24187309,2.1338964e-11,2.1650336e-11,4.2825975e-11,5.0993773e-08,5.087388e-08,5.000018e-08,0.0,0.0,0.0,0.0,0.0,0.0,0.0,0.0,24
636257115,636156879,0.066927634,0.014976812,0.05728028,0.99599975,-0.06326217,0.06007703,-0.029099919,-0.44327375,-1.7148467,4.74814,3.1831518e-05,-6.884939e-05,-1.952289e-06,-0.0016425662,0.0037196407,-0.0010445147,0.76582104,-0.19441523,0.12537791,0.0,0.0,0.0,0.0,0.0,8.783329e-05,7.295544e-06,7.5694393e-06,1.609226e-05,0.033023406,0.03303115,0.018240094,0.35424268,0.35424492,0.24220638,2.1487567e-11,2.1793916e-11,4.2797682e-11,5.100233e-08,5.0882925e-08,5e-08,0.0,0.0,0.0,0.0,0.0,0.0,0.0,0.0,24
637256952,637156747,0.067118265,0.015097029,0.056748044,0.9960155,-0.04239932,0.040952303,-0.023089318,-0.54568666,-1.7810968,4.7043605,3.156471e-05,-6.906622e-05,-1.8564089e-06,-0.0016425492,0.0037196656,-0.0010369708,0.76582104,-0.19441523,0.12537791,0.0,0.0,0.0,0.0,0.0,8.797301e-05,7.5677067e-06,7.845995e-06,1.6100938e-05,0.036323376,0.036332358,0.018791532,0.37745878,0.3774645,0.24861352,2.1727902e-11,2.2028851e-11,4.2833976e-11,5.1010915e-08,5.0891902e-08,5.000027e-08,0.0,0.0,0.0,0.0,0.0,0.0,0.0,0.0,24
638256902,638156615,0.067158364,0.013007921,0.058054682,0.995967,-0.01752126,0.041879207,-0.01036568,-0.59076315,-1.818919,4.716073,3.1438074e-05,-6.926586e-05,-1.7739977e-06,-0.0016424477,0.0037196984,-0.0010420129,0.76582104,-0.19441523,0.12537791,0.0,0.0,0.0,0.0,0.0,8.775368e-05,7.4881555e-06,7.759955e-06,1.6100688e-05,0.035840947,0.035849296,0.018635148,0.38142213,0.3814281,0.24638152,2.1640823e-11,2.1939534e-11,4.2792412e-11,5.1019516e-08,5.0900873e-08,5e-08,0.0,0.0,0.0,0.0,0.0,0.0,0.0,0.0,24
639256683,639156483,0.066993035,0.012785545,0.056861147,0.9960499,-0.012660452,0.03750041,-0.020355815,-0.6860217,-1.8141245,4.74387,3.1415242e-05,-6.922376e-05,-1.6465137e-06,-0.001642371,0.0037196921,-0.0010521804,0.76582104,-0.19441523,0.12537791,0.0,0.0,0.0,0.0,0.0,8.790279e-05,7.4859786e-06,7.762484e-06,1.6107619e-05,0.03626511,0.036274083,0.018802179,0.3893807,0.38938728,0.24997611,2.1644552e-11,2.1941157e-11,4.2824973e-11,5.1028213e-08,5.0909843e-08,5.000036e-08,0.0,0.0,0.0,0.0,0.0,0.0,0.0,0.0,24
640256567,640156350,0.067066796,0.012732637,0.053892553,0.99621063,0.012117593,0.021111175,0.0023889858,-0.72171915,-1.894392,4.766148,3.1045296e-05,-6.9337555e-05,-1.4841562e-06,-0.0016422404,0.0037197105,-0.0010619276,0.76582104,-0.19441523,0.12537791,0.0,0.0,0.0,0.0,0.0,8.806706e-05,6.7483757e-06,7.034545e-06,1.6125052e-05,0.028548712,0.028554335,0.017577078,0.34965423,0.34965596,0.2389197,2.1020881e-11,2.1322931e-11,4.284912e-11,5.103685e-08,5.0918814e-08,5.000009e-08,0.0,0.0,0.0,0.0,0.0,0.0,0.0,0.0,24
641256419,641156217,0.067460276,0.012986677,0.052606616,0.99624944,-0.002792499,0.08529627,0.019151133,-0.8628096,-1.8424112,4.7732167,3.1054034e-05,-6.894864e-05,-1.2287368e-06,-0.0016422903,0.0037196304,-0.0010619002,0.76582104,-0.19441523,0.12537791,0.0,0.0,0.0,0.0,0.0,8.7863256e-05,6.800422e-06,7.087472e-06,1.6132588e-05,0.028289482,0.028294355,0.017563976,0.34271672,0.34271812,0.23933984,2.1099206e-11,2.1399604e-11,4.2806304e-11,5.1045607e-08,5.0927788e-08,5.0000363e-08,0.0,0.0,0.0,0.0,0.0,0.0,0.0,0.0,24
642256274,642156083,0.068142526,0.013793667,0.05521385,0.99605113,0.0100270305,0.09767175,0.01745976,-0.9130231,-1.8274795,4.7734523,3.0729167e-05,-6.889814e-05,-8.819726e-07,-0.0016422638,0.0037195992,-0.0010613864,0.76582104,-0.19441523,0.12537791,0.0,0.0,0.0,0.0,0.0,8.7965986e-05,6.6692937e-06,6.9407192e-06,1.6121963e-05,0.025746867,0.025751034,0.01693906,0.32077748,0.32077807,0.23127215,2.09754e-11,2.128008e-11,4.2832137e-11,5.105435e-08,5.093675e-08,5.000009e-08,0.0,0.0,0.0,0.0,0.0,0.0,0.0,0.0,24
643256190,643155949,0.06869336,0.014597473,0.053290926,0.9961065,0.007898729,0.10530572,0.017264124,-0.99944407,-1.7974967,4.746129,3.0330642e-05,-6.86001e-05,-6.2673126e-07,-0.0016423186,0.0037195194,-0.0010533638,0.76582104,-0.19441523,0.12537791,0.0,0.0,0.0,0.0,0.0,8.776715e-05,6.6945618e-06,6.9713024e-06,1.6134836e-05,0.025663557,0.0256673,0.016983641,0.31135067,0.31135103,0.23144649,2.1018404e-11,2.1323542e-11,4.278692e-11,5.1063168e-08,5.094571e-08,5.000027e-08,0.0,0.0,0.0,0.0,0.0,0.0,0.0,0.0,24
644256007,644155815,0.06929733,0.01331297,0.055986427,0.9959349,0.029716268,0.09272316,0.007227795,-1.0041465,-1.8066114,4.727621,2.982447e-05,-6.854425e-05,-3.07797e-07,-0.0016423207,0.0037194462,-0.0010434651,0.76582104,-0.19441523,0.12537791,0.0,0.0,0.0,0.0,0.0,8.7875815e-05,6.8488707e-06,7.110644e-06,1.613004e-05,0.026774945,0.026778871,0.017109167,0.3088604,0.3088608,0.22950426,2.1135406e-11,2.1440738e-11,4.2816573e-11,5.1072035e-08,5.095467e-08,5.000009e-08,0.0,0.0,0.0,0.0,0.0,0.0,0.0,0.0,24
645255872,645155680,0.06970499,0.013492403,0.057902537,0.9957945,0.0551631,0.05010872,-0.012328098,-0.94759125,-1.8282853,4.717146,2.9469662e-05,-6.849968e-05,-3.219462e-08,-0.0016423034,0.0037194,-0.001039228,0.76582104,-0.19441523,0.12537791,0.0,0.0,0.0,0.0,0.0,8.798966e-05,6.9483917e-06,7.1999893e-06,1.6123859e-05,0.02780287,0.02780819,0.017426306,0.30901363,0.3090144,0.23271844,2.1196309e-11,2.1501152e-11,4.2846195e-11,5.108091e-08,5.0963624e-08,5.000036e-08,0.0,0.0,0.0,0.0,0.0,0.0,0.0,0.0,24
646255804,646155544,0.07033772,0.014389581,0.056023028,0.99584484,0.061026614,0.038528875,-0.0057590036,-0.86423236,-1.8164079,4.712282,2.9342382e-05,-6.821852e-05,2.6598372e-07,-0.0016423203,0.0037193263,-0.0010393639,0.76582104,-0.19441523,0.12537791,0.0,0.0,0.0,0.0,0.0,8.779289e-05,6.87158e-06,7.1313198e-06,1.6134465e-05,0.027454365,0.027459657,0.01732325,0.30390826,0.30390915,0.23016271,2.1133102e-11,2.1435593e-11,4.2803174e-11,5.1089785e-08,5.0972574e-08,5.000009e-08,0.0,0.0,0.0,0.0,0.0,0.0,0.0,0.0,24
647255608,647155408,0.07134182,0.013953692,0.057565253,0.9956917,0.08404971,0.027133806,-7.9570345e-05,-0.7229656,-1.8203906,4.743326,2.9146086e-05,-6.802707e-05,7.398278e-07,-0.0016422838,0.0037192702,-0.0010471435,0.76582104,-0.19441523,0.12537791,0.0,0.0,0.0,0.0,0.0,8.791111e-05,6.513273e-06,6.7642204e-06,1.6131176e-05,0.02382214,0.023826128,0.01671214,0.28348717,0.2834874,0.22680117,2.0792191e-11,2.1096009e-11,4.2830996e-11,5.1098677e-08,5.0981512e-08,5.000036e-08,0.0,0.0,0.0,0.0,0.0,0.0,0.0,0.0,24
648255482,648155272,0.07318939,0.014088435,0.057434715,0.99556327,0.085747086,0.034306422,-0.015999818,-0.61763865,-1.7428821,4.730404,2.924888e-05,-6.7555105e-05,1.5596518e-06,-0.0016423396,0.0037191121,-0.0010476961,0.76582104,-0.19441523,0.12537791,0.0,0.0,0.0,0.0,0.0,8.804385e-05,6.536036e-06,6.786749e-06,1.6136211e-05,0.023587858,0.023592388,0.016545193,0.2755794,0.27557954,0.22317809,2.0827196e-11,2.1127527e-11,4.286368e-11,5.1107634e-08,5.099047e-08,5.000018e-08,0.0,0.0,0.0,0.0,0.0,0.0,0.0,0.0,24
649255355,649155135,0.07607233,0.014121337,0.05744626,0.99534595,0.07559568,0.02286675,-0.01265786,-0.52783036,-1.7048253,4.7202363,2.9146137e-05,-6.707243e-05,2.8561171e-06,-0.0016423534,0.003718911,-0.0010488916,0.76582104,-0.19441523,0.12537791,0.0,0.0,0.0,0.0,0.0,8.783106e-05,6.4377627e-06,6.6902303e-06,1.6141032e-05,0.022368537,0.022373704,0.016322391,0.2636317,0.263632,0.22199099,2.0746849e-11,2.1043285e-11,4.2821944e-11,5.111656e-08,5.09994e-08,5.000036e-08,0.0,0.0,0.0,0.0,0.0,0.0,0.0,0.0,24
650255187,650154998,0.07913148,0.013209974,0.057931975,0.99509186,0.09533579,0.013864129,-0.017362596,-0.3718872,-1.642371,4.7199397,2.9166144e-05,-6.681348e-05,4.2347615e-06,-0.0016423677,0.003718755,-0.0010532883,0.76582104,-0.19441523,0.12537791,0.0,0.0,0.0,0.0,0.0,8.7959816e-05,6.5532586e-06,6.804252e-06,1.6147924e-05,0.023137283,0.023143688,0.016405854,0.25925505,0.2592562,0.22011326,2.0859398e-11,2.1151185e-11,4.2856243e-11,5.1125486e-08,5.1008318e-08,5.000018e-08,0.0,0.0,0.0,0.0,0.0,0.0,0.0,0.0,24
651255104,651154862,0.082494885,0.013753007,0.057637,0.9948284,0.10394229,-0.008335376,-0.0015005958,-0.19114497,-1.6264765,4.720149,2.9043364e-05,-6.654881e-05,5.676899e-06,-0.0016423248,0.00371856,-0.0010630353,0.76582104,-0.19441523,0.12537791,0.0,0.0,0.0,0.0,0.0,8.7746914e-05,6.5516324e-06,6.8074914e-06,1.6156873e-05,0.023161115,0.0231686,0.016504137,0.2533159,0.25331765,0.22152671,2.0862631e-11,2.114988e-11,4.281584e-11,5.113434e-08,5.101718e-08,5.0000363e-08,0.0,0.0,0.0,0.0,0.0,0.0,0.0,0.0,24
652254928,652154722,0.08615905,0.015754689,0.05807707,0.9944624,0.085908785,-0.020118881,-0.008869456,-0.07521933,-1.5972021,4.699259,2.9025747e-05,-6.599658e-05,7.2325197e-06,-0.001642338,0.0037182616,-0.0010591195,0.76582104,-0.19441523,0.12537791,0.0,0.0,0.0,0.0,0.0,8.786674e-05,6.2950057e-06,6.5509853e-06,1.6160537e-05,0.020947298,0.020953726,0.015926637,0.24021322,0.24021451,0.21569867,2.061203e-11,2.0898968e-11,4.2846185e-11,5.114304e-08,5.1025914e-08,5.000018e-08,0.0,0.0,0.0,0.0,0.0,0.0,0.0,0.0,24
653254837,653154583,0.091312684,0.015865613,0.057711773,0.99402195,0.04801421,-0.0030631498,-0.007698964,-0.03405701,-1.4966203,4.6863666,2.9301744e-05,-6.520981e-05,9.354823e-06,-0.0016425473,0.0037177952,-0.0010607141,0.76582104,-0.19441523,0.12537791,0.0,0.0,0.0,0.0,0.0,8.799425e-05,6.347173e-06,6.604602e-06,1.617616e-05,0.021030853,0.021038264,0.015837362,0.23330764,0.23330952,0.21262647,2.0678003e-11,2.096179e-11,4.2879447e-11,5.1151734e-08,5.1034622e-08,5e-08,0.0,0.0,0.0,0.0,0.0,0.0,0.0,0.0,24
654254656,654154444,0.097284175,0.017055802,0.05810546,0.9934126,0.057359863,-0.009861217,-0.006917884,0.082400136,-1.4288886,4.687752,2.9450659e-05,-6.490773e-05,1.1919445e-05,-0.0016427339,0.0037176013,-0.0010651288,0.76582104,-0.19441523,0.12537791,0.0,0.0,0.0,0.0,0.0,8.776637e-05,6.4487144e-06,6.7061305e-06,1.6184627e-05,0.021813758,0.021822346,0.016111275,0.23083039,0.23083346,0.21523596,2.0770543e-11,2.1050401e-11,4.283936e-11,5.1160285e-08,5.104318e-08,5.000018e-08,0.0,0.0,0.0,0.0,0.0,0.0,0.0,0.0,24
655254654,655154304,0.103134006,0.016587216,0.057726108,0.99285245,0.026159879,-0.010942776,-0.02584557,0.08331353,-1.3532054,4.6325006,2.9595876e-05,-6.4291286e-05,1.426124e-05,-0.0016429718,0.0037171578,-0.0010522639,0.76582104,-0.19441523,0.12537791,0.0,0.0,0.0,0.0,0.0,8.789193e-05,6.719699e-06,6.9788834e-06,1.6208956e-05,0.024579812,0.024591062,0.016890984,0.23911798,0.23912503,0.222376,2.1021926e-11,2.1297322e-11,4.2874277e-11,5.116875e-08,5.1051657e-08,5.0000452e-08,0.0,0.0,0.0,0.0,0.0,0.0,0.0,0.0,24
656254424,656154164,0.108841054,0.017375605,0.057834957,0.99222314,0.044877186,-0.024505354,-0.010520061,0.16972381,-1.3270274,4.6227856,2.9688075e-05,-6.423131e-05,1.6605632e-05,-0.0016431861,0.0037171931,-0.0010546189,0.76582104,-0.19441523,0.12537791,0.0,0.0,0.0,0.0,0.0,8.766239e-05,6.668102e-06,6.927849e-06,1.6225502e-05,0.024937328,0.024948373,0.017020548,0.24355999,0.24356842,0.22334991,2.0949055e-11,2.1223138e-11,4.2831644e-11,5.117667e-08,5.105962e-08,5.0000178e-08,0.0,0.0,0.0,0.0,0.0,0.0,0.0,0.0,24
