timestamp,timestamp_sample,gps_hvel[0],gps_hvel[1],gps_vvel,gps_hpos[0],gps_hpos[1],gps_vpos,ev_hvel[0],ev_hvel[1],ev_vvel,ev_hpos[0],ev_hpos[1],ev_vpos,rng_vpos,baro_vpos,aux_hvel[0],aux_hvel[1],aux_vvel,flow[0],flow[1],heading,mag_field[0],mag_field[1],mag_field[2],drag[0],drag[1],airspeed,beta,hagl,hagl_rate
539712592,539612494,0.34367192,0.34367076,0.7400419,4.1302786,4.130277,0.0,0.0,0.0,0.0,0.0,0.0,0.0,0.0,12.463234,0.0,0.0,nan,0.0,0.0,0.090408094,0.0,0.0,0.0,0.0,0.0,0.0,0.0,0.0,0.0
540210325,540110224,0.14680055,0.14679947,0.29703304,4.0726924,4.0726914,0.0,0.0,0.0,0.0,0.0,0.0,0.0,0.0,12.461689,0.0,0.0,nan,0.0,0.0,0.090406895,0.0,0.0,0.0,0.0,0.0,0.0,0.0,0.0,0.0
540709035,540607954,0.15180793,0.15180723,0.31678644,3.9617398,3.961739,0.0,0.0,0.0,0.0,0.0,0.0,0.0,0.0,12.456743,0.0,0.0,nan,0.0,0.0,0.0904055,0.0,0.0,0.0,0.0,0.0,0.0,0.0,0.0,0.0
541205807,541105684,0.20491768,0.20491701,0.43872458,3.891834,3.8918333,0.0,0.0,0.0,0.0,0.0,0.0,0.0,0.0,12.450817,0.0,0.0,nan,0.0,0.0,0.090404235,0.0,0.0,0.0,0.0,0.0,0.0,0.0,0.0,0.0
541703612,541603414,0.18225539,0.1822547,0.38752848,3.8432765,3.843276,0.0,0.0,0.0,0.0,0.0,0.0,0.0,0.0,12.452152,0.0,0.0,nan,0.0,0.0,0.09040291,0.0,0.0,0.0,0.0,0.0,0.0,0.0,0.0,0.0
542211194,542111099,0.29516903,0.29516822,0.6399254,3.8062463,3.8062456,0.0,0.0,0.0,0.0,0.0,0.0,0.0,0.0,12.452255,0.0,0.0,nan,0.0,0.0,0.09040192,0.0,0.0,0.0,0.0,0.0,0.0,0.0,0.0,0.0
542709268,542608830,0.17720883,0.17720786,0.3718974,3.7794216,3.7794213,0.0,0.0,0.0,0.0,0.0,0.0,0.0,0.0,12.455333,0.0,0.0,nan,0.0,0.0,0.09040063,0.0,0.0,0.0,0.0,0.0,0.0,0.0,0.0,0.0
543206650,543106560,0.23641254,0.23641157,0.5059818,3.7637424,3.7637422,0.0,0.0,0.0,0.0,0.0,0.0,0.0,0.0,12.452413,0.0,0.0,nan,0.0,0.0,0.09039938,0.0,0.0,0.0,0.0,0.0,0.0,0.0,0.0,0.0
543714659,543614245,0.16924678,0.1692458,0.3541445,3.7349875,3.7349873,0.0,0.0,0.0,0.0,0.0,0.0,0.0,0.0,12.455116,0.0,0.0,nan,0.0,0.0,0.090398446,0.0,0.0,0.0,0.0,0.0,0.0,0.0,0.0,0.0
544212113,544111976,0.2419697,0.24196884,0.51872027,3.7009227,3.7009225,0.0,0.0,0.0,0.0,0.0,0.0,0.0,0.0,12.452555,0.0,0.0,nan,0.0,0.0,0.09039724,0.0,0.0,0.0,0.0,0.0,0.0,0.0,0.0,0.0
544710283,544609706,0.28153065,0.28152993,0.6075216,3.6894038,3.6894033,0.0,0.0,0.0,0.0,0.0,0.0,0.0,0.0,12.45409,0.0,0.0,nan,0.0,0.0,0.09039606,0.0,0.0,0.0,0.0,0.0,0.0,0.0,0.0,0.0
545208080,545107437,0.27252972,0.27252898,0.58494717,3.7337685,3.733768,0.0,0.0,0.0,0.0,0.0,0.0,0.0,0.0,12.456048,0.0,0.0,nan,0.0,0.0,0.09039521,0.0,0.0,0.0,0.0,0.0,0.0,0.0,0.0,0.0
545705293,545605168,0.3330049,0.33300424,0.7213209,3.7684717,3.7684712,0.0,0.0,0.0,0.0,0.0,0.0,0.0,0.0,12.458437,0.0,0.0,nan,0.0,0.0,0.09039408,0.0,0.0,0.0,0.0,0.0,0.0,0.0,0.0,0.0
546213011,546112853,0.23510477,0.23510407,0.49851343,3.81389,3.8138893,0.0,0.0,0.0,0.0,0.0,0.0,0.0,0.0,12.458676,0.0,0.0,nan,0.0,0.0,0.090393245,0.0,0.0,0.0,0.0,0.0,0.0,0.0,0.0,0.0
546710756,546610584,0.31910053,0.31909993,0.68695796,3.8364227,3.836422,0.0,0.0,0.0,0.0,0.0,0.0,0.0,0.0,12.462526,0.0,0.0,nan,0.0,0.0,0.09039217,0.0,0.0,0.0,0.0,0.0,0.0,0.0,0.0,0.0
547208453,547108315,0.3338921,0.33389157,0.7194571,3.874319,3.8743186,0.0,0.0,0.0,0.0,0.0,0.0,0.0,0.0,12.462496,0.0,0.0,nan,0.0,0.0,0.090391085,0.0,0.0,0.0,0.0,0.0,0.0,0.0,0.0,0.0
547706162,547606045,0.33955967,0.3395591,0.73219657,3.8951907,3.89519,0.0,0.0,0.0,0.0,0.0,0.0,0.0,0.0,12.466012,0.0,0.0,nan,0.0,0.0,0.090390116,0.0,0.0,0.0,0.0,0.0,0.0,0.0,0.0,0.0
548203887,548103776,0.26745895,0.26745844,0.5700818,3.942508,3.9425077,0.0,0.0,0.0,0.0,0.0,0.0,0.0,0.0,12.464347,0.0,0.0,nan,0.0,0.0,0.090389356,0.0,0.0,0.0,0.0,0.0,0.0,0.0,0.0,0.0
548711903,548611462,0.3232578,0.32325733,0.69483256,4.0169983,4.016998,0.0,0.0,0.0,0.0,0.0,0.0,0.0,0.0,12.4644985,0.0,0.0,nan,0.0,0.0,0.090388425,0.0,0.0,0.0,0.0,0.0,0.0,0.0,0.0,0.0
549209308,549109193,0.30961305,0.30961254,0.66312426,4.047275,4.0472746,0.0,0.0,0.0,0.0,0.0,0.0,0.0,0.0,12.46743,0.0,0.0,nan,0.0,0.0,0.09038747,0.0,0.0,0.0,0.0,0.0,0.0,0.0,0.0,0.0
549707032,549606924,0.2236431,0.22364259,0.4703098,4.0179286,4.017928,0.0,0.0,0.0,0.0,0.0,0.0,0.0,0.0,12.468832,0.0,0.0,nan,0.0,0.0,0.090386525,0.0,0.0,0.0,0.0,0.0,0.0,0.0,0.0,0.0
550204819,550104655,0.22117725,0.22117679,0.46786073,3.982397,3.9823966,0.0,0.0,0.0,0.0,0.0,0.0,0.0,0.0,12.463674,0.0,0.0,nan,0.0,0.0,0.09038585,0.0,0.0,0.0,0.0,0.0,0.0,0.0,0.0,0.0
550712845,550612341,0.16215883,0.16215831,0.33593178,3.916511,3.9165106,0.0,0.0,0.0,0.0,0.0,0.0,0.0,0.0,12.459776,0.0,0.0,nan,0.0,0.0,0.09038495,0.0,0.0,0.0,0.0,0.0,0.0,0.0,0.0,0.0
551210338,551110072,0.26042596,0.2604255,0.5601455,3.8635242,3.8635237,0.0,0.0,0.0,0.0,0.0,0.0,0.0,0.0,12.4603405,0.0,0.0,nan,0.0,0.0,0.09038407,0.0,0.0,0.0,0.0,0.0,0.0,0.0,0.0,0.0
551707938,551607803,0.19413523,0.19413468,0.4105693,3.8341355,3.8341353,0.0,0.0,0.0,0.0,0.0,0.0,0.0,0.0,12.459968,0.0,0.0,nan,0.0,0.0,0.09038345,0.0,0.0,0.0,0.0,0.0,0.0,0.0,0.0,0.0
552205652,552105534,0.24865435,0.24865375,0.5338236,3.8138306,3.8138304,0.0,0.0,0.0,0.0,0.0,0.0,0.0,0.0,12.456573,0.0,0.0,nan,0.0,0.0,0.09038261,0.0,0.0,0.0,0.0,0.0,0.0,0.0,0.0,0.0
552703755,552603266,0.14786014,0.14785953,0.306997,3.7517292,3.751729,0.0,0.0,0.0,0.0,0.0,0.0,0.0,0.0,12.457961,0.0,0.0,nan,0.0,0.0,0.09038202,0.0,0.0,0.0,0.0,0.0,0.0,0.0,0.0,0.0
553211035,553110952,0.1993373,0.19933675,0.42512405,3.699687,3.6996868,0.0,0.0,0.0,0.0,0.0,0.0,0.0,0.0,12.45232,0.0,0.0,nan,0.0,0.0,0.09038122,0.0,0.0,0.0,0.0,0.0,0.0,0.0,0.0,0.0
553709208,553608683,0.2781,0.27809948,0.60427415,3.616285,3.6162848,0.0,0.0,0.0,0.0,0.0,0.0,0.0,0.0,12.449286,0.0,0.0,nan,0.0,0.0,0.09038043,0.0,0.0,0.0,0.0,0.0,0.0,0.0,0.0,0.0
554206855,554106415,0.17416334,0.17416275,0.36927685,3.5767357,3.5767357,0.0,0.0,0.0,0.0,0.0,0.0,0.0,0.0,12.44821,0.0,0.0,nan,0.0,0.0,0.09037989,0.0,0.0,0.0,0.0,0.0,0.0,0.0,0.0,0.0
554714295,554614101,0.18852101,0.18852037,0.40049353,3.539485,3.5394847,0.0,0.0,0.0,0.0,0.0,0.0,0.0,0.0,12.447276,0.0,0.0,nan,0.0,0.0,0.090379134,0.0,0.0,0.0,0.0,0.0,0.0,0.0,0.0,0.0
555201975,555101878,0.19051975,0.19051918,0.4042928,3.4917467,3.4917467,0.0,0.0,0.0,0.0,0.0,0.0,0.0,0.0,12.448164,0.0,0.0,nan,0.0,0.0,0.09037845,0.0,0.0,0.0,0.0,0.0,0.0,0.0,0.0,0.0
555709972,555609564,0.11506162,0.11506113,0.23524481,3.4273348,3.4273348,0.0,0.0,0.0,0.0,0.0,0.0,0.0,0.0,12.448688,0.0,0.0,nan,0.0,0.0,0.090377726,0.0,0.0,0.0,0.0,0.0,0.0,0.0,0.0,0.0
556207469,556107296,0.27555987,0.27555946,0.5974878,3.3966963,3.3966963,0.0,0.0,0.0,0.0,0.0,0.0,0.0,0.0,12.44616,0.0,0.0,nan,0.0,0.0,0.090377234,0.0,0.0,0.0,0.0,0.0,0.0,0.0,0.0,0.0
556705167,556605028,0.18258265,0.18258223,0.38746363,3.3874843,3.387484,0.0,0.0,0.0,0.0,0.0,0.0,0.0,0.0,12.447242,0.0,0.0,nan,0.0,0.0,0.09037656,0.0,0.0,0.0,0.0,0.0,0.0,0.0,0.0,0.0
557212804,557112714,0.38601664,0.38601616,0.84400874,3.4084947,3.4084947,0.0,0.0,0.0,0.0,0.0,0.0,0.0,0.0,12.448666,0.0,0.0,nan,0.0,0.0,0.0903759,0.0,0.0,0.0,0.0,0.0,0.0,0.0,0.0,0.0
557710638,557610446,0.23478958,0.23478906,0.50191206,3.4310954,3.4310954,0.0,0.0,0.0,0.0,0.0,0.0,0.0,0.0,12.452303,0.0,0.0,nan,0.0,0.0,0.09037525,0.0,0.0,0.0,0.0,0.0,0.0,0.0,0.0,0.0
558208262,558108178,0.2151458,0.21514522,0.4554371,3.4382448,3.4382446,0.0,0.0,0.0,0.0,0.0,0.0,0.0,0.0,12.452623,0.0,0.0,nan,0.0,0.0,0.09037482,0.0,0.0,0.0,0.0,0.0,0.0,0.0,0.0,0.0
558706491,558605910,0.22459383,0.2245932,0.47746447,3.4130259,3.4130259,0.0,0.0,0.0,0.0,0.0,0.0,0.0,0.0,12.45504,0.0,0.0,nan,0.0,0.0,0.09037422,0.0,0.0,0.0,0.0,0.0,0.0,0.0,0.0,0.0
559203873,559103642,0.20773989,0.2077392,0.43961576,3.398802,3.3988016,0.0,0.0,0.0,0.0,0.0,0.0,0.0,0.0,12.453877,0.0,0.0,nan,0.0,0.0,0.09037381,0.0,0.0,0.0,0.0,0.0,0.0,0.0,0.0,0.0
559711881,559611329,0.2417467,0.24174604,0.5169926,3.402432,3.402432,0.0,0.0,0.0,0.0,0.0,0.0,0.0,0.0,12.455823,0.0,0.0,nan,0.0,0.0,0.09037322,0.0,0.0,0.0,0.0,0.0,0.0,0.0,0.0,0.0
560209197,560109061,0.29334256,0.2933419,0.6335258,3.4101892,3.410189,0.0,0.0,0.0,0.0,0.0,0.0,0.0,0.0,12.45414,0.0,0.0,nan,0.0,0.0,0.09037265,0.0,0.0,0.0,0.0,0.0,0.0,0.0,0.0,0.0
560707297,560606793,0.25357628,0.25357556,0.54300195,3.43708,3.4370794,0.0,0.0,0.0,0.0,0.0,0.0,0.0,0.0,12.455074,0.0,0.0,nan,0.0,0.0,0.090372264,0.0,0.0,0.0,0.0,0.0,0.0,0.0,0.0,0.0
561204647,561104525,0.2634919,0.26349118,0.56497127,3.4563463,3.4563458,0.0,0.0,0.0,0.0,0.0,0.0,0.0,0.0,12.457655,0.0,0.0,nan,0.0,0.0,0.09037175,0.0,0.0,0.0,0.0,0.0,0.0,0.0,0.0,0.0
561712605,561612212,0.19816059,0.1981598,0.41680983,3.4651554,3.465155,0.0,0.0,0.0,0.0,0.0,0.0,0.0,0.0,12.459979,0.0,0.0,nan,0.0,0.0,0.0903712,0.0,0.0,0.0,0.0,0.0,0.0,0.0,0.0,0.0
562210029,562109948,0.16280341,0.16280271,0.33909342,3.4650805,3.4650803,0.0,0.0,0.0,0.0,0.0,0.0,0.0,0.0,12.455006,0.0,0.0,nan,0.0,0.0,0.09037088,0.0,0.0,0.0,0.0,0.0,0.0,0.0,0.0,0.0
562708227,562607677,0.21366836,0.21366769,0.4534758,3.507486,3.5074856,0.0,0.0,0.0,0.0,0.0,0.0,0.0,0.0,12.456105,0.0,0.0,nan,0.0,0.0,0.09037037,0.0,0.0,0.0,0.0,0.0,0.0,0.0,0.0,0.0
563205842,563105409,0.25533047,0.25532982,0.54722416,3.5049915,3.504991,0.0,0.0,0.0,0.0,0.0,0.0,0.0,0.0,12.4576435,0.0,0.0,nan,0.0,0.0,0.09036987,0.0,0.0,0.0,0.0,0.0,0.0,0.0,0.0,0.0
563713232,563613096,0.24382257,0.24382192,0.52137333,3.4944177,3.494417,0.0,0.0,0.0,0.0,0.0,0.0,0.0,0.0,12.459087,0.0,0.0,nan,0.0,0.0,0.090369396,0.0,0.0,0.0,0.0,0.0,0.0,0.0,0.0,0.0
564211072,564110829,0.19917059,0.19916995,0.42042845,3.512518,3.5125175,0.0,0.0,0.0,0.0,0.0,0.0,0.0,0.0,12.457227,0.0,0.0,nan,0.0,0.0,0.090369105,0.0,0.0,0.0,0.0,0.0,0.0,0.0,0.0,0.0
564708647,564608561,0.25385612,0.25385547,0.5429788,3.5405169,3.5405164,0.0,0.0,0.0,0.0,0.0,0.0,0.0,0.0,12.460906,0.0,0.0,nan,0.0,0.0,0.09036864,0.0,0.0,0.0,0.0,0.0,0.0,0.0,0.0,0.0
565206385,565106294,0.34885016,0.34884948,0.754952,3.60538,3.6053796,0.0,0.0,0.0,0.0,0.0,0.0,0.0,0.0,12.462096,0.0,0.0,nan,0.0,0.0,0.090368204,0.0,0.0,0.0,0.0,0.0,0.0,0.0,0.0,0.0
565704195,565604026,0.2782684,0.27826765,0.5948394,3.6521394,3.652139,0.0,0.0,0.0,0.0,0.0,0.0,0.0,0.0,12.464867,0.0,0.0,nan,0.0,0.0,0.09036794,0.0,0.0,0.0,0.0,0.0,0.0,0.0,0.0,0.0
566211909,566111713,0.17352182,0.17352115,0.36019698,3.6973066,3.6973064,0.0,0.0,0.0,0.0,0.0,0.0,0.0,0.0,12.460869,0.0,0.0,nan,0.0,0.0,0.090367526,0.0,0.0,0.0,0.0,0.0,0.0,0.0,0.0,0.0
566709620,566609446,0.28135848,0.28135782,0.60367084,3.737841,3.7378404,0.0,0.0,0.0,0.0,0.0,0.0,0.0,0.0,12.463928,0.0,0.0,nan,0.0,0.0,0.090367116,0.0,0.0,0.0,0.0,0.0,0.0,0.0,0.0,0.0
567207286,567107179,0.27585375,0.2758532,0.5901143,3.8166752,3.8166747,0.0,0.0,0.0,0.0,0.0,0.0,0.0,0.0,12.463794,0.0,0.0,nan,0.0,0.0,0.09036688,0.0,0.0,0.0,0.0,0.0,0.0,0.0,0.0,0.0
567705022,567604911,0.33252022,0.33251965,0.71702534,3.8697813,3.8697805,0.0,0.0,0.0,0.0,0.0,0.0,0.0,0.0,12.466878,0.0,0.0,nan,0.0,0.0,0.0903665,0.0,0.0,0.0,0.0,0.0,0.0,0.0,0.0,0.0
568212778,568112599,0.2623463,0.26234567,0.5569976,3.9710324,3.9710317,0.0,0.0,0.0,0.0,0.0,0.0,0.0,0.0,12.467531,0.0,0.0,nan,0.0,0.0,0.090366274,0.0,0.0,0.0,0.0,0.0,0.0,0.0,0.0,0.0
568710468,568610331,0.3995607,0.3995601,0.8651217,4.0912356,4.091235,0.0,0.0,0.0,0.0,0.0,0.0,0.0,0.0,12.468346,0.0,0.0,nan,0.0,0.0,0.09036591,0.0,0.0,0.0,0.0,0.0,0.0,0.0,0.0,0.0
569208240,569108064,0.26069087,0.2606902,0.5506876,4.142052,4.1420517,0.0,0.0,0.0,0.0,0.0,0.0,0.0,0.0,12.47066,0.0,0.0,nan,0.0,0.0,0.09036555,0.0,0.0,0.0,0.0,0.0,0.0,0.0,0.0,0.0
569705887,569605797,0.4367546,0.436754,0.9472024,4.1912036,4.191203,0.0,0.0,0.0,0.0,0.0,0.0,0.0,0.0,12.473026,0.0,0.0,nan,0.0,0.0,0.09036518,0.0,0.0,0.0,0.0,0.0,0.0,0.0,0.0,0.0
570203621,570103529,0.45604432,0.45604363,0.9910824,4.2821307,4.2821302,0.0,0.0,0.0,0.0,0.0,0.0,0.0,0.0,12.471863,0.0,0.0,nan,0.0,0.0,0.09036502,0.0,0.0,0.0,0.0,0.0,0.0,0.0,0.0,0.0
570711631,570611217,0.6615468,0.66154605,1.4501278,4.4280386,4.428038,0.0,0.0,0.0,0.0,0.0,0.0,0.0,0.0,12.476463,0.0,0.0,nan,0.0,0.0,0.09036465,0.0,0.0,0.0,0.0,0.0,0.0,0.0,0.0,0.0
571209033,571108949,0.42548785,0.42548695,0.9163921,4.5165296,4.516529,0.0,0.0,0.0,0.0,0.0,0.0,0.0,0.0,12.478499,0.0,0.0,nan,0.0,0.0,0.09036433,0.0,0.0,0.0,0.0,0.0,0.0,0.0,0.0,0.0
571706776,571606682,0.5878659,0.587865,1.2801936,4.574942,4.574941,0.0,0.0,0.0,0.0,0.0,0.0,0.0,0.0,12.482844,0.0,0.0,nan,0.0,0.0,0.09036402,0.0,0.0,0.0,0.0,0.0,0.0,0.0,0.0,0.0
572214457,572114369,0.35266066,0.35265964,0.74902713,4.672865,4.672864,0.0,0.0,0.0,0.0,0.0,0.0,0.0,0.0,12.482885,0.0,0.0,nan,0.0,0.0,0.09036387,0.0,0.0,0.0,0.0,0.0,0.0,0.0,0.0,0.0
572702308,572602147,0.3629126,0.36291158,0.77236426,4.7310567,4.7310557,0.0,0.0,0.0,0.0,0.0,0.0,0.0,0.0,12.485205,0.0,0.0,nan,0.0,0.0,0.09036358,0.0,0.0,0.0,0.0,0.0,0.0,0.0,0.0,0.0
573210046,573109835,0.51956135,0.51956046,1.1267068,4.8024373,4.8024364,0.0,0.0,0.0,0.0,0.0,0.0,0.0,0.0,12.484259,0.0,0.0,nan,0.0,0.0,0.090363294,0.0,0.0,0.0,0.0,0.0,0.0,0.0,0.0,0.0
573707727,573607568,0.31131542,0.31131464,0.6614525,4.7773204,4.77732,0.0,0.0,0.0,0.0,0.0,0.0,0.0,0.0,12.481859,0.0,0.0,nan,0.0,0.0,0.09036316,0.0,0.0,0.0,0.0,0.0,0.0,0.0,0.0,0.0
574205456,574105300,0.31135824,0.31135762,0.6614353,4.736437,4.7364364,0.0,0.0,0.0,0.0,0.0,0.0,0.0,0.0,12.480868,0.0,0.0,nan,0.0,0.0,0.090362884,0.0,0.0,0.0,0.0,0.0,0.0,0.0,0.0,0.0
574713464,574612987,0.33791348,0.33791342,0.72281283,4.721701,4.7217007,0.0,0.0,0.0,0.0,0.0,0.0,0.0,0.0,12.481307,0.0,0.0,nan,0.0,0.0,0.09036275,0.0,0.0,0.0,0.0,0.0,0.0,0.0,0.0,0.0
575210808,575110720,0.29241744,0.29241836,0.62092364,4.7026167,4.702616,0.0,0.0,0.0,0.0,0.0,0.0,0.0,0.0,12.478455,0.0,0.0,nan,0.0,0.0,0.09036246,0.0,0.0,0.0,0.0,0.0,0.0,0.0,0.0,0.0
575708599,575608453,0.24108988,0.24109195,0.50749385,4.6793375,4.679337,0.0,0.0,0.0,0.0,0.0,0.0,0.0,0.0,12.476766,0.0,0.0,nan,0.0,0.0,0.09036219,0.0,0.0,0.0,0.0,0.0,0.0,0.0,0.0,0.0
576206365,576106185,0.35676205,0.35676593,0.7683589,4.6965375,4.696537,0.0,0.0,0.0,0.0,0.0,0.0,0.0,0.0,12.475636,0.0,0.0,nan,0.0,0.0,0.090362065,0.0,0.0,0.0,0.0,0.0,0.0,0.0,0.0,0.0
576704373,576603918,0.3725376,0.3725428,0.8027494,4.715506,4.7155056,0.0,0.0,0.0,0.0,0.0,0.0,0.0,0.0,12.47743,0.0,0.0,nan,0.0,0.0,0.09036181,0.0,0.0,0.0,0.0,0.0,0.0,0.0,0.0,0.0
577211818,577111605,0.33903766,0.33904418,0.72522885,4.8076735,4.807674,0.0,0.0,0.0,0.0,0.0,0.0,0.0,0.0,12.4760475,0.0,0.0,nan,0.0,0.0,0.09036152,0.0,0.0,0.0,0.0,0.0,0.0,0.0,0.0,0.0
577709476,577609338,0.46962214,0.46962902,1.0180919,4.850047,4.8500485,0.0,0.0,0.0,0.0,0.0,0.0,0.0,0.0,12.478844,0.0,0.0,nan,0.0,0.0,0.090361275,0.0,0.0,0.0,0.0,0.0,0.0,0.0,0.0,0.0
578207263,578107070,0.43375912,0.43376616,0.93598986,4.922359,4.922361,0.0,0.0,0.0,0.0,0.0,0.0,0.0,0.0,12.479687,0.0,0.0,nan,0.0,0.0,0.09036122,0.0,0.0,0.0,0.0,0.0,0.0,0.0,0.0,0.0
578705264,578604803,0.3265035,0.32651028,0.693138,4.981117,4.9811196,0.0,0.0,0.0,0.0,0.0,0.0,0.0,0.0,12.481053,0.0,0.0,nan,0.0,0.0,0.09036095,0.0,0.0,0.0,0.0,0.0,0.0,0.0,0.0,0.0
579212578,579112490,0.24718703,0.24719316,0.51460636,5.0063987,5.0064015,0.0,0.0,0.0,0.0,0.0,0.0,0.0,0.0,12.478268,0.0,0.0,nan,0.0,0.0,0.0903607,0.0,0.0,0.0,0.0,0.0,0.0,0.0,0.0,0.0
579710731,579610222,0.4513633,0.45136774,0.97408336,5.1586018,5.158606,0.0,0.0,0.0,0.0,0.0,0.0,0.0,0.0,12.481382,0.0,0.0,nan,0.0,0.0,0.09036049,0.0,0.0,0.0,0.0,0.0,0.0,0.0,0.0,0.0
580208043,580107955,0.5788101,0.5788133,1.2597069,5.27089,5.270895,0.0,0.0,0.0,0.0,0.0,0.0,0.0,0.0,12.482397,0.0,0.0,nan,0.0,0.0,0.0903604,0.0,0.0,0.0,0.0,0.0,0.0,0.0,0.0,0.0
580705813,580605687,0.5357543,0.53575665,1.1616277,5.3742976,5.374303,0.0,0.0,0.0,0.0,0.0,0.0,0.0,0.0,12.48489,0.0,0.0,nan,0.0,0.0,0.09036019,0.0,0.0,0.0,0.0,0.0,0.0,0.0,0.0,0.0
581203863,581103419,0.5258916,0.5258923,1.1393445,5.515405,5.5154104,0.0,0.0,0.0,0.0,0.0,0.0,0.0,0.0,12.483884,0.0,0.0,nan,0.0,0.0,0.0903601,0.0,0.0,0.0,0.0,0.0,0.0,0.0,0.0,0.0
581711652,581611106,0.29323325,0.29323268,0.6126128,5.5754604,5.575465,0.0,0.0,0.0,0.0,0.0,0.0,0.0,0.0,12.483672,0.0,0.0,nan,0.0,0.0,0.090359904,0.0,0.0,0.0,0.0,0.0,0.0,0.0,0.0,0.0
582209080,582108838,0.29157922,0.29157698,0.6121932,5.589896,5.5899,0.0,0.0,0.0,0.0,0.0,0.0,0.0,0.0,12.483266,0.0,0.0,nan,0.0,0.0,0.09035969,0.0,0.0,0.0,0.0,0.0,0.0,0.0,0.0,0.0
582706976,582606570,0.46552294,0.46551964,1.0064831,5.6782446,5.678248,0.0,0.0,0.0,0.0,0.0,0.0,0.0,0.0,12.4834795,0.0,0.0,nan,0.0,0.0,0.09035963,0.0,0.0,0.0,0.0,0.0,0.0,0.0,0.0,0.0
583204391,583104302,0.36803326,0.3680287,0.7851197,5.6823974,5.6824,0.0,0.0,0.0,0.0,0.0,0.0,0.0,0.0,12.483278,0.0,0.0,nan,0.0,0.0,0.09035945,0.0,0.0,0.0,0.0,0.0,0.0,0.0,0.0,0.0
583712430,583611989,0.29988772,0.29988208,0.6328733,5.637573,5.637575,0.0,0.0,0.0,0.0,0.0,0.0,0.0,0.0,12.483336,0.0,0.0,nan,0.0,0.0,0.09035922,0.0,0.0,0.0,0.0,0.0,0.0,0.0,0.0,0.0
584209821,584109721,0.4444516,0.44444507,0.95925355,5.6346793,5.6346807,0.0,0.0,0.0,0.0,0.0,0.0,0.0,0.0,12.482381,0.0,0.0,nan,0.0,0.0,0.090359226,0.0,0.0,0.0,0.0,0.0,0.0,0.0,0.0,0.0
584707971,584607453,0.48768565,0.48767966,1.0604217,5.618072,5.618073,0.0,0.0,0.0,0.0,0.0,0.0,0.0,0.0,12.479926,0.0,0.0,nan,0.0,0.0,0.09035904,0.0,0.0,0.0,0.0,0.0,0.0,0.0,0.0,0.0
585205317,585105184,0.52328795,0.5232816,1.13871,5.612994,5.6129947,0.0,0.0,0.0,0.0,0.0,0.0,0.0,0.0,12.479341,0.0,0.0,nan,0.0,0.0,0.09035883,0.0,0.0,0.0,0.0,0.0,0.0,0.0,0.0,0.0
585714068,585612871,0.55892444,0.558917,1.2164962,5.5761375,5.576136,0.0,0.0,0.0,0.0,0.0,0.0,0.0,0.0,12.480849,0.0,0.0,nan,0.0,0.0,0.09035869,0.0,0.0,0.0,0.0,0.0,0.0,0.0,0.0,0.0
586210747,586110602,0.51257485,0.51256686,1.1105509,5.587345,5.587343,0.0,0.0,0.0,0.0,0.0,0.0,0.0,0.0,12.483366,0.0,0.0,nan,0.0,0.0,0.090358675,0.0,0.0,0.0,0.0,0.0,0.0,0.0,0.0,0.0
586708768,586608334,0.29969874,0.2996908,0.6307024,5.5763416,5.576339,0.0,0.0,0.0,0.0,0.0,0.0,0.0,0.0,12.483716,0.0,0.0,nan,0.0,0.0,0.09035853,0.0,0.0,0.0,0.0,0.0,0.0,0.0,0.0,0.0
587206203,587106065,0.4893679,0.4893607,1.0580355,5.611947,5.6119432,0.0,0.0,0.0,0.0,0.0,0.0,0.0,0.0,12.482615,0.0,0.0,nan,0.0,0.0,0.09035839,0.0,0.0,0.0,0.0,0.0,0.0,0.0,0.0,0.0
587703936,587603797,0.20531513,0.20530793,0.4182613,5.641071,5.6410685,0.0,0.0,0.0,0.0,0.0,0.0,0.0,0.0,12.481134,0.0,0.0,nan,0.0,0.0,0.090358384,0.0,0.0,0.0,0.0,0.0,0.0,0.0,0.0,0.0
588211604,588111483,0.2665573,0.2665523,0.5636364,5.634887,5.634886,0.0,0.0,0.0,0.0,0.0,0.0,0.0,0.0,12.47544,0.0,0.0,nan,0.0,0.0,0.09035825,0.0,0.0,0.0,0.0,0.0,0.0,0.0,0.0,0.0
588709357,588609214,0.526878,0.52687395,1.1507913,5.6858554,5.6858535,0.0,0.0,0.0,0.0,0.0,0.0,0.0,0.0,12.475512,0.0,0.0,nan,0.0,0.0,0.09035812,0.0,0.0,0.0,0.0,0.0,0.0,0.0,0.0,0.0
589207049,589106945,0.3535192,0.35351542,0.7605348,5.711313,5.7113104,0.0,0.0,0.0,0.0,0.0,0.0,0.0,0.0,12.473808,0.0,0.0,nan,0.0,0.0,0.09035813,0.0,0.0,0.0,0.0,0.0,0.0,0.0,0.0,0.0
589714762,589614631,0.41529,0.4152869,0.89848435,5.765201,5.765198,0.0,0.0,0.0,0.0,0.0,0.0,0.0,0.0,12.473135,0.0,0.0,nan,0.0,0.0,0.09035802,0.0,0.0,0.0,0.0,0.0,0.0,0.0,0.0,0.0
590202532,590102407,0.32932216,0.32931933,0.70250577,5.7867255,5.786722,0.0,0.0,0.0,0.0,0.0,0.0,0.0,0.0,12.474606,0.0,0.0,nan,0.0,0.0,0.09035803,0.0,0.0,0.0,0.0,0.0,0.0,0.0,0.0,0.0
590710255,590610093,0.6905917,0.6905893,1.5118126,5.9071617,5.907157,0.0,0.0,0.0,0.0,0.0,0.0,0.0,0.0,12.479693,0.0,0.0,nan,0.0,0.0,0.09035796,0.0,0.0,0.0,0.0,0.0,0.0,0.0,0.0,0.0
591208012,591107823,0.45734,0.45733738,0.98310435,5.919451,5.919446,0.0,0.0,0.0,0.0,0.0,0.0,0.0,0.0,12.481803,0.0,0.0,nan,0.0,0.0,0.09035787,0.0,0.0,0.0,0.0,0.0,0.0,0.0,0.0,0.0
591706011,591605554,0.41072595,0.41072372,0.8796529,5.870899,5.8708944,0.0,0.0,0.0,0.0,0.0,0.0,0.0,0.0,12.481987,0.0,0.0,nan,0.0,0.0,0.09035771,0.0,0.0,0.0,0.0,0.0,0.0,0.0,0.0,0.0
592213370,592113239,0.56155896,0.5615569,1.2168813,5.9174128,5.917408,0.0,0.0,0.0,0.0,0.0,0.0,0.0,0.0,12.483301,0.0,0.0,nan,0.0,0.0,0.09035782,0.0,0.0,0.0,0.0,0.0,0.0,0.0,0.0,0.0
592711358,592610970,0.645925,0.6459228,1.407839,5.99471,5.994705,0.0,0.0,0.0,0.0,0.0,0.0,0.0,0.0,12.48488,0.0,0.0,nan,0.0,0.0,0.090357676,0.0,0.0,0.0,0.0,0.0,0.0,0.0,0.0,0.0
593208857,593108700,0.73154837,0.73154575,1.5981067,6.0831985,6.0831933,0.0,0.0,0.0,0.0,0.0,0.0,0.0,0.0,12.4864645,0.0,0.0,nan,0.0,0.0,0.09035762,0.0,0.0,0.0,0.0,0.0,0.0,0.0,0.0,0.0
593706847,593606431,0.34231725,0.3423148,0.71875787,6.2677965,6.2677913,0.0,0.0,0.0,0.0,0.0,0.0,0.0,0.0,12.489484,0.0,0.0,nan,0.0,0.0,0.09035755,0.0,0.0,0.0,0.0,0.0,0.0,0.0,0.0,0.0
594204260,594104161,0.63308144,0.63307875,1.3731596,6.384808,6.3848023,0.0,0.0,0.0,0.0,0.0,0.0,0.0,0.0,12.490626,0.0,0.0,nan,0.0,0.0,0.09035758,0.0,0.0,0.0,0.0,0.0,0.0,0.0,0.0,0.0
594712304,594611846,0.6806965,0.6806934,1.476609,6.517745,6.5177383,0.0,0.0,0.0,0.0,0.0,0.0,0.0,0.0,12.49323,0.0,0.0,nan,0.0,0.0,0.09035752,0.0,0.0,0.0,0.0,0.0,0.0,0.0,0.0,0.0
595209842,595109575,0.5011931,0.5011901,1.0742857,6.595814,6.595809,0.0,0.0,0.0,0.0,0.0,0.0,0.0,0.0,12.492371,0.0,0.0,nan,0.0,0.0,0.09035745,0.0,0.0,0.0,0.0,0.0,0.0,0.0,0.0,0.0
595707770,595607305,0.5743568,0.574354,1.2403646,6.7199745,6.7199693,0.0,0.0,0.0,0.0,0.0,0.0,0.0,0.0,12.49307,0.0,0.0,nan,0.0,0.0,0.09035749,0.0,0.0,0.0,0.0,0.0,0.0,0.0,0.0,0.0
596205172,596105035,0.36940995,0.3694071,0.7779131,6.7869616,6.786957,0.0,0.0,0.0,0.0,0.0,0.0,0.0,0.0,12.492167,0.0,0.0,nan,0.0,0.0,0.090357415,0.0,0.0,0.0,0.0,0.0,0.0,0.0,0.0,0.0
596713230,596612719,0.5316224,0.53162,1.1460307,6.8754683,6.875464,0.0,0.0,0.0,0.0,0.0,0.0,0.0,0.0,12.491577,0.0,0.0,nan,0.0,0.0,0.09035745,0.0,0.0,0.0,0.0,0.0,0.0,0.0,0.0,0.0
597210615,597110449,0.55985683,0.55985475,1.2104541,6.927519,6.927515,0.0,0.0,0.0,0.0,0.0,0.0,0.0,0.0,12.49123,0.0,0.0,nan,0.0,0.0,0.09035739,0.0,0.0,0.0,0.0,0.0,0.0,0.0,0.0,0.0
597708665,597608178,0.37994632,0.37994468,0.80641246,7.000587,7.000583,0.0,0.0,0.0,0.0,0.0,0.0,0.0,0.0,12.49153,0.0,0.0,nan,0.0,0.0,0.090357326,0.0,0.0,0.0,0.0,0.0,0.0,0.0,0.0,0.0
598206055,598105907,0.60092455,0.60092324,1.3038594,7.078089,7.0780854,0.0,0.0,0.0,0.0,0.0,0.0,0.0,0.0,12.489559,0.0,0.0,nan,0.0,0.0,0.09035739,0.0,0.0,0.0,0.0,0.0,0.0,0.0,0.0,0.0
598703794,598603637,0.5901319,0.59013057,1.2770768,7.169172,7.169167,0.0,0.0,0.0,0.0,0.0,0.0,0.0,0.0,12.491945,0.0,0.0,nan,0.0,0.0,0.09035734,0.0,0.0,0.0,0.0,0.0,0.0,0.0,0.0,0.0
599211490,599111320,0.60390264,0.60390174,1.3105502,7.2970066,7.297003,0.0,0.0,0.0,0.0,0.0,0.0,0.0,0.0,12.490312,0.0,0.0,nan,0.0,0.0,0.09035722,0.0,0.0,0.0,0.0,0.0,0.0,0.0,0.0,0.0
599709500,599609049,0.4005936,0.400593,0.84977186,7.349984,7.3499804,0.0,0.0,0.0,0.0,0.0,0.0,0.0,0.0,12.491742,0.0,0.0,nan,0.0,0.0,0.09035718,0.0,0.0,0.0,0.0,0.0,0.0,0.0,0.0,0.0
600207007,600106778,0.4250448,0.42504442,0.90541875,7.356121,7.3561172,0.0,0.0,0.0,0.0,0.0,0.0,0.0,0.0,12.489835,0.0,0.0,nan,0.0,0.0,0.0903573,0.0,0.0,0.0,0.0,0.0,0.0,0.0,0.0,0.0
600704925,600604507,0.54776585,0.54776573,1.1812451,7.291948,7.291944,0.0,0.0,0.0,0.0,0.0,0.0,0.0,0.0,12.492446,0.0,0.0,nan,0.0,0.0,0.09035719,0.0,0.0,0.0,0.0,0.0,0.0,0.0,0.0,0.0
601212298,601112190,0.53786594,0.53786594,1.1586335,7.2410383,7.241035,0.0,0.0,0.0,0.0,0.0,0.0,0.0,0.0,12.490744,0.0,0.0,nan,0.0,0.0,0.09035716,0.0,0.0,0.0,0.0,0.0,0.0,0.0,0.0,0.0
601710099,601609918,0.6158911,0.61589175,1.3315012,7.343188,7.3431845,0.0,0.0,0.0,0.0,0.0,0.0,0.0,0.0,12.493435,0.0,0.0,nan,0.0,0.0,0.09035715,0.0,0.0,0.0,0.0,0.0,0.0,0.0,0.0,0.0
602207755,602107646,0.53439474,0.5343962,1.1462446,7.448371,7.448368,0.0,0.0,0.0,0.0,0.0,0.0,0.0,0.0,12.49363,0.0,0.0,nan,0.0,0.0,0.090357214,0.0,0.0,0.0,0.0,0.0,0.0,0.0,0.0,0.0
602705898,602605374,0.6808515,0.68085337,1.4730732,7.626645,7.6266427,0.0,0.0,0.0,0.0,0.0,0.0,0.0,0.0,12.496386,0.0,0.0,nan,0.0,0.0,0.090357184,0.0,0.0,0.0,0.0,0.0,0.0,0.0,0.0,0.0
603213215,603113057,0.57538277,0.5753845,1.2341132,7.722993,7.7229905,0.0,0.0,0.0,0.0,0.0,0.0,0.0,0.0,12.496778,0.0,0.0,nan,0.0,0.0,0.09035725,0.0,0.0,0.0,0.0,0.0,0.0,0.0,0.0,0.0
603711766,603610785,0.52947426,0.5294757,1.1306472,7.8803287,7.8803267,0.0,0.0,0.0,0.0,0.0,0.0,0.0,0.0,12.498306,0.0,0.0,nan,0.0,0.0,0.090357214,0.0,0.0,0.0,0.0,0.0,0.0,0.0,0.0,0.0
604208749,604108513,0.45854038,0.4585415,0.97221,7.954996,7.9549947,0.0,0.0,0.0,0.0,0.0,0.0,0.0,0.0,12.49667,0.0,0.0,nan,0.0,0.0,0.09035717,0.0,0.0,0.0,0.0,0.0,0.0,0.0,0.0,0.0
604706469,604606240,0.24745032,0.2474511,0.49881074,7.932902,7.932901,0.0,0.0,0.0,0.0,0.0,0.0,0.0,0.0,12.49679,0.0,0.0,nan,0.0,0.0,0.09035744,0.0,0.0,0.0,0.0,0.0,0.0,0.0,0.0,0.0
605204187,605103968,0.4593004,0.45930055,0.98046356,7.868703,7.868702,0.0,0.0,0.0,0.0,0.0,0.0,0.0,0.0,12.493581,0.0,0.0,nan,0.0,0.0,0.09035738,0.0,0.0,0.0,0.0,0.0,0.0,0.0,0.0,0.0
605711778,605611650,0.4669868,0.46698684,1.0036861,7.718799,7.718798,0.0,0.0,0.0,0.0,0.0,0.0,0.0,0.0,12.491087,0.0,0.0,nan,0.0,0.0,0.09035727,0.0,0.0,0.0,0.0,0.0,0.0,0.0,0.0,0.0
606209475,606109377,0.46077093,0.4607709,0.9889601,7.6863046,7.6863036,0.0,0.0,0.0,0.0,0.0,0.0,0.0,0.0,12.48884,0.0,0.0,nan,0.0,0.0,0.090357415,0.0,0.0,0.0,0.0,0.0,0.0,0.0,0.0,0.0
606707549,606607104,0.59378016,0.5937796,1.2900026,7.5958343,7.5958333,0.0,0.0,0.0,0.0,0.0,0.0,0.0,0.0,12.488062,0.0,0.0,nan,0.0,0.0,0.09035729,0.0,0.0,0.0,0.0,0.0,0.0,0.0,0.0,0.0
607214909,607114785,0.23486933,0.23486854,0.47943914,7.5138063,7.513806,0.0,0.0,0.0,0.0,0.0,0.0,0.0,0.0,12.486792,0.0,0.0,nan,0.0,0.0,0.09035725,0.0,0.0,0.0,0.0,0.0,0.0,0.0,0.0,0.0
607703061,607602558,0.3687182,0.36871713,0.7847528,7.385573,7.3855724,0.0,0.0,0.0,0.0,0.0,0.0,0.0,0.0,12.486255,0.0,0.0,nan,0.0,0.0,0.09035739,0.0,0.0,0.0,0.0,0.0,0.0,0.0,0.0,0.0
608210413,608110239,0.48274568,0.48274451,1.0452709,7.297242,7.2972417,0.0,0.0,0.0,0.0,0.0,0.0,0.0,0.0,12.482028,0.0,0.0,nan,0.0,0.0,0.090357274,0.0,0.0,0.0,0.0,0.0,0.0,0.0,0.0,0.0
608708148,608607968,0.3121945,0.31219304,0.6589147,7.22044,7.2204394,0.0,0.0,0.0,0.0,0.0,0.0,0.0,0.0,12.480702,0.0,0.0,nan,0.0,0.0,0.090357244,0.0,0.0,0.0,0.0,0.0,0.0,0.0,0.0,0.0
609205911,609105692,0.27586904,0.27586785,0.58155406,7.113989,7.113989,0.0,0.0,0.0,0.0,0.0,0.0,0.0,0.0,12.477732,0.0,0.0,nan,0.0,0.0,0.0903572,0.0,0.0,0.0,0.0,0.0,0.0,0.0,0.0,0.0
609713551,609613373,0.4679084,0.4679071,1.0119617,7.0015783,7.001578,0.0,0.0,0.0,0.0,0.0,0.0,0.0,0.0,12.480213,0.0,0.0,nan,0.0,0.0,0.09035728,0.0,0.0,0.0,0.0,0.0,0.0,0.0,0.0,0.0
610211212,610111099,0.34911674,0.34911528,0.74308705,6.9532695,6.9532685,0.0,0.0,0.0,0.0,0.0,0.0,0.0,0.0,12.479373,0.0,0.0,nan,0.0,0.0,0.09035725,0.0,0.0,0.0,0.0,0.0,0.0,0.0,0.0,0.0
610708979,610608825,0.15841487,0.15841366,0.31520665,6.8651686,6.8651686,0.0,0.0,0.0,0.0,0.0,0.0,0.0,0.0,12.473124,0.0,0.0,nan,0.0,0.0,0.090357326,0.0,0.0,0.0,0.0,0.0,0.0,0.0,0.0,0.0
611206745,611106551,0.4197959,0.41979498,0.90681165,6.805094,6.8050933,0.0,0.0,0.0,0.0,0.0,0.0,0.0,0.0,12.475722,0.0,0.0,nan,0.0,0.0,0.09035729,0.0,0.0,0.0,0.0,0.0,0.0,0.0,0.0,0.0
611704729,611604276,0.27921614,0.27921554,0.59046394,6.7068663,6.7068653,0.0,0.0,0.0,0.0,0.0,0.0,0.0,0.0,12.475722,0.0,0.0,nan,0.0,0.0,0.09035727,0.0,0.0,0.0,0.0,0.0,0.0,0.0,0.0,0.0
612212056,612111956,0.23739585,0.23739561,0.49691704,6.6561823,6.656182,0.0,0.0,0.0,0.0,0.0,0.0,0.0,0.0,12.472175,0.0,0.0,nan,0.0,0.0,0.09035735,0.0,0.0,0.0,0.0,0.0,0.0,0.0,0.0,0.0
612710891,612609682,0.38186526,0.3818656,0.8237976,6.562169,6.562168,0.0,0.0,0.0,0.0,0.0,0.0,0.0,0.0,12.4704075,0.0,0.0,nan,0.0,0.0,0.090357326,0.0,0.0,0.0,0.0,0.0,0.0,0.0,0.0,0.0
613207546,613107407,0.5115983,0.5115989,1.1129003,6.536035,6.536034,0.0,0.0,0.0,0.0,0.0,0.0,0.0,0.0,12.474208,0.0,0.0,nan,0.0,0.0,0.09035721,0.0,0.0,0.0,0.0,0.0,0.0,0.0,0.0,0.0
613705599,613605132,0.55885,0.55885077,1.2160767,6.485197,6.485196,0.0,0.0,0.0,0.0,0.0,0.0,0.0,0.0,12.476061,0.0,0.0,nan,0.0,0.0,0.0903572,0.0,0.0,0.0,0.0,0.0,0.0,0.0,0.0,0.0
614212977,614112812,0.6096564,0.6096573,1.3272928,6.500307,6.5003057,0.0,0.0,0.0,0.0,0.0,0.0,0.0,0.0,12.478579,0.0,0.0,nan,0.0,0.0,0.090357356,0.0,0.0,0.0,0.0,0.0,0.0,0.0,0.0,0.0
614710711,614610537,0.42381355,0.4238147,0.9052219,6.48668,6.4866786,0.0,0.0,0.0,0.0,0.0,0.0,0.0,0.0,12.480921,0.0,0.0,nan,0.0,0.0,0.090357274,0.0,0.0,0.0,0.0,0.0,0.0,0.0,0.0,0.0
615208351,615108261,0.27272463,0.2727259,0.56673926,6.40073,6.400729,0.0,0.0,0.0,0.0,0.0,0.0,0.0,0.0,12.479803,0.0,0.0,nan,0.0,0.0,0.09035728,0.0,0.0,0.0,0.0,0.0,0.0,0.0,0.0,0.0
615706083,615605986,0.32297346,0.32297572,0.6832573,6.3176274,6.3176265,0.0,0.0,0.0,0.0,0.0,0.0,0.0,0.0,12.48091,0.0,0.0,nan,0.0,0.0,0.09035738,0.0,0.0,0.0,0.0,0.0,0.0,0.0,0.0,0.0
616203857,616103710,0.3397451,0.33974788,0.7228991,6.245526,6.245525,0.0,0.0,0.0,0.0,0.0,0.0,0.0,0.0,12.478282,0.0,0.0,nan,0.0,0.0,0.09035735,0.0,0.0,0.0,0.0,0.0,0.0,0.0,0.0,0.0
616711794,616611389,0.5079491,0.5079529,1.1009052,6.2147574,6.2147565,0.0,0.0,0.0,0.0,0.0,0.0,0.0,0.0,12.480407,0.0,0.0,nan,0.0,0.0,0.090357326,0.0,0.0,0.0,0.0,0.0,0.0,0.0,0.0,0.0
617209242,617109113,0.5254603,0.5254648,1.138883,6.2069654,6.2069654,0.0,0.0,0.0,0.0,0.0,0.0,0.0,0.0,12.481303,0.0,0.0,nan,0.0,0.0,0.09035742,0.0,0.0,0.0,0.0,0.0,0.0,0.0,0.0,0.0
617707392,617606837,0.557299,0.5573046,1.2069657,6.2590303,6.259031,0.0,0.0,0.0,0.0,0.0,0.0,0.0,0.0,12.484701,0.0,0.0,nan,0.0,0.0,0.090357386,0.0,0.0,0.0,0.0,0.0,0.0,0.0,0.0,0.0
618204804,618104561,0.31085297,0.31085825,0.65449405,6.226392,6.2263923,0.0,0.0,0.0,0.0,0.0,0.0,0.0,0.0,12.48179,0.0,0.0,nan,0.0,0.0,0.09035733,0.0,0.0,0.0,0.0,0.0,0.0,0.0,0.0,0.0
618712365,618612239,0.34241486,0.34241968,0.72810566,6.105632,6.1056323,0.0,0.0,0.0,0.0,0.0,0.0,0.0,0.0,12.479594,0.0,0.0,nan,0.0,0.0,0.0903574,0.0,0.0,0.0,0.0,0.0,0.0,0.0,0.0,0.0
619210090,619109963,0.3706444,0.3706482,0.79731,5.945079,5.9450784,0.0,0.0,0.0,0.0,0.0,0.0,0.0,0.0,12.476796,0.0,0.0,nan,0.0,0.0,0.09035736,0.0,0.0,0.0,0.0,0.0,0.0,0.0,0.0,0.0
619708093,619607686,0.3097896,0.30979383,0.6585367,5.82586,5.82586,0.0,0.0,0.0,0.0,0.0,0.0,0.0,0.0,12.478764,0.0,0.0,nan,0.0,0.0,0.09035725,0.0,0.0,0.0,0.0,0.0,0.0,0.0,0.0,0.0
620205527,620105409,0.43165046,0.43165484,0.93283,5.821302,5.8213024,0.0,0.0,0.0,0.0,0.0,0.0,0.0,0.0,12.476608,0.0,0.0,nan,0.0,0.0,0.09035742,0.0,0.0,0.0,0.0,0.0,0.0,0.0,0.0,0.0
620713215,620613087,0.58673793,0.586742,1.2825276,5.8283505,5.8283515,0.0,0.0,0.0,0.0,0.0,0.0,0.0,0.0,12.476213,0.0,0.0,nan,0.0,0.0,0.0903574,0.0,0.0,0.0,0.0,0.0,0.0,0.0,0.0,0.0
621210903,621110810,0.3867546,0.38675895,0.82977194,5.8203444,5.820346,0.0,0.0,0.0,0.0,0.0,0.0,0.0,0.0,12.478552,0.0,0.0,nan,0.0,0.0,0.0903573,0.0,0.0,0.0,0.0,0.0,0.0,0.0,0.0,0.0
621708631,621608532,0.49000397,0.4900088,1.0606872,5.804406,5.804408,0.0,0.0,0.0,0.0,0.0,0.0,0.0,0.0,12.479836,0.0,0.0,nan,0.0,0.0,0.09035749,0.0,0.0,0.0,0.0,0.0,0.0,0.0,0.0,0.0
622206417,622106255,0.43024564,0.43025097,0.9247396,5.8019843,5.8019857,0.0,0.0,0.0,0.0,0.0,0.0,0.0,0.0,12.479947,0.0,0.0,nan,0.0,0.0,0.09035738,0.0,0.0,0.0,0.0,0.0,0.0,0.0,0.0,0.0
622704511,622603978,0.63699204,0.6369976,1.3899364,5.860952,5.8609543,0.0,0.0,0.0,0.0,0.0,0.0,0.0,0.0,12.481057,0.0,0.0,nan,0.0,0.0,0.090357356,0.0,0.0,0.0,0.0,0.0,0.0,0.0,0.0,0.0
623211749,623111654,0.41585332,0.41585925,0.8908434,5.9135394,5.913542,0.0,0.0,0.0,0.0,0.0,0.0,0.0,0.0,12.481817,0.0,0.0,nan,0.0,0.0,0.09035734,0.0,0.0,0.0,0.0,0.0,0.0,0.0,0.0,0.0
623709814,623609377,0.33121744,0.33122334,0.7007015,5.9556875,5.95569,0.0,0.0,0.0,0.0,0.0,0.0,0.0,0.0,12.483158,0.0,0.0,nan,0.0,0.0,0.090357415,0.0,0.0,0.0,0.0,0.0,0.0,0.0,0.0,0.0
624207273,624107099,0.22974095,0.22974667,0.47304982,5.936101,5.936103,0.0,0.0,0.0,0.0,0.0,0.0,0.0,0.0,12.479436,0.0,0.0,nan,0.0,0.0,0.090357386,0.0,0.0,0.0,0.0,0.0,0.0,0.0,0.0,0.0
624714887,624614775,0.4606308,0.4606364,0.99439394,5.9063354,5.9063373,0.0,0.0,0.0,0.0,0.0,0.0,0.0,0.0,12.481932,0.0,0.0,nan,0.0,0.0,0.090357356,0.0,0.0,0.0,0.0,0.0,0.0,0.0,0.0,0.0
625202645,625102542,0.29459393,0.29459956,0.62104094,5.864286,5.864288,0.0,0.0,0.0,0.0,0.0,0.0,0.0,0.0,12.479623,0.0,0.0,nan,0.0,0.0,0.09035741,0.0,0.0,0.0,0.0,0.0,0.0,0.0,0.0,0.0
625710685,625610218,0.47816706,0.47817275,1.0334706,5.88383,5.883832,0.0,0.0,0.0,0.0,0.0,0.0,0.0,0.0,12.482075,0.0,0.0,nan,0.0,0.0,0.09035738,0.0,0.0,0.0,0.0,0.0,0.0,0.0,0.0,0.0
626208105,626107940,0.56308633,0.5630923,1.2230307,5.9019275,5.90193,0.0,0.0,0.0,0.0,0.0,0.0,0.0,0.0,12.483042,0.0,0.0,nan,0.0,0.0,0.09035746,0.0,0.0,0.0,0.0,0.0,0.0,0.0,0.0,0.0
626706199,626605661,0.5730394,0.5730458,1.2431104,5.9456935,5.945697,0.0,0.0,0.0,0.0,0.0,0.0,0.0,0.0,12.48457,0.0,0.0,nan,0.0,0.0,0.09035743,0.0,0.0,0.0,0.0,0.0,0.0,0.0,0.0,0.0
627213572,627113338,0.5712144,0.57122123,1.2367547,5.999158,5.9991617,0.0,0.0,0.0,0.0,0.0,0.0,0.0,0.0,12.486854,0.0,0.0,nan,0.0,0.0,0.0903574,0.0,0.0,0.0,0.0,0.0,0.0,0.0,0.0,0.0
627711551,627611058,0.67605346,0.67606074,1.4691095,6.1069727,6.106978,0.0,0.0,0.0,0.0,0.0,0.0,0.0,0.0,12.490249,0.0,0.0,nan,0.0,0.0,0.090357296,0.0,0.0,0.0,0.0,0.0,0.0,0.0,0.0,0.0
628208881,628108779,0.6892085,0.68921566,1.4982665,6.1679506,6.1679564,0.0,0.0,0.0,0.0,0.0,0.0,0.0,0.0,12.490384,0.0,0.0,nan,0.0,0.0,0.090357445,0.0,0.0,0.0,0.0,0.0,0.0,0.0,0.0,0.0
628706620,628606499,0.44537055,0.4453776,0.9487605,6.194248,6.1942534,0.0,0.0,0.0,0.0,0.0,0.0,0.0,0.0,12.490559,0.0,0.0,nan,0.0,0.0,0.09035734,0.0,0.0,0.0,0.0,0.0,0.0,0.0,0.0,0.0
629204334,629104220,0.321153,0.32115975,0.6695982,6.18655,6.186555,0.0,0.0,0.0,0.0,0.0,0.0,0.0,0.0,12.491073,0.0,0.0,nan,0.0,0.0,0.09035731,0.0,0.0,0.0,0.0,0.0,0.0,0.0,0.0,0.0
629712066,629611894,0.42286438,0.4228706,0.8999981,6.209608,6.2096124,0.0,0.0,0.0,0.0,0.0,0.0,0.0,0.0,12.489581,0.0,0.0,nan,0.0,0.0,0.09035747,0.0,0.0,0.0,0.0,0.0,0.0,0.0,0.0,0.0
630209731,630109615,0.44997182,0.44997776,0.96298295,6.192915,6.192919,0.0,0.0,0.0,0.0,0.0,0.0,0.0,0.0,12.490173,0.0,0.0,nan,0.0,0.0,0.090357356,0.0,0.0,0.0,0.0,0.0,0.0,0.0,0.0,0.0
630707501,630607335,0.63874346,0.6387496,1.387111,6.2755394,6.275543,0.0,0.0,0.0,0.0,0.0,0.0,0.0,0.0,12.491425,0.0,0.0,nan,0.0,0.0,0.09035734,0.0,0.0,0.0,0.0,0.0,0.0,0.0,0.0,0.0
631205307,631105055,0.69537914,0.69538563,1.5127444,6.355243,6.3552475,0.0,0.0,0.0,0.0,0.0,0.0,0.0,0.0,12.492826,0.0,0.0,nan,0.0,0.0,0.0903573,0.0,0.0,0.0,0.0,0.0,0.0,0.0,0.0,0.0
631712965,631612729,0.7300186,0.7300261,1.5872475,6.4893293,6.4893346,0.0,0.0,0.0,0.0,0.0,0.0,0.0,0.0,12.494185,0.0,0.0,nan,0.0,0.0,0.09035738,0.0,0.0,0.0,0.0,0.0,0.0,0.0,0.0,0.0
632210610,632110448,0.4970616,0.49706954,1.062105,6.5552034,6.5552087,0.0,0.0,0.0,0.0,0.0,0.0,0.0,0.0,12.496497,0.0,0.0,nan,0.0,0.0,0.09035735,0.0,0.0,0.0,0.0,0.0,0.0,0.0,0.0,0.0
632708305,632608168,0.535898,0.53590626,1.1494917,6.6347747,6.6347795,0.0,0.0,0.0,0.0,0.0,0.0,0.0,0.0,12.496965,0.0,0.0,nan,0.0,0.0,0.09035743,0.0,0.0,0.0,0.0,0.0,0.0,0.0,0.0,0.0
633206043,633105887,0.28221995,0.2822283,0.5787849,6.7030272,6.7030315,0.0,0.0,0.0,0.0,0.0,0.0,0.0,0.0,12.492783,0.0,0.0,nan,0.0,0.0,0.09035739,0.0,0.0,0.0,0.0,0.0,0.0,0.0,0.0,0.0
633704077,633603606,0.58268434,0.5826923,1.2571716,6.731307,6.731312,0.0,0.0,0.0,0.0,0.0,0.0,0.0,0.0,12.495853,0.0,0.0,nan,0.0,0.0,0.09035736,0.0,0.0,0.0,0.0,0.0,0.0,0.0,0.0,0.0
634211377,634111280,0.59199286,0.59200114,1.2772045,6.7699594,6.7699647,0.0,0.0,0.0,0.0,0.0,0.0,0.0,0.0,12.495667,0.0,0.0,nan,0.0,0.0,0.09035745,0.0,0.0,0.0,0.0,0.0,0.0,0.0,0.0,0.0
634709145,634608999,0.7055386,0.70554715,1.5312868,6.842118,6.8421235,0.0,0.0,0.0,0.0,0.0,0.0,0.0,0.0,12.496587,0.0,0.0,nan,0.0,0.0,0.09035742,0.0,0.0,0.0,0.0,0.0,0.0,0.0,0.0,0.0
635206813,635106717,0.6274919,0.62749964,1.35922,6.856013,6.8560176,0.0,0.0,0.0,0.0,0.0,0.0,0.0,0.0,12.494912,0.0,0.0,nan,0.0,0.0,0.09035731,0.0,0.0,0.0,0.0,0.0,0.0,0.0,0.0,0.0
635704875,635604436,0.6331537,0.63316196,1.369843,6.9343834,6.9343886,0.0,0.0,0.0,0.0,0.0,0.0,0.0,0.0,12.496607,0.0,0.0,nan,0.0,0.0,0.09035747,0.0,0.0,0.0,0.0,0.0,0.0,0.0,0.0,0.0
636212290,636112109,0.6939855,0.69399416,1.5057275,7.004702,7.004708,0.0,0.0,0.0,0.0,0.0,0.0,0.0,0.0,12.495892,0.0,0.0,nan,0.0,0.0,0.09035744,0.0,0.0,0.0,0.0,0.0,0.0,0.0,0.0,0.0
636710256,636609827,0.8667953,0.8668049,1.8901105,7.13943,7.1394377,0.0,0.0,0.0,0.0,0.0,0.0,0.0,0.0,12.498502,0.0,0.0,nan,0.0,0.0,0.090357326,0.0,0.0,0.0,0.0,0.0,0.0,0.0,0.0,0.0
637207699,637107545,0.8883741,0.88838416,1.9357965,7.216747,7.2167563,0.0,0.0,0.0,0.0,0.0,0.0,0.0,0.0,12.500994,0.0,0.0,nan,0.0,0.0,0.0903573,0.0,0.0,0.0,0.0,0.0,0.0,0.0,0.0,0.0
637705725,637605263,0.9133399,0.9133492,1.9942815,7.2892714,7.28928,0.0,0.0,0.0,0.0,0.0,0.0,0.0,0.0,12.498582,0.0,0.0,nan,0.0,0.0,0.09035737,0.0,0.0,0.0,0.0,0.0,0.0,0.0,0.0,0.0
638213023,638112935,0.8033891,0.8033982,1.7453912,7.341104,7.341113,0.0,0.0,0.0,0.0,0.0,0.0,0.0,0.0,12.500365,0.0,0.0,nan,0.0,0.0,0.09035735,0.0,0.0,0.0,0.0,0.0,0.0,0.0,0.0,0.0
638710779,638610653,0.68808496,0.68809444,1.4842205,7.3734775,7.3734865,0.0,0.0,0.0,0.0,0.0,0.0,0.0,0.0,12.50209,0.0,0.0,nan,0.0,0.0,0.09035732,0.0,0.0,0.0,0.0,0.0,0.0,0.0,0.0,0.0
639208498,639108370,0.65323,0.6532394,1.4055592,7.366063,7.366072,0.0,0.0,0.0,0.0,0.0,0.0,0.0,0.0,12.5014925,0.0,0.0,nan,0.0,0.0,0.0903574,0.0,0.0,0.0,0.0,0.0,0.0,0.0,0.0,0.0
639706335,639606088,0.3709958,0.37100437,0.7731708,7.321779,7.3217854,0.0,0.0,0.0,0.0,0.0,0.0,0.0,0.0,12.4982815,0.0,0.0,nan,0.0,0.0,0.09035736,0.0,0.0,0.0,0.0,0.0,0.0,0.0,0.0,0.0
640204028,640103805,0.16732624,0.1673338,0.31827438,7.2417874,7.2417912,0.0,0.0,0.0,0.0,0.0,0.0,0.0,0.0,12.492704,0.0,0.0,nan,0.0,0.0,0.09035733,0.0,0.0,0.0,0.0,0.0,0.0,0.0,0.0,0.0
640711713,640611476,0.4918524,0.49185786,1.0582049,7.157555,7.1575584,0.0,0.0,0.0,0.0,0.0,0.0,0.0,0.0,12.493752,0.0,0.0,nan,0.0,0.0,0.090357415,0.0,0.0,0.0,0.0,0.0,0.0,0.0,0.0,0.0
641209321,641109193,0.2550992,0.25510493,0.5235332,7.1404443,7.140447,0.0,0.0,0.0,0.0,0.0,0.0,0.0,0.0,12.489718,0.0,0.0,nan,0.0,0.0,0.09035737,0.0,0.0,0.0,0.0,0.0,0.0,0.0,0.0,0.0
641707708,641606910,0.21252911,0.21253395,0.43360168,6.9420605,6.9420624,0.0,0.0,0.0,0.0,0.0,0.0,0.0,0.0,12.484022,0.0,0.0,nan,0.0,0.0,0.090357274,0.0,0.0,0.0,0.0,0.0,0.0,0.0,0.0,0.0
642214739,642114581,0.48687103,0.48687547,1.0544344,6.8884907,6.8884926,0.0,0.0,0.0,0.0,0.0,0.0,0.0,0.0,12.484819,0.0,0.0,nan,0.0,0.0,0.09035743,0.0,0.0,0.0,0.0,0.0,0.0,0.0,0.0,0.0
642702519,642602343,0.4258863,0.42589116,0.9159615,6.8453894,6.845391,0.0,0.0,0.0,0.0,0.0,0.0,0.0,0.0,12.484762,0.0,0.0,nan,0.0,0.0,0.09035739,0.0,0.0,0.0,0.0,0.0,0.0,0.0,0.0,0.0
643210101,643110013,0.30029774,0.30030292,0.6327862,6.711511,6.7115126,0.0,0.0,0.0,0.0,0.0,0.0,0.0,0.0,12.481676,0.0,0.0,nan,0.0,0.0,0.09035729,0.0,0.0,0.0,0.0,0.0,0.0,0.0,0.0,0.0
643707933,643607733,0.41956064,0.41956574,0.9017983,6.6872554,6.687257,0.0,0.0,0.0,0.0,0.0,0.0,0.0,0.0,12.481421,0.0,0.0,nan,0.0,0.0,0.090357445,0.0,0.0,0.0,0.0,0.0,0.0,0.0,0.0,0.0
644205589,644105446,0.5015213,0.5015266,1.0853733,6.6523333,6.652334,0.0,0.0,0.0,0.0,0.0,0.0,0.0,0.0,12.482044,0.0,0.0,nan,0.0,0.0,0.09035733,0.0,0.0,0.0,0.0,0.0,0.0,0.0,0.0,0.0
644713205,644613116,0.46352202,0.46352768,0.99758244,6.622572,6.6225734,0.0,0.0,0.0,0.0,0.0,0.0,0.0,0.0,12.483892,0.0,0.0,nan,0.0,0.0,0.09035732,0.0,0.0,0.0,0.0,0.0,0.0,0.0,0.0,0.0
645211052,645110831,0.39678735,0.39679316,0.84665585,6.5711813,6.571183,0.0,0.0,0.0,0.0,0.0,0.0,0.0,0.0,12.482975,0.0,0.0,nan,0.0,0.0,0.09035729,0.0,0.0,0.0,0.0,0.0,0.0,0.0,0.0,0.0
645708981,645608547,0.3431025,0.34310833,0.7256642,6.4933968,6.493398,0.0,0.0,0.0,0.0,0.0,0.0,0.0,0.0,12.484582,0.0,0.0,nan,0.0,0.0,0.09035737,0.0,0.0,0.0,0.0,0.0,0.0,0.0,0.0,0.0
646206362,646106262,0.43614578,0.4361512,0.9362559,6.412587,6.412589,0.0,0.0,0.0,0.0,0.0,0.0,0.0,0.0,12.482794,0.0,0.0,nan,0.0,0.0,0.09035733,0.0,0.0,0.0,0.0,0.0,0.0,0.0,0.0,0.0
646704152,646603977,0.292251,0.29225639,0.61210227,6.3341107,6.3341126,0.0,0.0,0.0,0.0,0.0,0.0,0.0,0.0,12.483172,0.0,0.0,nan,0.0,0.0,0.090357296,0.0,0.0,0.0,0.0,0.0,0.0,0.0,0.0,0.0
647211818,647111647,0.17714337,0.17714806,0.35617292,6.2266083,6.226609,0.0,0.0,0.0,0.0,0.0,0.0,0.0,0.0,12.477377,0.0,0.0,nan,0.0,0.0,0.09035738,0.0,0.0,0.0,0.0,0.0,0.0,0.0,0.0,0.0
647709784,647609362,0.28573033,0.28573444,0.604381,6.1198397,6.1198406,0.0,0.0,0.0,0.0,0.0,0.0,0.0,0.0,12.478543,0.0,0.0,nan,0.0,0.0,0.09035735,0.0,0.0,0.0,0.0,0.0,0.0,0.0,0.0,0.0
648207170,648107076,0.2825066,0.28251073,0.59751713,6.05364,6.0536413,0.0,0.0,0.0,0.0,0.0,0.0,0.0,0.0,12.47563,0.0,0.0,nan,0.0,0.0,0.09035743,0.0,0.0,0.0,0.0,0.0,0.0,0.0,0.0,0.0
648705228,648604791,0.27705103,0.27705535,0.5860567,5.9474597,5.9474607,0.0,0.0,0.0,0.0,0.0,0.0,0.0,0.0,12.4764595,0.0,0.0,nan,0.0,0.0,0.0903574,0.0,0.0,0.0,0.0,0.0,0.0,0.0,0.0,0.0
649212608,649112459,0.25744295,0.257447,0.54372233,5.8555703,5.8555713,0.0,0.0,0.0,0.0,0.0,0.0,0.0,0.0,12.472607,0.0,0.0,nan,0.0,0.0,0.09035738,0.0,0.0,0.0,0.0,0.0,0.0,0.0,0.0,0.0
649710383,649610174,0.38013348,0.3801375,0.8210872,5.6821804,5.6821814,0.0,0.0,0.0,0.0,0.0,0.0,0.0,0.0,12.4704275,0.0,0.0,nan,0.0,0.0,0.09035746,0.0,0.0,0.0,0.0,0.0,0.0,0.0,0.0,0.0
650208081,650107888,0.3003299,0.30033433,0.6391554,5.62589,5.625891,0.0,0.0,0.0,0.0,0.0,0.0,0.0,0.0,12.472532,0.0,0.0,nan,0.0,0.0,0.09035742,0.0,0.0,0.0,0.0,0.0,0.0,0.0,0.0,0.0
650706307,650605605,0.47430855,0.47431275,1.0325298,5.543293,5.543294,0.0,0.0,0.0,0.0,0.0,0.0,0.0,0.0,12.471172,0.0,0.0,nan,0.0,0.0,0.09035732,0.0,0.0,0.0,0.0,0.0,0.0,0.0,0.0,0.0
651213421,651113270,0.35516614,0.3551707,0.7630253,5.486713,5.486714,0.0,0.0,0.0,0.0,0.0,0.0,0.0,0.0,12.472227,0.0,0.0,nan,0.0,0.0,0.09035729,0.0,0.0,0.0,0.0,0.0,0.0,0.0,0.0,0.0
651711090,651610983,0.453404,0.45340896,0.98212755,5.4529667,5.4529686,0.0,0.0,0.0,0.0,0.0,0.0,0.0,0.0,12.475804,0.0,0.0,nan,0.0,0.0,0.09035744,0.0,0.0,0.0,0.0,0.0,0.0,0.0,0.0,0.0
652208788,652108697,0.18258578,0.18258977,0.37648126,5.329102,5.329103,0.0,0.0,0.0,0.0,0.0,0.0,0.0,0.0,12.467223,0.0,0.0,nan,0.0,0.0,0.09035733,0.0,0.0,0.0,0.0,0.0,0.0,0.0,0.0,0.0
652706545,652606410,0.21228091,0.21228446,0.44588423,5.2116446,5.2116456,0.0,0.0,0.0,0.0,0.0,0.0,0.0,0.0,12.466827,0.0,0.0,nan,0.0,0.0,0.0903573,0.0,0.0,0.0,0.0,0.0,0.0,0.0,0.0,0.0
653204355,653104123,0.36794573,0.36794928,0.7966862,5.129644,5.129645,0.0,0.0,0.0,0.0,0.0,0.0,0.0,0.0,12.466241,0.0,0.0,nan,0.0,0.0,0.090357274,0.0,0.0,0.0,0.0,0.0,0.0,0.0,0.0,0.0
653711883,653611790,0.27647904,0.2764828,0.5899597,5.0744534,5.0744543,0.0,0.0,0.0,0.0,0.0,0.0,0.0,0.0,12.467125,0.0,0.0,nan,0.0,0.0,0.09035735,0.0,0.0,0.0,0.0,0.0,0.0,0.0,0.0,0.0
654209725,654109503,0.36521685,0.36522081,0.7888766,5.016349,5.0163503,0.0,0.0,0.0,0.0,0.0,0.0,0.0,0.0,12.466842,0.0,0.0,nan,0.0,0.0,0.090357326,0.0,0.0,0.0,0.0,0.0,0.0,0.0,0.0,0.0
654707813,654607215,0.27143696,0.2714417,0.5746882,4.9699445,4.969946,0.0,0.0,0.0,0.0,0.0,0.0,0.0,0.0,12.470271,0.0,0.0,nan,0.0,0.0,0.0903574,0.0,0.0,0.0,0.0,0.0,0.0,0.0,0.0,0.0
655205209,655104928,0.6468165,0.64682156,1.4174972,4.998876,4.9988785,0.0,0.0,0.0,0.0,0.0,0.0,0.0,0.0,12.472378,0.0,0.0,nan,0.0,0.0,0.09035737,0.0,0.0,0.0,0.0,0.0,0.0,0.0,0.0,0.0
655713099,655612594,0.640074,0.6400801,1.3969053,5.0574684,5.057472,0.0,0.0,0.0,0.0,0.0,0.0,0.0,0.0,12.477362,0.0,0.0,nan,0.0,0.0,0.09035733,0.0,0.0,0.0,0.0,0.0,0.0,0.0,0.0,0.0
656210402,656110306,0.17874281,0.17874917,0.35652786,5.0814447,5.081447,0.0,0.0,0.0,0.0,0.0,0.0,0.0,0.0,12.475286,0.0,0.0,nan,0.0,0.0,0.09035742,0.0,0.0,0.0,0.0,0.0,0.0,0.0,0.0,0.0
656708181,656608018,0.4520863,0.4520914,0.9766653,5.106181,5.1061845,0.0,0.0,0.0,0.0,0.0,0.0,0.0,0.0,12.478234,0.0,0.0,nan,0.0,0.0,0.09035739,0.0,0.0,0.0,0.0,0.0,0.0,0.0,0.0,0.0
657205902,657105730,0.42296338,0.4229675,0.9155398,5.1036277,5.1036296,0.0,0.0,0.0,0.0,0.0,0.0,0.0,0.0,12.474149,0.0,0.0,nan,0.0,0.0,0.09035729,0.0,0.0,0.0,0.0,0.0,0.0,0.0,0.0,0.0
657703539,657603443,0.24547543,0.24547984,0.5141492,5.107781,5.107783,0.0,0.0,0.0,0.0,0.0,0.0,0.0,0.0,12.475672,0.0,0.0,nan,0.0,0.0,0.09035744,0.0,0.0,0.0,0.0,0.0,0.0,0.0,0.0,0.0
658211246,658111107,0.43462425,0.43462893,0.9388043,5.1227865,5.122789,0.0,0.0,0.0,0.0,0.0,0.0,0.0,0.0,12.47633,0.0,0.0,nan,0.0,0.0,0.09035741,0.0,0.0,0.0,0.0,0.0,0.0,0.0,0.0,0.0
658709305,658608821,0.37339664,0.3734019,0.7981289,5.1246686,5.124672,0.0,0.0,0.0,0.0,0.0,0.0,0.0,0.0,12.479845,0.0,0.0,nan,0.0,0.0,0.090357296,0.0,0.0,0.0,0.0,0.0,0.0,0.0,0.0,0.0
659206716,659106529,0.19048715,0.1904925,0.38650915,5.100245,5.1002474,0.0,0.0,0.0,0.0,0.0,0.0,0.0,0.0,12.477326,0.0,0.0,nan,0.0,0.0,0.09035728,0.0,0.0,0.0,0.0,0.0,0.0,0.0,0.0,0.0
659715203,659614195,0.44175786,0.44176254,0.9560173,5.0536623,5.0536647,0.0,0.0,0.0,0.0,0.0,0.0,0.0,0.0,12.477591,0.0,0.0,nan,0.0,0.0,0.09035744,0.0,0.0,0.0,0.0,0.0,0.0,0.0,0.0,0.0
660202039,660101951,0.44839582,0.44840065,0.97067326,5.018656,5.0186586,0.0,0.0,0.0,0.0,0.0,0.0,0.0,0.0,12.47734,0.0,0.0,nan,0.0,0.0,0.090357326,0.0,0.0,0.0,0.0,0.0,0.0,0.0,0.0,0.0
660710004,660609616,0.41652867,0.41653305,0.90140575,4.978246,4.978248,0.0,0.0,0.0,0.0,0.0,0.0,0.0,0.0,12.475724,0.0,0.0,nan,0.0,0.0,0.090357296,0.0,0.0,0.0,0.0,0.0,0.0,0.0,0.0,0.0
661207430,661107326,0.7231572,0.72316194,1.589456,4.9833226,4.983325,0.0,0.0,0.0,0.0,0.0,0.0,0.0,0.0,12.477514,0.0,0.0,nan,0.0,0.0,0.090357386,0.0,0.0,0.0,0.0,0.0,0.0,0.0,0.0,0.0
661705179,661605036,0.82023567,0.82024133,1.803708,5.04954,5.0495434,0.0,0.0,0.0,0.0,0.0,0.0,0.0,0.0,12.482329,0.0,0.0,nan,0.0,0.0,0.090357356,0.0,0.0,0.0,0.0,0.0,0.0,0.0,0.0,0.0
662212812,662112701,0.25501704,0.25502408,0.52574205,5.1818166,5.1818204,0.0,0.0,0.0,0.0,0.0,0.0,0.0,0.0,12.482628,0.0,0.0,nan,0.0,0.0,0.09035732,0.0,0.0,0.0,0.0,0.0,0.0,0.0,0.0,0.0
662710910,662610411,1.0079349,1.0079417,2.2189772,5.359034,5.35904,0.0,0.0,0.0,0.0,0.0,0.0,0.0,0.0,12.486589,0.0,0.0,nan,0.0,0.0,0.09035741,0.0,0.0,0.0,0.0,0.0,0.0,0.0,0.0,0.0
663208398,663108120,0.85823315,0.85824084,1.8775804,5.4705853,5.470593,0.0,0.0,0.0,0.0,0.0,0.0,0.0,0.0,12.491236,0.0,0.0,nan,0.0,0.0,0.09035738,0.0,0.0,0.0,0.0,0.0,0.0,0.0,0.0,0.0
663705960,663605830,0.6486334,0.6486418,1.4018279,5.5917006,5.59171,0.0,0.0,0.0,0.0,0.0,0.0,0.0,0.0,12.49543,0.0,0.0,nan,0.0,0.0,0.09035746,0.0,0.0,0.0,0.0,0.0,0.0,0.0,0.0,0.0
664203780,664103539,1.3819656,1.3819747,3.0468295,5.7540956,5.7541084,0.0,0.0,0.0,0.0,0.0,0.0,0.0,0.0,12.499323,0.0,0.0,nan,0.0,0.0,0.09035744,0.0,0.0,0.0,0.0,0.0,0.0,0.0,0.0,0.0
664711641,664611203,1.0883632,1.0883734,2.3790214,6.015566,6.0155826,0.0,0.0,0.0,0.0,0.0,0.0,0.0,0.0,12.503019,0.0,0.0,nan,0.0,0.0,0.090357415,0.0,0.0,0.0,0.0,0.0,0.0,0.0,0.0,0.0
665209003,665108912,0.14591588,0.14592627,0.25591582,6.0970387,6.0970454,0.0,0.0,0.0,0.0,0.0,0.0,0.0,0.0,12.496039,0.0,0.0,nan,0.0,0.0,0.09035731,0.0,0.0,0.0,0.0,0.0,0.0,0.0,0.0,0.0
665706757,665606621,0.8152385,0.8152443,1.7809105,6.1507893,6.150797,0.0,0.0,0.0,0.0,0.0,0.0,0.0,0.0,12.49916,0.0,0.0,nan,0.0,0.0,0.09035747,0.0,0.0,0.0,0.0,0.0,0.0,0.0,0.0,0.0
666204493,666104329,0.4211649,0.4211707,0.89206725,6.183361,6.183368,0.0,0.0,0.0,0.0,0.0,0.0,0.0,0.0,12.496968,0.0,0.0,nan,0.0,0.0,0.090357356,0.0,0.0,0.0,0.0,0.0,0.0,0.0,0.0,0.0
666712470,666611992,0.628656,0.6286609,1.3629262,6.1728926,6.1728983,0.0,0.0,0.0,0.0,0.0,0.0,0.0,0.0,12.495797,0.0,0.0,nan,0.0,0.0,0.090357326,0.0,0.0,0.0,0.0,0.0,0.0,0.0,0.0,0.0
667209803,667109700,0.7175479,0.71755296,1.5610172,6.1841397,6.1841455,0.0,0.0,0.0,0.0,0.0,0.0,0.0,0.0,12.498142,0.0,0.0,nan,0.0,0.0,0.09035748,0.0,0.0,0.0,0.0,0.0,0.0,0.0,0.0,0.0
667707709,667607408,0.63704485,0.63704985,1.3803703,6.18828,6.188285,0.0,0.0,0.0,0.0,0.0,0.0,0.0,0.0,12.497765,0.0,0.0,nan,0.0,0.0,0.090357386,0.0,0.0,0.0,0.0,0.0,0.0,0.0,0.0,0.0
668205241,668105116,0.4099828,0.40998733,0.87205327,6.2035184,6.203522,0.0,0.0,0.0,0.0,0.0,0.0,0.0,0.0,12.4939785,0.0,0.0,nan,0.0,0.0,0.09035734,0.0,0.0,0.0,0.0,0.0,0.0,0.0,0.0,0.0
668713921,668612778,0.36723536,0.36723998,0.7752294,6.2379465,6.23795,0.0,0.0,0.0,0.0,0.0,0.0,0.0,0.0,12.493329,0.0,0.0,nan,0.0,0.0,0.09035732,0.0,0.0,0.0,0.0,0.0,0.0,0.0,0.0,0.0
669210609,669110486,0.7675359,0.7675403,1.6782185,6.2630877,6.2630906,0.0,0.0,0.0,0.0,0.0,0.0,0.0,0.0,12.49338,0.0,0.0,nan,0.0,0.0,0.09035741,0.0,0.0,0.0,0.0,0.0,0.0,0.0,0.0,0.0
669708434,669608193,0.7588614,0.7588665,1.6553161,6.3036027,6.303606,0.0,0.0,0.0,0.0,0.0,0.0,0.0,0.0,12.49541,0.0,0.0,nan,0.0,0.0,0.09035737,0.0,0.0,0.0,0.0,0.0,0.0,0.0,0.0,0.0
670206000,670105901,0.526698,0.52670354,1.1304611,6.317162,6.317165,0.0,0.0,0.0,0.0,0.0,0.0,0.0,0.0,12.495435,0.0,0.0,nan,0.0,0.0,0.090357445,0.0,0.0,0.0,0.0,0.0,0.0,0.0,0.0,0.0
670703820,670603608,0.6749596,0.6749649,1.4654644,6.3114552,6.311458,0.0,0.0,0.0,0.0,0.0,0.0,0.0,0.0,12.496425,0.0,0.0,nan,0.0,0.0,0.090357415,0.0,0.0,0.0,0.0,0.0,0.0,0.0,0.0,0.0
671211357,671111269,0.41976377,0.4197676,0.9019689,6.2214484,6.22145,0.0,0.0,0.0,0.0,0.0,0.0,0.0,0.0,12.487205,0.0,0.0,nan,0.0,0.0,0.090357386,0.0,0.0,0.0,0.0,0.0,0.0,0.0,0.0,0.0
671709074,671608975,0.36927027,0.36927453,0.7875532,6.151758,6.151759,0.0,0.0,0.0,0.0,0.0,0.0,0.0,0.0,12.487785,0.0,0.0,nan,0.0,0.0,0.09035747,0.0,0.0,0.0,0.0,0.0,0.0,0.0,0.0,0.0
672206777,672106682,0.21181461,0.21181898,0.43529403,5.9737535,5.9737544,0.0,0.0,0.0,0.0,0.0,0.0,0.0,0.0,12.481703,0.0,0.0,nan,0.0,0.0,0.09035744,0.0,0.0,0.0,0.0,0.0,0.0,0.0,0.0,0.0
672704530,672604388,0.53183585,0.53184,1.1576066,5.893864,5.893865,0.0,0.0,0.0,0.0,0.0,0.0,0.0,0.0,12.482604,0.0,0.0,nan,0.0,0.0,0.09035733,0.0,0.0,0.0,0.0,0.0,0.0,0.0,0.0,0.0
673212459,673112049,0.2989342,0.29893878,0.6325278,5.802074,5.8020744,0.0,0.0,0.0,0.0,0.0,0.0,0.0,0.0,12.480459,0.0,0.0,nan,0.0,0.0,0.09035748,0.0,0.0,0.0,0.0,0.0,0.0,0.0,0.0,0.0
673710168,673609755,0.57111347,0.57111806,1.2457716,5.70154,5.701541,0.0,0.0,0.0,0.0,0.0,0.0,0.0,0.0,12.480902,0.0,0.0,nan,0.0,0.0,0.09035746,0.0,0.0,0.0,0.0,0.0,0.0,0.0,0.0,0.0
674207649,674107460,0.3451856,0.34519112,0.7331704,5.692175,5.692176,0.0,0.0,0.0,0.0,0.0,0.0,0.0,0.0,12.480373,0.0,0.0,nan,0.0,0.0,0.09035735,0.0,0.0,0.0,0.0,0.0,0.0,0.0,0.0,0.0
674705277,674605166,0.49085444,0.49085996,1.060861,5.646659,5.646661,0.0,0.0,0.0,0.0,0.0,0.0,0.0,0.0,12.482367,0.0,0.0,nan,0.0,0.0,0.090357326,0.0,0.0,0.0,0.0,0.0,0.0,0.0,0.0,0.0
675203003,675102871,0.34505734,0.34506238,0.7354595,5.571369,5.5713706,0.0,0.0,0.0,0.0,0.0,0.0,0.0,0.0,12.479141,0.0,0.0,nan,0.0,0.0,0.0903574,0.0,0.0,0.0,0.0,0.0,0.0,0.0,0.0,0.0
675710624,675610531,0.41152543,0.41153052,0.88495255,5.5378284,5.5378294,0.0,0.0,0.0,0.0,0.0,0.0,0.0,0.0,12.480096,0.0,0.0,nan,0.0,0.0,0.09035736,0.0,0.0,0.0,0.0,0.0,0.0,0.0,0.0,0.0
676208433,676108236,0.46620873,0.4662123,1.0172223,5.4534597,5.45346,0.0,0.0,0.0,0.0,0.0,0.0,0.0,0.0,12.471286,0.0,0.0,nan,0.0,0.0,0.09035734,0.0,0.0,0.0,0.0,0.0,0.0,0.0,0.0,0.0
676706108,676605941,0.3622989,0.36230308,0.78114206,5.4170094,5.41701,0.0,0.0,0.0,0.0,0.0,0.0,0.0,0.0,12.473841,0.0,0.0,nan,0.0,0.0,0.090357415,0.0,0.0,0.0,0.0,0.0,0.0,0.0,0.0,0.0
677213749,677113600,0.42455706,0.42456198,0.9182838,5.360319,5.36032,0.0,0.0,0.0,0.0,0.0,0.0,0.0,0.0,12.473609,0.0,0.0,nan,0.0,0.0,0.09035739,0.0,0.0,0.0,0.0,0.0,0.0,0.0,0.0,0.0
677711701,677611304,0.53191876,0.53192425,1.1576731,5.3185744,5.3185763,0.0,0.0,0.0,0.0,0.0,0.0,0.0,0.0,12.476166,0.0,0.0,nan,0.0,0.0,0.09035736,0.0,0.0,0.0,0.0,0.0,0.0,0.0,0.0,0.0
678209183,678109008,0.22154808,0.22155398,0.4569523,5.2205887,5.2205906,0.0,0.0,0.0,0.0,0.0,0.0,0.0,0.0,12.475063,0.0,0.0,nan,0.0,0.0,0.090357445,0.0,0.0,0.0,0.0,0.0,0.0,0.0,0.0,0.0
678706801,678606713,0.36895505,0.36896062,0.7897837,5.203694,5.2036963,0.0,0.0,0.0,0.0,0.0,0.0,0.0,0.0,12.47796,0.0,0.0,nan,0.0,0.0,0.09035741,0.0,0.0,0.0,0.0,0.0,0.0,0.0,0.0,0.0
679204514,679104417,0.14167939,0.14168502,0.2774194,5.135107,5.135109,0.0,0.0,0.0,0.0,0.0,0.0,0.0,0.0,12.4714,0.0,0.0,nan,0.0,0.0,0.09035731,0.0,0.0,0.0,0.0,0.0,0.0,0.0,0.0,0.0
679712221,679612075,0.52135557,0.5213594,1.1409897,5.1213174,5.1213183,0.0,0.0,0.0,0.0,0.0,0.0,0.0,0.0,12.471881,0.0,0.0,nan,0.0,0.0,0.09035747,0.0,0.0,0.0,0.0,0.0,0.0,0.0,0.0,0.0
680209957,680109778,0.34726194,0.34726667,0.745244,5.088212,5.088214,0.0,0.0,0.0,0.0,0.0,0.0,0.0,0.0,12.473014,0.0,0.0,nan,0.0,0.0,0.09035744,0.0,0.0,0.0,0.0,0.0,0.0,0.0,0.0,0.0
680707577,680607482,0.3489685,0.3489736,0.74785936,5.054385,5.054387,0.0,0.0,0.0,0.0,0.0,0.0,0.0,0.0,12.474233,0.0,0.0,nan,0.0,0.0,0.090357326,0.0,0.0,0.0,0.0,0.0,0.0,0.0,0.0,0.0
681205284,681105185,0.352566,0.35257134,0.7556572,5.014561,5.014563,0.0,0.0,0.0,0.0,0.0,0.0,0.0,0.0,12.472823,0.0,0.0,nan,0.0,0.0,0.09035748,0.0,0.0,0.0,0.0,0.0,0.0,0.0,0.0,0.0
681703015,681602888,0.46790066,0.467906,1.015017,4.9939566,4.993959,0.0,0.0,0.0,0.0,0.0,0.0,0.0,0.0,12.476193,0.0,0.0,nan,0.0,0.0,0.090357386,0.0,0.0,0.0,0.0,0.0,0.0,0.0,0.0,0.0
682210925,682110545,0.51417476,0.51418054,1.1165268,4.9770966,4.9770994,0.0,0.0,0.0,0.0,0.0,0.0,0.0,0.0,12.476489,0.0,0.0,nan,0.0,0.0,0.09035735,0.0,0.0,0.0,0.0,0.0,0.0,0.0,0.0,0.0
682708425,682608248,0.48087043,0.48087585,1.0423248,4.9575653,4.9575686,0.0,0.0,0.0,0.0,0.0,0.0,0.0,0.0,12.4779215,0.0,0.0,nan,0.0,0.0,0.090357326,0.0,0.0,0.0,0.0,0.0,0.0,0.0,0.0,0.0
683206038,683105950,0.4909616,0.49096712,1.0638521,4.93384,4.9338436,0.0,0.0,0.0,0.0,0.0,0.0,0.0,0.0,12.4787655,0.0,0.0,nan,0.0,0.0,0.0903574,0.0,0.0,0.0,0.0,0.0,0.0,0.0,0.0,0.0
683713757,683613607,0.34601706,0.3460229,0.73585576,4.930882,4.9308863,0.0,0.0,0.0,0.0,0.0,0.0,0.0,0.0,12.48061,0.0,0.0,nan,0.0,0.0,0.09035738,0.0,0.0,0.0,0.0,0.0,0.0,0.0,0.0,0.0
684211404,684111309,0.5554588,0.5554639,1.2098327,4.9078994,4.9079027,0.0,0.0,0.0,0.0,0.0,0.0,0.0,0.0,12.479068,0.0,0.0,nan,0.0,0.0,0.09035734,0.0,0.0,0.0,0.0,0.0,0.0,0.0,0.0,0.0
684709101,684609011,0.233223,0.23322704,0.4906526,4.8912354,4.8912373,0.0,0.0,0.0,0.0,0.0,0.0,0.0,0.0,12.473058,0.0,0.0,nan,0.0,0.0,0.090357415,0.0,0.0,0.0,0.0,0.0,0.0,0.0,0.0,0.0
685206804,685106713,0.20630006,0.20630412,0.4306203,4.9003973,4.900399,0.0,0.0,0.0,0.0,0.0,0.0,0.0,0.0,12.469555,0.0,0.0,nan,0.0,0.0,0.09035739,0.0,0.0,0.0,0.0,0.0,0.0,0.0,0.0,0.0
685704511,685604415,0.53043824,0.5304422,1.1603122,4.903857,4.903859,0.0,0.0,0.0,0.0,0.0,0.0,0.0,0.0,12.472265,0.0,0.0,nan,0.0,0.0,0.09035748,0.0,0.0,0.0,0.0,0.0,0.0,0.0,0.0,0.0
686212175,686112071,0.23582485,0.23582944,0.4931119,4.9015145,4.9015164,0.0,0.0,0.0,0.0,0.0,0.0,0.0,0.0,12.472759,0.0,0.0,nan,0.0,0.0,0.090357445,0.0,0.0,0.0,0.0,0.0,0.0,0.0,0.0,0.0
686710197,686609772,0.56024295,0.56024754,1.2225587,4.925102,4.9251046,0.0,0.0,0.0,0.0,0.0,0.0,0.0,0.0,12.477052,0.0,0.0,nan,0.0,0.0,0.09035741,0.0,0.0,0.0,0.0,0.0,0.0,0.0,0.0,0.0
687207594,687107473,0.38314742,0.38315284,0.81939274,4.971371,4.9713745,0.0,0.0,0.0,0.0,0.0,0.0,0.0,0.0,12.477643,0.0,0.0,nan,0.0,0.0,0.0903575,0.0,0.0,0.0,0.0,0.0,0.0,0.0,0.0,0.0
687705259,687605174,0.68986785,0.68987346,1.5085444,5.0092106,5.0092144,0.0,0.0,0.0,0.0,0.0,0.0,0.0,0.0,12.481481,0.0,0.0,nan,0.0,0.0,0.09035746,0.0,0.0,0.0,0.0,0.0,0.0,0.0,0.0,0.0
688203041,688102875,0.649307,0.64931214,1.4183463,5.0049505,5.0049543,0.0,0.0,0.0,0.0,0.0,0.0,0.0,0.0,12.481598,0.0,0.0,nan,0.0,0.0,0.09035736,0.0,0.0,0.0,0.0,0.0,0.0,0.0,0.0,0.0
688710658,688610530,0.5829394,0.5829448,1.266602,4.9796424,4.9796467,0.0,0.0,0.0,0.0,0.0,0.0,0.0,0.0,12.48406,0.0,0.0,nan,0.0,0.0,0.09035733,0.0,0.0,0.0,0.0,0.0,0.0,0.0,0.0,0.0
689208415,689108231,0.11844639,0.11845157,0.22043896,4.9818373,4.981839,0.0,0.0,0.0,0.0,0.0,0.0,0.0,0.0,12.475356,0.0,0.0,nan,0.0,0.0,0.09035748,0.0,0.0,0.0,0.0,0.0,0.0,0.0,0.0,0.0
689706058,689605931,0.4151063,0.4151097,0.898624,4.9563603,4.9563622,0.0,0.0,0.0,0.0,0.0,0.0,0.0,0.0,12.477845,0.0,0.0,nan,0.0,0.0,0.09035738,0.0,0.0,0.0,0.0,0.0,0.0,0.0,0.0,0.0
690213706,690113585,0.30952215,0.30952564,0.6608957,4.905821,4.9058228,0.0,0.0,0.0,0.0,0.0,0.0,0.0,0.0,12.47464,0.0,0.0,nan,0.0,0.0,0.09035735,0.0,0.0,0.0,0.0,0.0,0.0,0.0,0.0,0.0
690711426,690611285,0.43956712,0.4395707,0.95287126,4.8906784,4.89068,0.0,0.0,0.0,0.0,0.0,0.0,0.0,0.0,12.477048,0.0,0.0,nan,0.0,0.0,0.09035761,0.0,0.0,0.0,0.0,0.0,0.0,0.0,0.0,0.0
691209393,691108985,0.2006487,0.20065247,0.4138953,4.7744813,4.7744823,0.0,0.0,0.0,0.0,0.0,0.0,0.0,0.0,12.473372,0.0,0.0,nan,0.0,0.0,0.090357564,0.0,0.0,0.0,0.0,0.0,0.0,0.0,0.0,0.0
691706882,691606685,0.3953179,0.39532137,0.8540365,4.711417,4.711418,0.0,0.0,0.0,0.0,0.0,0.0,0.0,0.0,12.475817,0.0,0.0,nan,0.0,0.0,0.09035753,0.0,0.0,0.0,0.0,0.0,0.0,0.0,0.0,0.0
692204508,692104384,0.48810896,0.48811287,1.0603933,4.715323,4.7153244,0.0,0.0,0.0,0.0,0.0,0.0,0.0,0.0,12.476225,0.0,0.0,nan,0.0,0.0,0.0903576,0.0,0.0,0.0,0.0,0.0,0.0,0.0,0.0,0.0
692712173,692612038,0.28859308,0.28859732,0.6093659,4.719181,4.7191825,0.0,0.0,0.0,0.0,0.0,0.0,0.0,0.0,12.477835,0.0,0.0,nan,0.0,0.0,0.090357564,0.0,0.0,0.0,0.0,0.0,0.0,0.0,0.0,0.0
693209897,693109737,0.5668987,0.5669027,1.2360098,4.747276,4.7472777,0.0,0.0,0.0,0.0,0.0,0.0,0.0,0.0,12.47826,0.0,0.0,nan,0.0,0.0,0.09035753,0.0,0.0,0.0,0.0,0.0,0.0,0.0,0.0,0.0
693707635,693607436,0.5335265,0.53353083,1.1582117,4.769943,4.7699456,0.0,0.0,0.0,0.0,0.0,0.0,0.0,0.0,12.482132,0.0,0.0,nan,0.0,0.0,0.0903576,0.0,0.0,0.0,0.0,0.0,0.0,0.0,0.0,0.0
694205224,694105135,0.22727184,0.22727636,0.467191,4.7791934,4.7791953,0.0,0.0,0.0,0.0,0.0,0.0,0.0,0.0,12.4795885,0.0,0.0,nan,0.0,0.0,0.09035757,0.0,0.0,0.0,0.0,0.0,0.0,0.0,0.0,0.0
694712884,694612788,0.39990345,0.39990717,0.86000925,4.756395,4.756397,0.0,0.0,0.0,0.0,0.0,0.0,0.0,0.0,12.480509,0.0,0.0,nan,0.0,0.0,0.09035764,0.0,0.0,0.0,0.0,0.0,0.0,0.0,0.0,0.0
695210577,695110486,0.65530634,0.65531033,1.432435,4.7934074,4.79341,0.0,0.0,0.0,0.0,0.0,0.0,0.0,0.0,12.481068,0.0,0.0,nan,0.0,0.0,0.090357624,0.0,0.0,0.0,0.0,0.0,0.0,0.0,0.0,0.0
695708902,695608185,0.39192486,0.39192903,0.83841425,4.802655,4.8026576,0.0,0.0,0.0,0.0,0.0,0.0,0.0,0.0,12.4838,0.0,0.0,nan,0.0,0.0,0.09035758,0.0,0.0,0.0,0.0,0.0,0.0,0.0,0.0,0.0
696206013,696105883,0.7660599,0.7660643,1.6782321,4.859235,4.859238,0.0,0.0,0.0,0.0,0.0,0.0,0.0,0.0,12.485838,0.0,0.0,nan,0.0,0.0,0.09035747,0.0,0.0,0.0,0.0,0.0,0.0,0.0,0.0,0.0
696703680,696603581,0.13952833,0.13953286,0.26748258,4.858839,4.8588405,0.0,0.0,0.0,0.0,0.0,0.0,0.0,0.0,12.47985,0.0,0.0,nan,0.0,0.0,0.09035762,0.0,0.0,0.0,0.0,0.0,0.0,0.0,0.0,0.0
697211340,697111233,0.28362092,0.28362444,0.60011506,4.848752,4.8487535,0.0,0.0,0.0,0.0,0.0,0.0,0.0,0.0,12.477311,0.0,0.0,nan,0.0,0.0,0.090357505,0.0,0.0,0.0,0.0,0.0,0.0,0.0,0.0,0.0
697709028,697608931,0.25533658,0.25534043,0.53553593,4.8658433,4.8658447,0.0,0.0,0.0,0.0,0.0,0.0,0.0,0.0,12.478926,0.0,0.0,nan,0.0,0.0,0.090357475,0.0,0.0,0.0,0.0,0.0,0.0,0.0,0.0,0.0
698206718,698106628,0.52899885,0.529003,1.151362,4.866617,4.866619,0.0,0.0,0.0,0.0,0.0,0.0,0.0,0.0,12.479074,0.0,0.0,nan,0.0,0.0,0.09035744,0.0,0.0,0.0,0.0,0.0,0.0,0.0,0.0,0.0
698704440,698604326,0.3829423,0.38294634,0.8243273,4.857207,4.8572083,0.0,0.0,0.0,0.0,0.0,0.0,0.0,0.0,12.478305,0.0,0.0,nan,0.0,0.0,0.09035751,0.0,0.0,0.0,0.0,0.0,0.0,0.0,0.0,0.0
699212123,699111977,0.5024013,0.5024058,1.0915505,4.857262,4.8572636,0.0,0.0,0.0,0.0,0.0,0.0,0.0,0.0,12.4785795,0.0,0.0,nan,0.0,0.0,0.09035748,0.0,0.0,0.0,0.0,0.0,0.0,0.0,0.0,0.0
699709768,699609674,0.34630373,0.34630835,0.7404401,4.841361,4.8413625,0.0,0.0,0.0,0.0,0.0,0.0,0.0,0.0,12.47879,0.0,0.0,nan,0.0,0.0,0.09035774,0.0,0.0,0.0,0.0,0.0,0.0,0.0,0.0,0.0
700207874,700107371,0.6344588,0.6344634,1.3894653,4.85612,4.856122,0.0,0.0,0.0,0.0,0.0,0.0,0.0,0.0,12.477815,0.0,0.0,nan,0.0,0.0,0.0903577,0.0,0.0,0.0,0.0,0.0,0.0,0.0,0.0,0.0
700705272,700605068,0.5557609,0.55576617,1.2098553,4.890562,4.890564,0.0,0.0,0.0,0.0,0.0,0.0,0.0,0.0,12.4809065,0.0,0.0,nan,0.0,0.0,0.09035766,0.0,0.0,0.0,0.0,0.0,0.0,0.0,0.0,0.0
701212948,701112719,0.5756671,0.57567334,1.2499789,4.961353,4.9613566,0.0,0.0,0.0,0.0,0.0,0.0,0.0,0.0,12.483568,0.0,0.0,nan,0.0,0.0,0.090357736,0.0,0.0,0.0,0.0,0.0,0.0,0.0,0.0,0.0
701710520,701610415,0.3275158,0.32752258,0.68878746,4.9980807,4.998085,0.0,0.0,0.0,0.0,0.0,0.0,0.0,0.0,12.485732,0.0,0.0,nan,0.0,0.0,0.0903577,0.0,0.0,0.0,0.0,0.0,0.0,0.0,0.0,0.0
702208258,702108111,0.59974086,0.5997476,1.3007239,5.0383368,5.038342,0.0,0.0,0.0,0.0,0.0,0.0,0.0,0.0,12.487153,0.0,0.0,nan,0.0,0.0,0.090357766,0.0,0.0,0.0,0.0,0.0,0.0,0.0,0.0,0.0
702705896,702605808,0.540142,0.54014885,1.1652477,5.0472245,5.0472302,0.0,0.0,0.0,0.0,0.0,0.0,0.0,0.0,12.489646,0.0,0.0,nan,0.0,0.0,0.09035772,0.0,0.0,0.0,0.0,0.0,0.0,0.0,0.0,0.0
703203646,703103504,0.64620763,0.64621407,1.404668,5.071076,5.071081,0.0,0.0,0.0,0.0,0.0,0.0,0.0,0.0,12.490219,0.0,0.0,nan,0.0,0.0,0.09035768,0.0,0.0,0.0,0.0,0.0,0.0,0.0,0.0,0.0
703711238,703611153,0.6002082,0.60021466,1.3008085,5.1034064,5.103412,0.0,0.0,0.0,0.0,0.0,0.0,0.0,0.0,12.491991,0.0,0.0,nan,0.0,0.0,0.090357564,0.0,0.0,0.0,0.0,0.0,0.0,0.0,0.0,0.0
704208940,704108849,0.7369138,0.73692054,1.606129,5.14017,5.1401772,0.0,0.0,0.0,0.0,0.0,0.0,0.0,0.0,12.492989,0.0,0.0,nan,0.0,0.0,0.09035771,0.0,0.0,0.0,0.0,0.0,0.0,0.0,0.0,0.0
704706640,704606545,0.5325379,0.53254443,1.1464562,5.174941,5.1749477,0.0,0.0,0.0,0.0,0.0,0.0,0.0,0.0,12.493219,0.0,0.0,nan,0.0,0.0,0.09035761,0.0,0.0,0.0,0.0,0.0,0.0,0.0,0.0,0.0
705214451,705114194,0.3903184,0.3903248,0.8257543,5.219673,5.219679,0.0,0.0,0.0,0.0,0.0,0.0,0.0,0.0,12.4933405,0.0,0.0,nan,0.0,0.0,0.090357564,0.0,0.0,0.0,0.0,0.0,0.0,0.0,0.0,0.0
