timestamp,timestamp_sample,device_id,sensor_sample_rate_hz,resolution_hz,peak_frequencies_x[0],peak_frequencies_x[1],peak_frequencies_x[2],peak_frequencies_y[0],peak_frequencies_y[1],peak_frequencies_y[2],peak_frequencies_z[0],peak_frequencies_z[1],peak_frequencies_z[2],peak_snr_x[0],peak_snr_x[1],peak_snr_x[2],peak_snr_y[0],peak_snr_y[1],peak_snr_y[2],peak_snr_z[0],peak_snr_z[1],peak_snr_z[2]
539369185,539366117,2490378,8039.878,15.702887,125.86009,62.564117,108.8325,95.31393,nan,nan,125.62309,nan,nan,11.690983,8.659164,11.553559,9.193922,nan,nan,6.857171,nan,nan
539379141,539378561,2490378,8039.878,15.702887,125.86009,62.564117,108.8325,95.31393,nan,nan,125.62309,nan,nan,11.690983,8.659164,11.808324,9.193922,nan,nan,6.857171,nan,nan
539414220,539410913,2490378,8039.878,15.702887,125.86009,62.605545,109.1441,95.31393,nan,nan,125.62309,nan,nan,11.690983,8.582014,10.1459675,9.193922,nan,nan,7.3044705,nan,nan
539479023,539478106,2490378,8039.878,15.702887,125.86009,62.605545,108.8325,95.31393,nan,nan,125.62309,94.217316,nan,8.165305,8.582014,10.4589405,7.111025,nan,nan,7.0937304,7.3452587,nan
539523843,539522902,2490378,8039.878,15.702887,125.86009,nan,108.20029,95.31393,nan,nan,125.62309,94.217316,nan,8.165305,nan,10.931372,8.8338375,nan,nan,7.0937304,7.3452587,nan
539573648,539570186,2490378,8039.878,15.702887,nan,nan,108.20029,94.2888,nan,nan,125.62309,94.217316,94.217316,nan,nan,10.128794,7.2647038,nan,nan,7.0937304,7.3452587,7.1139927
539618024,539617471,2490378,8039.878,15.702887,122.28518,nan,107.03387,94.2888,nan,nan,124.52649,nan,94.217316,10.368401,nan,13.104578,8.050805,nan,nan,6.804805,nan,7.1139927
539673003,539669732,2490378,8039.878,15.702887,123.906425,nan,107.03387,94.2888,nan,nan,124.305855,nan,nan,12.779165,nan,7.7958965,10.612549,nan,nan,10.039343,nan,nan
539712822,539712040,2490378,8039.878,15.702887,129.41339,nan,109.920204,94.70005,nan,nan,124.305855,nan,nan,10.057495,nan,10.057495,8.535858,nan,nan,7.418256,nan,nan
539762747,539761813,2490378,8039.878,15.702887,129.41339,nan,106.747406,94.70005,nan,nan,124.305855,nan,nan,10.057495,nan,9.299338,8.999039,nan,nan,7.418256,nan,nan
539827068,539824029,2490378,8039.878,15.702887,nan,nan,108.41025,95.40643,nan,nan,124.305855,nan,nan,nan,nan,7.7285028,8.73295,nan,nan,7.418256,nan,nan
539872187,539871313,2490378,8039.878,15.702887,nan,nan,108.41025,96.27962,nan,nan,124.305855,nan,nan,nan,nan,10.372704,8.711074,nan,nan,7.418256,nan,nan
539921954,539921086,2490378,8039.878,15.702887,nan,nan,108.41025,96.27962,nan,nan,124.305855,nan,nan,nan,nan,8.797826,8.711074,nan,nan,7.418256,nan,nan
539971724,539968371,2490378,8039.878,15.702887,135.04643,nan,109.52407,96.27962,nan,nan,124.52649,nan,nan,12.331755,nan,10.454663,8.711074,nan,nan,7.3749948,nan,nan
540021649,540020632,2490378,8039.878,15.702887,135.04643,62.605545,109.52407,74.39161,nan,nan,124.52649,nan,nan,10.253607,11.070336,10.053408,10.388176,nan,nan,7.3749948,nan,nan
540056023,540052986,2490378,8039.878,15.702887,135.04643,62.811546,109.920204,64.3215,nan,nan,124.52649,nan,nan,10.253607,8.13583,10.157803,10.177664,nan,nan,7.3749948,nan,nan
540111374,540110224,2490378,8039.878,15.702887,nan,62.811546,109.920204,64.3215,nan,nan,124.52649,nan,nan,nan,8.701374,8.423796,10.434537,nan,nan,7.3749948,nan,nan
540175441,540174929,2490378,8039.878,15.702887,nan,62.811546,108.977165,64.53147,nan,nan,124.52649,nan,nan,nan,8.701374,11.721568,8.582432,nan,nan,7.3749948,nan,nan
540225237,540222213,2490378,8039.878,15.702887,nan,nan,110.30267,66.79611,65.3588,nan,125.496925,nan,nan,nan,nan,10.314475,6.4701567,8.170322,nan,7.511325,nan,nan
540235221,540232168,2490378,8039.878,15.702887,nan,nan,110.30267,66.79611,65.3588,nan,125.551605,nan,nan,nan,nan,10.314475,6.4701567,8.170322,nan,7.1142807,nan,nan
540320111,540319270,2490378,8039.878,15.702887,nan,nan,123.127304,66.79611,63.033855,nan,125.551605,nan,nan,nan,nan,11.040565,6.4701567,7.069855,nan,5.680066,nan,nan
540374576,540371532,2490378,8039.878,15.702887,139.25298,62.741737,121.96462,67.95333,62.811546,nan,125.62309,nan,nan,13.668618,8.565026,11.636835,10.558075,11.0075035,nan,7.5715084,nan,nan
540419669,540418816,2490378,8039.878,15.702887,144.96135,62.741737,121.96462,77.67323,62.811546,nan,125.62309,94.217316,94.217316,9.904012,8.565026,11.636835,10.003765,6.7021728,nan,7.5715084,7.1587553,7.15754
540464155,540461123,2490378,8039.878,15.702887,144.96135,nan,nan,77.67323,62.811546,88.73692,125.551605,94.217316,94.217316,9.540771,nan,nan,10.003765,6.7021728,7.1965256,7.487874,7.1587553,7.15754
540529155,540525828,2490378,8039.878,15.702887,144.96135,nan,nan,78.514435,62.811546,88.73692,125.551605,94.217316,94.217316,10.116004,nan,nan,7.4146357,6.7021728,7.1965256,7.487874,9.245436,7.15754
540569171,540565647,2490378,8039.878,15.702887,141.0693,nan,nan,78.514435,nan,88.3129,nan,94.2888,94.217316,10.90864,nan,nan,7.4146357,nan,7.950847,nan,7.7785463,7.5084205
540619119,540615420,2490378,8039.878,15.702887,111.317535,nan,nan,78.514435,nan,88.3129,125.551605,94.2888,94.217316,10.025431,nan,nan,7.4146357,nan,7.950847,7.9642544,7.7785463,7.33305
540669028,540667682,2490378,8039.878,15.702887,109.24472,nan,nan,78.514435,nan,88.3129,125.551605,94.2888,94.217316,9.166489,nan,nan,7.4146357,nan,7.950847,7.9642544,7.7785463,7.33305
540728542,540724921,2490378,8039.878,15.702887,109.286644,nan,nan,78.514435,62.811546,nan,124.52649,94.2888,94.217316,8.413138,nan,nan,6.7713747,6.968312,nan,7.8072596,6.816749,7.251367
540778544,540774694,2490378,8039.878,15.702887,109.286644,nan,nan,78.514435,62.811546,nan,124.52649,94.217316,94.217316,8.954992,nan,nan,6.7713747,6.968312,nan,7.8072596,7.241733,7.251367
540782671,540779671,2490378,8039.878,15.702887,109.286644,nan,nan,78.514435,62.811546,nan,124.52649,94.217316,94.217316,6.990335,nan,nan,6.7713747,6.968312,nan,7.8072596,7.241733,7.251367
540877481,540876728,2490378,8039.878,15.702887,109.920204,62.811546,nan,nan,62.811546,nan,124.52649,94.217316,nan,7.2975254,7.415796,nan,nan,7.4304986,nan,7.0758815,7.241733,nan
540912070,540911569,2490378,8039.878,15.702887,109.920204,62.811546,114.253334,78.29212,62.811546,nan,124.52649,94.217316,nan,8.981328,7.415796,9.213754,7.6465745,7.4304986,nan,7.0758815,7.241733,nan
540971832,540971297,2490378,8039.878,15.702887,109.6979,62.936043,114.253334,78.29212,62.96237,nan,94.2888,nan,nan,8.900154,9.253342,9.213754,7.6465745,8.535383,nan,7.0896006,nan,nan
541006966,541003650,2490378,8039.878,15.702887,109.6979,62.936043,nan,78.514435,62.96237,nan,94.217316,nan,nan,8.441348,9.253342,nan,7.1339936,8.535383,nan,7.355122,nan,nan
541061393,541060888,2490378,8039.878,15.702887,108.70439,62.936043,nan,78.29212,62.96237,nan,94.217316,94.217316,nan,8.629142,9.253342,nan,8.804851,8.535383,nan,7.355122,6.9772263,nan
541126413,541123105,2490378,8039.878,15.702887,108.70439,nan,nan,78.29212,nan,nan,94.217316,94.217316,nan,9.867609,nan,nan,7.1752524,nan,nan,7.1425543,6.9772263,nan
541151039,541150480,2490378,8039.878,15.702887,108.73109,nan,nan,78.514435,nan,nan,94.217316,94.217316,nan,8.378839,nan,nan,7.2237864,nan,nan,7.1425543,6.9772263,nan
541220741,541220162,2490378,8039.878,15.702887,108.73109,nan,nan,78.514435,nan,nan,94.217316,94.217316,nan,7.6871853,nan,nan,7.2237864,nan,nan,7.1425543,7.0078225,nan
541235939,541235094,2490378,8039.878,15.702887,108.73109,nan,nan,78.514435,nan,nan,94.217316,94.217316,nan,7.6871853,nan,nan,7.2237864,nan,nan,6.628089,7.0078225,nan
541290384,541289844,2490378,8039.878,15.702887,108.73109,nan,nan,78.514435,nan,nan,94.217316,94.217316,94.217316,7.32908,nan,nan,7.2237864,nan,nan,6.628089,7.0078225,7.124472
541375306,541374459,2490378,8039.878,15.702887,108.75171,nan,nan,78.514435,nan,nan,94.217316,94.217316,94.217316,8.988892,nan,nan,6.725664,nan,nan,6.628089,7.0078225,7.124472
541419778,541416766,2490378,8039.878,15.702887,109.6979,nan,nan,78.514435,63.033855,nan,94.217316,nan,nan,7.25404,nan,nan,6.725664,6.78345,nan,7.066135,nan,nan
541469548,541469028,2490378,8039.878,15.702887,109.848724,nan,nan,78.514435,63.3762,nan,94.217316,nan,nan,9.2926235,nan,nan,6.725664,9.609631,nan,7.066135,nan,nan
541514956,541513823,2490378,8039.878,15.702887,109.920204,nan,nan,78.514435,63.3762,nan,94.217316,nan,nan,8.565049,nan,nan,9.237207,9.609631,nan,7.066135,nan,nan
541569079,541566085,2490378,8039.878,15.702887,109.920204,62.936043,nan,78.514435,63.3762,88.3129,94.217316,nan,nan,8.565049,7.477254,nan,9.237207,7.0792484,7.3008327,7.066135,nan,nan
541624166,541623324,2490378,8039.878,15.702887,110.01272,62.811546,nan,78.514435,63.3762,88.3129,94.217316,nan,nan,10.094242,7.6405525,nan,9.237207,7.0792484,7.3008327,7.043318,nan,nan
541658680,541655676,2490378,8039.878,15.702887,110.04637,62.811546,nan,78.514435,63.3762,nan,94.217316,nan,nan,8.612526,7.6405525,nan,8.374087,7.0792484,nan,7.043318,nan,nan
541723809,541720381,2490378,8039.878,15.702887,109.920204,nan,nan,78.514435,63.3762,nan,94.217316,nan,nan,8.898532,nan,nan,8.374087,7.0792484,nan,6.9761076,nan,nan
541768555,541767666,2490378,8039.878,15.702887,109.920204,nan,nan,78.514435,63.3762,nan,94.217316,nan,nan,8.479801,nan,nan,3.651135,8.377436,nan,6.9761076,nan,nan
541808348,541804995,2490378,8039.878,15.702887,109.920204,nan,nan,78.514435,63.601322,nan,94.217316,nan,nan,7.844713,nan,nan,3.651135,8.457441,nan,6.9761076,nan,nan
541853160,541852280,2490378,8039.878,15.702887,109.920204,62.936043,nan,78.514435,63.601322,nan,94.217316,nan,nan,8.97857,9.001184,nan,8.334182,8.457441,nan,6.9761076,nan,nan
541927476,541926939,2490378,8039.878,15.702887,109.920204,62.811546,nan,77.97701,63.3762,nan,94.217316,nan,nan,8.97857,8.186952,nan,8.703669,7.3688803,nan,6.9761076,nan,nan
541962577,541959293,2490378,8039.878,15.702887,109.848724,62.811546,121.96462,77.97701,62.813225,nan,94.217316,nan,nan,8.295493,8.186952,10.464441,8.703669,7.1038146,nan,6.9761076,nan,nan
542022389,542021508,2490378,8039.878,15.702887,109.920204,62.811546,124.433975,77.97701,62.813225,nan,94.217316,nan,nan,8.841295,8.186952,8.22143,6.508105,7.1038146,nan,7.8098674,nan,nan
542072120,542071281,2490378,8039.878,15.702887,109.920204,nan,124.433975,77.97701,nan,nan,94.217316,94.217316,94.217316,8.841295,nan,7.5252066,10.053677,nan,nan,7.8098674,7.309141,7.2171707
542121894,542118565,2490378,8039.878,15.702887,109.848724,nan,125.62309,77.97701,nan,nan,94.217316,94.217316,94.217316,7.437503,nan,6.567102,10.053677,nan,nan,7.092327,7.309141,7.2171707
542166357,542165850,2490378,8039.878,15.702887,109.920204,nan,125.62309,77.97701,nan,nan,94.217316,94.217316,94.217316,8.882545,nan,8.586987,10.053677,nan,nan,7.092327,7.514336,7.2171707
542226131,542223089,2490378,8039.878,15.702887,109.920204,62.811546,125.69457,77.97701,nan,nan,94.217316,94.217316,nan,8.882545,7.2233677,7.0354395,10.053677,nan,nan,7.5204926,7.514336,nan
542261196,542260419,2490378,8039.878,15.702887,109.920204,62.811546,125.62309,77.97701,nan,nan,94.217316,94.217316,94.217316,8.882545,7.2233677,8.843008,10.053677,nan,nan,7.5204926,7.514336,7.1322875
542311006,542310192,2490378,8039.878,15.702887,109.920204,nan,125.62309,77.97701,nan,nan,94.217316,94.217316,94.217316,7.1380396,nan,8.359529,10.053677,nan,nan,7.5204926,7.514336,7.1322875
542375437,542372408,2490378,8039.878,15.702887,109.920204,109.920204,125.62309,77.97701,nan,nan,94.217316,nan,nan,7.1380396,6.783184,7.2400494,10.053677,nan,nan,7.5757427,nan,nan
542420569,542419692,2490378,8039.878,15.702887,109.920204,109.920204,125.62309,77.97701,nan,nan,94.217316,94.217316,94.217316,6.8568554,6.783184,7.2400494,10.053677,nan,nan,7.5757427,7.1877103,7.3037457
542455038,542452045,2490378,8039.878,15.702887,109.920204,109.920204,125.62309,77.97701,nan,nan,94.217316,94.217316,94.217316,6.8568554,8.505387,7.2400494,10.053677,nan,nan,6.8473167,7.1877103,7.3037457
542520066,542516750,2490378,8039.878,15.702887,109.920204,109.920204,125.62309,77.97701,nan,nan,94.217316,94.217316,94.217316,6.8568554,8.505387,7.110387,10.053677,nan,nan,6.8473167,7.1877103,7.3037457
542579743,542578966,2490378,8039.878,15.702887,109.920204,nan,125.62309,77.97701,nan,nan,94.217316,94.217316,94.217316,7.392787,nan,7.110387,10.053677,nan,nan,6.8473167,7.1877103,7.3037457
542614348,542611319,2490378,8039.878,15.702887,109.920204,nan,125.62309,78.514435,nan,nan,94.217316,nan,nan,7.392787,nan,7.5001087,8.646451,nan,nan,7.823183,nan,nan
542669461,542668558,2490378,8039.878,15.702887,109.920204,109.920204,125.62309,78.514435,nan,nan,94.217316,94.217316,nan,7.392787,8.388472,8.162556,8.676405,nan,nan,7.823183,7.451254,nan
542723939,542723308,2490378,8039.878,15.702887,110.709984,109.920204,125.62309,78.514435,nan,nan,94.217316,94.217316,nan,8.538369,9.050876,8.162556,8.676405,nan,nan,7.823183,7.451254,nan
542773581,542770592,2490378,8039.878,15.702887,110.709984,109.920204,125.62309,78.514435,nan,nan,94.217316,94.217316,nan,8.538369,9.050876,7.470065,8.676405,nan,nan,7.823183,7.451254,nan
542813401,542812899,2490378,8039.878,15.702887,110.709984,110.04637,125.62309,78.514435,nan,nan,94.217316,nan,nan,8.538369,6.529456,7.470065,8.676405,nan,nan,6.8398924,nan,nan
542883164,542882582,2490378,8039.878,15.702887,125.62309,110.04637,nan,78.514435,nan,nan,94.217316,nan,nan,7.615699,6.529456,nan,8.676405,nan,nan,6.8398924,nan,nan
542918649,542914934,2490378,8039.878,15.702887,125.62309,nan,nan,78.514435,nan,nan,94.217316,94.217316,nan,7.411504,nan,nan,8.676405,nan,nan,6.8398924,6.8218403,nan
542978420,542977150,2490378,8039.878,15.702887,125.62309,110.07103,nan,78.514435,nan,nan,94.217316,94.217316,94.217316,7.411504,7.2048616,nan,7.138777,nan,nan,7.791243,6.8218403,6.902157
543027781,543026923,2490378,8039.878,15.702887,125.62309,110.04637,nan,78.514435,62.813225,85.57432,94.217316,94.217316,94.217316,7.305072,6.886053,nan,7.138777,7.0983725,7.2875767,7.791243,6.8218403,6.902157
543077486,543074208,2490378,8039.878,15.702887,125.62309,110.04637,nan,nan,62.811546,85.57432,94.217316,94.217316,94.217316,7.305072,7.4634027,nan,nan,7.3622427,7.2875767,7.791243,6.8218403,6.902157
543171774,543168777,2490378,8039.878,15.702887,125.62309,110.04637,nan,nan,62.811546,85.57432,94.217316,94.217316,94.217316,7.2267504,7.4634027,nan,nan,7.3622427,7.2875767,7.791243,6.8218403,6.902157
543187040,543186197,2490378,8039.878,15.702887,125.62309,109.99169,nan,nan,62.811546,85.57432,94.217316,94.217316,94.217316,7.2267504,7.462442,nan,nan,7.3622427,7.2875767,7.791243,6.8218403,6.902157
543211583,543211084,2490378,8039.878,15.702887,125.62309,109.99169,nan,nan,62.811546,85.57432,94.217316,nan,nan,7.2267504,8.827826,nan,nan,7.3622427,7.2875767,7.2012777,nan,nan
543251446,543248413,2490378,8039.878,15.702887,125.62309,109.99169,nan,nan,62.811546,85.57432,94.217316,nan,nan,7.2267504,7.0333014,nan,nan,7.3622427,7.2875767,7.2012777,nan,nan
543321145,543318096,2490378,8039.878,15.702887,125.62309,109.920204,125.62309,nan,62.904057,nan,94.217316,94.217316,nan,7.729633,8.447282,6.889794,nan,8.461403,nan,7.2012777,7.118034,nan
543336276,543333028,2490378,8039.878,15.702887,125.62309,109.920204,125.62309,nan,62.904057,nan,94.217316,94.217316,nan,7.729633,8.447282,6.889794,nan,8.670096,nan,7.2012777,7.118034,nan
543410713,543407687,2490378,8039.878,15.702887,125.62309,nan,125.62309,nan,62.904057,nan,94.217316,94.217316,nan,6.9559135,nan,6.889794,nan,8.670096,nan,7.1000843,7.118034,nan
543450566,543449994,2490378,8039.878,15.702887,125.62309,nan,125.62309,nan,62.904057,nan,94.217316,94.217316,nan,6.9559135,nan,6.889794,nan,8.670096,nan,7.1000843,7.269953,nan
543525472,543524654,2490378,8039.878,15.702887,125.62309,nan,125.62309,nan,62.904057,nan,94.217316,94.217316,nan,6.9559135,nan,6.889794,nan,7.671898,nan,7.1000843,7.269953,nan
543535467,543534609,2490378,8039.878,15.702887,125.62309,nan,nan,nan,62.904057,nan,94.217316,94.217316,nan,6.8330936,nan,nan,nan,7.671898,nan,7.1000843,7.269953,nan
543609775,543609268,2490378,8039.878,15.702887,125.62309,nan,nan,nan,62.904057,nan,94.217316,nan,nan,6.8330936,nan,nan,nan,7.671898,nan,7.164732,nan,nan
543674756,543671484,2490378,8039.878,15.702887,125.62309,nan,nan,nan,62.904057,nan,94.217316,94.217316,nan,7.035261,nan,nan,nan,7.671898,nan,7.164732,7.0920725,nan
543704663,543703837,2490378,8039.878,15.702887,125.62309,nan,nan,nan,62.904057,nan,94.217316,94.217316,94.217316,7.035261,nan,nan,nan,7.671898,nan,7.164732,7.0920725,7.1127267
543739188,543736189,2490378,8039.878,15.702887,125.62309,nan,nan,nan,62.904057,nan,94.217316,94.217316,94.217316,7.035261,nan,nan,nan,7.671898,nan,6.725664,7.0920725,7.1127267
543804324,543800894,2490378,8039.878,15.702887,125.62309,nan,nan,nan,62.904057,nan,94.217316,94.217316,94.217316,7.035261,nan,nan,nan,7.671898,nan,6.725664,7.339967,7.1127267
543858640,543858133,2490378,8039.878,15.702887,125.62309,nan,nan,nan,62.96237,nan,94.217316,94.217316,94.217316,7.035261,nan,nan,nan,6.94251,nan,7.470718,7.339967,7.115547
543923620,543922838,2490378,8039.878,15.702887,125.62309,nan,nan,nan,62.96237,nan,94.217316,nan,94.217316,7.035261,nan,nan,nan,10.126605,nan,7.7444143,nan,7.115547
543968441,543965145,2490378,8039.878,15.702887,125.62309,nan,nan,nan,62.96237,nan,94.217316,nan,94.217316,8.2899475,nan,nan,nan,8.204399,nan,7.7444143,nan,7.115547
543983444,543982566,2490378,8039.878,15.702887,126.719696,nan,nan,nan,62.96237,nan,94.217316,94.217316,nan,8.556003,nan,nan,nan,8.204399,nan,7.7444143,7.0400095,nan
544077676,544077135,2490378,8039.878,15.702887,126.838905,nan,nan,nan,62.811546,nan,94.217316,94.217316,nan,7.1471953,nan,nan,nan,8.952228,nan,7.7444143,7.0400095,nan
544083143,544082112,2490378,8039.878,15.702887,126.838905,nan,nan,78.514435,62.811546,nan,94.217316,94.217316,nan,7.1471953,nan,nan,7.0545397,8.952228,nan,7.7444143,7.0400095,nan
544167279,544166726,2490378,8039.878,15.702887,126.838905,nan,nan,78.514435,62.811546,78.514435,94.217316,94.217316,nan,7.1471953,nan,nan,8.463189,8.952228,8.987561,7.484645,7.1304708,nan
544226987,544223965,2490378,8039.878,15.702887,126.838905,nan,nan,78.514435,62.811546,78.514435,94.217316,94.217316,94.217316,7.1471953,nan,nan,8.463189,6.74349,8.987561,7.484645,7.1304708,7.784379
544272054,544268761,2490378,8039.878,15.702887,126.838905,nan,nan,78.514435,62.811546,78.514435,94.217316,94.217316,94.217316,7.456541,nan,nan,6.5028296,7.4247246,8.987561,7.345862,7.1304708,7.784379
544301924,544301114,2490378,8039.878,15.702887,126.838905,nan,nan,78.514435,62.811546,78.514435,94.217316,94.217316,94.217316,7.001881,nan,nan,6.5028296,7.4247246,6.7414055,7.345862,7.0151496,7.784379
544371554,544368307,2490378,8039.878,15.702887,126.838905,nan,nan,78.514435,nan,78.514435,94.217316,94.217316,94.217316,7.001881,nan,nan,6.533181,nan,6.7414055,7.345862,7.0151496,7.784379
544411480,544410614,2490378,8039.878,15.702887,125.69457,nan,nan,78.514435,nan,78.514435,94.217316,94.217316,94.217316,12.15537,nan,nan,6.533181,nan,6.7414055,7.345862,7.0151496,7.784379
544475826,544475319,2490378,8039.878,15.702887,125.62309,nan,nan,78.514435,62.811546,nan,94.217316,94.217316,94.217316,10.070952,nan,nan,12.115188,7.176552,nan,7.345862,7.0151496,7.784379
544525739,544522604,2490378,8039.878,15.702887,124.75591,109.920204,125.62309,78.514435,62.811546,nan,94.217316,nan,nan,7.274666,10.181452,10.825969,6.8786364,10.217257,nan,7.6055517,nan,nan
544575410,544574865,2490378,8039.878,15.702887,124.75591,109.13043,125.62309,78.514435,62.811546,78.514435,94.217316,94.217316,nan,7.274666,10.320499,7.4246836,8.586523,10.217257,9.070986,7.6055517,7.352648,nan
544605289,544602241,2490378,8039.878,15.702887,124.75591,109.13043,126.7895,78.514435,62.88303,78.514435,94.217316,94.217316,94.217316,7.274666,10.320499,8.954624,8.586523,10.071953,9.070986,7.6055517,7.352648,7.181043
544674917,544671923,2490378,8039.878,15.702887,125.62309,109.13043,126.7895,78.514435,62.88303,78.514435,94.217316,94.217316,94.217316,7.0499887,10.320499,8.954624,8.586523,7.0658026,8.613055,7.6055517,7.352648,7.181043
544704799,544701787,2490378,8039.878,15.702887,125.62309,109.13043,126.7895,nan,62.88303,78.514435,94.217316,94.217316,94.217316,7.0499887,6.7032237,8.954624,nan,8.824996,8.613055,7.6055517,7.352648,7.181043
544769777,544766492,2490378,8039.878,15.702887,125.62309,109.13043,126.7895,78.514435,62.88303,78.514435,94.217316,94.217316,94.217316,7.0499887,6.7032237,8.954624,7.179024,8.824996,4.275763,7.6055517,7.352648,7.181043
544814280,544813776,2490378,8039.878,15.702887,nan,108.70439,nan,78.514435,62.811546,78.514435,94.217316,nan,nan,nan,7.3489814,nan,9.669502,8.825824,4.275763,7.5403457,nan,nan
544874015,544873504,2490378,8039.878,15.702887,nan,109.920204,nan,76.50884,62.811546,78.514435,94.217316,nan,nan,nan,6.7804527,nan,6.7070007,9.990881,9.756577,7.5403457,nan,nan
544929085,544925765,2490378,8039.878,15.702887,nan,109.920204,nan,76.50884,62.811546,78.514435,94.217316,nan,nan,nan,6.7804527,nan,6.7070007,6.745969,9.756577,7.5403457,nan,nan
544939159,544938209,2490378,8039.878,15.702887,nan,109.920204,nan,76.50884,62.811546,78.514435,94.217316,nan,nan,nan,7.430187,nan,6.7070007,6.745969,9.756577,7.5403457,nan,nan
545023374,545020334,2490378,8039.878,15.702887,125.7156,109.920204,125.62309,76.50884,64.00066,78.514435,94.217316,nan,nan,16.157806,10.06484,10.81988,11.134193,13.515753,10.511118,8.434209,nan,nan
545073148,545070107,2490378,8039.878,15.702887,125.62309,101.19767,126.8122,80.61654,64.00066,78.514435,95.31393,nan,nan,12.314273,12.6589775,14.658221,9.634406,12.104434,11.534378,11.733708,nan,nan
545128486,545127346,2490378,8039.878,15.702887,125.014175,100.01101,127.12248,80.61654,63.655167,78.514435,95.31393,nan,nan,10.174044,11.432968,10.68981,9.634406,11.858015,11.534378,7.502437,nan,nan
545168430,545164676,2490378,8039.878,15.702887,125.014175,100.01101,128.59155,80.61654,63.655167,78.514435,95.31393,nan,nan,10.174044,11.432968,12.345414,9.634406,9.492613,11.534378,7.502437,nan,nan
545208332,545206983,2490378,8039.878,15.702887,122.80824,79.29209,137.08955,81.42936,63.655167,78.514435,95.31393,nan,nan,12.755631,10.125414,11.335617,10.511074,9.492613,11.524648,7.295766,nan,nan
545272224,545271688,2490378,8039.878,15.702887,122.80824,77.97701,137.25609,81.42936,64.45102,79.70355,94.217316,nan,nan,12.755631,8.532345,9.045631,10.511074,9.783987,8.281521,7.953894,nan,nan
545327286,545323950,2490378,8039.878,15.702887,nan,77.97701,139.17719,nan,64.45102,97.86309,94.217316,nan,nan,nan,11.10506,12.686888,nan,9.783987,10.284836,5.1759596,nan,nan
545377156,545376212,2490378,8039.878,15.702887,nan,77.97701,142.14017,nan,nan,109.920204,94.217316,94.217316,94.217316,nan,10.240283,10.384637,nan,nan,8.532503,5.1759596,6.765299,7.409618
545411605,545408564,2490378,8039.878,15.702887,nan,77.97701,142.14017,81.42936,64.976326,109.920204,94.217316,94.217316,94.217316,nan,10.240283,10.384637,10.471187,10.471187,7.280735,7.7961407,6.765299,7.409618
545476625,545473269,2490378,8039.878,15.702887,nan,78.514435,142.14017,109.920204,64.976326,109.920204,94.217316,94.217316,94.217316,nan,6.655147,6.6561785,6.477083,10.471187,7.280735,7.7961407,7.3132176,7.409618
545521054,545520553,2490378,8039.878,15.702887,116.58836,78.514435,142.14017,109.920204,66.67133,109.920204,94.217316,94.217316,nan,6.850545,6.655147,6.6561785,6.477083,7.607168,7.280735,6.905731,7.3132176,nan
545576068,545575304,2490378,8039.878,15.702887,116.58836,nan,142.14017,109.920204,66.67133,109.920204,94.217316,94.217316,nan,15.678547,nan,12.826561,6.477083,7.607168,7.280735,6.905731,7.3132176,nan
545625854,545622588,2490378,8039.878,15.702887,115.74524,78.514435,141.87288,109.920204,66.67133,nan,94.217316,94.217316,nan,12.03383,10.30155,12.66432,11.798091,7.607168,nan,6.905731,6.9196362,nan
545675693,545674850,2490378,8039.878,15.702887,113.06327,78.514435,142.14017,109.920204,64.976326,nan,94.217316,94.217316,nan,8.687123,10.091736,8.996257,10.202694,10.06839,nan,7.323921,6.9196362,nan
545725467,545722134,2490378,8039.878,15.702887,115.74524,78.514435,141.32597,108.33007,70.13731,nan,94.217316,94.217316,nan,11.79521,10.425461,10.425461,11.576508,11.848051,nan,7.6389956,6.9196362,nan
545740110,545737066,2490378,8039.878,15.702887,115.74524,78.514435,141.32597,104.77842,70.13731,nan,94.217316,94.217316,nan,10.492248,10.425461,10.425461,10.000622,11.848051,nan,7.6389956,6.9196362,nan
545799794,545796794,2490378,8039.878,15.702887,115.74524,78.514435,140.42537,104.77842,70.13731,nan,94.217316,94.217316,nan,11.037226,10.425461,11.367836,10.000622,11.848051,nan,7.6389956,6.9196362,nan
545869467,545866476,2490378,8039.878,15.702887,122.10632,nan,140.42537,nan,70.13731,nan,94.217316,94.217316,nan,13.98506,nan,11.367836,nan,10.259739,nan,7.302885,7.2474966,nan
545924538,545923715,2490378,8039.878,15.702887,122.10632,nan,143.17729,104.77842,68.56911,109.920204,94.217316,94.217316,nan,13.98506,nan,10.46129,10.95322,9.67745,11.775047,10.120815,7.2474966,nan
545969016,545966022,2490378,8039.878,15.702887,122.10632,nan,143.17729,104.77842,68.56911,109.920204,94.217316,94.217316,nan,13.98506,nan,9.5082035,10.95322,9.67745,7.003561,10.120815,7.061385,nan
546004141,546003352,2490378,8039.878,15.702887,nan,nan,143.16187,104.77842,68.56911,109.920204,94.217316,94.217316,nan,nan,nan,10.1824875,10.95322,9.67745,8.862078,10.120815,7.061385,nan
546068565,546068057,2490378,8039.878,15.702887,nan,nan,140.15747,104.77842,68.56911,109.920204,94.217316,94.217316,nan,nan,nan,10.264839,10.203178,9.030229,8.135857,7.3864293,7.061385,nan
546123715,546120319,2490378,8039.878,15.702887,122.10632,nan,140.00874,104.77842,68.56911,109.920204,94.217316,94.217316,nan,11.850241,nan,12.532258,11.484182,8.36014,8.135857,7.3864293,7.061385,nan
546168134,546167603,2490378,8039.878,15.702887,113.73887,54.02351,137.18652,91.99973,67.8485,109.848724,94.217316,nan,nan,9.096539,12.779131,10.246237,10.340949,11.1854515,8.47725,8.938622,nan,nan
546218221,546214888,2490378,8039.878,15.702887,113.73887,54.02351,137.18652,88.951035,62.881355,109.848724,94.217316,nan,nan,7.378975,11.035489,10.246237,8.871313,9.082456,8.520143,8.938622,nan,nan
546228213,546227331,2490378,8039.878,15.702887,113.73887,54.02351,137.18652,88.951035,62.881355,109.848724,94.217316,nan,nan,7.378975,10.084454,10.246237,8.871313,9.082456,8.520143,8.938622,nan,nan
546327417,546326877,2490378,8039.878,15.702887,nan,62.127865,nan,nan,62.811546,109.079,94.217316,nan,nan,nan,9.715475,nan,nan,7.13115,6.7459555,8.938622,nan,nan
546357245,546354252,2490378,8039.878,15.702887,nan,62.127865,nan,nan,62.811546,109.079,94.217316,94.217316,nan,nan,10.94102,nan,nan,7.13115,6.7459555,7.279732,6.8000007,nan
546422321,546418957,2490378,8039.878,15.702887,nan,61.741154,nan,nan,62.811546,109.079,94.217316,94.217316,94.217316,nan,10.435361,nan,nan,9.242057,6.7459555,7.432163,6.8000007,7.1285224
546466746,546466242,2490378,8039.878,15.702887,117.31763,62.811546,nan,nan,62.881355,109.079,94.217316,94.217316,94.217316,13.849821,10.529083,nan,nan,9.184855,6.7459555,7.432163,6.8000007,7.1285224
546521811,546518504,2490378,8039.878,15.702887,124.552704,79.19731,135.79796,nan,62.881355,109.079,94.217316,94.217316,nan,11.084698,12.825628,13.170908,nan,9.184855,10.856649,7.432163,7.193256,nan
546566382,546565788,2490378,8039.878,15.702887,124.552704,78.186676,135.79796,nan,62.881355,109.920204,94.217316,94.217316,nan,11.084698,10.058145,13.170908,nan,9.825944,8.422728,7.432163,7.193256,nan
546626058,546625516,2490378,8039.878,15.702887,124.552704,75.699585,nan,nan,63.908154,109.920204,94.217316,nan,nan,14.114162,10.170713,nan,nan,9.634251,10.201195,7.7922163,nan,nan
546675895,546672802,2490378,8039.878,15.702887,123.448586,77.29333,nan,nan,64.962975,109.848724,94.217316,94.217316,nan,13.77899,10.087489,nan,nan,11.558033,10.512027,7.7922163,7.541524,nan
546710980,546710130,2490378,8039.878,15.702887,123.592285,77.29333,nan,nan,64.962975,109.54046,94.217316,94.217316,nan,11.720772,10.539192,nan,nan,11.113243,11.711564,7.7922163,7.541524,nan
546770727,546769858,2490378,8039.878,15.702887,124.31247,77.29333,nan,nan,75.95089,108.60297,94.217316,94.217316,nan,13.805853,8.674623,nan,nan,10.157906,7.1037602,10.2097645,7.541524,nan
546825145,546822119,2490378,8039.878,15.702887,121.97796,76.40873,135.79796,50.262295,75.95089,111.10932,97.03217,94.217316,nan,14.392075,8.800205,15.890968,10.668194,9.623425,12.169306,10.980774,10.956,nan
546855008,546851983,2490378,8039.878,15.702887,121.97796,75.699585,135.79796,50.262295,75.95089,125.62309,97.03217,94.217316,nan,11.799757,7.201941,15.890968,10.668194,10.084908,8.912515,10.980774,10.956,nan
546914706,546911711,2490378,8039.878,15.702887,121.97796,62.811546,135.79796,50.262295,75.95089,125.62309,97.03217,94.217316,94.217316,8.494642,10.271805,10.159031,10.423155,10.611663,8.912515,10.980774,7.6055517,6.99748
546959831,546958995,2490378,8039.878,15.702887,121.97796,62.127865,135.79796,60.875416,75.95089,125.62309,97.03217,94.217316,94.217316,7.3029566,9.675733,10.7388735,10.25896,10.611663,8.912515,10.980774,7.6055517,6.99748
547019557,547016234,2490378,8039.878,15.702887,121.97796,61.844852,138.15318,62.68705,nan,126.94033,nan,94.217316,nan,7.3029566,6.7789793,8.87871,8.862078,nan,7.2951484,nan,7.6443534,nan
547074014,547070985,2490378,8039.878,15.702887,nan,62.811546,138.15318,61.6564,nan,126.94033,97.03217,94.217316,nan,nan,8.872015,8.87871,9.977234,nan,7.2951484,6.921406,7.6443534,nan
547109396,547108315,2490378,8039.878,15.702887,nan,62.811546,nan,62.68705,nan,125.62309,97.03217,94.217316,nan,nan,7.7102194,nan,9.135641,nan,7.058182,6.921406,7.6443534,nan
547158876,547155599,2490378,8039.878,15.702887,nan,62.811546,nan,62.68705,77.724655,125.62309,97.03217,94.217316,nan,nan,7.7102194,nan,9.135641,8.654344,7.058182,6.921406,6.8523397,nan
547228546,547225281,2490378,8039.878,15.702887,nan,62.811546,nan,62.811546,77.724655,125.62309,97.03217,94.217316,nan,nan,8.705252,nan,6.8483315,6.92196,7.058182,7.263941,6.8523397,nan
547283021,547282520,2490378,8039.878,15.702887,nan,62.811546,nan,62.811546,78.514435,nan,97.03217,94.217316,nan,nan,8.705252,nan,6.8483315,6.734086,nan,7.263941,6.8523397,nan
547302930,547299941,2490378,8039.878,15.702887,nan,62.811546,nan,62.813225,78.514435,nan,97.03217,94.217316,nan,nan,8.705252,nan,7.0271306,6.734086,nan,7.263941,6.8523397,nan
547342825,547342248,2490378,8039.878,15.702887,121.97796,nan,nan,62.813225,78.514435,nan,94.217316,nan,nan,7.5003796,nan,nan,7.0271306,6.734086,nan,7.2769194,nan,nan
547422493,547421885,2490378,8039.878,15.702887,125.62309,nan,nan,nan,nan,125.62309,94.217316,94.217316,94.217316,8.265947,nan,nan,nan,nan,8.756301,7.2769194,7.5099425,7.1541553
547472163,547469169,2490378,8039.878,15.702887,125.62309,62.811546,nan,nan,nan,125.62309,94.217316,94.217316,94.217316,7.4955516,10.193425,nan,nan,nan,7.101362,7.2769194,7.5099425,7.1541553
547522022,547521431,2490378,8039.878,15.702887,126.8122,60.805958,nan,63.495228,nan,125.62309,94.217316,nan,94.217316,9.036807,11.74402,nan,6.77227,nan,7.101362,7.7070093,nan,7.1541553
547576975,547573693,2490378,8039.878,15.702887,126.8122,48.31504,nan,63.495228,nan,125.62309,94.217316,94.217316,nan,9.036807,10.85833,nan,6.77227,nan,7.101362,7.7070093,7.0796013,nan
547616858,547613512,2490378,8039.878,15.702887,125.62309,48.31504,138.15318,63.495228,nan,125.496925,94.217316,94.217316,94.217316,10.196068,10.034693,8.664953,6.77227,nan,8.43619,7.7070093,7.0796013,7.202489
547676533,547675728,2490378,8039.878,15.702887,125.62309,51.415714,138.15318,62.813225,nan,125.496925,94.217316,94.217316,94.217316,11.749984,8.908741,11.417369,12.491114,nan,8.43619,7.7070093,7.0796013,7.202489
547726349,547725501,2490378,8039.878,15.702887,125.33407,54.216103,138.15318,63.50586,nan,nan,94.217316,94.217316,94.217316,10.204319,10.90226,11.417369,10.248325,nan,nan,7.7070093,7.0796013,7.202489
547776099,547772785,2490378,8039.878,15.702887,125.33407,54.216103,138.0322,62.88303,nan,nan,94.217316,94.217316,94.217316,10.204319,10.90226,11.113404,9.030782,nan,nan,7.7070093,7.0796013,7.202489
547825847,547825047,2490378,8039.878,15.702887,125.33407,62.811546,138.0322,59.0269,94.217316,nan,94.217316,nan,nan,11.091877,10.390643,11.113404,11.173371,10.341383,nan,6.9670563,nan,nan
547875604,547872334,2490378,8039.878,15.702887,125.33407,62.863113,138.0322,62.811546,94.217316,125.496925,94.217316,94.217316,nan,11.091877,9.466689,12.310139,10.242301,9.835024,10.095753,6.9670563,7.079348,nan
547920150,547919616,2490378,8039.878,15.702887,128.43796,62.811546,138.0322,63.84168,94.217316,125.69457,94.217316,94.217316,nan,11.261383,10.162334,12.310139,9.880693,9.835024,8.218012,6.9670563,7.079348,nan
547970000,547966900,2490378,8039.878,15.702887,128.43796,62.811546,138.0322,64.23992,94.217316,125.69457,94.217316,94.217316,nan,11.150972,10.162334,9.398973,9.308243,9.835024,8.218012,6.9670563,7.079348,nan
548019670,548016673,2490378,8039.878,15.702887,126.95324,63.253967,138.08292,63.84168,78.514435,125.74926,94.217316,nan,nan,12.299126,10.852198,12.043715,12.037598,11.692772,10.698644,10.639227,nan,nan
548074675,548073912,2490378,8039.878,15.702887,126.95324,61.71494,139.29788,62.811546,78.514435,125.74926,94.217316,94.217316,nan,12.299126,8.308805,8.434347,11.463343,8.824259,10.698644,10.639227,6.8401318,nan
548124519,548123686,2490378,8039.878,15.702887,125.62309,61.71494,140.72348,62.811546,78.514435,125.74926,94.217316,94.217316,nan,8.668589,9.278521,9.062208,7.188136,8.824259,8.878337,10.639227,6.8401318,nan
548174224,548170970,2490378,8039.878,15.702887,117.665085,61.71494,140.72348,62.811546,78.585915,125.62309,94.217316,nan,nan,11.536961,8.996532,9.062208,7.188136,7.472515,8.717145,7.515916,nan,nan
548224007,548223232,2490378,8039.878,15.702887,113.61828,62.811546,nan,62.32881,77.29862,125.62309,94.217316,94.217316,nan,10.192163,11.008635,nan,8.728786,7.051379,8.57442,7.515916,6.989903,nan
548273805,548270516,2490378,8039.878,15.702887,113.55557,62.811546,nan,64.59838,77.29862,125.62309,94.217316,94.217316,nan,7.1645646,11.008635,nan,11.399326,7.051379,8.57442,7.515916,6.989903,nan
548323555,548322778,2490378,8039.878,15.702887,113.55557,62.811546,140.72212,64.02736,77.29862,nan,94.217316,nan,nan,8.346414,8.556371,11.19577,9.805843,8.613007,nan,7.0772796,nan,nan
548333553,548330244,2490378,8039.878,15.702887,113.55557,62.811546,140.72212,64.02736,77.29862,nan,94.217316,nan,nan,8.6194,8.556371,11.19577,9.805843,8.613007,nan,7.0772796,nan,nan
548427853,548424813,2490378,8039.878,15.702887,113.55557,62.937714,140.72212,62.811546,78.29212,nan,94.217316,nan,nan,10.422411,8.016827,6.901471,6.9697614,6.3842793,nan,7.0772796,nan,nan
548477892,548477074,2490378,8039.878,15.702887,113.55557,62.811546,141.2545,64.02736,78.514435,nan,94.217316,nan,nan,10.422411,9.360753,6.719074,9.449304,9.014553,nan,7.2240534,nan,nan
548522773,548521870,2490378,8039.878,15.702887,113.16743,62.811546,141.2545,62.811546,78.63893,nan,94.217316,nan,nan,10.784252,11.362957,11.280836,10.79898,10.2167225,nan,7.2240534,nan,nan
548577182,548574132,2490378,8039.878,15.702887,111.016815,61.71494,141.2545,62.59091,78.63893,nan,94.217316,nan,nan,8.549987,10.116732,11.280836,8.871762,10.2167225,nan,7.2240534,nan,nan
548622289,548621416,2490378,8039.878,15.702887,113.16743,62.811546,141.2545,60.274536,78.63893,nan,94.217316,nan,nan,10.925959,10.003031,11.280836,7.505764,8.798508,nan,7.2240534,nan,nan
548676686,548673682,2490378,8039.878,15.702887,110.0447,62.811546,141.2545,60.803932,78.514435,nan,94.217316,nan,nan,7.840781,8.111723,9.781248,8.582455,9.107928,nan,7.8489857,nan,nan
548712132,548711008,2490378,8039.878,15.702887,110.0447,62.740063,141.2545,57.205708,78.514435,nan,94.217316,nan,nan,7.022208,7.6370244,9.781248,10.924081,9.107928,nan,7.8489857,nan,nan
548776215,548775713,2490378,8039.878,15.702887,111.10932,62.811546,141.2545,57.205708,78.514435,nan,94.217316,nan,nan,10.869177,8.920794,10.093226,10.924081,8.487935,nan,7.8489857,nan,nan
548825992,548822997,2490378,8039.878,15.702887,111.10932,62.75686,141.32597,49.994995,78.514435,nan,94.217316,nan,nan,10.869177,9.894771,10.028969,10.791835,8.323299,nan,7.8489857,nan,nan
548871095,548870282,2490378,8039.878,15.702887,109.920204,62.75686,141.2545,49.994995,78.44295,nan,94.217316,94.217316,nan,6.5944057,7.0835376,8.747055,9.946579,7.286692,nan,7.0110626,7.1322875,nan
548925541,548922544,2490378,8039.878,15.702887,111.13602,62.75686,141.32597,48.29777,77.724655,nan,94.217316,94.217316,nan,9.915585,7.0835376,9.724651,8.3756075,10.621915,nan,7.0110626,7.1322875,nan
548970683,548967340,2490378,8039.878,15.702887,113.16561,63.908154,140.23105,48.29777,77.724655,nan,94.217316,94.217316,nan,10.309625,9.815451,12.701717,8.3756075,10.621915,nan,7.0110626,7.1322875,nan
549025177,549024579,2490378,8039.878,15.702887,113.16743,63.931194,140.23105,48.29777,78.44295,nan,94.217316,94.217316,nan,10.423211,8.782513,10.423211,8.3756075,10.054984,nan,7.4948335,7.452468,nan
549070212,549066886,2490378,8039.878,15.702887,113.16743,63.931194,140.23105,nan,78.514435,nan,94.217316,94.217316,94.217316,7.3412514,8.782513,7.4513288,nan,6.9971466,nan,7.4948335,7.452468,7.8208694
549179731,549178875,2490378,8039.878,15.702887,113.16743,63.931194,140.23105,nan,78.44295,nan,94.217316,94.217316,94.217316,7.3412514,8.782513,7.4513288,nan,7.2720566,nan,7.4948335,7.452468,7.8208694
549189719,549188830,2490378,8039.878,15.702887,nan,nan,141.32597,nan,78.44295,nan,94.217316,94.217316,94.217316,nan,nan,5.143948,nan,7.2720566,nan,7.4948335,7.452468,7.8208694
549219504,549216205,2490378,8039.878,15.702887,nan,nan,141.32597,nan,78.44295,nan,94.217316,nan,nan,nan,nan,7.657076,nan,7.2720566,nan,7.355953,nan,nan
549259370,549258512,2490378,8039.878,15.702887,nan,nan,141.32597,nan,78.44295,nan,94.217316,94.217316,nan,nan,nan,7.657076,nan,10.086799,nan,7.355953,7.634663,nan
549329016,549325706,2490378,8039.878,15.702887,nan,nan,141.39746,nan,78.44295,nan,94.217316,94.217316,nan,nan,nan,10.101812,nan,10.086799,nan,7.3312435,7.634663,nan
549383456,549380456,2490378,8039.878,15.702887,nan,nan,142.49239,nan,78.44295,nan,94.217316,94.217316,nan,nan,nan,8.010221,nan,10.086799,nan,7.3312435,7.1351204,nan
549428553,549427741,2490378,8039.878,15.702887,nan,nan,141.32597,48.29777,78.514435,nan,94.217316,94.217316,nan,nan,nan,7.6115584,7.1656046,7.0293517,nan,7.3312435,7.1351204,nan
549468376,549465070,2490378,8039.878,15.702887,113.16743,nan,141.32597,48.29777,78.514435,nan,94.217316,94.217316,nan,7.4141493,nan,7.6115584,8.981254,7.0293517,nan,7.3312435,7.1351204,nan
549508692,549507378,2490378,8039.878,15.702887,113.16743,nan,141.32597,48.29777,78.514435,nan,94.217316,94.217316,nan,7.0206075,nan,8.726675,8.981254,7.643559,nan,7.3312435,7.1351204,nan
549542725,549539730,2490378,8039.878,15.702887,109.99169,63.931194,141.32597,48.29777,78.514435,nan,94.217316,nan,nan,7.14797,8.180261,8.726675,8.981254,7.643559,nan,7.538954,nan,nan
549628005,549624344,2490378,8039.878,15.702887,109.920204,63.931194,nan,48.29777,78.514435,nan,94.217316,94.217316,nan,7.012721,8.180261,nan,8.957925,7.433236,nan,7.538954,6.733691,nan
549662285,549661674,2490378,8039.878,15.702887,109.920204,64.42409,141.32597,48.29777,78.514435,nan,94.217316,94.217316,nan,7.012721,7.368834,9.152995,8.957925,7.3356667,nan,6.917819,6.733691,nan
549731886,549731357,2490378,8039.878,15.702887,109.920204,109.920204,141.2545,47.108658,78.514435,nan,94.217316,94.217316,94.217316,7.5260563,8.50101,7.209349,7.06506,7.3356667,nan,6.917819,6.9870234,7.487198
549781636,549778646,2490378,8039.878,15.702887,109.920204,109.920204,141.2545,47.108658,78.514435,nan,94.217316,94.217316,94.217316,6.8648443,8.50101,7.209349,7.06506,7.3356667,nan,7.2167625,6.9870234,7.487198
549816747,549815971,2490378,8039.878,15.702887,109.920204,109.920204,141.2545,47.108658,nan,nan,94.217316,94.217316,94.217316,6.8648443,7.3721514,7.209349,7.2115045,nan,nan,7.2167625,6.9870234,7.097211
549856660,549853301,2490378,8039.878,15.702887,109.920204,109.920204,141.2545,47.108658,nan,nan,94.217316,94.217316,94.217316,6.8648443,7.3721514,7.209349,7.2115045,nan,nan,7.0237293,7.7538366,7.097211
549930958,549927960,2490378,8039.878,15.702887,109.920204,nan,141.32597,47.108658,nan,nan,94.217316,94.217316,94.217316,7.213437,nan,7.518132,8.758994,nan,nan,7.0237293,7.7538366,6.738686
549976001,549975245,2490378,8039.878,15.702887,109.920204,nan,140.63434,47.108658,nan,nan,94.217316,94.217316,94.217316,7.213437,nan,13.913134,9.462973,nan,nan,7.0237293,7.7538366,6.738686
550030539,550027507,2490378,8039.878,15.702887,nan,nan,140.63434,48.76148,78.514435,nan,94.217316,nan,nan,nan,nan,10.363447,9.835366,6.7843437,nan,7.48203,nan,nan
550055697,550054882,2490378,8039.878,15.702887,nan,nan,130.05922,49.114254,78.514435,nan,94.217316,nan,nan,nan,nan,10.058642,8.749476,7.004495,nan,7.48203,nan,nan
550125449,550122076,2490378,8039.878,15.702887,nan,nan,130.05922,49.114254,78.514435,nan,94.217316,94.217316,nan,nan,nan,10.058642,8.749476,7.004495,nan,7.48203,7.345559,nan
550169906,550166871,2490378,8039.878,15.702887,nan,nan,130.05922,48.76148,nan,nan,94.217316,94.217316,nan,nan,nan,10.058642,7.371439,nan,nan,7.48203,7.345559,nan
550199766,550196735,2490378,8039.878,15.702887,nan,nan,130.05922,48.205265,nan,nan,94.217316,94.217316,nan,nan,nan,10.058642,7.2296276,nan,nan,7.5032754,7.345559,nan
550259554,550256463,2490378,8039.878,15.702887,nan,nan,130.05922,47.646084,nan,nan,94.217316,94.217316,nan,nan,nan,7.5144615,8.553485,nan,nan,7.5032754,7.345559,nan
550329180,550326145,2490378,8039.878,15.702887,nan,nan,130.05922,47.204796,nan,nan,94.217316,nan,nan,nan,nan,7.5144615,8.21476,nan,nan,7.0519533,nan,nan
550453906,550453067,2490378,8039.878,15.702887,nan,nan,130.05922,47.108658,nan,nan,94.217316,nan,nan,nan,nan,7.5144615,7.514862,nan,nan,7.0519533,nan,nan
550468514,550467999,2490378,8039.878,15.702887,nan,nan,130.05922,47.108658,nan,nan,94.217316,nan,nan,nan,nan,7.5144615,9.146558,nan,nan,7.0519533,nan,nan
550503673,550500351,2490378,8039.878,15.702887,nan,nan,130.05922,47.204796,nan,nan,94.217316,nan,nan,nan,nan,7.5144615,9.193628,nan,nan,7.0519533,nan,nan
550523562,550520260,2490378,8039.878,15.702887,nan,nan,130.05922,47.204796,nan,nan,94.217316,nan,nan,nan,nan,7.5144615,9.193628,nan,nan,7.7396417,nan,nan
550603183,550599897,2490378,8039.878,15.702887,nan,nan,130.05922,47.204796,nan,nan,94.217316,94.217316,nan,nan,nan,7.5144615,9.193628,nan,nan,7.7396417,7.6018662,nan
550657656,550654648,2490378,8039.878,15.702887,nan,nan,132.8338,47.204796,nan,nan,94.217316,94.217316,nan,nan,nan,14.229726,10.68118,nan,nan,8.878803,7.6018662,nan
550707951,550706910,2490378,8039.878,15.702887,109.920204,nan,132.90529,47.898438,92.325294,125.551605,94.217316,94.217316,nan,12.529406,nan,10.196583,9.236943,15.552486,14.573933,11.202698,7.6018662,nan
550752549,550751705,2490378,8039.878,15.702887,96.717316,nan,132.90529,47.847248,92.40524,125.551605,94.2888,nan,nan,10.199192,nan,10.196583,6.7945538,14.335278,14.573933,7.1384106,nan,nan
550792389,550791524,2490378,8039.878,15.702887,95.88965,nan,132.90529,47.847248,92.40524,125.551605,94.217316,nan,nan,6.6333427,nan,10.196583,6.7945538,11.085051,11.217127,7.2410703,nan,nan
550852125,550851252,2490378,8039.878,15.702887,95.43313,nan,nan,47.898438,92.40524,125.551605,94.217316,nan,nan,8.475369,nan,nan,8.537859,11.085051,8.476885,7.2410703,nan,nan
550891848,550888582,2490378,8039.878,15.702887,95.007095,nan,nan,47.898438,92.40524,125.551605,94.217316,94.217316,nan,8.760511,nan,nan,8.537859,11.085051,8.476885,7.2410703,7.500168,nan
550966242,550963241,2490378,8039.878,15.702887,95.007095,nan,nan,nan,nan,125.62309,94.217316,94.217316,nan,8.760511,nan,nan,nan,nan,6.3269396,7.2410703,7.500168,nan
551006051,551005548,2490378,8039.878,15.702887,95.007095,nan,nan,nan,nan,125.62309,94.217316,94.217316,nan,6.8987226,nan,nan,nan,nan,6.3269396,7.2410703,7.500168,nan
551061253,551057810,2490378,8039.878,15.702887,95.007095,nan,nan,47.898438,nan,125.62309,94.217316,94.217316,nan,6.8987226,nan,nan,6.5484133,nan,6.3269396,7.2410703,7.500168,nan
551091021,551090163,2490378,8039.878,15.702887,94.217316,nan,nan,47.847248,nan,nan,94.217316,nan,nan,7.6223135,nan,nan,3.9512956,nan,nan,6.967621,nan,nan
551125549,551122515,2490378,8039.878,15.702887,94.217316,nan,nan,47.110336,nan,nan,94.217316,94.217316,nan,7.6223135,nan,nan,9.144166,nan,nan,6.967621,6.872944,nan
551200472,551197175,2490378,8039.878,15.702887,95.007095,127.9729,nan,47.110336,nan,nan,94.217316,94.217316,nan,6.987719,10.865093,nan,9.144166,nan,nan,7.2812643,6.872944,nan
551250202,551249437,2490378,8039.878,15.702887,95.31393,128.54422,nan,47.108658,nan,nan,94.217316,94.217316,nan,7.320316,11.369051,nan,8.5792465,nan,nan,7.2812643,6.872944,nan
551290162,551286766,2490378,8039.878,15.702887,95.31393,128.54422,nan,47.108658,nan,nan,94.217316,94.217316,nan,7.320316,8.491593,nan,8.5792465,nan,nan,7.2812643,6.85305,nan
551339898,551339028,2490378,8039.878,15.702887,94.218994,127.9729,nan,47.108658,nan,nan,94.217316,94.217316,nan,8.683773,8.192601,nan,8.5792465,nan,nan,7.5264125,6.85305,nan
551394374,551391290,2490378,8039.878,15.702887,94.218994,128.54422,nan,47.108658,nan,nan,94.217316,94.217316,94.217316,8.777441,10.04826,nan,6.9784594,nan,nan,7.5264125,6.85305,7.267527
551449388,551446040,2490378,8039.878,15.702887,94.218994,128.54422,nan,47.108658,nan,nan,94.217316,94.217316,94.217316,8.777441,10.04826,nan,8.411388,nan,nan,7.146734,6.9981184,7.267527
551503893,551503280,2490378,8039.878,15.702887,94.218994,128.54422,nan,47.108658,92.40524,nan,94.217316,94.217316,94.217316,8.777441,10.04826,nan,8.411388,7.323943,nan,7.146734,6.9981184,7.4615726
551548883,551548075,2490378,8039.878,15.702887,94.218994,nan,nan,47.204796,92.40524,125.62309,94.217316,94.217316,94.217316,7.1343145,nan,nan,8.294635,7.323943,7.214937,7.146734,7.1946926,7.4615726
551583453,551582917,2490378,8039.878,15.702887,94.217316,nan,nan,47.204796,92.40524,125.62309,94.217316,94.217316,94.217316,6.8352885,nan,nan,8.843472,7.471554,6.9819937,7.146734,7.1946926,7.4615726
551653125,551652599,2490378,8039.878,15.702887,94.217316,127.77189,nan,47.204796,93.15501,125.62309,94.217316,nan,nan,6.8352885,6.929549,nan,8.6526375,6.887924,6.9819937,7.2409225,nan,nan
551692917,551689929,2490378,8039.878,15.702887,nan,127.343025,132.8338,47.204796,93.15501,125.62309,94.217316,nan,nan,nan,7.2199287,5.8016396,8.6526375,6.887924,6.9819937,7.2409225,nan,nan
551742692,551742191,2490378,8039.878,15.702887,nan,126.719696,132.8338,47.204796,93.15501,nan,94.217316,nan,nan,nan,6.950451,5.8016396,8.6526375,5.7984467,nan,7.2409225,nan,nan
551782537,551779520,2490378,8039.878,15.702887,nan,126.719696,132.8338,47.204796,93.15501,nan,94.217316,nan,nan,nan,6.950451,5.8016396,8.6526375,5.7984467,nan,7.408333,nan,nan
551842337,551839248,2490378,8039.878,15.702887,nan,126.719696,nan,47.204796,94.217316,nan,94.217316,nan,nan,nan,10.368263,nan,7.2062044,7.2062044,nan,7.408333,nan,nan
551902135,551901465,2490378,8039.878,15.702887,94.217316,125.62309,nan,47.204796,94.217316,nan,94.217316,nan,nan,11.837649,10.033699,nan,8.378424,10.402258,nan,6.7573547,nan,nan
551951765,551948749,2490378,8039.878,15.702887,94.217316,125.62309,nan,47.204796,94.217316,nan,94.217316,nan,nan,9.498495,10.078839,nan,8.240353,8.467197,nan,6.7573547,nan,nan
551981604,551981102,2490378,8039.878,15.702887,94.217316,125.62309,130.47873,47.204796,94.217316,nan,94.217316,nan,nan,9.498495,10.078839,7.0637712,8.240353,6.8015957,nan,6.7573547,nan,nan
552046639,552045807,2490378,8039.878,15.702887,94.217316,125.62309,130.47873,47.108658,94.217316,125.62309,94.217316,nan,nan,9.498495,10.078839,7.0637712,7.209871,6.7077665,7.19702,7.2055154,nan,nan
552106749,552105534,2490378,8039.878,15.702887,94.217316,nan,nan,48.328728,94.217316,125.62309,94.217316,nan,nan,7.628215,nan,nan,7.449769,6.7077665,7.19702,7.2055154,nan,nan
552130929,552130421,2490378,8039.878,15.702887,94.217316,125.62309,nan,48.328728,94.217316,125.62309,94.217316,nan,nan,7.628215,7.4847765,nan,8.98656,6.7077665,7.19702,7.7880597,nan,nan
552200610,552200103,2490378,8039.878,15.702887,94.217316,125.62309,127.62684,47.898438,nan,nan,94.217316,nan,nan,7.628215,7.4847765,7.3455296,8.535117,nan,nan,7.7880597,nan,nan
552215816,552215035,2490378,8039.878,15.702887,nan,125.62309,126.719696,47.898438,nan,nan,94.217316,nan,nan,nan,7.4847765,7.11194,8.535117,nan,nan,7.7880597,nan,nan
552295444,552294672,2490378,8039.878,15.702887,nan,nan,125.47227,47.898438,nan,nan,94.217316,nan,nan,nan,nan,7.6253214,8.535117,nan,nan,7.7880597,nan,nan
552320062,552317070,2490378,8039.878,15.702887,nan,nan,125.47227,47.108658,nan,nan,94.217316,nan,nan,nan,nan,6.861982,6.378475,nan,nan,7.7880597,nan,nan
552399775,552396707,2490378,8039.878,15.702887,nan,nan,125.47227,47.108658,92.67626,nan,94.217316,nan,nan,nan,nan,6.861982,9.375944,8.797187,nan,7.7880597,nan,nan
552449526,552448969,2490378,8039.878,15.702887,nan,nan,126.7895,48.228306,92.67626,125.62309,94.217316,nan,nan,nan,nan,10.98392,9.50604,10.786398,7.8454924,7.267676,nan,nan
552494663,552491276,2490378,8039.878,15.702887,nan,nan,125.845406,48.228306,92.67626,125.62309,94.217316,nan,nan,nan,nan,7.1757183,8.766946,10.693077,7.8454924,7.267676,nan,nan
552529121,552528606,2490378,8039.878,15.702887,nan,nan,125.845406,50.44986,92.67626,125.62309,94.217316,94.217316,nan,nan,nan,7.1757183,10.713085,10.693077,7.8454924,7.267676,6.8533964,nan
552598833,552598288,2490378,8039.878,15.702887,nan,nan,127.55922,50.768806,77.54774,nan,94.217316,94.217316,nan,nan,nan,8.823975,10.168886,10.168886,nan,7.270748,6.8533964,nan
552648623,552645573,2490378,8039.878,15.702887,nan,nan,125.845406,50.768806,77.54774,nan,94.217316,94.217316,nan,nan,nan,7.3526697,10.168886,10.168886,nan,7.270748,8.00059,nan
552703978,552702812,2490378,8039.878,15.702887,nan,nan,125.62309,50.768806,77.54774,nan,94.217316,94.217316,nan,nan,nan,7.6664095,10.168886,10.168886,nan,7.331867,8.00059,nan
552748143,552745119,2490378,8039.878,15.702887,nan,nan,125.62309,nan,78.514435,nan,94.217316,94.217316,94.217316,nan,nan,7.6664095,nan,7.450559,nan,7.331867,8.00059,7.050705
552783253,552782449,2490378,8039.878,15.702887,nan,nan,125.62309,nan,78.514435,nan,94.217316,94.217316,94.217316,nan,nan,7.6664095,nan,7.450559,nan,7.331867,7.4323936,7.050705
552882766,552879507,2490378,8039.878,15.702887,nan,nan,125.62309,nan,78.514435,nan,94.217316,94.217316,nan,nan,nan,7.6664095,nan,7.450559,nan,7.4150267,7.4323936,nan
552902737,552901905,2490378,8039.878,15.702887,nan,nan,125.62309,nan,78.514435,nan,94.217316,94.217316,nan,nan,nan,8.478704,nan,7.450559,nan,7.4150267,7.4323936,nan
552952504,552949189,2490378,8039.878,15.702887,94.217316,nan,125.62309,nan,78.514435,nan,94.217316,94.217316,nan,7.244901,nan,8.625723,nan,8.88879,nan,7.4150267,7.4323936,nan
552982529,552981542,2490378,8039.878,15.702887,94.217316,125.62309,125.62309,nan,78.514435,nan,94.217316,94.217316,94.217316,7.244901,6.7414894,7.415451,nan,8.88879,nan,7.4150267,7.889881,7.02373
553052141,553048735,2490378,8039.878,15.702887,94.217316,125.62309,125.62309,51.70501,nan,nan,94.217316,94.217316,94.217316,4.663153,6.7414894,7.415451,8.298424,nan,nan,7.4150267,7.889881,7.02373
553086574,553086065,2490378,8039.878,15.702887,94.217316,125.62309,125.62309,51.70501,nan,nan,94.217316,94.217316,nan,4.663153,7.3189507,7.415451,8.298424,nan,nan,7.9261827,7.3753,nan
553151666,553148282,2490378,8039.878,15.702887,94.217316,125.62309,125.62309,51.70501,nan,nan,94.217316,94.217316,94.217316,4.663153,7.3189507,7.415451,8.298424,nan,nan,7.9261827,7.3753,7.063204
553201464,553198055,2490378,8039.878,15.702887,94.217316,125.62309,125.62309,51.70501,nan,nan,94.217316,nan,94.217316,4.663153,7.3189507,7.415451,8.298424,nan,nan,7.0358014,nan,7.063204
553215978,553212987,2490378,8039.878,15.702887,94.217316,125.62309,125.62309,54.31937,nan,nan,94.217316,94.217316,94.217316,4.663153,7.3189507,7.415451,7.5791893,nan,nan,7.0358014,6.8299417,7.063204
553295646,553292624,2490378,8039.878,15.702887,94.217316,nan,nan,54.31937,nan,nan,94.217316,94.217316,94.217316,7.6109514,nan,nan,7.5791893,nan,nan,7.0358014,6.8299417,7.084725
553325481,553324976,2490378,8039.878,15.702887,94.217316,nan,nan,54.31937,nan,nan,94.217316,nan,94.217316,7.6109514,nan,nan,7.5791893,nan,nan,7.415455,nan,7.084725
553470151,553466830,2490378,8039.878,15.702887,94.217316,nan,nan,54.31937,nan,nan,94.217316,nan,nan,7.6109514,nan,nan,7.5791893,nan,nan,7.190071,nan,nan
553520022,553516603,2490378,8039.878,15.702887,94.217316,nan,nan,54.31937,nan,nan,94.217316,94.217316,nan,7.6109514,nan,nan,7.5791893,nan,nan,7.190071,7.168416,nan
553564423,553563887,2490378,8039.878,15.702887,94.217316,nan,nan,54.31937,nan,nan,94.217316,94.217316,94.217316,7.6109514,nan,nan,7.5791893,nan,nan,7.190071,7.168416,7.6847973
553709446,553705741,2490378,8039.878,15.702887,94.217316,nan,nan,54.31937,nan,nan,94.217316,nan,nan,7.6109514,nan,nan,7.5791893,nan,nan,7.2858624,nan,nan
553713715,553713207,2490378,8039.878,15.702887,94.217316,nan,nan,54.31937,nan,nan,94.217316,nan,nan,7.0167265,nan,nan,7.5791893,nan,nan,7.2858624,nan,nan
553778743,553777912,2490378,8039.878,15.702887,94.217316,116.43885,nan,54.31937,nan,nan,94.217316,nan,nan,7.0167265,7.9611874,nan,7.5791893,nan,nan,7.2858624,nan,nan
553803358,553802799,2490378,8039.878,15.702887,94.217316,116.43885,nan,54.31937,nan,nan,94.217316,94.217316,nan,7.0167265,7.9611874,nan,7.310886,nan,nan,7.2858624,7.1716776,nan
553853126,553850083,2490378,8039.878,15.702887,94.217316,116.43885,nan,54.31937,nan,nan,94.217316,94.217316,nan,7.0167265,7.9611874,nan,7.310886,nan,nan,7.020088,7.1716776,nan
553908439,553904834,2490378,8039.878,15.702887,94.217316,nan,nan,54.31937,nan,nan,94.217316,94.217316,94.217316,7.5353975,nan,nan,7.310886,nan,nan,7.020088,6.8336964,7.4043617
554002390,553999402,2490378,8039.878,15.702887,94.217316,116.43885,nan,54.31937,nan,nan,94.217316,94.217316,94.217316,7.5353975,7.117385,nan,7.310886,nan,nan,7.020088,6.8336964,7.4043617
554037496,554036732,2490378,8039.878,15.702887,94.217316,116.43885,nan,54.168545,nan,nan,94.217316,94.217316,94.217316,7.5353975,7.117385,nan,7.702015,nan,nan,7.020088,6.8336964,7.4043617
554057480,554056642,2490378,8039.878,15.702887,94.217316,116.43885,nan,54.168545,nan,nan,94.217316,nan,nan,7.5353975,7.117385,nan,7.702015,nan,nan,7.278384,nan,nan
554098262,554096460,2490378,8039.878,15.702887,nan,125.62309,nan,54.168545,nan,nan,94.217316,nan,nan,nan,10.063734,nan,7.702015,nan,nan,7.278384,nan,nan
554147301,554143745,2490378,8039.878,15.702887,nan,125.62309,nan,54.168545,nan,nan,94.217316,94.217316,nan,nan,11.157056,nan,7.702015,nan,nan,7.278384,7.157498,nan
554187142,554183563,2490378,8039.878,15.702887,nan,125.62309,nan,54.168545,nan,nan,94.217316,94.217316,nan,nan,11.157056,nan,7.702015,nan,nan,7.3592415,7.157498,nan
554296335,554295553,2490378,8039.878,15.702887,nan,125.62309,nan,54.168545,nan,nan,94.217316,nan,nan,nan,11.157056,nan,7.702015,nan,nan,7.7333527,nan,nan
554320947,554317951,2490378,8039.878,15.702887,nan,125.62309,nan,54.168545,nan,nan,94.217316,nan,nan,nan,8.509729,nan,7.702015,nan,nan,7.7333527,nan,nan
554336161,554335371,2490378,8039.878,15.702887,nan,126.718025,nan,54.168545,nan,nan,94.217316,nan,nan,nan,7.192398,nan,7.702015,nan,nan,7.7333527,nan,nan
554400594,554397588,2490378,8039.878,15.702887,nan,126.8122,nan,54.168545,nan,nan,94.217316,94.217316,nan,nan,8.919775,nan,7.702015,nan,nan,7.7333527,7.164517,nan
554445711,554444872,2490378,8039.878,15.702887,nan,126.838905,nan,54.168545,nan,nan,94.217316,94.217316,nan,nan,10.007335,nan,7.702015,nan,nan,7.3351884,7.164517,nan
554500146,554497134,2490378,8039.878,15.702887,nan,126.838905,nan,54.390858,nan,nan,94.217316,94.217316,94.217316,nan,11.019086,nan,10.057905,nan,nan,7.3351884,7.164517,7.6290345
554599684,554599169,2490378,8039.878,15.702887,nan,126.838905,nan,54.390858,nan,nan,94.217316,nan,nan,nan,11.019086,nan,10.057905,nan,nan,7.5028367,nan,nan
554634833,554631522,2490378,8039.878,15.702887,nan,126.838905,nan,54.390858,nan,nan,94.217316,94.217316,nan,nan,11.019086,nan,10.057905,nan,nan,7.5028367,7.3728075,nan
554664747,554661385,2490378,8039.878,15.702887,nan,126.838905,nan,54.390858,nan,nan,94.217316,94.217316,94.217316,nan,11.019086,nan,10.057905,nan,nan,7.5028367,7.3728075,7.542514
554734348,554733557,2490378,8039.878,15.702887,nan,126.838905,nan,54.390858,nan,nan,94.217316,94.217316,94.217316,nan,7.002507,nan,10.057905,nan,nan,7.5028367,7.3728075,7.542514
554749050,554748488,2490378,8039.878,15.702887,nan,126.838905,nan,54.390858,nan,nan,94.217316,94.217316,94.217316,nan,7.090924,nan,10.057905,nan,nan,7.5028367,7.3728075,7.542514
554813998,554813194,2490378,8039.878,15.702887,nan,125.62309,nan,54.390858,nan,nan,94.217316,94.217316,94.217316,nan,8.090295,nan,10.057905,nan,nan,7.5028367,7.3728075,7.542514
554913593,554912740,2490378,8039.878,15.702887,nan,125.62309,nan,55.600834,nan,nan,94.217316,94.217316,94.217316,nan,8.090295,nan,7.203622,nan,nan,7.5028367,7.3728075,7.542514
554928210,554927673,2490378,8039.878,15.702887,nan,125.62309,nan,55.600834,78.514435,nan,94.217316,94.217316,94.217316,nan,8.090295,nan,7.203622,7.185702,nan,7.5028367,7.3728075,7.542514
554933455,554932649,2490378,8039.878,15.702887,nan,125.62309,nan,55.600834,78.514435,nan,94.217316,nan,nan,nan,8.090295,nan,7.203622,7.185702,nan,7.305219,nan,nan
554987957,554987400,2490378,8039.878,15.702887,94.2888,nan,nan,55.600834,78.514435,nan,94.217316,nan,nan,7.363743,nan,nan,7.203622,7.185702,nan,7.305219,nan,nan
555047692,555044639,2490378,8039.878,15.702887,94.2888,nan,nan,55.600834,nan,nan,94.217316,nan,nan,7.363743,nan,nan,6.9971466,nan,nan,8.287763,nan,nan
555092846,555091923,2490378,8039.878,15.702887,94.2888,nan,nan,55.600834,nan,nan,94.217316,94.217316,nan,7.363743,nan,nan,6.9971466,nan,nan,8.287763,7.1387796,nan
555132527,555131742,2490378,8039.878,15.702887,94.217316,nan,nan,55.600834,nan,nan,94.217316,94.217316,94.217316,7.063202,nan,nan,6.9971466,nan,nan,8.287763,7.1387796,7.007682
555207223,555203913,2490378,8039.878,15.702887,94.217316,nan,nan,55.600834,nan,nan,94.217316,nan,94.217316,7.063202,nan,nan,7.473688,nan,nan,7.2411036,nan,7.007682
555252129,555251197,2490378,8039.878,15.702887,94.217316,nan,nan,55.600834,nan,nan,94.217316,94.217316,nan,7.063202,nan,nan,7.473688,nan,nan,7.2411036,7.1117964,nan
555307105,555305948,2490378,8039.878,15.702887,94.217316,nan,nan,55.600834,nan,nan,94.217316,94.217316,nan,10.25668,nan,nan,7.473688,nan,nan,7.2411036,7.1117964,nan
555351621,555348255,2490378,8039.878,15.702887,94.2888,nan,nan,55.600834,nan,nan,94.217316,94.217316,nan,10.728264,nan,nan,7.473688,nan,nan,7.8129807,7.1117964,nan
555386081,555385585,2490378,8039.878,15.702887,94.2888,nan,nan,55.600834,nan,nan,94.217316,94.217316,nan,8.867203,nan,nan,7.473688,nan,nan,7.8129807,7.1117964,nan
555465732,555465222,2490378,8039.878,15.702887,107.44369,nan,nan,55.600834,nan,nan,94.217316,94.217316,nan,12.658346,nan,nan,7.473688,nan,nan,7.8129807,7.1117964,nan
555515499,555512507,2490378,8039.878,15.702887,126.42305,nan,nan,55.600834,nan,nan,94.217316,nan,nan,10.577301,nan,nan,7.473688,nan,nan,7.7460675,nan,nan
555545371,555544859,2490378,8039.878,15.702887,128.56412,nan,nan,87.16045,nan,nan,94.217316,94.217316,nan,8.57072,nan,nan,10.2207,nan,nan,7.7460675,7.043035,nan
555590423,555587166,2490378,8039.878,15.702887,128.56412,nan,nan,87.16045,nan,nan,94.217316,94.217316,94.217316,8.57072,nan,nan,10.2207,nan,nan,7.7460675,7.043035,7.076024
555660135,555656849,2490378,8039.878,15.702887,126.42305,nan,nan,87.16045,nan,nan,94.217316,94.217316,94.217316,7.0402613,nan,nan,10.2207,nan,nan,7.7460675,7.043035,7.076024
555699928,555696667,2490378,8039.878,15.702887,126.42305,nan,nan,87.16045,nan,nan,94.217316,nan,nan,7.0402613,nan,nan,10.2207,nan,nan,7.1428113,nan,nan
555749748,555746443,2490378,8039.878,15.702887,126.42305,nan,nan,87.16045,nan,nan,94.217316,94.217316,94.217316,7.0402613,nan,nan,10.2207,nan,nan,7.1428113,7.2349496,7.0867968
555784311,555783770,2490378,8039.878,15.702887,125.62309,nan,nan,87.16045,nan,nan,94.217316,94.217316,94.217316,8.357483,nan,nan,10.2207,nan,nan,7.1428113,7.2349496,7.0867968
555863966,555863407,2490378,8039.878,15.702887,125.62309,125.62309,nan,85.79663,nan,nan,94.217316,94.217316,94.217316,8.887218,8.579635,nan,7.008874,nan,nan,7.784379,7.2349496,7.0867968
