timestamp,timestamp_sample,device_id,x,y,z,temperature,error_count,samples
540123160,540123090,4325386,-0.011930961,-0.0040480047,0.0019174758,nan,0,5
541118044,541117975,4325386,-0.008309062,-0.001704423,0.0023435815,nan,0,5
542120429,542120360,4325386,0.007882956,-0.016192019,-0.0072437976,nan,0,5
543120313,543120245,4325386,0.003408846,-0.015339807,-0.017683389,nan,0,5
544122700,544122630,4325386,0.007882956,-0.012783173,0.0063915863,nan,0,5
545120146,545120016,4325386,0.012144014,0.005113269,0.006178533,nan,0,5
546119972,546119901,4325386,-0.0027696874,-0.010439591,0.014700648,nan,0,5
547122354,547122287,4325386,0.0059654806,-0.0042610574,0.015765913,nan,0,5
548119746,548119676,4325386,0.020879181,-0.006604639,0.0059654806,nan,0,5
549119628,549119559,4325386,-0.0019174758,-0.010439591,0.014913701,nan,0,5
550122015,550121946,4325386,0.005539375,-0.00042610575,0.012144014,nan,0,5
551121899,551121832,4325386,0.008948221,-0.00042610575,0.008309062,nan,0,5
552119291,552119219,4325386,-0.008522115,-0.007030745,0.0040480047,nan,0,5
553121682,553121606,4325386,0.0031957931,-0.0059654806,-0.01406149,nan,0,5
554121614,554121495,4325386,0.0027696874,-0.011504855,-0.0059654806,nan,0,5
555118965,555118880,4325386,0.008948221,-0.009587379,-0.0010652643,nan,0,5
556121337,556121268,4325386,0.0008522115,0.0038349517,-0.024074975,nan,0,5
557121278,557121155,4325386,0.007030745,0.003408846,-0.0029827403,nan,0,5
558121111,558121043,4325386,-0.0019174758,-0.016831176,0.010226538,nan,0,5
559121003,559120931,4325386,-0.0023435815,-0.007030745,0.018748652,nan,0,5
560120886,560120819,4325386,-0.008522115,-0.01704423,0.0023435815,nan,0,5
561120778,561120708,4325386,0.0010652643,-0.010013485,0.00063915865,nan,0,5
562118164,562118096,4325386,0.0031957931,-0.012144014,0.0044741104,nan,0,5
563120608,563120485,4325386,-0.017896442,-0.005326322,-0.0010652643,nan,0,5
564120440,564120373,4325386,-0.00042610575,-0.01555286,0.015126754,nan,0,5
565122832,565122762,4325386,0.015126754,-0.018748652,-0.020879181,nan,0,5
566120219,566120151,4325386,0.015765913,0.016192019,-0.022796657,nan,0,5
567120108,567120040,4325386,0.0038349517,-0.018322548,0.003408846,nan,0,5
568122496,568122429,4325386,0.0019174758,-0.0036218988,-0.008948221,nan,0,5
569119888,569119818,4325386,0.014274542,-0.003408846,-0.01107875,nan,0,5
570119775,570119708,4325386,-0.0042610574,0.0019174758,-0.0044741104,nan,0,5
571122165,571122097,4325386,-0.0040480047,-0.028762138,-0.00021305287,nan,0,5
572122099,572121986,4325386,0.012144014,-0.019813918,-0.005326322,nan,0,5
573119443,573119376,4325386,0.092678,0.0021305287,-0.0029827403,nan,0,5
574121835,574121765,4325386,0.14317153,-0.023861922,-0.018322548,nan,0,5
575121726,575121654,4325386,0.025992451,0.0044741104,-0.018109495,nan,0,5
576119110,576119043,4325386,0.041332256,-0.038136464,-0.013635384,nan,0,5
577121503,577121432,4325386,0.01704423,-0.009374326,-0.008309062,nan,0,5
578121388,578121321,4325386,-0.0025566346,-0.019174758,-0.015978966,nan,0,5
579121279,579121211,4325386,0.004900216,-0.0059654806,0.0010652643,nan,0,5
580118683,580118600,4325386,0.008735168,-0.004900216,0.0076699033,nan,0,5
581121106,581120991,4325386,0.00021305287,-0.013848437,-0.014700648,nan,0,5
582120945,582120877,4325386,-0.012783173,-0.018961705,0.009374326,nan,0,5
583118335,583118266,4325386,0.003408846,-0.010865697,-0.008735168,nan,0,5
584120725,584120654,4325386,-0.0008522115,-0.023435816,-0.010439591,nan,0,5
585120613,585120542,4325386,-0.008522115,-0.018109495,-0.013848437,nan,0,5
586122999,586122930,4325386,-0.015126754,0.0059654806,0.0008522115,nan,0,5
587120389,587120318,4325386,0.015126754,-0.012570119,-0.016831176,nan,0,5
588120271,588120205,4325386,0.013209278,-0.0008522115,0.012144014,nan,0,5
589122662,589122592,4325386,-0.0008522115,0.0031957931,-0.009800432,nan,0,5
590120112,590119979,4325386,0.0072437976,-0.026631609,0.0038349517,nan,0,5
591119935,591119866,4325386,-0.0042610574,-0.010439591,-0.015765913,nan,0,5
592122320,592122252,4325386,0.0185356,-0.059654806,-0.020666128,nan,0,5
593122206,593122138,4325386,-0.25971144,0.11760519,0.12037487,nan,0,5
594119593,594119524,4325386,0.006178533,-0.023435816,-0.014700648,nan,0,5
595121978,595121909,4325386,-0.006178533,-0.0063915863,-0.011291802,nan,0,5
596121863,596121794,4325386,0.022583604,-0.009587379,0.008522115,nan,0,5
597119246,597119179,4325386,-0.0029827403,-0.009374326,0.012144014,nan,0,5
598119132,598119063,4325386,0.015978966,0.005113269,-0.0076699033,nan,0,5
599121540,599121447,4325386,-0.009800432,-0.0008522115,-0.0025566346,nan,0,5
600121399,600121331,4325386,0.0038349517,-0.006817692,0.005113269,nan,0,5
601118782,601118715,4325386,-0.03259709,-0.047084685,-0.0038349517,nan,0,5
602121167,602121098,4325386,-0.009374326,-0.017470336,-0.012357066,nan,0,5
603121047,603120980,4325386,-0.005326322,-0.012996226,0.003408846,nan,0,5
604118431,604118363,4325386,-0.068389975,0.014700648,0.025140239,nan,0,5
605120812,605120745,4325386,-0.010865697,0.026631609,0.008309062,nan,0,5
606120697,606120626,4325386,-0.052624058,-0.042610575,-0.008309062,nan,0,5
607123076,607123007,4325386,0.004900216,-0.014700648,-0.024074975,nan,0,5
608120462,608120388,4325386,0.0076699033,0.01555286,0.013422331,nan,0,5
609120336,609120268,4325386,-0.01107875,0.00063915865,-0.014700648,nan,0,5
610122718,610122648,4325386,0.004900216,-0.0038349517,-0.0021305287,nan,0,5
611120095,611120028,4325386,0.005326322,-0.016618123,-0.00042610575,nan,0,5
612119975,612119907,4325386,0.0781904,-0.049428266,-0.028549084,nan,0,5
613122355,613122286,4325386,-0.09651295,0.03984089,0.0334493,nan,0,5
614122233,614122164,4325386,-0.019387811,-0.0025566346,0.0029827403,nan,0,5
615119613,615119543,4325386,0.23755395,0.36048546,0.0027696874,nan,0,5
616121989,616121920,4325386,-0.008309062,-0.010439591,0.0063915863,nan,0,5
617121865,617121797,4325386,-0.008309062,-0.017683389,0.004900216,nan,0,5
618119245,618119175,4325386,0.017896442,-0.009374326,-0.005539375,nan,0,5
619119119,619119051,4325386,0.09757821,-0.04218447,-0.02450108,nan,0,5
620121496,620121426,4325386,0.0023435815,-0.0063915863,0.014700648,nan,0,5
621123871,621123802,4325386,0.07030745,0.11377023,0.0019174758,nan,0,5
622118747,622118678,4325386,0.0010652643,-0.012783173,-0.019387811,nan,0,5
623121119,623121052,4325386,-0.0038349517,0.008309062,-0.0012783173,nan,0,5
624120994,624120926,4325386,0.024288028,0.0008522115,-0.0036218988,nan,0,5
625118370,625118300,4325386,-0.005326322,-0.0027696874,-0.009161274,nan,0,5
626120742,626120674,4325386,-0.0027696874,0.003408846,-0.014913701,nan,0,5
627120614,627120546,4325386,0.0080960095,0.004687163,-0.00042610575,nan,0,5
628122985,628122919,4325386,0.0029827403,-0.019813918,0.007030745,nan,0,5
629120371,629120291,4325386,-0.010439591,-0.015978966,-0.007030745,nan,0,5
630120236,630120163,4325386,0.01704423,-0.010226538,0.008948221,nan,0,5
631122736,631122534,4325386,-0.0029827403,0.0019174758,-0.0014913701,nan,0,5
632119971,632119905,4325386,0.013635384,-0.018748652,0.0023435815,nan,0,5
633119843,633119775,4325386,0.010865697,-0.005326322,0.015978966,nan,0,5
634122215,634122145,4325386,-0.016618123,-0.006817692,-0.01107875,nan,0,5
635119582,635119514,4325386,0.015339807,0.010652644,0.0036218988,nan,0,5
636119452,636119384,4325386,0.014487595,0.008522115,-0.00042610575,nan,0,5
637121821,637121752,4325386,-0.007030745,0.0,0.010439591,nan,0,5
638121688,638121620,4325386,0.024288028,-0.0074568507,0.0014913701,nan,0,5
639119071,639118988,4325386,-0.0029827403,-0.009374326,0.0044741104,nan,0,5
640121488,640121355,4325386,0.03259709,-0.016618123,-0.009800432,nan,0,5
641121289,641121222,4325386,-0.018748652,0.015978966,0.008735168,nan,0,5
642121155,642121088,4325386,0.0021305287,-0.051345743,0.0080960095,nan,0,5
643118525,643118454,4325386,-0.0080960095,0.024288028,0.0025566346,nan,0,5
644120890,644120819,4325386,0.0072437976,-0.0014913701,-0.008522115,nan,0,5
645120753,645120685,4325386,-0.14295848,0.032810144,0.026418556,nan,0,5
646118120,646118049,4325386,-0.011717908,0.0021305287,0.006604639,nan,0,5
647120481,647120413,4325386,0.0021305287,-0.0057524275,0.0044741104,nan,0,5
648120346,648120277,4325386,-0.0031957931,0.0023435815,0.0040480047,nan,0,5
649122711,649122642,4325386,-0.0036218988,-0.005539375,0.0008522115,nan,0,5
650120073,650120003,4325386,0.0044741104,-0.018322548,0.02300971,nan,0,5
651119941,651119865,4325386,0.0057524275,-0.005113269,0.0008522115,nan,0,5
652122296,652122226,4325386,0.0027696874,-0.00042610575,0.0019174758,nan,0,5
653119660,653119588,4325386,0.010865697,0.015978966,0.0027696874,nan,0,5
654119517,654119449,4325386,0.025140239,-0.009161274,0.010226538,nan,0,5
655121878,655121809,4325386,0.003408846,-0.02151834,-0.011930961,nan,0,5
656121739,656121668,4325386,0.0076699033,-0.001704423,-0.0074568507,nan,0,5
657119097,657119028,4325386,0.013422331,0.0074568507,-0.0059654806,nan,0,5
658121458,658121387,4325386,-0.0021305287,0.0072437976,0.019387811,nan,0,5
659121319,659121246,4325386,0.012357066,0.0,-0.0019174758,nan,0,5
660118673,660118604,4325386,-0.015978966,-0.012144014,0.0063915863,nan,0,5
661121028,661120961,4325386,0.00063915865,-0.012783173,-0.0014913701,nan,0,5
662120887,662120818,4325386,0.005539375,-0.018748652,0.015765913,nan,0,5
663123315,663123174,4325386,0.010226538,0.006604639,0.005113269,nan,0,5
664120598,664120531,4325386,0.008735168,-0.0044741104,-0.0044741104,nan,0,5
665120455,665120387,4325386,0.0031957931,-0.017896442,-0.0063915863,nan,0,5
666122810,666122741,4325386,0.0072437976,-0.006178533,-0.006817692,nan,0,5
667120171,667120096,4325386,-0.009374326,0.0029827403,-0.009374326,nan,0,5
668120017,668119950,4325386,0.011930961,-0.013848437,-0.005539375,nan,0,5
669122373,669122303,4325386,-0.006604639,-0.0023435815,0.013209278,nan,0,5
670122226,670122156,4325386,-0.010226538,-0.013422331,-0.0072437976,nan,0,5
671119577,671119509,4325386,0.0185356,-0.013848437,0.00063915865,nan,0,5
672121931,672121861,4325386,-0.0072437976,-0.031531826,0.018961705,nan,0,5
673121781,673121712,4325386,0.017257283,-0.016405072,0.017257283,nan,0,5
674119133,674119063,4325386,-0.0042610574,0.014274542,0.001704423,nan,0,5
675121482,675121413,4325386,0.011717908,-0.010226538,0.010013485,nan,0,5
676121335,676121263,4325386,0.010652644,0.00042610575,-0.0014913701,nan,0,5
677121330,677121112,4325386,0.0080960095,-0.012570119,0.0072437976,nan,0,5
678118528,678118461,4325386,0.0019174758,-0.00021305287,0.0038349517,nan,0,5
679120876,679120809,4325386,0.015765913,-0.019387811,0.0059654806,nan,0,5
680123225,680123156,4325386,-0.018961705,-0.004687163,-0.026418556,nan,0,5
681118071,681118004,4325386,0.015765913,0.0012783173,-0.001704423,nan,0,5
682120417,682120350,4325386,-0.003408846,-0.02002697,0.0021305287,nan,0,5
683120264,683120196,4325386,-0.017257283,-0.014700648,-0.012783173,nan,0,5
684122613,684122542,4325386,0.0027696874,-0.008948221,0.0038349517,nan,0,5
685119955,685119887,4325386,0.0010652643,0.030253507,-0.018748652,nan,0,5
686119803,686119732,4325386,0.013422331,-0.0021305287,0.0021305287,nan,0,5
687122143,687122076,4325386,-0.005326322,-0.021092234,0.0023435815,nan,0,5
688119488,688119420,4325386,0.0221575,-0.0080960095,-0.009800432,nan,0,5
689119332,689119263,4325386,-0.01107875,0.017896442,0.00063915865,nan,0,5
690121679,690121605,4325386,0.011291802,-0.02364887,-0.0057524275,nan,0,5
691121695,691121447,4325386,-0.0040480047,-0.012144014,-0.021944446,nan,0,5
692118858,692118789,4325386,-0.008309062,0.0072437976,-0.00042610575,nan,0,5
693121201,693121130,4325386,-0.0029827403,-0.0059654806,-0.0014913701,nan,0,5
694121042,694120971,4325386,-0.008948221,-0.024074975,-0.011930961,nan,0,5
695118380,695118311,4325386,0.015126754,0.00021305287,0.018109495,nan,0,5
696120718,696120650,4325386,0.009374326,-0.011291802,0.00063915865,nan,0,5
697120557,697120489,4325386,0.005539375,-0.006604639,-0.004687163,nan,0,5
698122901,698122828,4325386,0.004687163,-0.010865697,-0.0044741104,nan,0,5
699120235,699120166,4325386,0.0074568507,-0.008309062,-0.020879181,nan,0,5
700120076,700120005,4325386,-0.008309062,-0.0044741104,0.005539375,nan,0,5
701122409,701122341,4325386,0.003408846,-0.0029827403,-0.011504855,nan,0,5
702119746,702119678,4325386,0.01107875,0.016405072,-0.0042610574,nan,0,5
703119584,703119514,4325386,-0.0023435815,0.0059654806,0.00042610575,nan,0,5
704121919,704121850,4325386,-0.013635384,-0.0038349517,0.0059654806,nan,0,5
705121925,705121685,4325386,0.012144014,0.0025566346,-0.008522115,nan,0,5
706119087,706119020,4325386,0.018322548,-0.017683389,0.011717908,nan,0,5
707121423,707121354,4325386,0.005113269,-0.011930961,-0.0027696874,nan,0,5
708121264,708121189,4325386,0.00042610575,-0.01107875,-0.006178533,nan,0,5
709118592,709118523,4325386,0.0025566346,0.0057524275,-0.004687163,nan,0,5
710120923,710120855,4325386,-0.0019174758,-0.008522115,0.02450108,nan,0,5
711120756,711120688,4325386,0.018109495,-0.012783173,-0.0074568507,nan,0,5
712123090,712123020,4325386,0.0040480047,-0.003408846,0.0019174758,nan,0,5
713120421,713120352,4325386,-0.008735168,-0.0023435815,-0.0021305287,nan,0,5
714120252,714120184,4325386,0.012783173,-0.006178533,-0.0029827403,nan,0,5
715122582,715122514,4325386,0.005539375,-0.013635384,-0.010439591,nan,0,5
716119914,716119846,4325386,-0.00042610575,-0.015765913,0.0019174758,nan,0,5
717119747,717119676,4325386,-0.008948221,0.0008522115,-0.01704423,nan,0,5
718122072,718122005,4325386,0.0021305287,-0.008522115,-0.017470336,nan,0,5
719122035,719121835,4325386,0.007882956,-0.0057524275,-0.012570119,nan,0,5
720119231,720119164,4325386,0.006178533,-0.026418556,-0.0019174758,nan,0,5
721121560,721121493,4325386,-0.0059654806,0.0042610574,-0.006604639,nan,0,5
722121390,722121321,4325386,-0.02151834,-0.009161274,-0.00021305287,nan,0,5
723118717,723118649,4325386,0.0025566346,0.005326322,-0.0072437976,nan,0,5
724121043,724120976,4325386,-0.005113269,-0.008948221,-0.0010652643,nan,0,5
725120870,725120803,4325386,0.0080960095,-0.0076699033,0.017257283,nan,0,5
726123199,726123130,4325386,-0.008948221,-0.0063915863,-0.009800432,nan,0,5
727120524,727120457,4325386,0.009800432,-0.02364887,-0.011291802,nan,0,5
728120353,728120283,4325386,0.008735168,-0.0008522115,-0.0076699033,nan,0,5
729122678,729122608,4325386,0.0025566346,-0.012144014,-0.016618123,nan,0,5
730120001,730119934,4325386,0.010013485,-0.0076699033,0.0027696874,nan,0,5
731119829,731119759,4325386,0.0021305287,-0.0025566346,-0.0036218988,nan,0,5
732122154,732122083,4325386,0.0059654806,-0.010013485,0.012570119,nan,0,5
733122042,733121908,4325386,0.02002697,-0.013635384,-0.0008522115,nan,0,5
734119302,734119232,4325386,0.010439591,0.005113269,0.010226538,nan,0,5
735121625,735121556,4325386,0.013848437,0.009587379,0.0014913701,nan,0,5
736121448,736121379,4325386,0.003408846,-0.0072437976,-0.019813918,nan,0,5
737118774,737118705,4325386,0.016405072,0.0036218988,-0.0076699033,nan,0,5
738121093,738121025,4325386,0.011930961,0.011504855,0.004687163,nan,0,5
739120919,739120847,4325386,-0.013422331,-0.003408846,-0.010439591,nan,0,5
740123238,740123169,4325386,-0.0021305287,-0.024288028,-0.012144014,nan,0,5
741120559,741120491,4325386,0.0029827403,-0.006604639,0.010865697,nan,0,5
742120383,742120313,4325386,0.00063915865,0.0080960095,-0.01107875,nan,0,5
743122705,743122634,4325386,0.008522115,-0.011291802,0.004687163,nan,0,5
744120022,744119955,4325386,0.0044741104,-0.003408846,-0.0038349517,nan,0,5
745119847,745119777,4325386,0.012570119,0.0042610574,0.00021305287,nan,0,5
746122164,746122095,4325386,0.005113269,-0.0021305287,-0.009587379,nan,0,5
747121985,747121916,4325386,-0.004900216,0.0031957931,-0.018748652,nan,0,5
748119303,748119236,4325386,0.0014913701,-0.022796657,-0.0023435815,nan,0,5
749121627,749121554,4325386,-0.0019174758,-0.006817692,0.0019174758,nan,0,5
750121443,750121373,4325386,0.0019174758,-0.008735168,0.007882956,nan,0,5
751118784,751118693,4325386,0.0059654806,-0.011291802,-0.00042610575,nan,0,5
752121188,752121010,4325386,-0.0029827403,0.0019174758,0.0063915863,nan,0,5
753120896,753120828,4325386,0.009161274,-0.014274542,0.0031957931,nan,0,5
754123215,754123146,4325386,0.0021305287,-0.009800432,-0.004900216,nan,0,5
755120532,755120463,4325386,-0.0040480047,-0.006817692,0.0076699033,nan,0,5
756120350,756120280,4325386,0.009374326,-0.017257283,-0.0076699033,nan,0,5
757122665,757122597,4325386,-0.0029827403,0.0008522115,0.0057524275,nan,0,5
758119983,758119914,4325386,-0.0025566346,-0.019387811,-0.009161274,nan,0,5
759119797,759119729,4325386,0.008309062,-0.006178533,0.009374326,nan,0,5
760122115,760122045,4325386,0.0019174758,-0.0025566346,0.009587379,nan,0,5
761121930,761121861,4325386,0.02450108,-0.0036218988,0.02002697,nan,0,5
762119244,762119176,4325386,0.009161274,-0.0185356,-0.004687163,nan,0,5
763121558,763121490,4325386,0.029188244,-0.004900216,-0.0010652643,nan,0,5
764121374,764121305,4325386,0.019600864,-0.009587379,0.0008522115,nan,0,5
765118686,765118619,4325386,-0.006817692,0.017683389,0.0008522115,nan,0,5
766121007,766120933,4325386,0.066046394,0.12911004,-0.038136464,nan,0,5
767120816,767120746,4325386,-0.00021305287,-0.00063915865,-0.007030745,nan,0,5
768123128,768123059,4325386,0.0074568507,-0.0029827403,-0.0080960095,nan,0,5
769120443,769120373,4325386,0.013209278,-0.017470336,0.014700648,nan,0,5
770120255,770120185,4325386,0.008309062,-0.015126754,-0.00021305287,nan,0,5
771122750,771122497,4325386,-0.004900216,-0.013422331,-0.010865697,nan,0,5
772119880,772119810,4325386,0.0072437976,0.0080960095,0.006604639,nan,0,5
773119692,773119622,4325386,0.0029827403,0.0063915863,-0.0044741104,nan,0,5
774121999,774121932,4325386,0.0074568507,-0.0025566346,0.008522115,nan,0,5
775121814,775121744,4325386,-0.0074568507,0.0021305287,0.001704423,nan,0,5
776119122,776119055,4325386,0.01555286,-0.020666128,-0.009374326,nan,0,5
777121435,777121365,4325386,0.005326322,-0.014913701,-0.005539375,nan,0,5
778121242,778121175,4325386,0.0057524275,-0.008948221,0.0031957931,nan,0,5
779118555,779118486,4325386,-0.009587379,-0.0040480047,0.0076699033,nan,0,5
780120865,780120795,4325386,0.00021305287,-0.01704423,0.00063915865,nan,0,5
781120675,781120605,4325386,-0.010865697,-0.009161274,0.00063915865,nan,0,5
782122981,782122914,4325386,0.00063915865,-0.02300971,0.0076699033,nan,0,5
783120290,783120223,4325386,0.0014913701,-0.0025566346,-0.0010652643,nan,0,5
784120102,784120032,4325386,0.0059654806,0.010439591,0.006178533,nan,0,5
785122410,785122340,4325386,0.011717908,0.0008522115,-0.013848437,nan,0,5
786119718,786119649,4325386,0.005326322,-0.0057524275,0.003408846,nan,0,5
787119525,787119457,4325386,-0.0019174758,-0.0057524275,0.0019174758,nan,0,5
788121833,788121764,4325386,0.016618123,-0.013635384,-0.0074568507,nan,0,5
789121642,789121571,4325386,0.00063915865,-0.008309062,0.0019174758,nan,0,5
790119023,790118879,4325386,0.0021305287,0.010226538,0.004900216,nan,0,5
791121254,791121185,4325386,-0.0036218988,0.014700648,-0.0010652643,nan,0,5
792121061,792120992,4325386,0.0042610574,-0.006604639,-0.003408846,nan,0,5
793118366,793118298,4325386,0.012570119,0.0074568507,-0.0038349517,nan,0,5
794120678,794120605,4325386,-0.0023435815,-0.001704423,0.011930961,nan,0,5
795120666,795120410,4325386,0.00021305287,-0.010439591,-0.013422331,nan,0,5
796122819,796122715,4325386,0.014487595,0.0040480047,0.0072437976,nan,0,5
797120089,797120021,4325386,0.012357066,-0.010013485,-0.021092234,nan,0,5
798119898,798119826,4325386,0.0036218988,-0.02450108,-0.016618123,nan,0,5
799122200,799122131,4325386,-0.0008522115,0.0010652643,-0.007882956,nan,0,5
800119518,800119438,4325386,0.009161274,-0.016405072,-0.0042610574,nan,0,5
801119307,801119240,4325386,0.012570119,-0.015126754,0.0072437976,nan,0,5
802121612,802121543,4325386,-0.01704423,-0.0057524275,0.010439591,nan,0,5
803121416,803121347,4325386,0.0021305287,0.020453077,0.0059654806,nan,0,5
804121220,804121151,4325386,0.0012783173,-0.014487595,0.017896442,nan,0,5
805121021,805120953,4325386,0.012783173,0.0010652643,-0.015339807,nan,0,5
806120825,806120756,4325386,0.0059654806,-0.010013485,-0.007030745,nan,0,5
807118128,807118059,4325386,0.021305287,-0.019387811,0.018748652,nan,0,5
808120428,808120360,4325386,-0.00021305287,-0.008309062,-0.009587379,nan,0,5
809120232,809120162,4325386,0.011504855,-0.027696874,0.012570119,nan,0,5
810122534,810122463,4325386,0.004687163,-0.008309062,0.006178533,nan,0,5
811119838,811119765,4325386,0.0029827403,0.0072437976,-0.010865697,nan,0,5
812119635,812119566,4325386,-0.0080960095,0.009161274,-0.004900216,nan,0,5
813121943,813121866,4325386,-0.0038349517,-0.024288028,0.0040480047,nan,0,5
814119340,814119166,4325386,0.0076699033,-0.0029827403,-0.0040480047,nan,0,5
815119035,815118967,4325386,0.0008522115,-0.0010652643,-0.0021305287,nan,0,5
816121335,816121266,4325386,-0.0076699033,-0.005113269,0.0042610574,nan,0,5
817121133,817121066,4325386,-0.011717908,0.005539375,0.0036218988,nan,0,5
818120935,818120865,4325386,0.0057524275,-0.030253507,-0.0025566346,nan,0,5
819120734,819120664,4325386,0.0036218988,0.009161274,-0.0059654806,nan,0,5
820120532,820120463,4325386,0.001704423,0.0019174758,0.016831176,nan,0,5
821120335,821120262,4325386,0.012144014,-0.007030745,0.0044741104,nan,0,5
822120131,822120060,4325386,0.009800432,-0.011930961,0.023435816,nan,0,5
823122427,823122358,4325386,0.011291802,-0.007030745,-0.0019174758,nan,0,5
824122224,824122156,4325386,-0.0059654806,-0.012783173,0.00042610575,nan,0,5
825119523,825119454,4325386,0.0080960095,-0.010652644,-0.006178533,nan,0,5
826121820,826121751,4325386,0.00021305287,-0.0076699033,-0.011717908,nan,0,5
827121620,827121548,4325386,-0.016831176,-0.031531826,-0.008948221,nan,0,5
828118916,828118846,4325386,0.004900216,0.0059654806,-0.005539375,nan,0,5
829121209,829121142,4325386,-0.006178533,-0.003408846,-0.01555286,nan,0,5
830121007,830120939,4325386,-0.0185356,-0.013635384,-0.015765913,nan,0,5
831123302,831123234,4325386,0.010652644,-0.015126754,0.012144014,nan,0,5
832120604,832120531,4325386,-0.004900216,0.006604639,0.006178533,nan,0,5
833120396,833120327,4325386,-0.005326322,0.007030745,-0.020453077,nan,0,5
834122691,834122622,4325386,-0.005539375,0.0025566346,-0.005113269,nan,0,5
835119989,835119918,4325386,-0.007882956,-0.005326322,0.016831176,nan,0,5
836119782,836119714,4325386,-0.1563808,0.14807175,0.01704423,nan,0,5
837122077,837122008,4325386,0.030892666,0.010439591,-0.01555286,nan,0,5
838121938,838121802,4325386,0.0012783173,-0.01555286,-0.0038349517,nan,0,5
839119165,839119098,4325386,-0.029401297,-0.0021305287,-0.0044741104,nan,0,5
840121459,840121391,4325386,-0.0025566346,-0.010226538,-0.012996226,nan,0,5
841121254,841121185,4325386,-0.008522115,-0.0042610574,-0.003408846,nan,0,5
842118548,842118479,4325386,-0.030679613,0.04751079,0.0074568507,nan,0,5
843120999,843120771,4325386,0.006604639,0.027909927,0.008309062,nan,0,5
844120634,844120564,4325386,-0.014913701,0.007882956,0.02151834,nan,0,5
845122925,845122856,4325386,0.0010652643,0.010226538,-0.0057524275,nan,0,5
846120218,846120148,4325386,-0.006178533,-0.011930961,-0.007882956,nan,0,5
847120007,847119939,4325386,0.0029827403,-0.0072437976,-0.015126754,nan,0,5
848122296,848122229,4325386,-0.0012783173,-0.008948221,-0.0031957931,nan,0,5
849119588,849119521,4325386,0.0042610574,-0.023861922,0.0025566346,nan,0,5
850119379,850119310,4325386,-0.0036218988,0.13933659,0.00063915865,nan,0,5
851121671,851121599,4325386,0.006817692,-0.004900216,-0.009161274,nan,0,5
852121459,852121389,4325386,-0.008948221,-0.015978966,-0.012996226,nan,0,5
853118747,853118678,4325386,0.009800432,-0.011504855,-0.0038349517,nan,0,5
854121035,854120966,4325386,0.020453077,0.01704423,0.005326322,nan,0,5
855120822,855120754,4325386,-0.018748652,-0.016192019,-0.01704423,nan,0,5
856118111,856118042,4325386,0.006817692,-0.0080960095,0.0014913701,nan,0,5
857120406,857120328,4325386,0.013209278,-0.0059654806,-0.024074975,nan,0,5
858120182,858120115,4325386,-0.014700648,-0.011504855,0.0029827403,nan,0,5
859122467,859122401,4325386,0.0,0.0025566346,0.0,nan,0,5
860119755,860119687,4325386,0.015126754,0.007030745,-0.0185356,nan,0,5
861119542,861119473,4325386,0.0029827403,-0.015765913,-0.009800432,nan,0,5
862121879,862121758,4325386,-0.005113269,0.006604639,-0.009161274,nan,0,5
863119111,863119044,4325386,0.005326322,-0.001704423,-0.009587379,nan,0,5
864121395,864121328,4325386,0.003408846,-0.0025566346,0.010865697,nan,0,5
865121180,865121113,4325386,0.011717908,0.010013485,-0.005539375,nan,0,5
866123484,866123397,4325386,0.015126754,-0.007030745,0.006817692,nan,0,5
867120820,867120681,4325386,-0.038136464,-0.033023197,-0.0044741104,nan,0,5
868120532,868120465,4325386,-0.0010652643,0.005326322,-0.013422331,nan,0,5
869122815,869122748,4325386,0.037710357,0.051345743,0.009587379,nan,0,5
870120099,870120031,4325386,-0.013209278,0.016405072,0.021731393,nan,0,5
871119901,871119816,4325386,-0.004687163,0.0042610574,-0.014700648,nan,0,5
872122321,872122096,4325386,0.21859224,-0.061146174,-0.008948221,nan,0,5
873121946,873121879,4325386,-0.020666128,-0.017896442,0.0059654806,nan,0,5
874119229,874119162,4325386,-0.03984089,0.06966829,-0.0040480047,nan,0,5
875121510,875121443,4325386,0.003408846,-0.05177185,-0.038775623,nan,0,5
876121293,876121225,4325386,0.012357066,0.0027696874,-0.006817692,nan,0,5
877118575,877118507,4325386,0.004900216,-0.010226538,0.00063915865,nan,0,5
878120856,878120788,4325386,0.012357066,-0.0025566346,-0.004900216,nan,0,5
879120638,879120569,4325386,-0.013848437,-0.0029827403,-0.004900216,nan,0,5
880122919,880122850,4325386,0.0008522115,-0.0014913701,-0.013635384,nan,0,5
881120199,881120131,4325386,0.039627835,-0.040906154,0.004900216,nan,0,5
882119984,882119912,4325386,0.010013485,-0.006604639,0.0019174758,nan,0,5
883122261,883122192,4325386,0.00063915865,-0.012357066,-0.0036218988,nan,0,5
884119542,884119472,4325386,0.006178533,0.015339807,0.007030745,nan,0,5
885119321,885119252,4325386,0.013422331,-0.0010652643,0.0008522115,nan,0,5
886121604,886121532,4325386,0.008948221,-0.015978966,-0.0027696874,nan,0,5
887121380,887121312,4325386,-0.006817692,0.007030745,0.010013485,nan,0,5
888118661,888118592,4325386,0.017896442,0.0021305287,-0.0040480047,nan,0,5
889120940,889120871,4325386,-0.0057524275,0.023222763,-0.0038349517,nan,0,5
890120720,890120650,4325386,0.020453077,-0.01406149,-0.009800432,nan,0,5
891120502,891120429,4325386,0.010439591,0.0057524275,0.0008522115,nan,0,5
892120275,892120208,4325386,0.010226538,-0.01406149,-0.0074568507,nan,0,5
893120054,893119987,4325386,0.010226538,-0.023435816,0.0059654806,nan,0,5
894122335,894122265,4325386,0.005326322,-0.0008522115,-0.0036218988,nan,0,5
895119614,895119544,4325386,0.006817692,0.016405072,-0.011717908,nan,0,5
896121891,896121822,4325386,0.009587379,0.028336031,0.0019174758,nan,0,5
897121674,897121601,4325386,-0.012996226,-0.01107875,0.001704423,nan,0,5
898118950,898118879,4325386,-0.009587379,0.0038349517,-0.001704423,nan,0,5
899121227,899121157,4325386,-0.005113269,0.006817692,-0.001704423,nan,0,5
900121005,900120935,4325386,0.010652644,-0.010226538,-0.005539375,nan,0,5
901123289,901123213,4325386,0.012570119,-0.02812298,0.013422331,nan,0,5
902120558,902120491,4325386,0.0025566346,0.005113269,0.0019174758,nan,0,5
903120336,903120269,4325386,0.0036218988,-0.015126754,0.008309062,nan,0,5
904122613,904122546,4325386,0.0042610574,-0.006604639,0.006178533,nan,0,5
905119894,905119824,4325386,-0.012570119,-0.0063915863,0.00063915865,nan,0,5
906119752,906119602,4325386,0.017257283,-0.0023435815,-0.0014913701,nan,0,5
907121948,907121879,4325386,0.0025566346,-0.0012783173,-0.00063915865,nan,0,5
908121725,908121657,4325386,0.00042610575,0.00042610575,-0.0036218988,nan,0,5
909119003,909118934,4325386,-0.008948221,-0.004687163,0.0059654806,nan,0,5
910121281,910121211,4325386,0.005539375,-0.014274542,0.0029827403,nan,0,5
911121193,911120988,4325386,0.00021305287,0.001704423,-0.018748652,nan,0,5
912118333,912118266,4325386,0.0080960095,-0.0010652643,0.014700648,nan,0,5
913120613,913120543,4325386,0.008522115,-0.009374326,-0.012144014,nan,0,5
914120394,914120320,4325386,0.006817692,-0.011291802,0.007882956,nan,0,5
915122672,915122597,4325386,0.0023435815,-0.003408846,-0.0072437976,nan,0,5
916120140,916119877,4325386,0.034301512,0.0008522115,0.019600864,nan,0,5
917119719,917119651,4325386,0.0076699033,-0.020453077,0.0059654806,nan,0,5
918121995,918121928,4325386,0.02450108,-0.003408846,-0.021092234,nan,0,5
919119273,919119206,4325386,0.0074568507,0.009161274,0.0008522115,nan,0,5
920121560,920121482,4325386,0.03685815,-0.0014913701,-0.015978966,nan,0,5
921121328,921121259,4325386,-0.0019174758,0.018961705,0.013422331,nan,0,5
922121106,922121036,4325386,0.028762138,-0.026631609,0.01406149,nan,0,5
923120887,923120813,4325386,0.016405072,-0.008735168,-0.0021305287,nan,0,5
924120662,924120590,4325386,0.0042610574,-0.013209278,0.018961705,nan,0,5
925122938,925122867,4325386,-0.006604639,0.0019174758,-0.027270768,nan,0,5
926120211,926120144,4325386,0.010865697,-0.015978966,-0.012996226,nan,0,5
927119991,927119921,4325386,-0.0014913701,-0.013635384,-0.010652644,nan,0,5
928122268,928122197,4325386,-0.010013485,-0.0023435815,0.006817692,nan,0,5
929122044,929121975,4325386,0.013635384,-0.017470336,0.011504855,nan,0,5
930119327,930119252,4325386,0.00063915865,0.001704423,-0.0044741104,nan,0,5
931121597,931121529,4325386,0.021092234,-0.006178533,0.0044741104,nan,0,5
932121374,932121306,4325386,0.007030745,-0.013635384,0.004900216,nan,0,5
933118653,933118583,4325386,-0.0021305287,-0.016192019,0.0080960095,nan,0,5
934120928,934120860,4325386,0.006178533,-0.021092234,-0.006178533,nan,0,5
935120708,935120637,4325386,0.012996226,0.016618123,0.004900216,nan,0,5
936122983,936122914,4325386,0.008522115,-0.015978966,0.008735168,nan,0,5
937120261,937120192,4325386,-0.0021305287,0.014274542,0.0027696874,nan,0,5
938120038,938119969,4325386,-0.008309062,-0.0072437976,-0.0025566346,nan,0,5
939122316,939122246,4325386,0.028336031,-0.0080960095,-0.0074568507,nan,0,5
940119594,940119523,4325386,0.0042610574,0.013422331,-0.008309062,nan,0,5
941119367,941119301,4325386,0.0014913701,-0.021731393,-0.006604639,nan,0,5
942121673,942121578,4325386,0.003408846,-0.0059654806,0.0025566346,nan,0,5
943121425,943121355,4325386,-0.0008522115,-0.00042610575,-0.016405072,nan,0,5
944118700,944118633,4325386,0.004900216,-0.024288028,0.0042610574,nan,0,5
945120994,945120910,4325386,0.010652644,-0.0025566346,0.019387811,nan,0,5
946120755,946120688,4325386,0.011291802,-0.010226538,-0.0023435815,nan,0,5
947118035,947117966,4325386,-0.010226538,-0.011717908,-0.008735168,nan,0,5
948120312,948120243,4325386,0.0,-0.019813918,0.008522115,nan,0,5
949120091,949120021,4325386,0.0042610574,-0.012144014,0.0019174758,nan,0,5
950119932,950119798,4325386,0.012996226,0.0010652643,0.0019174758,nan,0,5
951119645,951119576,4325386,-0.008735168,-0.021305287,-0.008309062,nan,0,5
952121922,952121854,4325386,-0.004687163,-0.015978966,-0.0072437976,nan,0,5
953121699,953121632,4325386,0.0072437976,-0.001704423,-0.0023435815,nan,0,5
954118982,954118911,4325386,0.0031957931,0.0021305287,-0.011504855,nan,0,5
955121370,955121188,4325386,0.0021305287,-0.0044741104,-0.009161274,nan,0,5
956121036,956120967,4325386,0.008735168,0.001704423,-0.0072437976,nan,0,5
957123314,957123245,4325386,0.013848437,-0.004900216,-0.0019174758,nan,0,5
958120593,958120524,4325386,0.009800432,-0.015126754,0.01704423,nan,0,5
959120374,959120303,4325386,0.01704423,-0.023861922,0.012996226,nan,0,5
960122812,960122580,4325386,-0.006604639,-0.0029827403,-0.0074568507,nan,0,5
961119930,961119860,4325386,-0.012570119,0.0029827403,-0.0044741104,nan,0,5
962119708,962119639,4325386,0.0036218988,-0.023222763,-0.012570119,nan,0,5
963121986,963121917,4325386,0.010226538,-0.009161274,0.0027696874,nan,0,5
964121766,964121697,4325386,-0.005113269,-0.008735168,-0.0014913701,nan,0,5
965119046,965118977,4325386,-0.0025566346,0.0025566346,-0.0010652643,nan,0,5
966121326,966121256,4325386,0.005113269,-0.017257283,-0.007030745,nan,0,5
967121107,967121035,4325386,-0.0025566346,0.008309062,-0.012144014,nan,0,5
968118384,968118316,4325386,0.0025566346,0.005539375,-0.0031957931,nan,0,5
969120667,969120595,4325386,-0.004900216,0.012144014,-0.011717908,nan,0,5
970120443,970120375,4325386,0.0059654806,-0.014700648,0.008948221,nan,0,5
971122722,971122654,4325386,0.0012783173,-0.010226538,-0.009161274,nan,0,5
972120003,972119935,4325386,0.022796657,-0.0080960095,-0.0063915863,nan,0,5
973119783,973119715,4325386,-0.0057524275,-0.006604639,0.010226538,nan,0,5
974122065,974121995,4325386,0.0074568507,0.0012783173,0.012357066,nan,0,5
975119349,975119277,4325386,0.0036218988,0.005326322,-0.0044741104,nan,0,5
976119127,976119057,4325386,0.005113269,-0.013635384,-0.006178533,nan,0,5
977121472,977121339,4325386,-0.004900216,0.0027696874,0.0040480047,nan,0,5
978121187,978121119,4325386,0.004900216,-0.017470336,0.022370553,nan,0,5
979120971,979120900,4325386,0.019600864,0.009161274,-0.0042610574,nan,0,5
980120751,980120681,4325386,0.0072437976,-0.01555286,-0.0036218988,nan,0,5
981123034,981122962,4325386,0.00021305287,0.01107875,0.0023435815,nan,0,5
982120310,982120244,4325386,-0.021944446,-0.021092234,-0.006178533,nan,0,5
983120092,983120025,4325386,0.015978966,-0.0025566346,0.00042610575,nan,0,5
984122379,984122306,4325386,-0.012996226,-0.014487595,0.001704423,nan,0,5
985122156,985122088,4325386,0.0044741104,0.0074568507,0.008522115,nan,0,5
986119472,986119373,4325386,-0.0008522115,-0.012570119,0.018109495,nan,0,5
987121723,987121652,4325386,0.004687163,-0.0074568507,-0.0080960095,nan,0,5
988121504,988121435,4325386,0.007882956,-0.005113269,-0.010652644,nan,0,5
989118794,989118718,4325386,-0.0019174758,0.014700648,-0.02812298,nan,0,5
990121068,990120999,4325386,-0.005113269,-0.010865697,-0.010226538,nan,0,5
991120851,991120782,4325386,0.013422331,0.003408846,0.009374326,nan,0,5
992123133,992123064,4325386,0.015339807,-0.0010652643,-0.0008522115,nan,0,5
993120416,993120348,4325386,-0.0008522115,-0.025992451,-0.008522115,nan,0,5
994120259,994120130,4325386,0.0031957931,0.0010652643,0.0072437976,nan,0,5
995122480,995122413,4325386,0.01107875,-0.009161274,0.015978966,nan,0,5
996119764,996119697,4325386,-0.010865697,-0.013209278,-0.013848437,nan,0,5
997119547,997119480,4325386,0.012996226,0.0019174758,-0.020666128,nan,0,5
998121849,998121763,4325386,0.0021305287,0.00021305287,0.006178533,nan,0,5
999121727,999121547,4325386,0.0027696874,0.0019174758,0.0021305287,nan,0,5
1000118926,1000118831,4325386,0.0059654806,-0.0029827403,0.009587379,nan,0,5
1001121184,1001121114,4325386,-0.007030745,-0.006817692,-0.0080960095,nan,0,5
1002120968,1002120898,4325386,-0.010865697,-0.015339807,0.001704423,nan,0,5
1003120753,1003120683,4325386,0.0010652643,-0.0008522115,-0.00063915865,nan,0,5
1004120724,1004120468,4325386,-0.013422331,-0.018961705,0.0008522115,nan,0,5
1005120320,1005120251,4325386,0.010439591,-0.0072437976,0.014487595,nan,0,5
1006122607,1006122535,4325386,-0.0027696874,0.0008522115,-0.010439591,nan,0,5
1007119889,1007119820,4325386,0.009374326,-0.0063915863,-0.001704423,nan,0,5
1008119690,1008119605,4325386,0.0059654806,-0.018961705,-0.001704423,nan,0,5
1009121956,1009121889,4325386,0.0021305287,-0.005113269,-0.008735168,nan,0,5
1010119242,1010119174,4325386,0.0038349517,-0.0023435815,0.0042610574,nan,0,5
1011119028,1011118959,4325386,-0.0042610574,0.012570119,-0.017470336,nan,0,5
1012121313,1012121244,4325386,0.00042610575,-0.0029827403,0.010439591,nan,0,5
1013123599,1013123529,4325386,-0.0021305287,0.016405072,0.008948221,nan,0,5
1014120882,1014120814,4325386,-0.0012783173,-0.019174758,-0.0038349517,nan,0,5
1015120670,1015120600,4325386,-0.005326322,-0.008522115,0.0063915863,nan,0,5
1016122956,1016122885,4325386,-0.0059654806,-0.0057524275,-0.010013485,nan,0,5
1017120241,1017120171,4325386,0.010226538,-0.01704423,0.0,nan,0,5
1018120028,1018119957,4325386,-0.0021305287,0.007882956,-0.0042610574,nan,0,5
1019122309,1019122242,4325386,0.008522115,-0.023435816,0.00063915865,nan,0,5
1020122095,1020122028,4325386,0.014700648,-0.0080960095,0.0031957931,nan,0,5
1021119382,1021119315,4325386,0.012783173,0.0,-0.0044741104,nan,0,5
1022121671,1022121600,4325386,0.011291802,-0.008522115,0.0038349517,nan,0,5
1023121455,1023121387,4325386,0.0063915863,0.023222763,0.015339807,nan,0,5
1024118742,1024118674,4325386,0.010865697,-0.012570119,-0.0038349517,nan,0,5
1025121028,1025120960,4325386,-0.021092234,0.0185356,0.010439591,nan,0,5
1026120816,1026120746,4325386,-0.017896442,0.009161274,-0.010652644,nan,0,5
1027123104,1027123033,4325386,-0.006604639,-0.0076699033,-0.009374326,nan,0,5
1028120395,1028120323,4325386,0.007030745,-0.010439591,-0.013848437,nan,0,5
1029120176,1029120107,4325386,0.0042610574,-0.013848437,-0.0031957931,nan,0,5
1030122463,1030122394,4325386,-0.008309062,-0.009374326,0.006178533,nan,0,5
1031119751,1031119682,4325386,0.01107875,-0.0074568507,-0.014487595,nan,0,5
1032119540,1032119470,4325386,0.056459013,0.035792883,0.016831176,nan,0,5
1033121866,1033121757,4325386,-0.04601942,-0.2724946,0.0014913701,nan,0,5
1034121614,1034121545,4325386,0.06093312,-0.111000545,-0.046445526,nan,0,5
1035118903,1035118834,4325386,-0.027909927,-0.07329019,0.0700944,nan,0,5
1036121191,1036121121,4325386,-0.15403722,-0.024714133,-0.021731393,nan,0,5
1037120978,1037120910,4325386,0.0012783173,0.018109495,-0.15787219,nan,0,5
1038118387,1038118199,4325386,-0.1604288,0.2043177,-0.37880802,nan,0,5
1039120554,1039120488,4325386,-0.07691209,0.04985437,-0.31318772,nan,0,5
1040120346,1040120277,4325386,0.020240024,0.099495694,-0.066259444,nan,0,5
1041122632,1041122566,4325386,-0.014700648,0.006604639,-0.018109495,nan,0,5
1042119930,1042119856,4325386,0.0038349517,-0.19366506,-0.091612734,nan,0,5
1043119886,1043119645,4325386,-0.017470336,-0.019387811,-0.0031957931,nan,0,5
1044122003,1044121935,4325386,-0.0185356,-0.02364887,-0.014700648,nan,0,5
1045119294,1045119225,4325386,0.062850595,-0.14423679,-0.22391857,nan,0,5
1046119085,1046119015,4325386,0.06796387,0.053689323,-0.12420983,nan,0,5
1047121377,1047121305,4325386,-0.053050164,0.09928264,-0.057311222,nan,0,5
1048121165,1048121096,4325386,-0.022370553,0.051345743,0.13763216,nan,0,5
1049120957,1049120887,4325386,-0.1220793,-0.17108145,0.0044741104,nan,0,5
1050120747,1050120678,4325386,-0.075420715,0.044101946,-0.015126754,nan,0,5
1051120536,1051120469,4325386,0.019600864,-0.085647255,0.08713862,nan,0,5
1052120334,1052120261,4325386,0.08159925,-0.061998386,0.16085492,nan,0,5
1053120150,1053120052,4325386,-0.014487595,0.18471684,0.18791263,nan,0,5
1054122410,1054122343,4325386,0.081173144,-0.1478587,0.24479775,nan,0,5
1055122202,1055122135,4325386,0.07499461,-0.009800432,0.24373248,nan,0,5
1056119497,1056119428,4325386,0.0406931,0.0632767,0.15425028,nan,0,5
1057121794,1057121721,4325386,0.07350324,-0.08181231,0.17811221,nan,0,5
1058121584,1058121514,4325386,0.052624058,-0.029188244,0.15339807,nan,0,5
1059118877,1059118807,4325386,0.019387811,-0.04665858,0.08053399,nan,0,5
1060121170,1060121100,4325386,-0.04218447,0.0370712,-0.04900216,nan,0,5
1061120961,1061120894,4325386,0.049215212,-0.0029827403,0.08735168,nan,0,5
1062123258,1062123188,4325386,0.010226538,-0.022370553,-0.0773382,nan,0,5
1063120550,1063120483,4325386,0.08713862,-0.069455236,-0.07797735,nan,0,5
1064120346,1064120277,4325386,-0.13891047,0.09779127,-0.08415589,nan,0,5
1065122641,1065122572,4325386,0.13507552,-0.060080912,-0.021305287,nan,0,5
1066119937,1066119868,4325386,0.0737163,-0.001704423,0.14700648,nan,0,5
1067119810,1067119664,4325386,-0.19046926,-0.058163434,0.018109495,nan,0,5
1068122026,1068121959,4325386,0.011930961,0.08032093,0.05709817,nan,0,5
1069121824,1069121756,4325386,0.011930961,0.0406931,0.029401297,nan,0,5
1070119132,1070119053,4325386,-0.0042610574,-0.041119203,-0.08948221,nan,0,5
1071121419,1071121350,4325386,-0.018748652,-0.025566345,0.06455502,nan,0,5
1072121373,1072121147,4325386,0.02897519,0.010226538,0.0031957931,nan,0,5
1073118515,1073118446,4325386,0.010013485,-0.00042610575,-0.016405072,nan,0,5
1074120811,1074120743,4325386,0.015339807,-0.025353292,-0.008522115,nan,0,5
1075120611,1075120542,4325386,0.052197956,0.006178533,-0.003408846,nan,0,5
1076122910,1076122841,4325386,0.0221575,-0.016831176,0.025992451,nan,0,5
1077120384,1077120141,4325386,0.06647249,0.07392935,0.041971415,nan,0,5
1078120007,1078119940,4325386,0.052624058,-0.08692557,-0.016618123,nan,0,5
1079122319,1079122240,4325386,0.03046656,0.09459548,-0.03195793,nan,0,5
1080119614,1080119542,4325386,0.0010652643,-0.06221144,0.0668986,nan,0,5
1081119412,1081119342,4325386,0.057524275,0.08202536,-0.019387811,nan,0,5
1082121711,1082121643,4325386,-0.039627835,-0.16937703,-0.053689323,nan,0,5
1083121514,1083121445,4325386,0.017470336,0.12293151,-0.0334493,nan,0,5
1084118818,1084118748,4325386,0.07712514,0.10908307,0.023435816,nan,0,5
1085121120,1085121050,4325386,0.028549084,0.0057524275,-0.0042610574,nan,0,5
1086120924,1086120853,4325386,-0.08394283,-0.0668986,-0.0012783173,nan,0,5
1087118225,1087118157,4325386,-0.08245146,0.031531826,0.00063915865,nan,0,5
1088120531,1088120461,4325386,0.060507014,0.057311222,-0.025779398,nan,0,5
1089120336,1089120265,4325386,-0.020453077,-0.017896442,0.010226538,nan,0,5
1090122643,1090122574,4325386,0.007882956,0.03984089,0.06817692,nan,0,5
1091119949,1091119879,4325386,0.024288028,-0.0025566346,0.0008522115,nan,0,5
1092119748,1092119681,4325386,0.019387811,-0.010013485,0.046232473,nan,0,5
1093122054,1093121987,4325386,0.046445526,0.008309062,0.033662353,nan,0,5
1094119363,1094119294,4325386,0.009374326,-0.04751079,0.029188244,nan,0,5
1095119171,1095119101,4325386,0.26482472,0.07179882,-0.0031957931,nan,0,5
1096121527,1096121409,4325386,-0.014913701,-0.02300971,-0.09054747,nan,0,5
1097121284,1097121216,4325386,0.01704423,-0.0813862,-0.17470336,nan,0,5
1098118595,1098118525,4325386,-0.04218447,0.066046394,0.21411814,nan,0,5
1099120903,1099120834,4325386,0.01704423,0.048789106,-0.3287406,nan,0,5
1100120713,1100120643,4325386,0.040480047,-0.1668204,-0.35111114,nan,0,5
1101120631,1101120453,4325386,-0.10269149,-0.08841694,-0.29784793,nan,0,5
1102120331,1102120264,4325386,-0.15680692,0.050706584,0.099495694,nan,0,5
1103120144,1103120075,4325386,-0.059654806,0.07201187,0.011930961,nan,0,5
1104122456,1104122386,4325386,0.027270768,-0.026631609,-0.010865697,nan,0,5
1105119770,1105119699,4325386,0.09310411,0.12165319,-0.033662353,nan,0,5
1106119582,1106119511,4325386,0.20282634,0.122505404,-0.07627293,nan,0,5
1107121892,1107121824,4325386,-0.19132148,-0.05113269,-0.09076052,nan,0,5
1108119208,1108119138,4325386,0.044528052,0.0019174758,-0.06647249,nan,0,5
1109119021,1109118953,4325386,-0.093956314,0.092464946,0.046445526,nan,0,5
1110121337,1110121267,4325386,0.056459013,-0.099495694,0.030253507,nan,0,5
1111121152,1111121083,4325386,0.10141317,0.040266994,0.025353292,nan,0,5
1112120969,1112120899,4325386,-0.08372978,-0.12719257,0.060507014,nan,0,5
1113120784,1113120715,4325386,-0.02897519,-0.05624596,-0.025353292,nan,0,5
1114120604,1114120533,4325386,0.16383766,-0.19835223,-0.04814995,nan,0,5
1115120420,1115120350,4325386,-0.4286624,-0.7448329,-0.22306636,nan,0,5
1116120238,1116120169,4325386,0.29358685,1.5516641,0.21390508,nan,0,5
1117120058,1117119990,4325386,0.32021847,0.9431851,0.041758362,nan,0,5
1118122377,1118122307,4325386,0.15616776,-0.18024273,0.062637545,nan,0,5
1119119699,1119119628,4325386,0.16192019,0.18663432,-0.025992451,nan,0,5
1120122105,1120121949,4325386,-0.004687163,-0.30977887,0.100560956,nan,0,5
1121121839,1121121770,4325386,-0.27377295,-0.15254585,0.008735168,nan,0,5
1122119159,1122119093,4325386,-0.064981125,0.04005394,-0.036005937,nan,0,5
1123121485,1123121415,4325386,-0.068389975,-0.02300971,-0.16192019,nan,0,5
1124121309,1124121238,4325386,0.0813862,0.113131076,0.027057715,nan,0,5
1125121257,1125121062,4325386,-0.1563808,-0.3811516,-0.02961435,nan,0,5
1126120956,1126120887,4325386,-0.09800432,0.19494338,-0.0019174758,nan,0,5
1127120782,1127120712,4325386,0.090121366,0.075207666,-0.012357066,nan,0,5
1128120608,1128120537,4325386,0.22498384,-0.040266994,0.04814995,nan,0,5
1129120433,1129120364,4325386,0.116539925,0.1563808,0.08309062,nan,0,5
1130120259,1130120191,4325386,0.13827132,-0.054541536,0.1148355,nan,0,5
1131120088,1131120019,4325386,0.15446334,0.040906154,0.2793123,nan,0,5
1132122413,1132122346,4325386,-0.08053399,0.08649947,0.2933738,nan,0,5
1133119746,1133119676,4325386,-0.1482848,0.05241101,0.30573088,nan,0,5
1134119586,1134119505,4325386,0.021731393,0.044315,0.17086841,nan,0,5
1135121903,1135121835,4325386,0.16980314,0.045806367,0.23031016,nan,0,5
1136119236,1136119166,4325386,-0.30573088,0.05986786,0.3811516,nan,0,5
1137119067,1137118998,4325386,-0.21007013,-0.040906154,0.18279937,nan,0,5
1138121399,1138121329,4325386,0.19813918,0.149137,0.023861922,nan,0,5
1139121291,1139121161,4325386,0.19600864,-0.12442288,0.07179882,nan,0,5
1140118564,1140118495,4325386,-0.009800432,0.012144014,0.033023197,nan,0,5
1141120895,1141120828,4325386,-0.15893744,0.06817692,0.10610033,nan,0,5
1142120730,1142120662,4325386,0.322349,-0.0632767,-0.024714133,nan,0,5
1143118065,1143117997,4325386,-0.021092234,-0.009800432,-0.0745685,nan,0,5
1144120529,1144120331,4325386,0.14679343,-0.0850081,0.19792612,nan,0,5
1145120235,1145120167,4325386,0.010439591,-0.12080098,-0.081173144,nan,0,5
1146122570,1146122502,4325386,0.18684737,-0.0042610574,0.13848437,nan,0,5
1147119907,1147119839,4325386,-0.05347627,0.04964132,0.09353021,nan,0,5
1148122248,1148122175,4325386,0.16383766,0.10673949,0.22881879,nan,0,5
1149122082,1149122012,4325386,-0.09864348,0.14721954,0.225623,nan,0,5
1150119420,1150119350,4325386,-0.07137271,-0.04303668,0.42781016,nan,0,5
1151119256,1151119188,4325386,0.19813918,0.06668555,0.11952266,nan,0,5
1152121600,1152121527,4325386,0.005113269,-0.07350324,-0.025992451,nan,0,5
1153121435,1153121365,4325386,0.22455773,0.007030745,0.34258902,nan,0,5
1154118773,1154118705,4325386,0.06434197,0.16170713,0.24607606,nan,0,5
1155121111,1155121043,4325386,-0.018322548,0.075420715,0.4742557,nan,0,5
1156120953,1156120883,4325386,0.05496764,0.25012407,0.4702077,nan,0,5
1157118293,1157118224,4325386,-0.233719,0.1333711,0.41609228,nan,0,5
1158120668,1158120564,4325386,-0.02364887,-0.009587379,0.0741424,nan,0,5
1159120471,1159120404,4325386,-0.06412891,-0.10780475,-0.02748382,nan,0,5
1160122812,1160122744,4325386,0.13315804,-0.0221575,-0.18919095,nan,0,5
1161120155,1161120086,4325386,0.0632767,0.14317153,0.11163971,nan,0,5
1162120006,1162119928,4325386,-0.0031957931,-0.053263217,0.062637545,nan,0,5
1163122510,1163122268,4325386,-0.009587379,-0.0334493,0.123570666,nan,0,5
1164119683,1164119611,4325386,-0.025779398,-0.010652644,-0.11526161,nan,0,5
1165119520,1165119453,4325386,-0.04814995,-0.12825783,-0.25268072,nan,0,5
1166121863,1166121796,4325386,-0.025992451,0.20495686,0.006178533,nan,0,5
1167121710,1167121639,4325386,0.031318773,0.096086845,-0.013635384,nan,0,5
1168119052,1168118983,4325386,0.18386462,-0.19387811,-0.017896442,nan,0,5
1169121393,1169121326,4325386,-0.16021577,0.04751079,0.05475459,nan,0,5
1170121237,1170121170,4325386,0.3477023,0.024927186,0.1306014,nan,0,5
1171118582,1171118515,4325386,-0.23904532,0.121440135,-0.10013485,nan,0,5
1172120956,1172120859,4325386,-0.0036218988,-0.09864348,0.18620822,nan,0,5
1173120774,1173120704,4325386,0.03110572,0.23158847,-0.26162893,nan,0,5
1174123119,1174123050,4325386,0.20261328,-0.027270768,-0.1474326,nan,0,5
1175120471,1175120395,4325386,0.17534252,0.024288028,-0.044954155,nan,0,5
1176120313,1176120242,4325386,-0.092678,0.013209278,0.056459013,nan,0,5
1177122762,1177122588,4325386,0.1071656,0.035366777,0.21582256,nan,0,5
1178120001,1178119935,4325386,-0.018961705,0.02364887,0.17875136,nan,0,5
1179119849,1179119782,4325386,0.1184574,-0.21965751,0.062424492,nan,0,5
1180122199,1180122129,4325386,-0.02897519,-0.045806367,0.13422331,nan,0,5
1181122046,1181121976,4325386,0.075207666,0.012570119,0.116539925,nan,0,5
1182119395,1182119327,4325386,0.05411543,0.09118663,0.13891047,nan,0,5
1183121741,1183121673,4325386,0.076485984,0.12953615,0.20623519,nan,0,5
1184121590,1184121521,4325386,-0.03408846,0.07201187,0.27206853,nan,0,5
1185118940,1185118871,4325386,0.2835734,0.13677995,0.16213323,nan,0,5
1186121290,1186121220,4325386,-0.69881344,-0.23116237,0.17086841,nan,0,5
1187121137,1187121069,4325386,-0.22519688,-0.045806367,0.33065805,nan,0,5
1188123489,1188123419,4325386,-0.17726,-0.13081446,-0.13720605,nan,0,5
1189120839,1189120770,4325386,-0.15062839,0.014700648,-0.14402375,nan,0,5
1190120690,1190120620,4325386,-0.022583604,0.1555286,-0.25800702,nan,0,5
1191123088,1191122971,4325386,-0.026205504,0.119096555,-0.3457848,nan,0,5
1192120392,1192120322,4325386,-0.10610033,0.13699299,-0.30317423,nan,0,5
1193120243,1193120174,4325386,-0.23158847,0.33747575,-0.40245688,nan,0,5
1194120096,1194120026,4325386,0.043888893,0.19238675,-0.48426917,nan,0,5
1195122449,1195122377,4325386,0.03792341,0.26503778,-0.4154531,nan,0,5
1196119798,1196119730,4325386,0.040906154,0.029401297,-0.33939323,nan,0,5
1197119651,1197119583,4325386,0.10311759,0.11781824,-0.3445065,nan,0,5
1198122005,1198121936,4325386,0.095873795,0.20133497,-0.26780745,nan,0,5
1199119358,1199119288,4325386,-0.40906152,0.18343852,-0.28378642,nan,0,5
1200121710,1200121642,4325386,0.21688783,0.18748653,-0.3851996,nan,0,5
1201121564,1201121495,4325386,-0.0668986,0.20261328,-0.33300164,nan,0,5
1202121419,1202121349,4325386,-0.21603562,0.18919095,-0.24053669,nan,0,5
1203118773,1203118703,4325386,-0.07904261,0.5019526,-0.39904803,nan,0,5
1204121127,1204121057,4325386,-0.060293965,0.3892476,-0.50983554,nan,0,5
1205120997,1205120911,4325386,0.10801781,0.40693098,-0.47127295,nan,0,5
1206118336,1206118266,4325386,0.106313385,0.32618394,-0.4827778,nan,0,5
1207120691,1207120620,4325386,-0.058163434,0.025992451,-0.25523734,nan,0,5
1208120545,1208120475,4325386,0.070946604,-0.12719257,-0.1546764,nan,0,5
1209120400,1209120330,4325386,0.015765913,0.009800432,-0.10077401,nan,0,5
1210120443,1210120185,4325386,0.012783173,-0.041971415,-0.10162622,nan,0,5
1211120111,1211120041,4325386,0.005539375,0.11377023,0.02897519,nan,0,5
1212122465,1212122396,4325386,0.07691209,-0.0080960095,-0.007030745,nan,0,5
1213119821,1213119752,4325386,-0.022583604,0.18343852,0.087777786,nan,0,5
1214119677,1214119608,4325386,-0.09331716,-0.005326322,-0.050067425,nan,0,5
1215122030,1215121963,4325386,-0.046445526,0.09416937,-0.07925567,nan,0,5
1216121887,1216121819,4325386,0.12271845,-0.04814995,-0.08649947,nan,0,5
1217119245,1217119176,4325386,0.18599516,0.02748382,-0.0044741104,nan,0,5
1218121601,1218121532,4325386,-0.066259444,-0.03792341,-0.059441753,nan,0,5
1219121458,1219121388,4325386,0.27952537,-0.051984902,0.11930961,nan,0,5
1220118813,1220118745,4325386,-0.2993393,0.07691209,0.021305287,nan,0,5
1221121168,1221121102,4325386,0.12996225,-0.051984902,-0.1301753,nan,0,5
1222121026,1222120958,4325386,0.03920173,0.0021305287,0.014913701,nan,0,5
1223123389,1223123315,4325386,0.09693906,0.09544769,0.06519418,nan,0,5
1224120898,1224120672,4325386,-0.09502158,-0.233719,0.21092235,nan,0,5
1225120596,1225120530,4325386,0.3319364,-0.16575514,0.015126754,nan,0,5
1226122957,1226122886,4325386,-0.22924489,0.26056367,0.14402375,nan,0,5
1227120311,1227120244,4325386,-0.0042610574,0.14381069,0.26290724,nan,0,5
1228120193,1228120104,4325386,-0.02897519,-0.04751079,0.10162622,nan,0,5
1229120026,1229119959,4325386,-0.05624596,0.013848437,0.033023197,nan,0,5
1230122387,1230122316,4325386,0.0027696874,0.016192019,0.026844662,nan,0,5
1231119743,1231119674,4325386,0.09203884,-0.21539645,0.08735168,nan,0,5
1232119599,1232119531,4325386,0.08863,-0.18386462,0.028762138,nan,0,5
1233121958,1233121889,4325386,0.12101403,-0.027696874,0.07158577,nan,0,5
1234119314,1234119247,4325386,-0.017257283,0.3208576,0.0773382,nan,0,5
1235119172,1235119104,4325386,0.07435545,0.075207666,0.1523328,nan,0,5
1236121534,1236121462,4325386,0.17981662,0.11824434,0.18983011,nan,0,5
1237121394,1237121320,4325386,-0.18152104,0.08309062,0.2563026,nan,0,5
1238118888,1238118678,4325386,0.20857877,-0.039414782,0.2531068,nan,0,5
1239121103,1239121036,4325386,0.370712,0.028549084,0.14807175,nan,0,5
1240120963,1240120894,4325386,-0.3557983,0.0406931,0.46083337,nan,0,5
1241118322,1241118252,4325386,-0.20495686,0.22796658,0.19110842,nan,0,5
1242120682,1242120610,4325386,-0.1446629,-0.028336031,-0.02364887,nan,0,5
1243120536,1243120468,4325386,0.31340078,-0.25118935,-0.10929612,nan,0,5
1244122894,1244122826,4325386,0.0221575,0.03728425,-0.00042610575,nan,0,5
1245120254,1245120185,4325386,0.12293151,0.14317153,0.16298544,nan,0,5
1246120113,1246120043,4325386,-0.20602213,-0.0370712,0.17342503,nan,0,5
1247122471,1247122401,4325386,0.16831177,-0.16937703,0.083516724,nan,0,5
1248119830,1248119760,4325386,0.015339807,-0.17257282,-0.072864085,nan,0,5
1249119688,1249119619,4325386,0.05496764,-0.079894826,0.1889779,nan,0,5
1250122070,1250121976,4325386,-0.09480853,0.015339807,0.1374191,nan,0,5
1251121904,1251121834,4325386,0.009374326,0.048789106,0.10205232,nan,0,5
1252119380,1252119193,4325386,-0.014487595,-0.0019174758,0.08990831,nan,0,5
1253121620,1253121551,4325386,0.22200109,-0.08032093,0.14892396,nan,0,5
1254121477,1254121409,4325386,0.041119203,0.005326322,0.29507822,nan,0,5
1255118837,1255118768,4325386,0.1523328,0.16149408,0.24969797,nan,0,5
1256121196,1256121126,4325386,0.04751079,0.40352213,0.35920715,nan,0,5
1257121053,1257120985,4325386,0.07392935,0.3457848,0.48405612,nan,0,5
1258123412,1258123342,4325386,-0.22264025,0.3308711,0.51239216,nan,0,5
1259120771,1259120701,4325386,-0.36453345,-0.14658038,0.62914515,nan,0,5
1260120631,1260120559,4325386,-0.0019174758,0.023435816,0.08820389,nan,0,5
1261122985,1261122918,4325386,-0.36112463,0.00042610575,0.036432043,nan,0,5
1262120343,1262120276,4325386,0.1519067,-0.06583334,-0.24778049,nan,0,5
1263120204,1263120134,4325386,-0.0370712,0.17555557,-0.10610033,nan,0,5
1264120088,1264119993,4325386,0.025140239,0.05496764,-0.021944446,nan,0,5
1265122418,1265122351,4325386,0.06455502,-0.32810143,-0.067324705,nan,0,5
1266119935,1266119709,4325386,-0.28996497,0.37731665,-0.017896442,nan,0,5
1267119635,1267119568,4325386,0.1293231,-0.24330638,0.053689323,nan,0,5
1268121994,1268121926,4325386,-0.23712786,-0.06881608,-0.13720605,nan,0,5
1269119357,1269119284,4325386,0.5351888,-0.12847088,-0.15062839,nan,0,5
1270119213,1270119143,4325386,0.23307985,-0.28826055,0.11824434,nan,0,5
1271121568,1271121501,4325386,0.12037487,-0.07392935,0.12697951,nan,0,5
1272121426,1272121359,4325386,-0.11355718,0.20815265,0.13528858,nan,0,5
1273118787,1273118718,4325386,-0.121227086,-0.21582256,0.11803129,nan,0,5
1274121146,1274121076,4325386,0.008948221,0.13699299,0.053050164,nan,0,5
1275121005,1275120935,4325386,-0.05411543,0.15020227,0.09970874,nan,0,5
1276118361,1276118293,4325386,0.028336031,-0.12399677,0.121440135,nan,0,5
1277120721,1277120652,4325386,-0.021731393,0.0080960095,0.089269154,nan,0,5
1278120579,1278120510,4325386,0.3050917,-0.0021305287,0.068603024,nan,0,5
1279122938,1279122868,4325386,0.12825783,0.014700648,0.31617045,nan,0,5
1280120354,1280120227,4325386,-0.16362461,0.33044502,0.30977887,nan,0,5
1281120155,1281120085,4325386,0.06775081,0.013848437,0.39436087,nan,0,5
1282122513,1282122443,4325386,0.21923141,-0.033023197,0.106526434,nan,0,5
1283119872,1283119802,4325386,-0.22434467,0.018322548,0.39031285,nan,0,5
1284119731,1284119661,4325386,-0.055819854,0.07435545,0.11057444,nan,0,5
1285122088,1285122019,4325386,-0.32341427,-0.019174758,0.18088189,nan,0,5
1286121947,1286121878,4325386,0.08074704,0.042610575,0.04964132,nan,0,5
1287119304,1287119236,4325386,-0.10269149,0.0014913701,-0.0023435815,nan,0,5
1288121664,1288121595,4325386,0.15531555,-0.07478156,0.1487109,nan,0,5
1289121525,1289121453,4325386,0.009587379,0.00042610575,-0.069455236,nan,0,5
1290118881,1290118812,4325386,0.067324705,0.2328668,0.017896442,nan,0,5
1291121238,1291121170,4325386,-0.37326863,-0.11249192,0.072864085,nan,0,5
1292121098,1292121029,4325386,-0.03792341,0.0040480047,-0.18301243,nan,0,5
1293123457,1293123387,4325386,-0.59974384,0.27292073,-0.33427995,nan,0,5
1294120846,1294120745,4325386,0.124848984,0.5145227,-0.57716024,nan,0,5
1295120674,1295120604,4325386,-0.21347898,0.6410761,-0.48533446,nan,0,5
1296120531,1296120462,4325386,0.2486327,0.34045848,-0.29848707,nan,0,5
1297120390,1297120320,4325386,0.019600864,0.15062839,-0.35068503,nan,0,5
1298120249,1298120179,4325386,0.03728425,0.13592774,-0.21305287,nan,0,5
1299120108,1299120037,4325386,-0.21411814,-0.043462787,-0.2812298,nan,0,5
1300122463,1300122395,4325386,-0.025140239,0.18556905,-0.2680205,nan,0,5
1301119823,1301119754,4325386,-0.13038836,0.011930961,-0.29401296,nan,0,5
1302119698,1302119612,4325386,0.1071656,0.10077401,-0.33832797,nan,0,5
1303122041,1303121970,4325386,0.26141587,-0.039414782,-0.23798005,nan,0,5
1304119397,1304119329,4325386,0.21624866,0.027057715,-0.012357066,nan,0,5
1305119256,1305119187,4325386,0.061359227,0.06753776,0.18024273,nan,0,5
1306121615,1306121545,4325386,0.095873795,-0.13315804,0.1740642,nan,0,5
1307121472,1307121403,4325386,0.121440135,0.19345202,0.2663161,nan,0,5
1308118864,1308118762,4325386,-0.0185356,0.3206446,0.41247037,nan,0,5
1309121188,1309121119,4325386,-0.093743265,0.070946604,0.3489806,nan,0,5
1310121045,1310120978,4325386,0.022370553,0.024714133,0.3413107,nan,0,5
1311118404,1311118336,4325386,-0.053902376,0.16468987,0.2409628,nan,0,5
1312120767,1312120694,4325386,0.2707902,0.09076052,0.3119094,nan,0,5
1313120780,1313120552,4325386,0.057311222,0.07478156,0.16426377,nan,0,5
1314122979,1314122910,4325386,-0.45358956,0.22370552,0.38946065,nan,0,5
1315120337,1315120269,4325386,0.3155313,0.16554208,0.5588377,nan,0,5
1316120196,1316120127,4325386,-0.048363004,0.114622444,0.34258902,nan,0,5
1317122557,1317122485,4325386,0.15211976,0.1297492,0.56821203,nan,0,5
1318119911,1318119844,4325386,0.18216021,0.4783037,0.36155072,nan,0,5
1319119772,1319119702,4325386,-0.13209279,0.13294499,0.52155346,nan,0,5
1320122130,1320122060,4325386,0.17385115,0.20325243,0.4693555,nan,0,5
1321121987,1321121918,4325386,-0.38306907,0.37135115,0.44655883,nan,0,5
1322119346,1322119277,4325386,0.037497304,-0.03494067,0.46509442,nan,0,5
1323121702,1323121635,4325386,-0.01107875,0.019813918,0.40224382,nan,0,5
1324121565,1324121493,4325386,0.026631609,0.010013485,0.26375946,nan,0,5
1325118919,1325118852,4325386,-0.32575783,0.0962999,0.09906959,nan,0,5
1326121279,1326121210,4325386,-0.022796657,0.025779398,-0.028549084,nan,0,5
1327121253,1327121068,4325386,-0.13635384,-0.022370553,0.033662353,nan,0,5
1328123506,1328123426,4325386,0.029188244,0.07030745,-0.066259444,nan,0,5
1329120854,1329120785,4325386,-0.09459548,0.007882956,-0.04964132,nan,0,5
1330120713,1330120644,4325386,0.051984902,0.04964132,0.0813862,nan,0,5
1331120571,1331120502,4325386,0.10737865,-0.07115966,0.03621899,nan,0,5
1332120430,1332120361,4325386,0.09906959,-0.073077135,0.034301512,nan,0,5
1333120290,1333120219,4325386,0.13443637,0.10887002,0.010226538,nan,0,5
1334120145,1334120078,4325386,-0.03685815,0.09651295,0.14764564,nan,0,5
1335122504,1335122436,4325386,-0.00042610575,0.060080912,0.19345202,nan,0,5
1336119866,1336119796,4325386,0.041332256,0.0014913701,0.16383766,nan,0,5
1337119722,1337119654,4325386,0.03259709,0.001704423,0.13997574,nan,0,5
1338122080,1338122013,4325386,0.1591505,0.023222763,0.16405071,nan,0,5
1339119441,1339119372,4325386,-0.41524005,0.27526432,0.39201728,nan,0,5
1340119300,1340119232,4325386,-0.081173144,-0.03856257,0.25885925,nan,0,5
1341121733,1341121590,4325386,0.17576861,0.06221144,0.10482202,nan,0,5
1342121519,1342121450,4325386,0.1672465,0.0999218,0.079894826,nan,0,5
1343118879,1343118810,4325386,0.17129451,-0.04154531,0.27973843,nan,0,5
1344121238,1344121169,4325386,-0.11419634,-0.028336031,0.43931502,nan,0,5
1345121099,1345121028,4325386,-0.35409388,0.11249192,0.17747304,nan,0,5
1346118458,1346118388,4325386,0.11632687,0.19345202,0.15105449,nan,0,5
1347120818,1347120748,4325386,-0.20815265,-0.13230583,0.20985708,nan,0,5
1348120677,1348120608,4325386,0.10162622,-0.07179882,0.10439591,nan,0,5
