timestamp,timestamp_sample,device_id,x,y,z,temperature,error_count,clip_counter[0],clip_counter[1],clip_counter[2],samples
540143582,540143512,4259850,-1.7851168,0.63589996,-9.730036,40.0,0,0,0,0,5
541139551,541139477,4259850,-1.6625336,0.5746084,-9.530838,40.0,0,0,0,0,5
542140509,542140443,4259850,-1.6318879,0.5899313,-9.523177,40.0,0,0,0,0,5
543141415,543141348,4259850,-1.7085024,0.6205771,-9.630437,40.0,0,0,0,0,5
544144806,544144737,4259850,-1.6625336,0.6205771,-9.561484,40.0,0,0,0,0,5
545140733,545140666,4259850,-1.6931795,0.7661446,-9.584468,40.0,0,0,0,0,5
546141161,546141093,4259850,-1.7314867,0.71251446,-9.622776,40.0,0,0,0,0,5
547142027,547141959,4259850,-1.6318879,0.566947,-9.477208,40.0,0,0,0,0,5
548140417,548140349,4259850,-1.6242265,0.6205771,-9.630437,40.0,0,0,0,0,5
549141858,549141790,4259850,-1.700841,0.61291564,-9.638099,40.0,0,0,0,0,5
550142773,550142703,4259850,-1.7238252,0.63589996,-9.599792,40.0,0,0,0,0,5
551143688,551143618,4259850,-1.6931795,0.63589996,-9.64576,40.0,0,0,0,0,5
552142097,552142028,4259850,-1.6931795,0.58226985,-9.668744,40.0,0,0,0,0,5
553142474,553142405,4259850,-1.6472108,0.566947,-9.561484,40.0,0,0,0,0,5
554143370,554143302,4259850,-1.6395494,0.5975928,-9.530838,40.0,0,0,0,0,5
555139473,555139229,4259850,-1.6701951,0.5975928,-9.599792,40.0,0,0,0,0,5
556140149,556140081,4259850,-1.6778566,0.6052542,-9.599792,40.0,0,0,0,0,5
557143562,557143488,4259850,-1.7544711,0.566947,-9.69939,40.0,0,0,0,0,5
558139434,558139364,4259850,-1.7468096,0.62823856,-9.630437,40.0,0,0,0,0,5
559140265,559140187,4259850,-1.6931795,0.6205771,-9.599792,40.0,0,0,0,0,5
560140645,560140575,4259850,-1.6625336,0.61291564,-9.569145,40.0,0,0,0,0,5
561144020,561143948,4259850,-1.7238252,0.62823856,-9.546161,40.0,0,0,0,0,5
562140071,562139835,4259850,-1.685518,0.61291564,-9.431239,40.0,0,0,0,0,5
563140704,563140636,4259850,-1.7314867,0.54396266,-9.776005,40.0,0,0,0,0,5
564144037,564143968,4259850,-1.6931795,0.63589996,-9.691729,40.0,0,0,0,0,5
565142374,565142303,4259850,-1.7161638,0.83509755,-9.523177,40.0,0,0,0,0,5
566140295,566140227,4259850,-1.6931795,0.63589996,-9.707051,40.0,0,0,0,0,5
567141158,567141089,4259850,-1.6701951,0.5899313,-9.569145,40.0,0,0,0,0,5
568142037,568141967,4259850,-1.6089035,0.5363012,-9.515515,40.0,0,0,0,0,5
569140929,569140860,4259850,-1.7085024,0.5899313,-9.661083,40.0,0,0,0,0,5
570141740,570141673,4259850,-1.685518,0.52863973,-9.668744,40.5,0,0,0,0,5
571142522,571142454,4259850,-1.7085024,0.566947,-9.59213,40.5,0,0,0,0,5
572143306,572143239,4259850,-1.7238252,0.58226985,-9.668744,40.0,0,0,0,0,5
573141105,573141035,4259850,-1.8081012,0.44436383,-9.821973,40.0,0,0,0,0,5
574141954,574141887,4259850,-1.7544711,-0.0076614455,-9.776005,40.0,0,0,0,0,5
575142852,575142784,4259850,-1.616565,-0.076614454,-9.392932,40.0,0,0,0,0,5
576141313,576141206,4259850,-1.7468096,-0.076614454,-9.722374,40.0,0,0,0,0,5
577142208,577142123,4259850,-1.7468096,-0.0076614455,-9.607452,40.0,0,0,0,0,5
578143106,578143035,4259850,-1.6548722,-0.076614454,-9.668744,40.0,0,0,0,0,5
579144069,579143996,4259850,-1.6089035,-0.076614454,-9.722374,40.0,0,0,0,0,5
580142030,580141961,4259850,-1.5705963,-0.076614454,-9.64576,40.0,0,0,0,0,5
581141034,581140927,4259850,-1.6318879,-0.076614454,-9.638099,40.0,0,0,0,0,5
582141951,582141882,4259850,-1.6931795,-0.053630117,-9.86028,40.0,0,0,0,0,5
583140440,583140367,4259850,-1.6012421,-0.061291564,-9.622776,40.0,0,0,0,0,5
584141370,584141301,4259850,-1.6395494,-0.061291564,-9.615114,40.0,0,0,0,0,5
585142314,585142246,4259850,-1.7621325,-0.076614454,-9.684067,40.0,0,0,0,0,5
586143269,586143194,4259850,-1.7468096,-0.06895301,-9.515515,40.0,0,0,0,0,5
587141217,587141145,4259850,-1.7468096,-0.076614454,-9.630437,40.0,0,0,0,0,5
588142197,588142126,4259850,-1.7238252,-0.053630117,-9.714713,40.0,0,0,0,0,5
589143203,589143133,4259850,-1.6625336,-0.061291564,-9.515515,40.0,0,0,0,0,5
590139270,590139200,4259850,-1.6931795,-0.076614454,-9.599792,40.0,0,0,0,0,5
591140460,591140221,4259850,-1.9000385,-0.0842759,-9.707051,40.0,0,0,0,0,5
592141319,592141252,4259850,-2.0072987,-0.0842759,-9.982863,40.0,0,0,0,0,5
593142337,593142269,4259850,-1.8847156,-0.30645782,-9.438901,40.0,0,0,0,0,5
594140424,594140356,4259850,-1.9000385,-0.076614454,-9.59213,40.0,0,0,0,0,5
595141503,595141433,4259850,-1.8847156,-0.076614454,-9.48487,40.0,0,0,0,0,5
596142634,596142552,4259850,-1.7544711,-0.076614454,-9.638099,40.0,0,0,0,0,5
597141242,597141171,4259850,-1.7851168,-0.076614454,-9.661083,40.0,0,0,0,0,5
598142386,598142313,4259850,-1.8310854,-0.076614454,-9.446563,40.0,0,0,0,0,5
599143543,599143473,4259850,-1.8693928,-0.076614454,-9.5538225,40.0,0,0,0,0,5
600142641,600142571,4259850,-1.8387469,-0.076614454,-9.5385,40.0,0,0,0,0,5
601140730,601140663,4259850,-1.6548722,-0.107260235,-9.691729,40.0,0,0,0,0,5
602141880,602141811,4259850,-1.7468096,-0.076614454,-9.69939,40.0,0,0,0,0,5
603143186,603142936,4259850,-1.823424,-0.076614454,-9.737698,40.0,0,0,0,0,5
604141653,604141583,4259850,-1.616565,-0.061291564,-9.431239,40.0,0,0,0,0,5
605140282,605140212,4259850,-1.8387469,-0.2681506,-9.967541,40.0,0,0,0,0,5
606141410,606141341,4259850,-1.685518,-0.09193735,-9.446563,40.0,0,0,0,0,5
607142017,607141948,4259850,-1.8157626,-0.076614454,-9.64576,39.5,0,0,0,0,5
608140702,608140632,4259850,-1.6625336,-0.076614454,-9.438901,39.5,0,0,0,0,5
609141937,609141866,4259850,-1.6778566,0.55162406,-9.707051,39.5,0,0,0,0,5
610143155,610143088,4259850,-1.6625336,-0.09193735,-9.339302,39.5,0,0,0,0,5
611139353,611139281,4259850,-1.7544711,-0.076614454,-9.714713,39.5,0,0,0,0,5
612141032,612140962,4259850,-1.6012421,-0.31411928,-9.783666,39.5,0,0,0,0,5
613142280,613142211,4259850,-1.7851168,-0.076614454,-9.576807,39.5,0,0,0,0,5
614143147,614143062,4259850,-1.7468096,-0.099598795,-9.576807,39.5,0,0,0,0,5
615142043,615141972,4259850,-1.5552734,-0.22984336,-10.258676,39.5,0,0,0,0,5
616140996,616140927,4259850,-1.4403517,-0.0842759,-9.415916,39.5,0,0,0,0,5
617142465,617142397,4259850,-1.4173675,-0.038307227,-9.316318,39.5,0,0,0,0,5
618141405,618141335,4259850,-1.4480132,-0.076614454,-9.515515,39.5,0,0,0,0,5
619142783,619142713,4259850,-1.6472108,-0.0842759,-9.952218,39.5,0,0,0,0,5
620141709,620141641,4259850,-1.685518,-0.076614454,-9.5385,39.5,0,0,0,0,5
621142630,621142559,4259850,-1.3943831,-0.13024457,-9.461885,39.5,0,0,0,0,5
622141599,622141529,4259850,-1.7544711,-0.053630117,-10.005848,39.5,0,0,0,0,5
623143068,623142998,4259850,-1.2717999,-0.107260235,-9.400594,39.5,0,0,0,0,5
624142202,624142020,4259850,-1.2947843,-0.076614454,-9.500193,39.5,0,0,0,0,5
625141132,625141064,4259850,-1.3867216,-0.099598795,-9.523177,39.5,0,0,0,0,5
626140168,626140098,4259850,-1.4556746,-0.076614454,-9.684067,39.5,0,0,0,0,5
627141716,627141645,4259850,-1.3867216,-0.076614454,-9.561484,39.5,0,0,0,0,5
628142688,628142619,4259850,-1.4709976,-0.076614454,-9.446563,39.5,0,0,0,0,5
629141812,629141613,4259850,-1.4250289,-0.076614454,-9.561484,39.5,0,0,0,0,5
630140699,630140629,4259850,-1.5093048,-0.076614454,-9.5538225,39.5,0,0,0,0,5
631142223,631142154,4259850,-1.4480132,-0.076614454,-9.584468,39.0,0,0,0,0,5
632139370,632139301,4259850,-1.409706,-0.076614454,-9.615114,39.0,0,0,0,0,5
633141048,633140979,4259850,-1.4326903,-0.076614454,-9.469546,39.0,0,0,0,0,5
634142676,634142605,4259850,-1.3713988,-0.1838747,-9.400594,39.0,0,0,0,0,5
635143824,635143755,4259850,-1.3713988,-0.0842759,-9.707051,39.0,0,0,0,0,5
636140559,636140489,4259850,-1.3790601,-0.076614454,-9.454224,39.0,0,0,0,0,5
637142264,637142197,4259850,-1.3177686,-0.076614454,-9.438901,39.0,0,0,0,0,5
638143864,638143794,4259850,-1.4020445,-0.076614454,-9.661083,39.0,0,0,0,0,5
639140592,639140522,4259850,-1.2717999,-0.0076614455,-9.576807,39.0,0,0,0,0,5
640142321,640142253,4259850,-1.5016433,-0.076614454,-9.798989,39.0,0,0,0,0,5
641141099,641141028,4259850,-1.3330915,-0.045968674,-9.576807,39.0,0,0,0,0,5
642142884,642142816,4259850,-1.5093048,-0.076614454,-10.1667385,39.0,0,0,0,0,5
643139697,643139629,4259850,-1.6318879,-0.053630117,-9.814312,39.0,0,0,0,0,5
644141984,644141915,4259850,-1.4709976,-0.030645782,-9.599792,39.0,0,0,0,0,5
645143793,645143721,4259850,-1.3484144,-0.19919759,-8.32033,39.0,0,0,0,0,5
646140686,646140589,4259850,-1.4480132,-0.061291564,-9.638099,39.0,0,0,0,0,5
647142554,647142483,4259850,-1.3713988,-0.076614454,-9.653421,39.0,0,0,0,0,5
648141467,648141399,4259850,-1.3330915,-0.061291564,-9.59213,39.0,0,0,0,0,5
649143385,649143315,4259850,-1.4020445,-0.061291564,-9.569145,39.0,0,0,0,0,5
650140309,650140239,4259850,-1.3560759,-0.076614454,-9.661083,39.0,0,0,0,0,5
651142237,651142168,4259850,-1.4326903,-0.053630117,-9.691729,38.5,0,0,0,0,5
652142206,652142137,4259850,-1.4326903,-0.076614454,-9.661083,38.5,0,0,0,0,5
653139229,653139089,4259850,-1.409706,-0.061291564,-9.599792,38.5,0,0,0,0,5
654141134,654141063,4259850,-1.4403517,-0.061291564,-9.69939,38.5,0,0,0,0,5
655142621,655142550,4259850,-1.4020445,-0.045968674,-9.661083,38.5,0,0,0,0,5
656142229,656142162,4259850,-1.4020445,-0.076614454,-9.622776,38.5,0,0,0,0,5
657141820,657141752,4259850,-1.4403517,-0.076614454,-9.638099,38.5,0,0,0,0,5
658141450,658141378,4259850,-1.4403517,-0.061291564,-9.599792,38.5,0,0,0,0,5
659143623,659143551,4259850,-1.4250289,-0.076614454,-9.584468,38.5,0,0,0,0,5
660140849,660140779,4259850,-1.409706,-0.061291564,-9.523177,38.5,0,0,0,0,5
661140624,661140554,4259850,-1.4326903,-0.045968674,-9.615114,38.5,0,0,0,0,5
662142366,662142298,4259850,-1.5093048,-0.061291564,-9.64576,38.5,0,0,0,0,5
663139569,663139499,4259850,-1.4020445,-0.076614454,-9.630437,38.5,0,0,0,0,5
664139803,664139733,4259850,-1.3867216,-0.076614454,-9.607452,38.5,0,0,0,0,5
665142020,665141951,4259850,-1.4633361,-0.076614454,-9.661083,38.5,0,0,0,0,5
666141920,666141697,4259850,-1.3790601,-0.076614454,-9.546161,38.5,0,0,0,0,5
667141582,667141512,4259850,-1.4709976,-0.076614454,-9.676406,38.5,0,0,0,0,5
668141451,668141380,4259850,-1.4480132,-0.076614454,-9.576807,38.5,0,0,0,0,5
669143284,669143216,4259850,-1.4633361,-0.061291564,-9.607452,38.5,0,0,0,0,5
670143145,670143075,4259850,-1.6318879,-0.06895301,-9.791327,38.0,0,0,0,0,5
671140510,671140440,4259850,-1.4939818,-0.061291564,-9.599792,38.5,0,0,0,0,5
672142912,672142842,4259850,-1.4480132,-0.06895301,-9.653421,38.5,0,0,0,0,5
673142805,673142734,4259850,-1.3943831,-0.06895301,-9.615114,38.0,0,0,0,0,5
674140217,674140149,4259850,-1.4173675,-0.076614454,-9.59213,38.0,0,0,0,0,5
675139660,675139591,4259850,-1.4173675,-0.076614454,-9.653421,38.0,0,0,0,0,5
676142627,676142556,4259850,-1.4173675,-0.061291564,-9.638099,38.0,0,0,0,0,5
677142609,677142535,4259850,-1.4326903,-0.076614454,-9.5078535,38.0,0,0,0,0,5
678142613,678142539,4259850,-1.4480132,-0.061291564,-9.722374,38.0,0,0,0,0,5
679142582,679142513,4259850,-1.4709976,-0.061291564,-9.622776,38.0,0,0,0,0,5
680142604,680142535,4259850,-1.3790601,-0.076614454,-9.5385,38.0,0,0,0,0,5
681140295,681140028,4259850,-1.3790601,-0.076614454,-9.653421,38.0,0,0,0,0,5
682142159,682142088,4259850,-1.4480132,-0.038307227,-9.714713,38.0,0,0,0,0,5
683142245,683142175,4259850,-1.4173675,-0.015322891,-9.59213,38.0,0,0,0,0,5
684142859,684142790,4259850,-1.5093048,-0.061291564,-9.607452,38.0,0,0,0,0,5
685140516,685140447,4259850,-1.5246277,-0.061291564,-9.584468,38.0,0,0,0,0,5
686140665,686140595,4259850,-1.4633361,-0.076614454,-9.661083,38.0,0,0,0,0,5
687143361,687143290,4259850,-1.5016433,-0.053630117,-9.569145,38.0,0,0,0,0,5
688141075,688141007,4259850,-1.5246277,-0.076614454,-9.59213,38.0,0,0,0,0,5
689140845,689140671,4259850,-1.616565,-0.076614454,-9.722374,38.0,0,0,0,0,5
690143478,690143402,4259850,-1.5246277,-0.06895301,-9.684067,37.5,0,0,0,0,5
691143711,691143641,4259850,-1.5552734,-0.076614454,-9.599792,37.5,0,0,0,0,5
692141436,692141369,4259850,-1.4709976,-0.061291564,-9.469546,37.5,0,0,0,0,5
693141642,693141575,4259850,-1.4709976,-0.076614454,-9.69939,37.5,0,0,0,0,5
694141843,694141776,4259850,-1.4939818,-0.076614454,-9.523177,37.5,0,0,0,0,5
695140102,695140032,4259850,-1.5016433,-0.076614454,-9.599792,37.5,0,0,0,0,5
696142346,696142276,4259850,-1.5169662,-0.076614454,-9.576807,37.5,0,0,0,0,5
697142648,697142578,4259850,-1.547612,-0.076614454,-9.607452,37.5,0,0,0,0,5
698142966,698142900,4259850,-1.5169662,-0.061291564,-9.59213,37.5,0,0,0,0,5
699140824,699140756,4259850,-1.5322891,-0.076614454,-9.638099,37.5,0,0,0,0,5
700141187,700141118,4259850,-1.5169662,-0.053630117,-9.630437,37.5,0,0,0,0,5
701144071,701144000,4259850,-1.5016433,-0.061291564,-9.653421,37.5,0,0,0,0,5
702139082,702139012,4259850,-1.4403517,-0.061291564,-9.446563,37.5,0,0,0,0,5
703142061,703141992,4259850,-1.4480132,-0.076614454,-9.584468,37.5,0,0,0,0,5
704142567,704142498,4259850,-1.478659,-0.061291564,-9.569145,37.5,0,0,0,0,5
705143098,705143027,4259850,-1.5705963,-0.076614454,-9.500193,37.5,0,0,0,0,5
706141042,706140970,4259850,-1.5782578,-0.045968674,-9.776005,37.5,0,0,0,0,5
707141491,707141394,4259850,-1.5399506,-0.06895301,-9.576807,37.5,0,0,0,0,5
708141897,708141828,4259850,-1.5629349,-0.076614454,-9.622776,37.0,0,0,0,0,5
709139359,709139291,4259850,-2.321418,0.80445176,-13.545436,37.0,0,0,0,0,5
710142340,710142269,4259850,-1.4939818,-0.076614454,-9.722374,37.0,0,0,0,0,5
711142877,711142807,4259850,-1.5322891,-0.076614454,-9.668744,37.0,0,0,0,0,5
712143390,712143323,4259850,-1.4863204,-0.076614454,-9.661083,37.0,0,0,0,0,5
713141446,713141377,4259850,-1.4633361,-0.076614454,-9.584468,37.0,0,0,0,0,5
714142023,714141954,4259850,-1.5016433,-0.076614454,-9.569145,37.0,0,0,0,0,5
715143158,715143087,4259850,-1.4939818,-0.045968674,-9.684067,37.0,0,0,0,0,5
716140862,716140656,4259850,-1.4863204,-0.076614454,-9.5385,37.0,0,0,0,0,5
717141263,717141194,4259850,-1.4939818,-0.061291564,-9.59213,37.0,0,0,0,0,5
718141810,718141738,4259850,-1.5016433,-0.09193735,-9.622776,37.0,0,0,0,0,5
719142399,719142332,4259850,-1.4173675,-0.076614454,-9.515515,37.0,0,0,0,0,5
720140519,720140449,4259850,-1.4939818,-0.061291564,-9.661083,37.0,0,0,0,0,5
721141149,721141079,4259850,-1.4863204,-0.076614454,-9.607452,37.0,0,0,0,0,5
722141747,722141678,4259850,-1.4939818,-0.076614454,-9.653421,37.0,0,0,0,0,5
723139366,723139298,4259850,-1.478659,-0.061291564,-9.622776,37.0,0,0,0,0,5
724142433,724142363,4259850,-1.4939818,-0.076614454,-9.615114,37.0,0,0,0,0,5
725143099,725143029,4259850,-1.4709976,-0.076614454,-9.599792,37.0,0,0,0,0,5
726143784,726143713,4259850,-1.4863204,-0.076614454,-9.630437,37.0,0,0,0,0,5
727140003,727139934,4259850,-1.478659,-0.06895301,-9.676406,37.0,0,0,0,0,5
728140712,728140643,4259850,-1.4403517,-0.076614454,-9.737698,37.0,0,0,0,0,5
729143441,729143365,4259850,-1.4939818,-0.076614454,-9.691729,37.0,0,0,0,0,5
730139221,730139152,4259850,-1.4173675,-0.076614454,-9.5385,37.0,0,0,0,0,5
731142439,731142368,4259850,-1.5093048,-0.076614454,-9.59213,36.5,0,0,0,0,5
732143223,732143153,4259850,-1.5093048,-0.076614454,-9.622776,37.0,0,0,0,0,5
733143978,733143908,4259850,-1.4480132,-0.061291564,-9.607452,37.0,0,0,0,0,5
734139811,734139734,4259850,-1.4863204,-0.076614454,-9.615114,36.5,0,0,0,0,5
735143070,735142999,4259850,-1.547612,-0.053630117,-9.691729,36.5,0,0,0,0,5
736143358,736143288,4259850,-1.4480132,-0.06895301,-9.722374,36.5,0,0,0,0,5
737139200,737139134,4259850,-1.5246277,-0.022984337,-9.59213,36.5,0,0,0,0,5
738142475,738142406,4259850,-1.4020445,-0.038307227,-9.561484,36.5,0,0,0,0,5
739143328,739143258,4259850,-1.478659,-0.061291564,-9.69939,36.5,0,0,0,0,5
740144163,740144095,4259850,-1.5016433,-0.045968674,-9.661083,36.5,0,0,0,0,5
741140028,741139958,4259850,-1.4863204,-0.076614454,-9.64576,36.5,0,0,0,0,5
742140939,742140870,4259850,-1.5552734,-0.076614454,-9.492531,36.5,0,0,0,0,5
743143849,743143776,4259850,-1.4480132,-0.076614454,-9.69939,36.5,0,0,0,0,5
744139725,744139655,4259850,-1.5246277,-0.076614454,-9.638099,36.5,0,0,0,0,5
745140584,745140515,4259850,-1.5322891,-0.061291564,-9.684067,36.5,0,0,0,0,5
746141519,746141451,4259850,-1.4863204,-0.076614454,-9.64576,36.5,0,0,0,0,5
747142927,747142859,4259850,-1.5093048,-0.076614454,-9.630437,36.5,0,0,0,0,5
748141347,748141278,4259850,-1.4863204,-0.076614454,-9.59213,36.5,0,0,0,0,5
749142238,749142169,4259850,-1.5016433,-0.053630117,-9.668744,36.5,0,0,0,0,5
750142666,750142597,4259850,-1.4863204,-0.076614454,-9.607452,36.5,0,0,0,0,5
751141111,751141036,4259850,-1.5782578,-0.076614454,-9.615114,36.5,0,0,0,0,5
752142121,752142053,4259850,-1.5782578,-0.076614454,-9.668744,36.5,0,0,0,0,5
753143093,753143019,4259850,-1.478659,-0.061291564,-9.561484,36.5,0,0,0,0,5
754144005,754143935,4259850,-1.4939818,-0.076614454,-9.653421,36.5,0,0,0,0,5
755140041,755139971,4259850,-1.5016433,-0.076614454,-9.576807,36.5,0,0,0,0,5
756140549,756140481,4259850,-1.5246277,-0.076614454,-9.691729,36.5,0,0,0,0,5
757141592,757141522,4259850,-1.4939818,-0.076614454,-9.615114,36.5,0,0,0,0,5
758140199,758140130,4259850,-1.5322891,-0.076614454,-9.653421,36.5,0,0,0,0,5
759141809,759141739,4259850,-1.5322891,-0.076614454,-9.615114,36.0,0,0,0,0,5
760143040,760142970,4259850,-1.478659,-0.061291564,-9.599792,36.0,0,0,0,0,5
761144194,761144122,4259850,-1.4863204,-0.076614454,-9.576807,36.0,0,0,0,0,5
762140383,762140309,4259850,-1.478659,-0.076614454,-9.59213,36.5,0,0,0,0,5
763141076,763141007,4259850,-1.6701951,-0.015322891,-9.86028,36.5,0,0,0,0,5
764142296,764142227,4259850,-1.5093048,-0.076614454,-9.64576,36.0,0,0,0,0,5
765141008,765140938,4259850,-1.3867216,0.022984337,-8.986876,36.5,0,0,0,0,5
766142196,766142127,4259850,-0.8274361,-0.0076614455,-8.711063,36.0,0,0,0,0,5
767143379,767143291,4259850,-1.5399506,-0.076614454,-9.638099,36.0,0,0,0,0,5
768144502,768144427,4259850,-1.5016433,-0.076614454,-9.653421,36.0,0,0,0,0,5
769140628,769140555,4259850,-1.5859193,-0.076614454,-9.691729,36.0,0,0,0,0,5
770141237,770141167,4259850,-1.4863204,-0.053630117,-9.630437,36.0,0,0,0,0,5
771142577,771142327,4259850,-1.5322891,-0.061291564,-9.661083,36.0,0,0,0,0,5
772141071,772141001,4259850,-1.4939818,-0.061291564,-9.569145,36.0,0,0,0,0,5
773142284,773142218,4259850,-1.5782578,-0.061291564,-9.638099,36.0,0,0,0,0,5
774143591,774143485,4259850,-1.5552734,-0.076614454,-9.622776,36.0,0,0,0,0,5
775142295,775142227,4259850,-1.5322891,-0.076614454,-9.69939,36.0,0,0,0,0,5
776141063,776140993,4259850,-1.4863204,-0.076614454,-9.584468,36.0,0,0,0,0,5
777141886,777141815,4259850,-1.5935807,-0.061291564,-9.638099,36.0,0,0,0,0,5
778143239,778143169,4259850,-1.5859193,-0.076614454,-9.668744,36.0,0,0,0,0,5
779140271,779140029,4259850,-1.5399506,-0.053630117,-9.607452,36.0,0,0,0,0,5
780141475,780141407,4259850,-1.4863204,-0.076614454,-9.607452,36.0,0,0,0,0,5
781142820,781142750,4259850,-1.5246277,-0.076614454,-9.630437,36.0,0,0,0,0,5
782144192,782144122,4259850,-1.5322891,-0.076614454,-9.638099,36.0,0,0,0,0,5
783140133,783140063,4259850,-1.5859193,-0.076614454,-9.599792,36.0,0,0,0,0,5
784141586,784141519,4259850,-1.5705963,-0.076614454,-9.584468,36.0,0,0,0,0,5
785143023,785142952,4259850,-1.547612,-0.061291564,-9.607452,36.0,0,0,0,0,5
786139492,786139423,4259850,-1.547612,-0.076614454,-9.69939,36.0,0,0,0,0,5
787140990,787140920,4259850,-1.5629349,-0.076614454,-9.622776,36.0,0,0,0,0,5
788142580,788142509,4259850,-1.5169662,-0.030645782,-9.676406,36.0,0,0,0,0,5
789144208,789144071,4259850,-1.5322891,-0.076614454,-9.615114,36.0,0,0,0,0,5
790140252,790140183,4259850,-1.4709976,-0.107260235,-9.783666,36.0,0,0,0,0,5
791142299,791142228,4259850,-1.892377,0.3371036,-9.844957,36.0,0,0,0,0,5
792143775,792143708,4259850,-1.5322891,-0.076614454,-9.638099,36.0,0,0,0,0,5
793140338,793140270,4259850,-1.5169662,-0.076614454,-9.622776,36.0,0,0,0,0,5
794141903,794141834,4259850,-1.5629349,-0.076614454,-9.638099,35.5,0,0,0,0,5
795143519,795143449,4259850,-1.5016433,-0.076614454,-9.630437,36.0,0,0,0,0,5
796142678,796142604,4259850,-1.5629349,-0.076614454,-9.661083,35.5,0,0,0,0,5
797141330,797141258,4259850,-1.5782578,-0.06895301,-9.64576,35.5,0,0,0,0,5
798143016,798142943,4259850,-1.5246277,-0.076614454,-9.615114,35.5,0,0,0,0,5
799142691,799142623,4259850,-1.5859193,-0.076614454,-9.64576,35.5,0,0,0,0,5
800139369,800139299,4259850,-1.5169662,-0.045968674,-9.64576,35.5,0,0,0,0,5
801141078,801141007,4259850,-1.5399506,-0.076614454,-9.5538225,35.5,0,0,0,0,5
802142856,802142740,4259850,-1.5399506,-0.06895301,-9.5385,35.5,0,0,0,0,5
803141631,803141564,4259850,-1.547612,-0.076614454,-9.730036,35.5,0,0,0,0,5
804141012,804140806,4259850,-1.478659,-0.076614454,-9.684067,35.5,0,0,0,0,5
805142561,805142490,4259850,-1.5399506,-0.045968674,-9.745358,35.5,0,0,0,0,5
806144207,806144137,4259850,-1.5016433,-0.076614454,-9.676406,35.5,0,0,0,0,5
807140877,807140810,4259850,-1.4939818,-0.076614454,-9.607452,35.5,0,0,0,0,5
808142541,808142469,4259850,-1.3024458,-0.076614454,-9.661083,35.5,0,0,0,0,5
809141782,809141712,4259850,-1.4939818,-0.061291564,-9.530838,35.5,0,0,0,0,5
810143014,810142944,4259850,-1.5552734,-0.061291564,-9.676406,35.5,0,0,0,0,5
811140261,811140194,4259850,-1.5016433,-0.061291564,-9.584468,35.5,0,0,0,0,5
812142097,812142027,4259850,-1.5169662,-0.076614454,-9.607452,35.5,0,0,0,0,5
813143912,813143832,4259850,-1.4556746,-0.061291564,-9.64576,35.5,0,0,0,0,5
814140721,814140650,4259850,-1.5093048,-0.06895301,-9.607452,35.5,0,0,0,0,5
815142469,815142399,4259850,-1.5399506,-0.061291564,-9.64576,35.5,0,0,0,0,5
816141773,816141704,4259850,-1.4863204,-0.076614454,-9.5538225,35.5,0,0,0,0,5
817143151,817143079,4259850,-1.5552734,-0.076614454,-9.569145,35.5,0,0,0,0,5
818140028,818139958,4259850,-1.4480132,-0.076614454,-9.400594,35.5,0,0,0,0,5
819141874,819141804,4259850,-1.4709976,-0.076614454,-9.400594,35.5,0,0,0,0,5
820143759,820143678,4259850,-1.4939818,-0.076614454,-9.546161,35.5,0,0,0,0,5
821140627,821140559,4259850,-1.4939818,-0.061291564,-9.546161,35.5,0,0,0,0,5
822140478,822140409,4259850,-1.4173675,-0.076614454,-9.316318,35.5,0,0,0,0,5
823142338,823142267,4259850,-1.5169662,-0.076614454,-9.622776,35.5,0,0,0,0,5
824143757,824143686,4259850,-1.5093048,-0.076614454,-9.615114,35.5,0,0,0,0,5
825140722,825140653,4259850,-1.5169662,-0.076614454,-9.653421,35.5,0,0,0,0,5
826142651,826142583,4259850,-1.4863204,-0.099598795,-9.852619,35.5,0,0,0,0,5
827142141,827142074,4259850,-1.409706,-0.06895301,-9.59213,35.5,0,0,0,0,5
828141583,828141512,4259850,-1.5552734,-0.076614454,-9.661083,35.5,0,0,0,0,5
829141027,829140958,4259850,-1.4403517,-0.061291564,-9.515515,35.5,0,0,0,0,5
830142532,830142449,4259850,-1.478659,-0.076614454,-9.477208,35.5,0,0,0,0,5
831142487,831142405,4259850,-1.4250289,-0.076614454,-9.64576,35.5,0,0,0,0,5
832141987,832141918,4259850,-1.547612,-0.038307227,-9.2243805,35.5,0,0,0,0,5
833141544,833141475,4259850,-1.3943831,-0.06895301,-9.59213,35.5,0,0,0,0,5
834143581,834143511,4259850,-1.4250289,-0.076614454,-9.48487,35.0,0,0,0,0,5
835140587,835140519,4259850,-1.5552734,-0.076614454,-9.408256,35.0,0,0,0,0,5
836142576,836142506,4259850,-1.5399506,-0.107260235,-9.446563,35.0,0,0,0,0,5
837141600,837141528,4259850,-0.79679036,0.27581203,-9.584468,35.0,0,0,0,0,5
838143622,838143551,4259850,-1.2871228,0.16089036,-9.676406,35.0,0,0,0,0,5
839140658,839140587,4259850,-0.83509755,0.71251446,-9.760681,35.0,0,0,0,0,5
840142717,840142646,4259850,-0.9959879,0.4520253,-9.722374,35.0,0,0,0,0,5
841142330,841142257,4259850,-0.7891289,0.4903325,-9.607452,35.0,0,0,0,0,5
842139922,842139853,4259850,-1.0266337,0.3524265,-9.576807,35.0,0,0,0,0,5
843141983,843141914,4259850,-0.7431602,0.42904094,-9.730036,35.0,0,0,0,0,5
844143512,844143434,4259850,-1.1645397,0.27581203,-9.75302,35.0,0,0,0,0,5
845143081,845143014,4259850,-1.0802639,0.3371036,-9.638099,35.0,0,0,0,0,5
846140202,846140129,4259850,-1.0572795,0.3217807,-9.653421,35.0,0,0,0,0,5
847142311,847142238,4259850,-1.133894,0.34476504,-9.622776,35.0,0,0,0,0,5
848141942,848141871,4259850,-1.1492168,0.3217807,-9.615114,35.0,0,0,0,0,5
849141542,849141467,4259850,-1.0572795,0.31411928,-9.691729,35.0,0,0,0,0,5
850140651,850140581,4259850,-1.0342952,0.37541083,-9.607452,35.0,0,0,0,0,5
851142664,851142595,4259850,-1.1109096,0.27581203,-9.64576,35.0,0,0,0,0,5
852142218,852142151,4259850,-1.1262325,0.41371804,-9.584468,35.0,0,0,0,0,5
853141792,853141722,4259850,-1.2564771,0.7431602,-10.251014,35.0,0,0,0,0,5
854141431,854141362,4259850,-1.1262325,-0.076614454,-9.561484,35.0,0,0,0,0,5
855143573,855143504,4259850,-1.2258313,-0.076614454,-9.691729,34.5,0,0,0,0,5
856140730,856140645,4259850,-1.3101072,-0.076614454,-9.5385,34.5,0,0,0,0,5
857142342,857142268,4259850,-1.4326903,-0.076614454,-9.69939,35.0,0,0,0,0,5
858142048,858141978,4259850,-1.4020445,-0.076614454,-9.630437,35.0,0,0,0,0,5
859144263,859144193,4259850,-1.4403517,0.030645782,-9.48487,35.0,0,0,0,0,5
860141541,860141471,4259850,-1.3713988,-0.076614454,-9.661083,35.0,0,0,0,0,5
861141418,861141272,4259850,-1.3101072,-0.030645782,-9.576807,34.5,0,0,0,0,5
862141720,862141548,4259850,-1.4326903,-0.030645782,-9.638099,34.5,0,0,0,0,5
863141416,863141345,4259850,-1.3943831,-0.015322891,-9.5538225,34.5,0,0,0,0,5
864140740,864140666,4259850,-1.409706,-0.045968674,-9.607452,34.5,0,0,0,0,5
865143052,865142982,4259850,-1.3790601,-0.061291564,-9.638099,34.5,0,0,0,0,5
866142922,866142853,4259850,-1.4326903,-0.0076614455,-9.684067,34.5,0,0,0,0,5
867140268,867140199,4259850,-1.4173675,-0.076614454,-9.546161,34.5,0,0,0,0,5
868142588,868142519,4259850,-1.3713988,0.022984337,-9.676406,34.5,0,0,0,0,5
869142324,869142253,4259850,-1.4020445,-0.045968674,-9.745358,34.5,0,0,0,0,5
870139123,870139029,4259850,-1.2947843,-0.076614454,-9.691729,34.5,0,0,0,0,5
871141383,871141312,4259850,-1.2641385,0.0,-9.638099,34.5,0,0,0,0,5
872141138,872141069,4259850,-1.0955867,0.2528277,-9.431239,34.5,0,0,0,0,5
873143447,873143373,4259850,-1.2334927,0.2834735,-9.515515,34.5,0,0,0,0,5
874141276,874141207,4259850,-0.7584831,0.5975928,-9.722374,34.5,0,0,0,0,5
875143633,875143563,4259850,-1.0342952,0.45968673,-9.668744,34.5,0,0,0,0,5
876143468,876143398,4259850,-1.118571,0.32944214,-9.630437,34.5,0,0,0,0,5
877140307,877140238,4259850,-1.1032481,0.37541083,-9.392932,34.5,0,0,0,0,5
878140197,878140128,4259850,-1.1109096,0.29113492,-9.661083,34.5,0,0,0,0,5
879142626,879142553,4259850,-1.0649409,0.2834735,-9.423578,34.5,0,0,0,0,5
880142553,880142484,4259850,-1.1415554,0.3677494,-9.492531,34.5,0,0,0,0,5
881139978,881139909,4259850,-1.4173675,-0.47500962,-9.33164,34.5,0,0,0,0,5
882142428,882142355,4259850,-1.1875241,0.27581203,-9.599792,34.5,0,0,0,0,5
883142488,883142419,4259850,-1.3101072,0.20685902,-9.730036,34.5,0,0,0,0,5
884139513,884139443,4259850,-1.1951855,0.32944214,-9.454224,34.5,0,0,0,0,5
885141929,885141859,4259850,-1.2794614,0.1685518,-9.990525,34.5,0,0,0,0,5
886141853,886141778,4259850,-1.1722012,0.17621325,-9.722374,34.5,0,0,0,0,5
887144363,887144293,4259850,-1.1798626,0.2528277,-9.64576,34.5,0,0,0,0,5
888141924,888141836,4259850,-1.1951855,0.1685518,-9.661083,34.5,0,0,0,0,5
889141924,889141855,4259850,-1.1798626,0.39073372,-9.929234,34.5,0,0,0,0,5
890141480,890141410,4259850,-1.1722012,0.21452047,-9.829635,34.5,0,0,0,0,5
891141518,891141449,4259850,-1.202847,0.24516626,-9.530838,34.5,0,0,0,0,5
892141512,892141442,4259850,-1.2334927,0.16089036,-9.875604,34.5,0,0,0,0,5
893141555,893141485,4259850,-1.2411542,0.2834735,-9.776005,34.5,0,0,0,0,5
894142140,894142070,4259850,-1.2411542,0.34476504,-9.722374,34.5,0,0,0,0,5
895139696,895139627,4259850,-1.202847,0.26048914,-9.5078535,34.5,0,0,0,0,5
896142240,896142171,4259850,-1.049618,0.20685902,-9.638099,34.5,0,0,0,0,5
897141797,897141729,4259850,-1.1722012,0.32944214,-9.392932,34.0,0,0,0,0,5
898139357,898139286,4259850,-1.1798626,0.3371036,-9.64576,34.0,0,0,0,0,5
899141925,899141857,4259850,-1.2334927,0.27581203,-9.768343,34.0,0,0,0,0,5
900142019,900141952,4259850,-1.1722012,0.27581203,-9.546161,34.0,0,0,0,0,5
901139654,901139584,4259850,-1.4020445,0.5363012,-9.385271,34.0,0,0,0,0,5
902139831,902139762,4259850,-1.1032481,0.2528277,-9.48487,34.0,0,0,0,0,5
903142486,903142416,4259850,-1.1568782,0.31411928,-9.64576,34.0,0,0,0,0,5
904142107,904142035,4259850,-1.2258313,0.27581203,-9.638099,34.0,0,0,0,0,5
905139705,905139632,4259850,-1.2105083,0.3677494,-9.584468,34.0,0,0,0,0,5
906140266,906140198,4259850,-1.2105083,0.20685902,-9.64576,34.0,0,0,0,0,5
907142880,907142810,4259850,-1.2641385,0.27581203,-9.768343,34.0,0,0,0,0,5
908143009,908142939,4259850,-1.3101072,0.49799395,-9.821973,34.5,0,0,0,0,5
909140685,909140611,4259850,-1.2105083,0.36008793,-9.737698,34.0,0,0,0,0,5
910140825,910140756,4259850,-1.0342952,0.26048914,-9.5538225,34.0,0,0,0,0,5
911142961,911142892,4259850,-1.2105083,0.30645782,-9.59213,34.0,0,0,0,0,5
912140657,912140585,4259850,-1.1492168,0.2987964,-9.408256,34.0,0,0,0,0,5
913140853,913140783,4259850,-1.2258313,0.2987964,-9.653421,34.5,0,0,0,0,5
914141057,914140986,4259850,-1.118571,0.48267108,-9.64576,34.0,0,0,0,0,5
915143695,915143626,4259850,-1.0726024,0.34476504,-9.5078535,34.0,0,0,0,0,5
916141373,916141303,4259850,-1.2871228,0.2681506,-9.676406,34.0,0,0,0,0,5
917141049,917140978,4259850,-1.2947843,0.23750481,-9.929234,34.0,0,0,0,0,5
918143675,918143603,4259850,-1.1722012,0.32944214,-9.661083,34.0,0,0,0,0,5
919141292,919141222,4259850,-1.1722012,0.24516626,-9.638099,34.0,0,0,0,0,5
920141434,920141363,4259850,-1.0649409,0.107260235,-9.025183,34.0,0,0,0,0,5
921141552,921141482,4259850,-1.1568782,0.3371036,-9.400594,34.0,0,0,0,0,5
922144253,922144117,4259850,-1.32543,0.37541083,-9.691729,34.0,0,0,0,0,5
923142058,923141794,4259850,-1.2947843,0.3371036,-9.5385,34.0,0,0,0,0,5
924141566,924141499,4259850,-1.3637373,0.29113492,-9.584468,34.0,0,0,0,0,5
925141791,925141721,4259850,-1.3024458,0.3371036,-9.638099,34.0,0,0,0,0,5
926140006,926139934,4259850,-1.2564771,0.3524265,-9.59213,34.0,0,0,0,0,5
927140145,927140077,4259850,-1.2871228,0.32944214,-9.630437,34.0,0,0,0,0,5
928142813,928142744,4259850,-1.2717999,0.2834735,-9.730036,34.0,0,0,0,0,5
929142970,929142900,4259850,-1.3484144,0.22218192,-9.921572,34.0,0,0,0,0,5
930140588,930140520,4259850,-1.1645397,0.31411928,-9.607452,34.0,0,0,0,0,5
931142699,931142629,4259850,-1.3713988,0.20685902,-9.584468,34.0,0,0,0,0,5
932142812,932142742,4259850,-1.3101072,0.36008793,-9.615114,34.0,0,0,0,0,5
933140451,933140381,4259850,-1.1875241,0.37541083,-9.707051,34.0,0,0,0,0,5
934140619,934140547,4259850,-1.32543,0.26048914,-9.745358,34.0,0,0,0,0,5
935143280,935143157,4259850,-1.2717999,0.2987964,-9.730036,34.0,0,0,0,0,5
936143310,936143241,4259850,-1.1722012,0.39839518,-9.714713,34.0,0,0,0,0,5
937140391,937140321,4259850,-1.3024458,0.30645782,-9.64576,34.0,0,0,0,0,5
938141019,938140950,4259850,-1.2717999,0.4673482,-9.737698,34.0,0,0,0,0,5
939143638,939143569,4259850,-1.1722012,0.15322891,-9.653421,34.0,0,0,0,0,5
940141322,940141253,4259850,-1.2411542,0.31411928,-9.615114,34.0,0,0,0,0,5
941141513,941141443,4259850,-1.1875241,0.39073372,-9.64576,34.0,0,0,0,0,5
942141542,942141472,4259850,-1.2334927,0.37541083,-9.653421,34.0,0,0,0,0,5
943144015,943143945,4259850,-1.2181698,0.3524265,-9.684067,34.0,0,0,0,0,5
944141031,944140960,4259850,-1.2717999,0.29113492,-9.638099,34.0,0,0,0,0,5
945141071,945141000,4259850,-1.2564771,0.34476504,-9.64576,34.0,0,0,0,0,5
946141624,946141553,4259850,-1.1875241,0.3217807,-9.584468,34.0,0,0,0,0,5
947141603,947141528,4259850,-1.2181698,0.36008793,-9.622776,34.0,0,0,0,0,5
948141753,948141549,4259850,-1.2105083,0.23750481,-9.5385,34.0,0,0,0,0,5
949141641,949141573,4259850,-1.202847,0.39073372,-9.913911,34.0,0,0,0,0,5
950144202,950144132,4259850,-1.133894,0.32944214,-9.584468,34.0,0,0,0,0,5
951141344,951141271,4259850,-1.32543,0.3217807,-9.684067,34.0,0,0,0,0,5
952141418,952141348,4259850,-1.1492168,0.37541083,-9.5538225,34.0,0,0,0,0,5
953144001,953143925,4259850,-1.2641385,0.3524265,-9.661083,34.0,0,0,0,0,5
954141589,954141520,4259850,-1.1722012,0.36008793,-9.760681,34.5,0,0,0,0,5
955141702,955141633,4259850,-1.2258313,0.29113492,-9.714713,34.0,0,0,0,0,5
956141755,956141683,4259850,-1.1645397,0.39073372,-9.454224,34.5,0,0,0,0,5
957143804,957143736,4259850,-1.2181698,0.3524265,-9.898587,34.0,0,0,0,0,5
958141810,958141739,4259850,-1.2411542,0.30645782,-9.737698,34.5,0,0,0,0,5
959141864,959141794,4259850,-1.1492168,0.30645782,-9.730036,34.5,0,0,0,0,5
960141861,960141790,4259850,-1.2794614,0.2834735,-9.707051,34.0,0,0,0,0,5
961139425,961139355,4259850,-1.1032481,0.2681506,-9.676406,34.0,0,0,0,0,5
962141984,962141914,4259850,-1.3330915,0.3677494,-9.5538225,34.5,0,0,0,0,5
963142053,963141987,4259850,-1.1875241,0.4213795,-9.691729,34.0,0,0,0,0,5
964144130,964144060,4259850,-1.2564771,0.2987964,-9.569145,34.5,0,0,0,0,5
965141750,965141655,4259850,-1.2564771,0.3524265,-9.691729,34.5,0,0,0,0,5
966141962,966141727,4259850,-1.2258313,0.39073372,-9.722374,34.5,0,0,0,0,5
967141889,967141821,4259850,-1.2641385,0.39839518,-9.684067,34.5,0,0,0,0,5
968139481,968139413,4259850,-1.1798626,0.30645782,-9.599792,34.5,0,0,0,0,5
969142515,969142440,4259850,-1.2641385,0.3524265,-9.745358,34.5,0,0,0,0,5
970142496,970142426,4259850,-1.202847,0.3217807,-9.668744,34.5,0,0,0,0,5
971139489,971139418,4259850,-1.2334927,0.29113492,-9.607452,34.5,0,0,0,0,5
972141951,972141878,4259850,-1.2258313,0.30645782,-9.576807,34.5,0,0,0,0,5
973141942,973141872,4259850,-1.2334927,0.32944214,-9.760681,34.5,0,0,0,0,5
974141869,974141801,4259850,-1.2105083,0.34476504,-9.59213,34.5,0,0,0,0,5
975139407,975139303,4259850,-1.1645397,0.3217807,-9.676406,34.5,0,0,0,0,5
976141832,976141760,4259850,-1.2181698,0.3524265,-9.691729,34.5,0,0,0,0,5
977141346,977141275,4259850,-1.202847,0.31411928,-9.638099,34.5,0,0,0,0,5
978144392,978144324,4259850,-1.2105083,0.3524265,-9.64576,34.5,0,0,0,0,5
979141942,979141870,4259850,-1.1262325,0.27581203,-9.638099,34.5,0,0,0,0,5
980141994,980141925,4259850,-1.2334927,0.4213795,-9.684067,34.5,0,0,0,0,5
981142116,981142043,4259850,-1.2105083,0.2834735,-9.638099,34.5,0,0,0,0,5
982139675,982139604,4259850,-1.1875241,0.3524265,-9.423578,34.5,0,0,0,0,5
983142259,983142187,4259850,-1.1875241,0.2987964,-9.668744,34.5,0,0,0,0,5
984141781,984141712,4259850,-1.3177686,0.31411928,-9.523177,34.5,0,0,0,0,5
985144288,985144218,4259850,-1.2334927,0.2528277,-9.561484,34.5,0,0,0,0,5
986141840,986141770,4259850,-1.1875241,0.32944214,-9.676406,34.5,0,0,0,0,5
987141896,987141829,4259850,-1.2105083,0.3371036,-9.615114,34.5,0,0,0,0,5
988141919,988141852,4259850,-1.2181698,0.21452047,-9.714713,34.5,0,0,0,0,5
989139940,989139871,4259850,-1.2258313,0.2834735,-9.523177,34.5,0,0,0,0,5
990142450,990142377,4259850,-1.2411542,0.2834735,-9.64576,34.5,0,0,0,0,5
991141943,991141871,4259850,-1.1875241,0.31411928,-9.64576,34.5,0,0,0,0,5
992144560,992144383,4259850,-1.2411542,0.3217807,-9.661083,34.5,0,0,0,0,5
993142024,993141952,4259850,-1.3024458,0.37541083,-9.768343,34.5,0,0,0,0,5
994142025,994141955,4259850,-1.1568782,0.2987964,-9.561484,34.5,0,0,0,0,5
995142002,995141932,4259850,-1.2488157,0.27581203,-9.561484,34.5,0,0,0,0,5
996139468,996139398,4259850,-1.202847,0.3371036,-9.64576,34.5,0,0,0,0,5
997141453,997141384,4259850,-1.2564771,0.31411928,-9.546161,34.5,0,0,0,0,5
998141444,998141374,4259850,-1.1645397,0.30645782,-9.661083,34.5,0,0,0,0,5
999143882,999143813,4259850,-1.32543,0.3677494,-9.783666,34.5,0,0,0,0,5
1000141291,1000141220,4259850,-1.1875241,0.27581203,-9.676406,34.5,0,0,0,0,5
1001141251,1001141177,4259850,-1.3101072,0.36008793,-9.69939,34.5,0,0,0,0,5
1002143702,1002143632,4259850,-1.2411542,0.3677494,-9.64576,34.5,0,0,0,0,5
1003141120,1003141051,4259850,-1.1645397,0.32944214,-9.69939,34.5,0,0,0,0,5
1004140693,1004140476,4259850,-1.2641385,0.32944214,-9.64576,34.5,0,0,0,0,5
1005142892,1005142825,4259850,-1.2105083,0.3830723,-9.5538225,34.5,0,0,0,0,5
1006142862,1006142795,4259850,-1.2947843,0.36008793,-9.722374,34.5,0,0,0,0,5
1007140337,1007140268,4259850,-1.1568782,0.4060566,-9.599792,34.5,0,0,0,0,5
1008142834,1008142767,4259850,-1.1645397,0.3524265,-9.737698,34.5,0,0,0,0,5
1009143284,1009143215,4259850,-1.2181698,0.41371804,-9.714713,34.5,0,0,0,0,5
1010140754,1010140685,4259850,-1.2564771,0.30645782,-9.622776,34.5,0,0,0,0,5
1011140240,1011140170,4259850,-1.2181698,0.32944214,-9.630437,34.5,0,0,0,0,5
1012142679,1012142608,4259850,-1.3177686,0.36008793,-9.676406,34.5,0,0,0,0,5
1013142620,1013142546,4259850,-1.2181698,0.3371036,-9.730036,34.5,0,0,0,0,5
1014140066,1014139995,4259850,-1.2717999,0.3524265,-9.59213,34.5,0,0,0,0,5
1015142531,1015142461,4259850,-1.1875241,0.32944214,-9.661083,34.5,0,0,0,0,5
1016142383,1016142314,4259850,-1.2411542,0.30645782,-9.668744,34.5,0,0,0,0,5
1017139266,1017139197,4259850,-1.1722012,0.2987964,-9.668744,34.5,0,0,0,0,5
1018141551,1018141484,4259850,-1.2181698,0.2834735,-9.707051,34.5,0,0,0,0,5
1019141421,1019141351,4259850,-1.2411542,0.3371036,-9.668744,34.5,0,0,0,0,5
1020143808,1020143728,4259850,-1.1798626,0.27581203,-9.530838,34.5,0,0,0,0,5
1021141702,1021141632,4259850,-1.3177686,0.3217807,-9.69939,34.5,0,0,0,0,5
1022141538,1022141468,4259850,-1.1722012,0.30645782,-9.576807,34.5,0,0,0,0,5
1023143765,1023143687,4259850,-1.2947843,0.2681506,-9.691729,34.5,0,0,0,0,5
1024140486,1024140416,4259850,-1.2334927,0.32944214,-9.722374,34.5,0,0,0,0,5
1025140237,1025140168,4259850,-0.842759,-0.15322891,-9.622776,34.5,0,0,0,0,5
1026142421,1026142351,4259850,-1.2871228,0.6205771,-9.530838,34.5,0,0,0,0,5
1027142114,1027142044,4259850,-1.118571,0.29113492,-9.607452,34.5,0,0,0,0,5
1028141833,1028141763,4259850,-1.0879253,0.30645782,-9.64576,34.5,0,0,0,0,5
1029141546,1029141476,4259850,-1.1798626,0.2987964,-10.028832,34.5,0,0,0,0,5
1030143883,1030143812,4259850,-1.1722012,0.2681506,-9.722374,34.5,0,0,0,0,5
1031140644,1031140575,4259850,-1.0879253,0.63589996,-10.871592,34.5,0,0,0,0,5
1032140287,1032140215,4259850,-0.7431602,-0.022984337,-9.737698,34.5,0,0,0,0,5
1033142418,1033142349,4259850,-2.4746468,0.75082165,-8.0445175,34.5,0,0,0,0,5
1034144583,1034144514,4259850,-3.8766913,0.045968674,-10.38892,34.5,0,0,0,0,5
1035141796,1035141729,4259850,-3.8613687,-0.19153614,-8.419929,34.5,0,0,0,0,5
1036141508,1036141440,4259850,-4.075889,0.7354988,-9.27801,34.5,0,0,0,0,5
1037140802,1037140732,4259850,-4.3210554,0.37541083,-9.300995,34.5,0,0,0,0,5
1038140551,1038140482,4259850,-4.5892057,0.27581203,-8.442913,34.5,0,0,0,0,5
1039140261,1039140191,4259850,-3.2714372,0.12258313,-8.810662,35.0,0,0,0,0,5
1040142406,1040142335,4259850,-3.1718385,0.83509755,-9.255026,35.0,0,0,0,0,5
1041142491,1041142421,4259850,-4.573883,0.1838747,-24.37872,34.5,0,0,0,0,5
1042139658,1042139587,4259850,-1.118571,-0.076614454,-11.469184,35.0,0,0,0,0,5
1043141772,1043141702,4259850,-0.32944214,0.099598795,-9.798989,35.0,0,0,0,0,5
1044143335,1044143264,4259850,-0.24516626,-0.704853,-10.503841,35.0,0,0,0,0,5
1045140478,1045140407,4259850,-1.6778566,-0.17621325,-9.829635,35.0,0,0,0,0,5
1046140118,1046140050,4259850,-2.6355371,-0.022984337,-9.186073,35.0,0,0,0,0,5
1047142226,1047142157,4259850,-2.834735,-0.076614454,-9.622776,35.0,0,0,0,0,5
1048144348,1048144279,4259850,-1.8464084,0.7278373,-9.00986,35.0,0,0,0,0,5
1049141611,1049141405,4259850,-2.612553,-1.4556746,-10.588118,35.0,0,0,0,0,5
1050141072,1050141003,4259850,-1.6625336,-0.8734048,-9.576807,35.0,0,0,0,0,5
1051142714,1051142642,4259850,-1.3024458,-0.52863973,-10.396582,35.0,0,0,0,0,5
1052140035,1052139819,4259850,-1.5016433,-0.5363012,-11.07845,35.0,0,0,0,0,5
1053142514,1053142440,4259850,-1.3560759,-0.15322891,-8.787678,35.0,0,0,0,0,5
1054142109,1054142039,4259850,-1.3943831,-0.4903325,-8.879616,35.0,0,0,0,0,5
1055144210,1055144139,4259850,-1.5246277,-0.44436383,-10.005848,35.0,0,0,0,0,5
1056141266,1056141198,4259850,-1.2641385,-0.7431602,-9.316318,35.0,0,0,0,0,5
1057140200,1057140131,4259850,-1.133894,-0.4367024,-10.856268,35.0,0,0,0,0,5
1058142163,1058142093,4259850,-1.700841,-0.9959879,-9.06349,35.0,0,0,0,0,5
1059139192,1059139121,4259850,-2.3137565,-2.6738446,-9.745358,35.0,0,0,0,0,5
1060141231,1060141108,4259850,-2.0915747,-0.06895301,-9.569145,35.0,0,0,0,0,5
1061143156,1061143086,4259850,-2.5052927,-0.0842759,-8.519527,35.0,0,0,0,0,5
1062142676,1062142602,4259850,-2.5589228,-0.5592855,-9.438901,35.0,0,0,0,0,5
1063139696,1063139626,4259850,-2.873042,-0.4520253,-10.450212,35.0,0,0,0,0,5
1064141215,1064141055,4259850,-2.267788,-0.076614454,-8.772355,35.0,0,0,0,0,5
1065143104,1065143035,4259850,-2.2064962,-0.62823856,-9.163089,35.0,0,0,0,0,5
1066140044,1066139976,4259850,-2.4133554,-1.3560759,-9.722374,35.0,0,0,0,0,5
1067142144,1067141898,4259850,-2.9343336,-0.19153614,-10.572795,35.0,0,0,0,0,5
1068141411,1068141341,4259850,-2.4976313,0.5899313,-9.607452,35.0,0,0,0,0,5
1069143299,1069143230,4259850,-2.6431987,0.80445176,-9.239703,35.0,0,0,0,0,5
1070140224,1070140155,4259850,-2.5589228,0.566947,-8.994537,35.0,0,0,0,0,5
1071141677,1071141603,4259850,-3.6545095,0.7891289,-10.051817,35.0,0,0,0,0,5
1072143707,1072143527,4259850,-2.5129542,0.5899313,-8.948568,35.0,0,0,0,0,5
1073140988,1073140918,4259850,-2.6202145,0.95001924,-9.576807,35.0,0,0,0,0,5
1074140390,1074140317,4259850,-2.3750482,0.4367024,-9.086474,35.0,0,0,0,0,5
1075142260,1075142190,4259850,-2.7044902,0.2528277,-9.339302,35.0,0,0,0,0,5
1076144062,1076143993,4259850,-2.099236,1.0726024,-10.0748005,35.5,0,0,0,0,5
1077140830,1077140753,4259850,-2.3060951,-0.030645782,-9.959879,35.5,0,0,0,0,5
1078142037,1078141968,4259850,-1.700841,-0.0076614455,-9.109459,35.5,0,0,0,0,5
1079143746,1079143674,4259850,-1.8693928,-0.37541083,-9.530838,35.5,0,0,0,0,5
1080140484,1080140415,4259850,-1.8540698,-0.076614454,-9.377609,35.5,0,0,0,0,5
1081142141,1081142073,4259850,-1.5016433,-0.44436383,-8.833647,35.5,0,0,0,0,5
1082141340,1082141270,4259850,-1.3560759,0.97300357,-10.626425,35.5,0,0,0,0,5
1083143007,1083142934,4259850,-1.6089035,0.022984337,-9.469546,35.5,0,0,0,0,5
1084141640,1084141572,4259850,-1.7774553,-0.3217807,-8.519527,35.5,0,0,0,0,5
1085141298,1085141231,4259850,-1.5399506,-0.12258313,-8.197746,35.5,0,0,0,0,5
1086142924,1086142856,4259850,-1.6625336,0.37541083,-10.396582,35.5,0,0,0,0,5
1087139554,1087139484,4259850,-1.96133,0.8504205,-10.373597,35.5,0,0,0,0,5
1088141296,1088141079,4259850,-1.8847156,0.5746084,-8.917923,35.5,0,0,0,0,5
1089142759,1089142689,4259850,-1.8310854,0.5209783,-9.75302,35.5,0,0,0,0,5
1090144421,1090144258,4259850,-1.8387469,0.7891289,-9.530838,35.5,0,0,0,0,5
1091140461,1091140393,4259850,-1.7774553,0.44436383,-9.362287,35.5,0,0,0,0,5
1092142093,1092142021,4259850,-1.547612,0.17621325,-8.848969,35.5,0,0,0,0,5
1093141665,1093141594,4259850,-1.8617313,0.076614454,-10.465534,35.5,0,0,0,0,5
1094140739,1094140638,4259850,-0.78146744,0.9040506,-9.814312,35.5,0,0,0,0,5
1095142171,1095142103,4259850,-0.88106626,0.030645782,-8.825985,35.5,0,0,0,0,5
1096141181,1096141111,4259850,-0.06895301,-0.9040506,-8.902599,36.0,0,0,0,0,5
1097142662,1097142579,4259850,-0.22218192,-1.2871228,-9.002198,35.5,0,0,0,0,5
1098141159,1098141046,4259850,-0.8121132,-0.95001924,-9.461885,36.0,0,0,0,0,5
1099142575,1099142505,4259850,-0.6818687,-0.27581203,-9.906249,36.0,0,0,0,0,5
1100144037,1100143968,4259850,-0.5746084,-0.44436383,-10.327628,36.0,0,0,0,0,5
1101140539,1101140405,4259850,-0.5746084,-0.076614454,-9.523177,36.0,0,0,0,0,5
1102141777,1102141706,4259850,-0.4367024,0.7354988,-9.5078535,36.0,0,0,0,0,5
1103143091,1103143024,4259850,-0.9576807,1.2258313,-9.776005,36.0,0,0,0,0,5
1104141524,1104141317,4259850,-0.6895301,1.3177686,-8.749371,36.0,0,0,0,0,5
1105140661,1105140589,4259850,-0.49799395,1.1492168,-10.404243,36.0,0,0,0,0,5
1106142189,1106141924,4259850,-0.22218192,0.5592855,-9.867942,36.0,0,0,0,0,5
1107143259,1107143189,4259850,0.48267108,0.4213795,-7.7150755,36.0,0,0,0,0,5
1108139537,1108139468,4259850,0.24516626,1.1722012,-9.002198,36.0,0,0,0,0,5
1109140744,1109140675,4259850,-0.13790601,-1.5705963,-9.844957,36.0,0,0,0,0,5
1110141963,1110141896,4259850,-1.2488157,1.9536686,-12.503479,36.0,0,0,0,0,5
1111142634,1111142564,4259850,0.06895301,-0.9040506,-5.431965,36.0,0,0,0,0,5
1112141313,1112141246,4259850,0.5746084,1.2871228,-8.879616,36.0,0,0,0,0,5
1113142445,1113142373,4259850,2.666183,0.9270349,-8.396944,36.0,0,0,0,0,5
1114143498,1114143426,4259850,-2.819412,0.8121132,-40.636307,36.0,0,0,0,0,5
1115139581,1115139512,4259850,-6.1444793,2.3060951,-18.533037,36.0,0,0,0,0,5
1116141033,1116140963,4259850,-5.845683,1.7774553,-9.722374,36.5,0,0,0,0,5
1117142000,1117141930,4259850,3.6698325,-0.6512229,2.405694,36.5,0,0,0,0,5
1118142444,1118142377,4259850,3.4093432,2.083913,-13.070426,36.5,0,0,0,0,5
1119140933,1119140864,4259850,-0.2834735,1.2564771,-10.0748005,36.5,0,0,0,0,5
1120141941,1120141805,4259850,3.3250673,-0.9576807,-9.8372965,36.5,0,0,0,0,5
1121142772,1121142701,4259850,0.9346964,-0.2681506,-10.741346,36.5,0,0,0,0,5
1122141117,1122141046,4259850,-2.045606,1.0649409,-7.546524,36.5,0,0,0,0,5
1123141958,1123141889,4259850,0.13024457,0.39073372,-6.1598024,36.5,0,0,0,0,5
1124143383,1124143313,4259850,-0.21452047,0.7354988,-11.415554,36.5,0,0,0,0,5
1125143850,1125143776,4259850,-2.6738446,2.1222205,-4.213795,36.5,0,0,0,0,5
1126139795,1126139724,4259850,-3.164177,0.58226985,-13.438175,36.5,0,0,0,0,5
1127140722,1127140651,4259850,-2.7887661,0.22984336,-10.710701,36.5,0,0,0,0,5
1128141648,1128141579,4259850,-2.5129542,0.34476504,-9.239703,36.5,0,0,0,0,5
1129140074,1129139926,4259850,-0.7431602,0.52863973,-11.093773,36.5,0,0,0,0,5
1130140810,1130140740,4259850,-0.6512229,1.616565,-8.059841,36.5,0,0,0,0,5
1131143572,1131143502,4259850,-1.049618,-0.2681506,-10.794977,36.5,0,0,0,0,5
1132144319,1132144238,4259850,-1.8464084,1.0879253,-9.055829,37.0,0,0,0,0,5
1133140034,1133139952,4259850,-1.8081012,1.0113108,-9.69939,37.0,0,0,0,0,5
1134140638,1134140567,4259850,-0.4213795,-0.022984337,-11.982501,37.0,0,0,0,0,5
1135143710,1135143640,4259850,-1.2258313,0.36008793,-11.208694,37.0,0,0,0,0,5
1136139828,1136139759,4259850,-2.5512614,0.27581203,-12.204682,37.0,0,0,0,0,5
1137140414,1137140316,4259850,-1.6931795,0.06895301,-9.140104,37.0,0,0,0,0,5
1138142980,1138142911,4259850,-1.823424,0.5975928,-13.0934105,37.0,0,0,0,0,5
1139141130,1139141056,4259850,-0.41371804,0.66654575,-7.0102224,37.0,0,0,0,0,5
1140141724,1140141655,4259850,-1.6318879,1.0113108,-10.38892,37.0,0,0,0,0,5
1141142238,1141142168,4259850,-1.616565,0.88106626,-10.365936,37.0,0,0,0,0,5
1142142648,1142142579,4259850,-1.2871228,0.78146744,-8.021533,37.0,0,0,0,0,5
1143140636,1143140569,4259850,-1.9689915,1.0419565,-8.772355,37.0,0,0,0,0,5
1144141107,1144141037,4259850,-0.86574334,0.20685902,-10.86393,37.0,0,0,0,0,5
1145143545,1145143474,4259850,-0.7584831,0.26048914,-8.358637,37.0,0,0,0,0,5
1146141480,1146141411,4259850,-1.7544711,-0.4060566,-9.584468,37.0,0,0,0,0,5
1147141929,1147141860,4259850,-1.1798626,0.030645782,-10.205046,37.0,0,0,0,0,5
1148142401,1148142333,4259850,-1.0879253,1.5246277,-11.699027,37.0,0,0,0,0,5
1149142903,1149142833,4259850,-0.6512229,0.21452047,-8.58848,37.0,0,0,0,0,5
1150140908,1150140838,4259850,-1.7774553,1.118571,-8.419929,37.0,0,0,0,0,5
1151141396,1151141327,4259850,-0.5209783,0.13024457,-13.0474415,37.0,0,0,0,0,5
1152141434,1152141364,4259850,-1.685518,0.32944214,-7.477571,37.0,0,0,0,0,5
1153144417,1153144349,4259850,-2.4133554,0.9270349,-11.499829,37.5,0,0,0,0,5
1154139862,1154139792,4259850,-1.7544711,-0.053630117,-10.503841,37.5,0,0,0,0,5
1155142749,1155142678,4259850,-1.5782578,0.099598795,-9.461885,37.5,0,0,0,0,5
1156143708,1156143639,4259850,-2.0915747,0.6435614,-10.932882,37.5,0,0,0,0,5
1157139164,1157139093,4259850,-2.4133554,0.61291564,-8.151778,37.5,0,0,0,0,5
1158141596,1158141526,4259850,-1.9536686,0.9883265,-10.940544,37.5,0,0,0,0,5
1159142009,1159141939,4259850,-1.8310854,0.14556746,-8.496543,37.5,0,0,0,0,5
1160142431,1160142360,4259850,-1.9153614,-0.1685518,-8.994537,37.5,0,0,0,0,5
1161140382,1161140311,4259850,-2.099236,0.30645782,-10.519165,37.5,0,0,0,0,5
1162140792,1162140723,4259850,-1.9689915,0.7891289,-9.852619,37.5,0,0,0,0,5
1163143681,1163143610,4259850,-1.892377,0.61291564,-9.714713,37.5,0,0,0,0,5
1164141531,1164141459,4259850,-1.2564771,0.4673482,-10.465534,37.5,0,0,0,0,5
1165141306,1165141235,4259850,-1.9919758,0.2834735,-7.937258,37.5,0,0,0,0,5
1166141600,1166141531,4259850,-1.9383457,0.75082165,-12.143392,37.5,0,0,0,0,5
1167144394,1167144323,4259850,-2.1758506,1.118571,-11.285309,37.5,0,0,0,0,5
1168140170,1168140099,4259850,-1.6242265,0.3524265,-7.0868373,37.5,0,0,0,0,5
1169142905,1169142821,4259850,-1.9996372,0.6052542,-10.611102,37.5,0,0,0,0,5
1170143122,1170143053,4259850,-1.9306843,0.63589996,-9.913911,37.5,0,0,0,0,5
1171140888,1171140818,4259850,-1.8540698,0.9883265,-9.285672,37.5,0,0,0,0,5
1172140793,1172140593,4259850,-1.5629349,0.63589996,-9.875604,37.5,0,0,0,0,5
1173143403,1173143333,4259850,0.107260235,0.6205771,-12.695015,37.5,0,0,0,0,5
1174143687,1174143618,4259850,-0.4520253,-0.099598795,-9.760681,37.5,0,0,0,0,5
1175141571,1175141503,4259850,-2.9190106,-0.54396266,-13.7063265,37.5,0,0,0,0,5
1176141852,1176141772,4259850,-3.0109482,-0.2987964,-10.473196,37.5,0,0,0,0,5
1177142061,1177141991,4259850,-2.030283,1.3637373,-8.488882,37.5,0,0,0,0,5
1178139807,1178139737,4259850,-3.9609673,-0.23750481,-13.101072,37.5,0,0,0,0,5
1179142046,1179141977,4259850,-1.6701951,-0.061291564,-6.0448804,37.5,0,0,0,0,5
1180142295,1180142161,4259850,-2.083913,1.4480132,-8.963891,37.5,0,0,0,0,5
1181142377,1181142308,4259850,-2.4746468,0.566947,-11.285309,37.5,0,0,0,0,5
1182140009,1182139940,4259850,-1.133894,0.099598795,-12.809937,37.5,0,0,0,0,5
1183142684,1183142610,4259850,-1.6931795,-0.061291564,-8.803,38.0,0,0,0,0,5
1184142868,1184142797,4259850,-1.8310854,3.5089421,-7.0868373,38.0,0,0,0,0,5
1185139993,1185139925,4259850,-1.547612,0.9576807,-8.711063,38.0,0,0,0,0,5
1186140114,1186140045,4259850,-2.0379446,2.1911733,-6.703765,38.0,0,0,0,0,5
1187142711,1187142638,4259850,-0.48267108,-1.6548722,-11.415554,38.0,0,0,0,0,5
1188143307,1188143237,4259850,-0.980665,0.9423578,-12.940182,38.0,0,0,0,0,5
1189140937,1189140868,4259850,-0.9959879,-0.7278373,-14.357549,38.0,0,0,0,0,5
1190141021,1190140950,4259850,-1.6089035,0.6205771,-9.569145,38.0,0,0,0,0,5
1191143622,1191143550,4259850,-0.27581203,0.34476504,-8.036857,38.0,0,0,0,0,5
1192140885,1192140677,4259850,-0.11492168,0.30645782,-11.959517,38.0,0,0,0,0,5
1193140836,1193140768,4259850,-0.37541083,0.32944214,-10.626425,38.0,0,0,0,0,5
1194143438,1194143370,4259850,-0.21452047,0.79679036,-9.584468,38.0,0,0,0,0,5
1195143511,1195143432,4259850,-0.7354988,1.2794614,-12.993812,38.0,0,0,0,0,5
1196141118,1196141048,4259850,-2.3673866,0.7431602,-10.542149,38.0,0,0,0,0,5
1197141158,1197141088,4259850,-1.4556746,2.6585217,-7.3549876,38.0,0,0,0,0,5
1198143754,1198143685,4259850,-0.7278373,0.4520253,-10.143754,38.0,0,0,0,0,5
1199140852,1199140783,4259850,-0.71251446,1.0879253,-7.9525805,38.0,0,0,0,0,5
1200141509,1200141439,4259850,-1.5169662,1.9689915,-8.504205,38.0,0,0,0,0,5
1201141628,1201141540,4259850,-0.88106626,1.2334927,-12.066776,38.0,0,0,0,0,5
1202144142,1202144074,4259850,-1.0802639,1.2488157,-12.327266,38.0,0,0,0,0,5
1203141659,1203141590,4259850,-3.4476504,0.27581203,-14.78659,38.0,0,0,0,0,5
1204141700,1204141632,4259850,-2.4210167,3.731124,-10.189723,38.0,0,0,0,0,5
1205141741,1205141673,4259850,-3.2254686,1.133894,-13.683342,38.0,0,0,0,0,5
1206141291,1206141216,4259850,-1.8770542,0.8274361,-13.920847,38.0,0,0,0,0,5
1207141372,1207141306,4259850,-0.4903325,0.16089036,-10.6877165,38.0,0,0,0,0,5
1208141425,1208141356,4259850,-2.237142,-0.076614454,-9.791327,38.0,0,0,0,0,5
1209143965,1209143897,4259850,-0.48267108,1.7697939,-5.041231,38.0,0,0,0,0,5
1210141512,1210141443,4259850,-3.7387855,-0.4673482,-14.043429,38.0,0,0,0,0,5
1211141592,1211141522,4259850,0.2681506,1.2105083,-6.0295577,38.0,0,0,0,0,5
1212141641,1212141571,4259850,-0.17621325,1.4863204,-4.198472,38.0,0,0,0,0,5
1213141129,1213141062,4259850,-1.9460071,1.4173675,-9.285672,38.0,0,0,0,0,5
1214141099,1214141030,4259850,-1.4173675,1.4020445,-7.584831,38.0,0,0,0,0,5
1215143535,1215143465,4259850,-1.0879253,2.0609288,-6.0295577,38.0,0,0,0,0,5
1216143507,1216143427,4259850,-0.9576807,-0.6052542,-12.220006,38.0,0,0,0,0,5
1217140962,1217140891,4259850,-0.30645782,0.6052542,-13.56842,38.0,0,0,0,0,5
1218140965,1218140867,4259850,-0.5363012,2.1605277,-10.0748005,38.0,0,0,0,0,5
1219142849,1219142780,4259850,-1.3330915,0.72017586,-9.262688,38.0,0,0,0,0,5
1220140820,1220140751,4259850,-0.7661446,2.8577192,-3.3097444,38.0,0,0,0,0,5
1221140727,1221140657,4259850,-1.1032481,-0.9346964,-12.603078,38.0,0,0,0,0,5
1222143167,1222143098,4259850,-1.5705963,0.30645782,-14.25795,38.0,0,0,0,0,5
1223143110,1223143024,4259850,-0.6205771,1.409706,-9.002198,38.0,0,0,0,0,5
1224140467,1224140398,4259850,-1.6472108,0.1838747,-12.472834,38.0,0,0,0,0,5
1225142820,1225142750,4259850,-2.0762517,0.0076614455,-12.419203,38.0,0,0,0,0,5
1226142223,1226142153,4259850,-2.819412,-0.06895301,-8.917923,38.0,0,0,0,0,5
1227139597,1227139528,4259850,-0.71251446,-1.4480132,-13.399868,38.0,0,0,0,0,5
1228141907,1228141838,4259850,-0.030645782,-2.4210167,-12.855906,38.0,0,0,0,0,5
1229141745,1229141675,4259850,-0.37541083,1.9383457,-7.0868373,38.0,0,0,0,0,5
1230144057,1230143988,4259850,-1.5552734,-0.4520253,-12.020808,38.0,0,0,0,0,5
1231141938,1231141869,4259850,-1.9536686,-0.1685518,-14.372871,38.0,0,0,0,0,5
1232141815,1232141744,4259850,-0.75082165,-2.804089,-13.055103,38.0,0,0,0,0,5
1233143590,1233143522,4259850,-1.0113108,0.61291564,-9.967541,38.0,0,0,0,0,5
1234140919,1234140849,4259850,0.5899313,0.911712,-10.611102,38.0,0,0,0,0,5
1235140751,1235140682,4259850,-0.79679036,-0.19153614,-13.055103,38.0,0,0,0,0,5
1236143027,1236142957,4259850,-0.19919759,-0.015322891,-10.082462,38.0,0,0,0,0,5
1237142855,1237142785,4259850,-1.0036494,0.9270349,-8.282022,38.0,0,0,0,0,5
1238140174,1238140106,4259850,0.061291564,-0.2528277,-9.086474,38.5,0,0,0,0,5
1239142982,1239142912,4259850,-0.4520253,0.15322891,-9.216719,38.0,0,0,0,0,5
1240142265,1240142195,4259850,-1.0955867,-0.4367024,-12.564771,38.0,0,0,0,0,5
1241139590,1241139521,4259850,-0.20685902,0.5746084,-12.13573,38.0,0,0,0,0,5
1242141823,1242141754,4259850,-0.27581203,0.37541083,-7.837659,38.0,0,0,0,0,5
1243141562,1243141491,4259850,0.20685902,1.4173675,-9.27801,38.0,0,0,0,0,5
1244143862,1244143791,4259850,0.32944214,0.12258313,-11.538137,38.0,0,0,0,0,5
1245141160,1245141091,4259850,-0.39073372,-0.4060566,-12.465172,38.5,0,0,0,0,5
1246140420,1246140353,4259850,-0.7431602,1.0572795,-9.285672,38.0,0,0,0,0,5
1247142675,1247142600,4259850,0.52863973,0.63589996,-8.036857,38.0,0,0,0,0,5
1248139935,1248139868,4259850,0.62823856,0.13790601,-8.902599,38.0,0,0,0,0,5
1249142156,1249142085,4259850,-0.31411928,0.23750481,-8.825985,38.5,0,0,0,0,5
1250141888,1250141818,4259850,-1.7238252,0.980665,-9.109459,38.5,0,0,0,0,5
1251144577,1251144509,4259850,-0.7354988,0.2528277,-10.97119,38.5,0,0,0,0,5
1252141780,1252141654,4259850,-0.3217807,0.48267108,-11.070788,38.0,0,0,0,0,5
1253140903,1253140832,4259850,-0.8197747,-0.2528277,-8.917923,38.0,0,0,0,0,5
1254143069,1254142999,4259850,-0.038307227,0.49799395,-11.377247,38.0,0,0,0,0,5
1255140240,1255140171,4259850,-1.2258313,-0.09193735,-10.059478,38.0,0,0,0,0,5
1256142379,1256142310,4259850,-1.7314867,0.3371036,-15.139016,38.0,0,0,0,0,5
1257142057,1257141988,4259850,-1.3867216,1.5016433,-11.790965,38.0,0,0,0,0,5
1258144197,1258144126,4259850,-2.099236,0.2528277,-11.453861,38.0,0,0,0,0,5
1259141372,1259141303,4259850,-1.2794614,0.6052542,-8.190085,38.0,0,0,0,0,5
1260143069,1260142998,4259850,-1.547612,1.2794614,-10.182061,38.0,0,0,0,0,5
1261142804,1261142690,4259850,-1.6089035,0.2834735,-10.480858,38.0,0,0,0,0,5
1262139986,1262139916,4259850,-0.26048914,0.41371804,-7.6767683,38.0,0,0,0,0,5
1263140170,1263140100,4259850,-2.6202145,0.96534216,-11.124419,38.0,0,0,0,0,5
1264142398,1264142328,4259850,-3.3633745,0.7431602,-7.875966,38.0,0,0,0,0,5
1265142199,1265142126,4259850,-0.980665,1.4633361,-4.144842,38.0,0,0,0,0,5
1266142048,1266141976,4259850,-4.9569554,1.2334927,-14.296257,38.0,0,0,0,0,5
1267141347,1267141277,4259850,0.7584831,0.3217807,-11.0171585,38.0,0,0,0,0,5
1268143594,1268143524,4259850,-3.164177,0.72017586,-5.968266,38.0,0,0,0,0,5
1269140951,1269140836,4259850,1.5169662,1.3560759,-10.488519,38.0,0,0,0,0,5
1270140725,1270140656,4259850,1.1722012,0.39839518,-3.5702336,38.0,0,0,0,0,5
1271143553,1271143480,4259850,-2.7427976,-0.54396266,-6.4739213,38.0,0,0,0,0,5
1272143430,1272143360,4259850,-4.627513,1.5169662,-7.538862,38.0,0,0,0,0,5
1273140737,1273140667,4259850,-1.1798626,-0.58226985,-6.2823853,38.0,0,0,0,0,5
1274142539,1274142472,4259850,-2.3673866,1.3560759,-11.093773,38.0,0,0,0,0,5
1275142360,1275142292,4259850,-2.7427976,-0.2834735,-8.435251,38.0,0,0,0,0,5
1276139688,1276139609,4259850,-0.6512229,1.2411542,-5.738423,38.0,0,0,0,0,5
1277141863,1277141793,4259850,-2.7044902,0.06895301,-9.438901,38.0,0,0,0,0,5
1278141621,1278141550,4259850,-2.2448034,1.8157626,-7.975565,38.0,0,0,0,0,5
1279143852,1279143783,4259850,-2.114559,0.44436383,-9.094136,38.0,0,0,0,0,5
1280140600,1280140529,4259850,-3.4323275,0.20685902,-14.717637,38.0,0,0,0,0,5
1281142837,1281142769,4259850,-2.030283,1.202847,-7.906612,38.0,0,0,0,0,5
1282142631,1282142560,4259850,-1.7621325,0.54396266,-6.481583,38.0,0,0,0,0,5
1283140425,1283140357,4259850,-3.217807,-1.8617313,-13.775279,38.0,0,0,0,0,5
1284140205,1284140137,4259850,-3.5395877,0.79679036,-12.809937,38.0,0,0,0,0,5
1285142460,1285142391,4259850,-2.4210167,0.54396266,-7.9525805,38.0,0,0,0,0,5
1286144660,1286144591,4259850,-1.7314867,0.4367024,-12.105083,38.0,0,0,0,0,5
1287141375,1287141306,4259850,-1.1798626,1.823424,-5.4626107,38.0,0,0,0,0,5
1288141072,1288141001,4259850,-1.8617313,-1.3484144,-11.178049,38.0,0,0,0,0,5
1289143314,1289143245,4259850,-1.7621325,-0.7584831,-11.921209,38.0,0,0,0,0,5
1290140624,1290140553,4259850,-0.24516626,0.6895301,-6.742072,38.0,0,0,0,0,5
1291140440,1291140371,4259850,-1.0036494,-0.9423578,-10.894575,38.0,0,0,0,0,5
1292142743,1292142672,4259850,-2.5589228,0.30645782,-11.515153,38.0,0,0,0,0,5
1293142646,1293142575,4259850,-1.9843144,3.0569167,-7.8683047,38.0,0,0,0,0,5
1294141973,1294141904,4259850,-3.7541084,0.4213795,-11.951855,38.0,0,0,0,0,5
1295141778,1295141708,4259850,-0.4673482,0.13790601,-14.066414,38.0,0,0,0,0,5
1296144040,1296143971,4259850,-1.8540698,1.2717999,-11.292971,38.0,0,0,0,0,5
1297141389,1297141321,4259850,-1.3867216,1.8464084,-9.990525,38.0,0,0,0,0,5
1298141230,1298141162,4259850,-2.5512614,0.48267108,-10.840945,38.0,0,0,0,0,5
1299143458,1299143384,4259850,-1.4863204,0.55162406,-8.036857,38.0,0,0,0,0,5
1300143261,1300143176,4259850,-1.1568782,1.409706,-10.450212,38.0,0,0,0,0,5
1301140019,1301139951,4259850,0.704853,0.5592855,-10.005848,38.0,0,0,0,0,5
1302142245,1302142142,4259850,-0.8580819,1.4939818,-8.435251,38.0,0,0,0,0,5
1303142461,1303142393,4259850,-1.96133,-0.12258313,-9.883265,38.0,0,0,0,0,5
1304139802,1304139731,4259850,-1.7697939,0.39839518,-8.79534,38.0,0,0,0,0,5
1305142104,1305142037,4259850,-2.819412,1.340753,-10.672394,38.0,0,0,0,0,5
1306141910,1306141843,4259850,-0.58226985,1.9689915,-4.7884035,38.0,0,0,0,0,5
1307143684,1307143612,4259850,-3.0262709,0.4520253,-10.825623,38.0,0,0,0,0,5
1308140971,1308140899,4259850,-1.9843144,-0.6205771,-12.970827,38.0,0,0,0,0,5
1309140735,1309140663,4259850,-1.2334927,-0.55162406,-8.688079,38.0,0,0,0,0,5
1310142970,1310142901,4259850,-1.6625336,-0.038307227,-11.116757,38.0,0,0,0,0,5
1311140246,1311140176,4259850,-1.7927783,0.62823856,-10.657071,38.0,0,0,0,0,5
1312142468,1312142399,4259850,-1.6395494,0.4213795,-9.952218,38.0,0,0,0,0,5
1313142164,1313142094,4259850,-1.8387469,-0.1685518,-11.02482,38.0,0,0,0,0,5
1314143889,1314143817,4259850,-2.4133554,-0.4213795,-10.113108,38.0,0,0,0,0,5
1315141651,1315141581,4259850,-2.903688,0.29113492,-12.304281,38.0,0,0,0,0,5
1316141400,1316141332,4259850,-1.0649409,0.79679036,-12.725661,38.0,0,0,0,0,5
1317143606,1317143537,4259850,-3.1335313,0.22218192,-12.043793,38.0,0,0,0,0,5
1318140888,1318140819,4259850,-1.7544711,3.1948228,-12.855906,38.0,0,0,0,0,5
1319140604,1319140532,4259850,-1.1568782,3.095224,-10.557472,38.0,0,0,0,0,5
1320142818,1320142750,4259850,-0.053630117,-1.1032481,-12.273636,38.0,0,0,0,0,5
1321144550,1321144467,4259850,-0.2987964,-1.4633361,-10.580457,38.0,0,0,0,0,5
1322141767,1322141698,4259850,-1.0572795,1.0036494,-10.419566,38.0,0,0,0,0,5
1323141434,1323141364,4259850,0.34476504,0.5056554,-10.411904,38.0,0,0,0,0,5
