timestamp,timestamp_sample,accel_device_id,gyro_device_id,delta_angle[0],delta_angle[1],delta_angle[2],delta_velocity[0],delta_velocity[1],delta_velocity[2],delta_angle_dt,delta_velocity_dt,delta_velocity_clipping,accel_calibration_count,gyro_calibration_count
539617693,539617471,2490378,2490378,-8.006442e-05,-3.312074e-05,-2.0590716e-05,-0.0029487957,0.0004793646,-0.048974723,4977,4977,0,1,2
540120402,540120178,2490378,2490378,-0.00011738069,-1.596622e-05,-1.804375e-05,-0.0027880438,0.0010574022,-0.04904174,4977,4977,0,1,2
540623117,540622886,2490378,2490378,-0.00011814371,4.045997e-05,-1.6687549e-05,-0.002964063,0.00048619986,-0.049346328,4977,4977,0,1,2
541115857,541115639,2490378,2490378,-0.0001021106,-9.222015e-06,-2.0423966e-05,-0.002777511,0.0007560925,-0.04930517,4978,4978,0,1,2
541618564,541618346,2490378,2490378,-0.00010781445,-5.15684e-06,-1.9195177e-05,-0.002811717,0.0007503138,-0.049081452,4977,4977,0,1,2
542121276,542121055,2490378,2490378,-0.000104149265,-1.0956783e-05,-1.477352e-05,-0.003021822,0.00066662475,-0.04933029,4978,4978,0,1,2
542619005,542618784,2490378,2490378,-9.466224e-05,3.115495e-05,-1.6079784e-05,-0.0028837528,0.0008146851,-0.049207978,4977,4977,0,1,2
543121779,543121493,2490378,2490378,-9.2736074e-05,3.603219e-05,-1.7638069e-05,-0.0029167808,0.0007778081,-0.049716815,4978,4978,0,1,2
543619440,543619223,2490378,2490378,-0.000106519525,3.0481013e-05,-1.9531448e-05,-0.0027710316,0.0010054759,-0.048708282,4978,4978,0,1,2
544122149,544121930,2490378,2490378,-8.921854e-05,-5.7473117e-06,-1.5471056e-05,-0.0028125783,0.0009938009,-0.049070597,4977,4977,0,1,2
544619878,544619661,2490378,2490378,-4.290952e-05,1.574325e-05,-1.5158957e-05,-0.0029380065,0.0009261558,-0.049816523,4977,4977,0,1,2
545117628,545117392,2490378,2490378,-5.590412e-05,3.744506e-07,-1.6672768e-05,-0.0028070214,0.00071911037,-0.049026407,4978,4978,0,1,2
545620316,545620100,2490378,2490378,-1.1701464e-05,4.8659047e-05,-1.668016e-05,-0.0026023814,0.00074424647,-0.049173597,4978,4978,0,1,2
546118062,546117830,2490378,2490378,-5.755952e-05,-3.1771764e-05,-1.29365835e-05,-0.0027847465,0.00024392175,-0.049411085,4977,4977,0,1,2
546620771,546620538,2490378,2490378,-9.571733e-05,-2.2733788e-05,-1.3876241e-05,-0.002980822,0.0011054687,-0.04961429,4977,4977,0,1,2
547118487,547118269,2490378,2490378,-7.4824624e-05,-9.323176e-07,-1.8231201e-05,-0.003062901,0.0010420178,-0.049280334,4977,4977,0,1,2
547621210,547620977,2490378,2490378,-0.00013502862,2.9870667e-05,-1.881494e-05,-0.0030819704,0.0009694257,-0.048893042,4977,4977,0,1,2
548118928,548118708,2490378,2490378,-6.710565e-05,2.3045413e-05,-1.2888891e-05,-0.0029042265,0.0008665108,-0.04957026,4977,4977,0,1,2
548616660,548616439,2490378,2490378,-0.00012228034,-8.611008e-06,-1.4871431e-05,-0.003044983,0.0009554399,-0.049445163,4977,4977,0,1,2
549119370,549119147,2490378,2490378,-0.00011358692,7.739762e-06,-1.2227837e-05,-0.0030216253,0.0010679569,-0.04986817,4977,4977,0,1,2
549617107,549616879,2490378,2490378,-8.4680796e-05,8.975274e-06,-1.5818388e-05,-0.0029149663,0.0007747873,-0.049288522,4978,4978,0,1,2
550119804,550119587,2490378,2490378,-8.332982e-05,2.2979355e-05,-1.7484872e-05,-0.002961073,0.00083130953,-0.049561862,4977,4977,0,1,2
550622513,550622295,2490378,2490378,-7.884171e-05,-8.87938e-06,-8.177675e-06,-0.002985313,0.0009331561,-0.049782254,4977,4977,0,1,2
551120246,551120027,2490378,2490378,-9.050031e-05,1.00657835e-05,-1.9651596e-05,-0.0031152184,0.0007768029,-0.04943816,4978,4978,0,1,2
551618032,551617758,2490378,2490378,-9.7990574e-05,1.8993822e-05,-1.4391933e-05,-0.003009329,0.0008190065,-0.049473144,4977,4977,0,1,2
552120684,552120466,2490378,2490378,-8.710741e-05,9.893161e-06,-1.7662675e-05,-0.0029526295,0.000831484,-0.049523868,4977,4977,0,1,2
552618417,552618198,2490378,2490378,-7.990613e-05,3.5102807e-06,-1.724795e-05,-0.002921081,0.0009623054,-0.04896134,4978,4978,0,1,2
553121122,553120906,2490378,2490378,-8.5164356e-05,2.1786789e-06,-1.8882823e-05,-0.0028533195,0.0008459283,-0.049406033,4977,4977,0,1,2
553618855,553618638,2490378,2490378,-9.7465185e-05,2.5566535e-05,-1.4870148e-05,-0.0029690673,0.0009741247,-0.04940799,4977,4977,0,1,2
554121580,554121347,2490378,2490378,-9.221328e-05,9.194323e-06,-1.7300696e-05,-0.0029157076,0.00073324126,-0.049369387,4978,4978,0,1,2
554619293,554619078,2490378,2490378,-8.063848e-05,1.2608543e-05,-2.0163567e-05,-0.0025838686,0.0009861267,-0.04887519,4977,4977,0,1,2
555117042,555116810,2490378,2490378,-0.00010169329,1.4121517e-05,-1.4393332e-05,-0.0030211597,0.00093732966,-0.04952206,4978,4978,0,1,2
555619734,555619519,2490378,2490378,-0.00011326762,6.245507e-06,-1.4068843e-05,-0.0028427497,0.0009539029,-0.049661607,4977,4977,0,1,2
556117470,556117251,2490378,2490378,-0.00010372798,3.735374e-05,-1.948171e-05,-0.0028347305,0.00055276253,-0.04935619,4978,4978,0,1,2
556620177,556619960,2490378,2490378,-9.402133e-05,-4.0755805e-07,-2.115837e-05,-0.0029170779,0.0007475254,-0.049695786,4978,4978,0,1,2
557117934,557117691,2490378,2490378,-0.00010264892,1.5344569e-05,-1.7465774e-05,-0.0027918932,0.00091894675,-0.049362347,4977,4977,0,1,2
557620620,557620401,2490378,2490378,-7.4770964e-05,-1.8022034e-05,-1.51408485e-05,-0.0030391284,0.00072586763,-0.049298283,4978,4978,0,1,2
558123327,558123110,2490378,2490378,-8.3938205e-05,-2.3756464e-05,-1.824675e-05,-0.002978047,0.0007163897,-0.049582075,4977,4977,0,1,2
558616097,558615865,2490378,2490378,-0.00010783187,1.09665564e-07,-1.3217153e-05,-0.003080086,0.00073809177,-0.049063127,4978,4978,0,1,2
559118793,559118574,2490378,2490378,-0.00011841403,5.055681e-05,-1.662491e-05,-0.0030738038,0.00086380605,-0.04940573,4977,4977,0,1,2
559621502,559621283,2490378,2490378,-0.00011192982,-1.5101361e-05,-1.594299e-05,-0.0029861683,0.00089729094,-0.04963083,4977,4977,0,1,2
560119233,560119015,2490378,2490378,-0.00011363689,-1.7645798e-05,-1.2980279e-05,-0.0030269304,0.0008305514,-0.04950622,4977,4977,0,1,2
560621944,560621725,2490378,2490378,-8.0810554e-05,1.3899241e-05,-1.4642661e-05,-0.0032002653,0.0007608692,-0.049729954,4977,4977,0,1,2
561119680,561119457,2490378,2490378,-9.104893e-05,7.672141e-06,-1.6487464e-05,-0.0030737899,0.00092970213,-0.049568646,4977,4977,0,1,2
561622384,561622167,2490378,2490378,-0.00011595233,7.607861e-06,-1.5669975e-05,-0.0029633327,0.00086604425,-0.050079346,4978,4978,0,1,2
562120139,562119899,2490378,2490378,-7.841435e-05,3.4575442e-06,-1.901679e-05,-0.0030118518,0.00095320353,-0.04935553,4977,4977,0,1,2
562617850,562617631,2490378,2490378,-0.00013861617,-1.5935802e-05,-2.0964551e-05,-0.00296198,0.00073263125,-0.04793919,4977,4977,0,1,2
563120574,563120341,2490378,2490378,-0.00013953248,6.73389e-06,-1.4025283e-05,-0.0029455712,0.001098496,-0.04847688,4977,4977,0,1,2
563618289,563618073,2490378,2490378,-0.00014403228,2.4781748e-05,-2.329302e-05,-0.0030193676,0.0010206702,-0.04890826,4977,4977,0,1,2
564121016,564120783,2490378,2490378,-0.00012340174,-7.674131e-06,-1.634276e-05,-0.0027213776,0.0008005994,-0.049433682,4977,4977,0,1,2
564618731,564618516,2490378,2490378,-9.0885864e-05,5.956124e-05,-1.395315e-05,-0.0028120237,0.0008838503,-0.04904429,4976,4976,0,1,2
565121468,565121228,2490378,2490378,-0.00013100835,-5.8238926e-05,-1.6654038e-05,-0.002662203,0.0008868382,-0.04981321,4980,4980,0,1,2
565619207,565618958,2490378,2490378,-6.398688e-05,2.6237483e-05,-1.8458479e-05,-0.0030705314,0.0008582841,-0.049838457,4977,4977,0,1,2
566116909,566116691,2490378,2490378,-8.433246e-05,4.0448416e-05,-1.924368e-05,-0.0029660773,0.000943828,-0.04952831,4978,4978,0,1,2
566619621,566619401,2490378,2490378,-0.00011160552,4.5516288e-05,-1.5429934e-05,-0.0027897947,0.0010135473,-0.049366638,4978,4978,0,1,2
567117367,567117133,2490378,2490378,-8.8789566e-05,-4.4607885e-05,-1.8144408e-05,-0.002817882,0.00074557716,-0.049061097,4977,4977,0,1,2
567620076,567619843,2490378,2490378,-9.789697e-05,4.2260126e-05,-1.9842553e-05,-0.0029992303,0.00078326213,-0.049736056,4977,4977,0,1,2
568122770,568122553,2490378,2490378,-9.897674e-05,2.5323377e-05,-1.7634287e-05,-0.0026987698,0.000823406,-0.048962455,4977,4977,0,1,2
568620505,568620286,2490378,2490378,-8.553729e-05,-1.4254467e-06,-1.4472346e-05,-0.002808299,0.00088842533,-0.0496488,4977,4977,0,1,2
569118253,569118019,2490378,2490378,-6.212848e-05,2.2705499e-06,-1.475434e-05,-0.0029964787,0.0008756141,-0.0496025,4978,4978,0,1,2
569620959,569620729,2490378,2490378,-9.30261e-05,4.6677666e-05,-2.0206206e-05,-0.0028549733,0.0005040622,-0.048913073,4978,4978,0,1,2
570118681,570118461,2490378,2490378,-0.000105213956,2.1751826e-05,-1.9825296e-05,-0.0028693953,0.00081811147,-0.049443174,4973,4973,0,1,2
570621387,570621171,2490378,2490378,-0.00010016251,-1.2776602e-06,-1.6270085e-05,-0.0028307193,0.0010167764,-0.04919144,4977,4977,0,1,2
571119123,571118904,2490378,2490378,-0.00010667099,7.3098845e-06,-1.38369605e-05,-0.002951788,0.00065720844,-0.049233973,4977,4977,0,1,2
571621831,571621614,2490378,2490378,-0.00012485312,3.0338779e-05,-1.8790437e-05,-0.0030329882,0.00061141443,-0.049359657,4977,4977,0,1,2
572119579,572119347,2490378,2490378,-9.792537e-05,1.045756e-05,-1.41311375e-05,-0.0030148968,0.0005165377,-0.049353648,4978,4978,0,1,2
572617299,572617079,2490378,2490378,-0.00015235376,2.5597206e-05,-2.0782498e-05,-0.0029129395,0.0004444477,-0.049197193,4977,4977,0,1,2
573120006,573119789,2490378,2490378,1.4357921e-05,-1.8674298e-05,-2.3456672e-05,-0.0030174097,0.00037508184,-0.047574103,4977,4977,0,1,2
573617758,573617522,2490378,2490378,-3.456019e-05,1.7224296e-05,-2.2798502e-05,-0.0029223075,0.00034978564,-0.049077775,4977,4977,0,1,2
574120451,574120232,2490378,2490378,0.00052910787,2.1245723e-05,-4.262464e-05,-0.0028215996,-0.0019961125,-0.04791188,4977,4977,0,1,2
574618183,574617965,2490378,2490378,-0.00014246491,4.5130062e-05,-1.6201999e-05,-0.002794055,-0.0027271088,-0.04883003,4978,4978,0,1,2
575120925,575120675,2490378,2490378,4.4087676e-05,-1.4668913e-05,-2.2919652e-05,-0.0029852234,-0.0029494828,-0.04882414,4977,4977,0,1,2
575623603,575623385,2490378,2490378,-8.3583844e-05,4.2449115e-05,-1.9115803e-05,-0.0025882812,-0.0028376956,-0.048997108,4978,4978,0,1,2
576116362,576116140,2490378,2490378,-0.00012099342,-5.948864e-06,-2.491879e-05,-0.0023600543,-0.0024448421,-0.04897652,4977,4977,0,1,2
576619085,576618850,2490378,2490378,-8.70032e-06,1.9216752e-05,-6.4614335e-07,-0.002891489,-0.003567674,-0.054606717,4977,4977,0,1,2
577116798,577116582,2490378,2490378,-9.27092e-05,1.4628059e-05,-1.3048184e-05,-0.0025759507,-0.0028696898,-0.04993068,4977,4977,0,1,2
577619509,577619292,2490378,2490378,-7.116883e-05,2.3769024e-05,-1.6730019e-05,-0.0027095128,-0.0031239456,-0.049557734,4977,4977,0,1,2
578122219,578122002,2490378,2490378,-8.0151374e-05,1.1344048e-05,-1.5157292e-05,-0.0027710078,-0.002851653,-0.049374685,4977,4977,0,1,2
578619960,578619735,2490378,2490378,-0.00010708454,4.9514756e-06,-1.3973996e-05,-0.0026783587,-0.002821342,-0.049189042,4978,4978,0,1,2
579122664,579122444,2490378,2490378,-9.743692e-05,1.6781582e-05,-1.2622024e-05,-0.0026282808,-0.0027562787,-0.049142815,4977,4977,0,1,2
579620400,579620177,2490378,2490378,-0.00010177143,-6.5597186e-07,-1.612862e-05,-0.002746484,-0.0027023577,-0.049218696,4977,4977,0,1,2
580118129,580117909,2490378,2490378,-7.826557e-05,4.0697425e-05,-1.5837203e-07,-0.0025767968,-0.002836412,-0.049103722,4977,4977,0,1,2
580620835,580620619,2490378,2490378,-0.00011662358,4.651165e-05,3.409094e-07,-0.0027904515,-0.0021025222,-0.04954663,4978,4978,0,1,2
581118585,581118351,2490378,2490378,-0.00012761595,-6.3747316e-06,-8.445413e-06,-0.0028362896,-0.002691531,-0.049406704,4977,4977,0,1,2
581621278,581621062,2490378,2490378,-0.000114770504,2.3991188e-05,-1.0284616e-05,-0.002682265,-0.0026559674,-0.049273893,4979,4979,0,1,2
582119007,582118793,2490378,2490378,-0.00015712017,9.581709e-05,-2.1307662e-05,-0.0021208336,-0.0031110724,-0.04912297,4977,4977,0,1,2
582621733,582621502,2490378,2490378,-6.017233e-05,3.54725e-05,-6.262806e-06,-0.0025232136,-0.0026703267,-0.04927874,4977,4977,0,1,2
583119452,583119234,2490378,2490378,-9.74277e-05,2.0582413e-05,-1.3877148e-05,-0.0025474264,-0.0027436833,-0.049364902,4977,4977,0,1,2
583617196,583616966,2490378,2490378,-7.276383e-05,6.3375364e-06,-1.522395e-05,-0.0025005946,-0.002635973,-0.049476415,4977,4977,0,1,2
584119891,584119675,2490378,2490378,-0.000111252186,-6.5005865e-05,-1.4331487e-05,-0.0028151774,-0.002578245,-0.04913762,4977,4977,0,1,2
584617630,584617407,2490378,2490378,-0.00010166735,-9.620168e-06,-1.6433676e-05,-0.0028014889,-0.0025811847,-0.048956033,4977,4977,0,1,2
585120353,585120116,2490378,2490378,-0.000104971434,6.401783e-06,-1.4935664e-05,-0.0030655714,-0.002550991,-0.049538944,4977,4977,0,1,2
585623060,585622825,2490378,2490378,-9.892471e-05,-1.3842173e-05,-1.0991515e-05,-0.0030445037,-0.0023651824,-0.049101397,4977,4977,0,1,2
586120787,586120557,2490378,2490378,-0.000114653805,1.0721221e-05,-1.2307394e-05,-0.0031673484,-0.0025089793,-0.049315747,4977,4977,0,1,2
586618505,586618289,2490378,2490378,-8.4682746e-05,1.2656359e-05,-1.5974503e-05,-0.003210746,-0.0024450717,-0.04907562,4978,4978,0,1,2
587116239,587116020,2490378,2490378,-3.77038e-05,6.353997e-05,-1.7158067e-05,-0.0030959658,-0.0026814912,-0.049387205,4977,4977,0,1,2
587618945,587618729,2490378,2490378,-7.583503e-05,1.7611364e-05,-2.1140782e-05,-0.0030895656,-0.00257161,-0.049302816,4978,4978,0,1,2
588121659,588121437,2490378,2490378,-6.10902e-05,-1.9048774e-05,-1.1913924e-05,-0.0030868286,-0.0027202761,-0.04940444,4977,4977,0,1,2
588619401,588619169,2490378,2490378,-0.00010007012,1.3928552e-05,-1.2592822e-05,-0.0029007164,-0.002541325,-0.049694583,4978,4978,0,1,2
589122093,589121877,2490378,2490378,-9.889238e-05,3.1376272e-05,-1.5427648e-05,-0.0030491822,-0.0025863994,-0.049541723,4977,4977,0,1,2
589619829,589619608,2490378,2490378,-8.055973e-05,1.9317256e-06,-1.6438744e-05,-0.0031891817,-0.002541359,-0.049212974,4977,4977,0,1,2
590117581,590117339,2490378,2490378,-0.00012015448,-4.9800497e-06,-1.4151431e-05,-0.0031228848,-0.0026230742,-0.048344795,4977,4977,0,1,2
590620264,590620047,2490378,2490378,-8.981966e-06,0.0001216278,-9.122965e-07,-0.0032609254,-0.0024706807,-0.049229465,4977,4977,0,1,2
591118013,591117778,2490378,2490378,-6.772364e-05,1.3957992e-06,-7.5030425e-06,-0.003095949,-0.0022942568,-0.049095254,4977,4977,0,1,2
591620705,591620486,2490378,2490378,-8.219043e-05,2.5076565e-06,-1.5547163e-05,-0.0031063168,-0.0026401551,-0.049536865,4977,4977,0,1,2
592118434,592118217,2490378,2490378,-0.00010016066,-4.973064e-05,-4.6915837e-05,-0.0035042616,-0.0022056007,-0.049905352,4978,4978,0,1,2
592621142,592620924,2490378,2490378,-0.0007745338,0.00030836463,5.29e-05,-0.0035817649,-0.0037801028,-0.048381485,4976,4976,0,1,2
593118874,593118655,2490378,2490378,-0.0014150605,0.00072946085,0.0002959865,-0.0038770647,-0.0051390156,-0.04863571,4977,4977,0,1,2
593616614,593616385,2490378,2490378,-6.219228e-05,3.4976998e-05,-6.4337914e-06,-0.004217705,-0.0032876846,-0.049157478,4977,4977,0,1,2
594119313,594119093,2490378,2490378,-0.00015371252,-6.540239e-05,-1.8244376e-05,-0.0037944005,-0.003029498,-0.048851535,4978,4978,0,1,2
594617052,594616823,2490378,2490378,-9.0690126e-05,-7.3602528e-06,-1.2251875e-05,-0.0038600126,-0.0033531212,-0.048930146,4977,4977,0,1,2
595119766,595119530,2490378,2490378,-0.00010873331,5.6967758e-05,-1.9233776e-05,-0.0039127567,-0.0034671708,-0.049566913,4977,4977,0,1,2
595622460,595622237,2490378,2490378,-0.000107523214,6.19639e-05,-1.896165e-05,-0.0036343387,-0.0029553717,-0.049344476,4977,4977,0,1,2
596120184,596119967,2490378,2490378,-0.00011060669,-1.2876804e-05,-1.7759789e-05,-0.003557352,-0.0032432845,-0.04901833,4977,4977,0,1,2
596622894,596622674,2490378,2490378,-0.00011785646,2.8638395e-05,-1.5845346e-05,-0.0032451793,-0.0033264847,-0.049011495,4977,4977,0,1,2
597115645,597115426,2490378,2490378,-0.00010795653,-5.876956e-05,-9.445832e-06,-0.0034917365,-0.0033042117,-0.048961036,4977,4977,0,1,2
597618380,597618133,2490378,2490378,-0.00011232429,-2.4413941e-05,-1.392458e-05,-0.0036690403,-0.003107662,-0.048909996,4977,4977,0,1,2
598121058,598120839,2490378,2490378,-0.00012794825,1.2172796e-05,-9.888731e-06,-0.0038562086,-0.003016256,-0.048969515,4977,4977,0,1,2
598618789,598618568,2490378,2490378,-9.8776014e-05,-3.969559e-06,-1.7454318e-05,-0.0038574352,-0.0031328944,-0.049221158,4977,4977,0,1,2
599121506,599121275,2490378,2490378,-8.0659396e-05,2.9736528e-05,-1.8168143e-05,-0.00376477,-0.0031469539,-0.049229413,4977,4977,0,1,2
599619218,599619004,2490378,2490378,-9.722808e-05,2.9799075e-05,-1.6576827e-05,-0.0035203847,-0.0030639153,-0.049038097,4978,4978,0,1,2
600121949,600121710,2490378,2490378,-9.32285e-05,1.8795283e-05,-1.8639412e-05,-0.003565263,-0.0030456453,-0.048789468,4978,4978,0,1,2
600619656,600619438,2490378,2490378,3.2650285e-05,0.00013509918,-7.652051e-06,-0.003365422,-0.003139504,-0.048470177,4977,4977,0,1,2
601117387,601117167,2490378,2490378,-0.00023973646,-7.528842e-05,-2.8920109e-05,-0.0034482193,-0.0037838244,-0.049534876,4977,4977,0,1,2
601620092,601619873,2490378,2490378,5.2381183e-05,-0.00010870718,-4.6181594e-05,-0.003261076,-0.0038643063,-0.049078863,4978,4978,0,1,2
602117817,602117601,2490378,2490378,-9.763535e-05,-1.2144359e-05,-1.6282927e-05,-0.0033512071,-0.0031769124,-0.04910696,4977,4977,0,1,2
602620545,602620306,2490378,2490378,-6.292513e-05,4.898288e-05,-1.1413194e-05,-0.003310387,-0.0031941845,-0.04848272,4977,4977,0,1,2
603118268,603118034,2490378,2490378,-7.4761534e-05,2.009201e-05,-1.2371775e-05,-0.003326207,-0.0034088527,-0.049135264,4977,4977,0,1,2
603620974,603620740,2490378,2490378,-0.000108827204,-1.9965037e-05,-1.8681938e-05,-0.0036820744,-0.0032226185,-0.049296655,4978,4978,0,1,2
604118684,604118467,2490378,2490378,-0.0002936915,1.7855748e-05,1.3588522e-05,-0.0035961764,-0.0041418,-0.05062033,4976,4976,0,1,2
604616413,604616195,2490378,2490378,-0.00014159718,4.0363626e-05,-1.7395678e-05,-0.0031673678,-0.0031812598,-0.04931414,4977,4977,0,1,2
605119138,605118900,2490378,2490378,-0.00017043807,0.00014232584,2.563085e-05,-0.0034828242,-0.0042294427,-0.049900215,4978,4978,0,1,2
605621825,605621604,2490378,2490378,-3.4731074e-05,0.00020509855,2.3818973e-06,-0.0025253557,-0.004403027,-0.049493387,4977,4977,0,1,2
606119550,606119332,2490378,2490378,-0.00032136586,-0.00011505239,-3.0344538e-05,-0.002742787,-0.0034910606,-0.048334308,4978,4978,0,1,2
606622255,606622036,2490378,2490378,-0.000103478065,-3.2205717e-05,-9.286752e-06,-0.0034175664,-0.0034840028,-0.050623238,4977,4977,0,1,2
607119982,607119763,2490378,2490378,-0.00010661981,7.115128e-08,-2.0288655e-05,-0.0033196772,-0.0036012586,-0.0482425,4978,4978,0,1,2
607617709,607617490,2490378,2490378,-9.862943e-05,-7.3098504e-06,-1.4971043e-05,-0.0029152369,-0.003327963,-0.04863966,4978,4978,0,1,2
608120440,608120193,2490378,2490378,-0.0001024135,5.5234887e-05,-1.9109431e-05,-0.0034100285,-0.003325988,-0.04970687,4977,4977,0,1,2
608618151,608617920,2490378,2490378,-8.249537e-05,1.4343232e-05,-2.1066115e-05,-0.0036477228,-0.00314047,-0.04898089,4977,4977,0,1,2
609120844,609120624,2490378,2490378,-0.000122981,-1.3151605e-05,-2.0654788e-05,-0.0032445889,-0.0032346265,-0.049642056,4978,4978,0,1,2
609618567,609618350,2490378,2490378,-0.00011111678,-1.6350297e-05,-1.6356811e-05,-0.003028359,-0.0032591347,-0.048546035,4977,4977,0,1,2
610121273,610121053,2490378,2490378,-9.2584254e-05,-3.1136497e-06,-6.388265e-06,-0.003504765,-0.0030588396,-0.0491141,4977,4977,0,1,2
610618995,610618779,2490378,2490378,-0.00017320988,-9.173063e-05,-2.8313263e-05,-0.0032871743,-0.0032376747,-0.048893828,4977,4977,0,1,2
611116725,611116505,2490378,2490378,-5.6282963e-05,1.2954292e-05,-1.2139231e-05,-0.0033210889,-0.0032058333,-0.049428977,4977,4977,0,1,2
611619424,611619208,2490378,2490378,-0.00016296131,-0.000105545194,-2.2889128e-05,-0.0032384417,-0.003503555,-0.04985008,4977,4977,0,1,2
612117150,612116934,2490378,2490378,0.00021292933,-0.00016562658,-9.188195e-05,-0.003027372,-0.0038040644,-0.0487126,4978,4978,0,1,2
612619875,612619636,2490378,2490378,-0.00029614364,-0.00020874775,-2.590048e-05,-0.0028681692,-0.003679993,-0.049342774,4977,4977,0,1,2
613117592,613117362,2490378,2490378,-0.00077217136,0.00022268288,6.527547e-05,-0.0033463747,-0.0035424738,-0.048924845,4978,4978,0,1,2
613620282,613620064,2490378,2490378,-0.00010296126,2.8745285e-06,-1.17689815e-05,-0.003324117,-0.0030989312,-0.049027205,4977,4977,0,1,2
614122982,614122766,2490378,2490378,-0.00024222772,8.217395e-07,-6.647651e-06,-0.0032951157,-0.0032125304,-0.048994098,4977,4977,0,1,2
614615735,614615514,2490378,2490378,-0.000111014335,5.9423848e-05,-1.9976187e-05,-0.0030489978,-0.0031792251,-0.04958269,4977,4977,0,1,2
615118454,615118216,2490378,2490378,0.0015380582,0.0024491725,-4.926638e-05,-0.0009224989,-0.0056019193,-0.047505047,4977,4977,0,1,2
615621139,615620918,2490378,2490378,-0.00016759017,-8.8794804e-05,-1.0334994e-05,-0.002503496,-0.0036554495,-0.049779907,4978,4978,0,1,2
616118861,616118642,2490378,2490378,-0.00021547523,8.8923494e-05,1.0746384e-05,-0.0022085072,-0.0033652082,-0.04845368,4977,4977,0,1,2
616621559,616621344,2490378,2490378,-8.242674e-05,1.6433854e-05,-1.58127e-05,-0.0021566988,-0.0034955565,-0.049057946,4978,4978,0,1,2
617119282,617119068,2490378,2490378,-0.00010512597,1.2273418e-05,-2.3450073e-05,-0.0017965968,-0.0034603418,-0.047543142,4978,4978,0,1,2
617622090,617621769,2490378,2490378,-0.00010744918,-0.00012105251,1.7199238e-06,-0.0022578603,-0.003439634,-0.050411273,4977,4977,0,1,2
618119714,618119493,2490378,2490378,-0.00010052403,-2.7050432e-05,-1.2626358e-05,-0.0022775177,-0.0033480914,-0.049346194,4977,4977,0,1,2
618617432,618617216,2490378,2490378,-9.6864e-05,-1.7862325e-05,-1.1871593e-05,-0.0020614932,-0.003565499,-0.049011357,4977,4977,0,1,2
619120137,619119917,2490378,2490378,0.00019922915,-8.187939e-05,-6.4765474e-05,-0.0023579588,-0.0030030648,-0.048375107,4977,4977,0,1,2
619617857,619617641,2490378,2490378,6.9255424e-05,-0.000113071685,-2.1010002e-05,-0.003111504,-0.0049387035,-0.048895225,4978,4978,0,1,2
620120563,620120341,2490378,2490378,-0.00013200882,-1.85611e-05,-1.7081089e-05,-0.0027308317,-0.0033400154,-0.048782,4977,4977,0,1,2
620618281,620618064,2490378,2490378,-0.00010595725,3.202561e-05,-1.4740788e-05,-0.002850123,-0.0034013058,-0.049151126,4977,4977,0,1,2
621120981,621120764,2490378,2490378,9.223453e-05,0.0003679695,-2.2021703e-05,-0.0028242145,-0.0035009384,-0.049532156,4977,4977,0,1,2
621618703,621618487,2490378,2490378,-3.009204e-05,0.000194445,-1.3548821e-05,-0.0021839389,-0.0033837783,-0.049176805,4977,4977,0,1,2
622116461,622116210,2490378,2490378,-0.00015923662,0.00011710701,-7.42809e-06,-0.001969121,-0.0035750598,-0.049312934,4978,4978,0,1,2
622619146,622618910,2490378,2490378,-5.521939e-05,-7.844033e-05,-3.355332e-05,-0.0018329957,-0.0033691004,-0.049075298,4978,4978,0,1,2
623121826,623121609,2490378,2490378,-9.889537e-05,7.6134835e-05,-1.9749574e-05,-0.0015158335,-0.0030797722,-0.050045103,4977,4977,0,1,2
623619553,623619331,2490378,2490378,-0.00012907867,1.1338037e-06,-1.4215213e-05,-0.0017163968,-0.003259891,-0.04927428,4977,4977,0,1,2
624122259,624122030,2490378,2490378,-5.100404e-05,0.00011843566,-1.2371043e-05,-0.0014382516,-0.0034855802,-0.04927394,4977,4977,0,1,2
624619973,624619752,2490378,2490378,-9.6818585e-05,5.4093918e-05,-8.954925e-06,-0.0015851827,-0.0034536656,-0.049387533,4977,4977,0,1,2
625117712,625117474,2490378,2490378,-3.068085e-05,5.4246524e-05,-1.1089419e-05,-0.0018109969,-0.003526687,-0.049267437,4977,4977,0,1,2
625620392,625620173,2490378,2490378,-0.00013611828,-1.1900514e-05,-1.4517528e-05,-0.0018747336,-0.0032228234,-0.049348254,4977,4977,0,1,2
626118112,626117894,2490378,2490378,-8.0951715e-05,1.5414587e-05,-1.2929356e-05,-0.0020100942,-0.0032389553,-0.04865896,4977,4977,0,1,2
626620824,626620593,2490378,2490378,-9.428321e-05,2.486065e-06,-1.43158695e-05,-0.002009288,-0.0032687709,-0.049006842,4977,4977,0,1,2
627118578,627118314,2490378,2490378,-7.827037e-05,-1.1501634e-05,-1.453334e-05,-0.0020437222,-0.003553851,-0.04952257,4976,4976,0,1,2
627621241,627621012,2490378,2490378,-0.0001229848,-1.978909e-05,-1.6556804e-05,-0.0018305358,-0.0030979957,-0.048408158,4977,4977,0,1,2
628118951,628118733,2490378,2490378,-0.00010214117,2.545482e-05,-1.705024e-05,-0.0020026292,-0.0031221523,-0.0496509,4977,4977,0,1,2
628616674,628616454,2490378,2490378,-8.285648e-05,4.3615673e-06,-1.6848744e-05,-0.002012984,-0.0032704198,-0.049182568,4978,4978,0,1,2
629119382,629119151,2490378,2490378,-0.00010160652,2.6845395e-05,-1.9132807e-05,-0.0017773891,-0.0032098144,-0.049122594,4977,4977,0,1,2
629617091,629616872,2490378,2490378,-9.3920535e-05,2.8991712e-05,-1.6202692e-05,-0.0019288234,-0.0032532366,-0.04942625,4978,4978,0,1,2
630119792,630119569,2490378,2490378,-0.00011937673,-2.2324668e-05,-1.9323872e-05,-0.0019389982,-0.0033170613,-0.048924863,4977,4977,0,1,2
630622491,630622266,2490378,2490378,-0.00010946827,8.052384e-06,-1.8718009e-05,-0.0018821862,-0.0030895283,-0.048877474,4977,4977,0,1,2
631120216,631119986,2490378,2490378,-0.00010932118,2.8953009e-05,-8.652282e-06,-0.0018578277,-0.003179203,-0.04947161,4977,4977,0,1,2
631622899,631622683,2490378,2490378,-8.916385e-05,2.148628e-05,-1.8472714e-05,-0.0020622846,-0.0029919154,-0.049156204,4977,4977,0,1,2
632115646,632115426,2490378,2490378,-7.7656165e-05,-1.2282022e-05,-2.1204662e-05,-0.0018211248,-0.0031779353,-0.0491943,4978,4978,0,1,2
632618346,632618122,2490378,2490378,-5.4187683e-05,-1.5212215e-05,-1.8382983e-05,-0.001942029,-0.0033437477,-0.049077507,4977,4977,0,1,2
633121035,633120819,2490378,2490378,-9.262866e-05,3.5487177e-05,-1.580292e-05,-0.0017816323,-0.0031501143,-0.049186762,4978,4978,0,1,2
633618755,633618538,2490378,2490378,-0.00010120414,6.590387e-05,-1.2025786e-05,-0.0019038949,-0.0031716903,-0.049611364,4977,4977,0,1,2
634121450,634121234,2490378,2490378,-0.00012095677,-1.1699564e-05,-1.1318808e-05,-0.0018043604,-0.0030623388,-0.048738483,4977,4977,0,1,2
634619173,634618953,2490378,2490378,-8.196749e-05,6.4960154e-06,-1.3450958e-05,-0.0017743447,-0.0029591683,-0.049199626,4977,4977,0,1,2
635121869,635121649,2490378,2490378,-6.978994e-05,4.516939e-05,-1.3146375e-05,-0.0017952529,-0.003044722,-0.049148656,4977,4977,0,1,2
635619604,635619372,2490378,2490378,-0.000114707684,-1.3722442e-05,-1.4267127e-05,-0.0017411718,-0.0031556601,-0.049542416,4982,4982,0,1,2
636117307,636117086,2490378,2490378,-0.000111645626,5.3913327e-06,-1.7042003e-05,-0.0019621714,-0.0031043072,-0.05022376,4977,4977,0,1,2
636619998,636619781,2490378,2490378,-0.00011290142,-2.634443e-05,-1.8476849e-05,-0.001848971,-0.0031840138,-0.04809924,4977,4977,0,1,2
637117731,637117499,2490378,2490378,-0.00013825425,1.17622e-05,-1.4675148e-05,-0.0017236971,-0.0029787717,-0.049179353,4977,4977,0,1,2
637620410,637620194,2490378,2490378,-0.00025092377,5.844426e-06,-1.1040172e-05,-0.0019706541,-0.002585615,-0.048190128,4977,4977,0,1,2
638118112,638117914,2490378,2490378,-5.637291e-05,7.055206e-05,-1.9663134e-05,-0.0014550678,-0.0032985497,-0.04945811,4979,4979,0,1,2
638620843,638620607,2490378,2490378,2.3647082e-05,2.1304446e-05,-2.0149762e-05,-0.0018009472,-0.002975996,-0.049800865,4977,4977,0,1,2
639118541,639118325,2490378,2490378,-0.00017694841,-1.2800468e-05,-1.08775275e-05,-0.0017107978,-0.0029088121,-0.04871967,4978,4978,0,1,2
639616260,639616042,2490378,2490378,-0.00016621382,5.9762435e-05,-1.4829122e-05,-0.0015462756,-0.0032906337,-0.048688244,4977,4977,0,1,2
640118972,640118736,2490378,2490378,1.5221287e-05,-5.3252497e-05,-3.352327e-05,-0.0015896065,-0.002099068,-0.04870226,4977,4977,0,1,2
640621651,640621430,2490378,2490378,-4.7228095e-05,-2.6384112e-06,-1.7625523e-05,-0.0020172761,-0.0019771059,-0.04955598,4977,4977,0,1,2
641119366,641119147,2490378,2490378,-0.00013804834,5.0452985e-05,5.705225e-06,-0.0021449316,-0.0025170322,-0.05013565,4977,4977,0,1,2
641622070,641621841,2490378,2490378,-7.057142e-05,5.5487708e-05,-1.7519413e-05,-0.001804747,-0.0028496492,-0.04966187,4977,4977,0,1,2
642119776,642119558,2490378,2490378,-0.00012777217,-0.00016421854,-6.8399045e-06,4.113453e-05,-0.0019899043,-0.04436268,4977,4977,0,1,2
642617493,642617274,2490378,2490378,-0.00013759416,1.033437e-05,-1.7401813e-05,-0.0018374189,-0.0025993881,-0.048964053,4977,4977,0,1,2
643120189,643119968,2490378,2490378,-9.030948e-05,3.9314164e-05,-1.76276e-05,-0.0020928846,-0.0026026284,-0.05037043,4977,4977,0,1,2
643617958,643617684,2490378,2490378,-8.222109e-05,2.6609565e-05,-1.671584e-05,-0.001795449,-0.0024560108,-0.049125865,4977,4977,0,1,2
644120595,644120377,2490378,2490378,-5.6837507e-05,7.695987e-06,-1.711216e-05,-0.0018460092,-0.0025872798,-0.049119696,4977,4977,0,1,2
644618328,644618093,2490378,2490378,-6.2946216e-05,7.832925e-06,-1.340455e-05,-0.0017130141,-0.0027664804,-0.049054492,4977,4977,0,1,2
645121002,645120786,2490378,2490378,6.04864e-05,7.749737e-06,-4.982457e-05,-0.0007011793,-0.011792375,-0.04959453,4977,4977,0,1,2
645618717,645618501,2490378,2490378,-0.00011784691,-1.0441525e-05,-1.5478856e-05,-0.0017959105,-0.002691056,-0.048952367,4973,4973,0,1,2
646116434,646116217,2490378,2490378,-9.278987e-05,1.4447718e-05,-1.6574177e-05,-0.0018075394,-0.0026313334,-0.04933238,4978,4978,0,1,2
646619127,646618909,2490378,2490378,-8.564774e-05,2.5279118e-05,-1.4351672e-05,-0.0017790039,-0.002645336,-0.049176097,4977,4977,0,1,2
647116842,647116624,2490378,2490378,-6.776117e-05,-3.247813e-06,-1.37765755e-05,-0.0017936833,-0.002752428,-0.049184974,4977,4977,0,1,2
647619533,647619316,2490378,2490378,-7.88766e-05,1.0530874e-05,-1.7686141e-05,-0.0018131139,-0.002872275,-0.04933168,4977,4977,0,1,2
648122223,648122008,2490378,2490378,-9.422084e-05,1.356289e-05,-1.4842141e-05,-0.0017076806,-0.0026148646,-0.049332507,4977,4977,0,1,2
648619939,648619722,2490378,2490378,-9.592978e-05,3.984722e-06,-1.5683874e-05,-0.0017634532,-0.002713814,-0.049293324,4977,4977,0,1,2
649122635,649122414,2490378,2490378,-9.170353e-05,8.20047e-06,-1.9284646e-05,-0.0016784447,-0.0026432287,-0.04930387,4977,4977,0,1,2
649620357,649620128,2490378,2490378,-8.440019e-05,-1.917627e-06,-1.6885038e-05,-0.0017083979,-0.0027079608,-0.048933193,4977,4977,0,1,2
650118083,650117842,2490378,2490378,-9.045044e-05,3.6316418e-05,-1.9288307e-05,-0.0016467433,-0.0026837722,-0.048971277,4977,4977,0,1,2
650620748,650620533,2490378,2490378,-0.00010258579,2.9498726e-05,-2.0707761e-05,-0.001541864,-0.002653855,-0.048953913,4977,4977,0,1,2
651118486,651118247,2490378,2490378,-9.433448e-05,-4.2766947e-06,-6.8784916e-06,-0.001631874,-0.0026129563,-0.049387354,4977,4977,0,1,2
651621155,651620937,2490378,2490378,-8.978802e-05,-3.591852e-05,-7.4605045e-06,-0.0017556556,-0.0026729587,-0.049071964,4977,4977,0,1,2
652118868,652118651,2490378,2490378,-9.478687e-05,1.9352716e-05,-1.5369274e-05,-0.0017258602,-0.0026776565,-0.04893994,4977,4977,0,1,2
652621575,652621341,2490378,2490378,-0.00010000874,2.8699253e-05,-1.7522107e-05,-0.0017454964,-0.0026707875,-0.049062673,4977,4977,0,1,2
653119289,653119054,2490378,2490378,-9.442593e-05,7.734816e-06,-1.4245889e-05,-0.0016589131,-0.0025589713,-0.04922862,4977,4977,0,1,2
653616987,653616767,2490378,2490378,-8.610809e-05,7.300963e-06,-1.619729e-05,-0.0017501197,-0.0026806525,-0.049050197,4977,4977,0,1,2
654119733,654119457,2490378,2490378,-9.3317474e-05,-2.5165375e-06,-1.4299523e-05,-0.0017049691,-0.0026437982,-0.049206376,4977,4977,0,1,2
654617387,654617170,2490378,2490378,-0.00010699,3.66998e-05,-2.0541736e-05,-0.0016926035,-0.0026440024,-0.049166325,4978,4978,0,1,2
655120076,655119859,2490378,2490378,-0.000100765326,1.5400092e-05,-1.930065e-05,-0.0017446951,-0.0026147284,-0.04909648,4977,4977,0,1,2
655622780,655622548,2490378,2490378,-8.311597e-05,1.0728569e-05,-1.5497591e-05,-0.001815923,-0.0026409107,-0.049308576,4977,4977,0,1,2
656120479,656120261,2490378,2490378,-8.008947e-05,-1.1146406e-05,-1.3840437e-05,-0.0016443644,-0.0026390413,-0.048887055,4978,4978,0,1,2
656618195,656617972,2490378,2490378,-9.36487e-05,1.5177878e-05,-1.3804782e-05,-0.0017216457,-0.00271384,-0.049313907,4977,4977,0,1,2
657120879,657120661,2490378,2490378,-9.7529184e-05,3.4750624e-06,-1.5724425e-05,-0.0018126315,-0.0026501545,-0.048997413,4974,4974,0,1,2
657618592,657618373,2490378,2490378,-9.318203e-05,2.9514169e-05,-1.8889996e-05,-0.001460747,-0.0019187017,-0.048915397,4977,4977,0,1,2
658121283,658121066,2490378,2490378,-0.00010167299,1.0114227e-05,-1.640682e-05,-0.0017136605,-0.0026667565,-0.04908439,4982,4982,0,1,2
658619005,658618773,2490378,2490378,-7.880946e-05,2.1764142e-06,-1.50654305e-05,-0.0017837833,-0.0026623274,-0.049159408,4978,4978,0,1,2
659121679,659121461,2490378,2490378,-6.915015e-05,3.5322719e-06,-1.5924486e-05,-0.0017655495,-0.0028108205,-0.04910889,4977,4977,0,1,2
659619387,659619171,2490378,2490378,-9.48258e-05,4.2534753e-06,-1.2685908e-05,-0.0018612648,-0.0028516918,-0.049094748,4976,4976,0,1,2
660117104,660116882,2490378,2490378,-0.00011833442,4.5155943e-05,-1.6824155e-05,-0.001740154,-0.0029079716,-0.04933897,4977,4977,0,1,2
660619791,660619570,2490378,2490378,-0.000117836906,1.6754528e-05,-1.7581504e-05,-0.0018055801,-0.0026673763,-0.048841055,4977,4977,0,1,2
661117496,661117280,2490378,2490378,-8.1196966e-05,4.76766e-06,-9.766785e-06,-0.0017399259,-0.002688055,-0.04906405,4977,4977,0,1,2
661620187,661619968,2490378,2490378,-7.467301e-05,5.1412153e-06,-1.7200338e-05,-0.0017600498,-0.0027598606,-0.049237534,4975,4975,0,1,2
662117895,662117678,2490378,2490378,-8.54032e-05,-6.6032875e-08,-1.2721796e-05,-0.0018898214,-0.0029701563,-0.049466234,4977,4977,0,1,2
662620581,662620365,2490378,2490378,-0.0001027372,2.22283e-05,-1.4764587e-05,-0.0018725197,-0.0027688942,-0.049263664,4977,4977,0,1,2
663123284,663123052,2490378,2490378,-9.171372e-05,1.0942936e-05,-1.5545354e-05,-0.0018390609,-0.0027377675,-0.049082927,4977,4977,0,1,2
663616001,663615784,2490378,2490378,-7.473889e-05,1.1657858e-06,-1.3005943e-05,-0.0017601978,-0.0027831153,-0.04940557,4977,4977,0,1,2
664118689,664118471,2490378,2490378,-6.244571e-05,5.892758e-05,-1.5378977e-05,-0.0018174397,-0.0027664034,-0.04899013,4977,4977,0,1,2
664621376,664621157,2490378,2490378,-0.00011128709,1.6385215e-07,-1.9939578e-05,-0.0017984227,-0.0028216247,-0.04890448,4977,4977,0,1,2
665119084,665118866,2490378,2490378,-9.098994e-05,-3.954576e-06,-1.6142596e-05,-0.0019863632,-0.0028272297,-0.04913645,4977,4977,0,1,2
665621782,665621552,2490378,2490378,-6.7822475e-05,4.6446426e-06,-1.1873572e-05,-0.0018381091,-0.0026470807,-0.04889508,4977,4977,0,1,2
666119495,666119261,2490378,2490378,-8.85272e-05,1.9721552e-05,-1.6879947e-05,-0.0017069508,-0.0028202713,-0.04912348,4978,4978,0,1,2
666622164,666621946,2490378,2490378,-8.8852365e-05,-1.6483275e-05,-1.7980668e-05,-0.0019339999,-0.0027761548,-0.0485865,4977,4977,0,1,2
667119875,667119655,2490378,2490378,-0.00011511651,2.4921e-06,-1.7467484e-05,-0.0020139026,-0.0029522574,-0.04925547,4978,4978,0,1,2
667617595,667617363,2490378,2490378,-0.00012614837,2.263801e-05,-1.7121276e-05,-0.0019171281,-0.002746961,-0.049081974,4978,4978,0,1,2
668120266,668120048,2490378,2490378,-7.650798e-05,3.6142528e-06,-1.4389481e-05,-0.0019712863,-0.002621832,-0.04910763,4977,4977,0,1,2
668617971,668617755,2490378,2490378,-6.3685155e-05,1.6516631e-05,-1.4578025e-05,-0.0019032424,-0.0029345476,-0.049124077,4977,4977,0,1,2
669120659,669120440,2490378,2490378,-0.00010796909,6.362219e-06,-1.6373846e-05,-0.0019313641,-0.002871711,-0.049010772,4977,4977,0,1,2
669618366,669618147,2490378,2490378,-0.00012163859,1.2658032e-05,-2.1082737e-05,-0.001893245,-0.0028659084,-0.04910503,4977,4977,0,1,2
670121048,670120832,2490378,2490378,-0.00010441342,7.1149097e-06,-1.3222941e-05,-0.0018156415,-0.0027343805,-0.04966122,4977,4977,0,1,2
670618755,670618539,2490378,2490378,-8.5062835e-05,1.0097398e-05,-1.6856982e-05,-0.0017928325,-0.0026103298,-0.04884657,4977,4977,0,1,2
671116461,671116246,2490378,2490378,-8.1943006e-05,-4.9507894e-06,-1.39109e-05,-0.001877675,-0.002691944,-0.04900698,4977,4977,0,1,2
671619159,671618930,2490378,2490378,-9.047379e-05,1.2084269e-05,-1.7631177e-05,-0.0022072226,-0.0029910784,-0.048748817,4978,4978,0,1,2
672121830,672121613,2490378,2490378,-0.00010842873,-2.3516652e-06,-1.7995742e-05,-0.0020422495,-0.0028510652,-0.049368516,4977,4977,0,1,2
672619570,672619319,2490378,2490378,-7.976101e-05,2.000788e-05,-1.4689033e-05,-0.0018553674,-0.0027607346,-0.049119268,4977,4977,0,1,2
673122240,673122003,2490378,2490378,-7.394573e-05,-6.352137e-06,-1.3147802e-05,-0.001904906,-0.0027887484,-0.049242817,4977,4977,0,1,2
673619926,673619709,2490378,2490378,-8.845144e-05,-6.0732924e-07,-1.3465695e-05,-0.0019534037,-0.0028491577,-0.04913599,4977,4977,0,1,2
674117636,674117414,2490378,2490378,-0.00010473707,2.1216629e-05,-2.1179228e-05,-0.0020198426,-0.0027550005,-0.049303357,4977,4977,0,1,2
674620313,674620097,2490378,2490378,-9.564279e-05,1.6971428e-05,-1.8126422e-05,-0.0019646415,-0.0027901526,-0.049225297,4977,4977,0,1,2
675118021,675117803,2490378,2490378,-6.903472e-05,1.4313444e-05,-1.4192497e-05,-0.0020491614,-0.0027679673,-0.049359854,4977,4977,0,1,2
675620728,675620485,2490378,2490378,-8.808662e-05,2.637798e-05,-1.9816269e-05,-0.0018413132,-0.0029064682,-0.04922652,4977,4977,0,1,2
676118409,676118190,2490378,2490378,-9.032454e-05,5.6977015e-06,-1.870649e-05,-0.0018473981,-0.002843705,-0.04923568,4977,4977,0,1,2
676621089,676620872,2490378,2490378,-9.82792e-05,-1.8781264e-05,-1.3431279e-05,-0.0019387081,-0.0028563163,-0.04881602,4977,4977,0,1,2
677118825,677118577,2490378,2490378,-9.700857e-05,1.6775529e-06,-1.7330061e-05,-0.0019117668,-0.0027282739,-0.048859388,4977,4977,0,1,2
677616498,677616281,2490378,2490378,-8.050582e-05,1.1442538e-05,-1.9942388e-05,-0.0019619958,-0.002840414,-0.04921701,4977,4977,0,1,2
678119178,678118962,2490378,2490378,-9.058068e-05,2.0592968e-05,-1.8542947e-05,-0.0020185136,-0.0029612547,-0.049358055,4976,4976,0,1,2
678616913,678616667,2490378,2490378,-9.8327066e-05,-2.0558637e-05,-9.548037e-06,-0.001928581,-0.0027531378,-0.049162593,4977,4977,0,1,2
679119568,679119348,2490378,2490378,-8.23039e-05,-2.1366044e-05,-1.1096137e-05,-0.0017325084,-0.002643303,-0.048614625,4977,4977,0,1,2
679622251,679622029,2490378,2490378,-6.933093e-05,3.0937023e-05,-2.123316e-05,-0.001799902,-0.0027567914,-0.048887752,4978,4978,0,1,2
680119955,680119732,2490378,2490378,-8.658136e-05,3.391533e-05,-1.9729248e-05,-0.0016901697,-0.0028229058,-0.04889452,4977,4977,0,1,2
680622745,680622413,2490378,2490378,-6.725311e-05,2.2541204e-05,-1.7700273e-05,-0.0017428774,-0.003101858,-0.049006943,4977,4977,0,1,2
681120348,681120116,2490378,2490378,-9.364483e-05,-1.0440578e-05,-1.2493374e-05,-0.0018091146,-0.0026416152,-0.04938944,4977,4977,0,1,2
681618049,681617819,2490378,2490378,-9.1218e-05,-1.9654755e-05,-1.1759865e-05,-0.0019696585,-0.0025129872,-0.049021654,4977,4977,0,1,2
682120785,682120499,2490378,2490378,-8.981263e-05,-1.3021714e-05,-1.6180982e-05,-0.0020053922,-0.0026736932,-0.04916143,4977,4977,0,1,2
682618418,682618202,2490378,2490378,-8.445838e-05,2.9225845e-05,-1.8300687e-05,-0.0018958473,-0.0026896934,-0.049167704,4977,4977,0,1,2
683121101,683120882,2490378,2490378,-9.766616e-05,-2.8301129e-06,-1.2962651e-05,-0.0017420446,-0.0027079063,-0.04918543,4977,4977,0,1,2
683618802,683618584,2490378,2490378,-0.0001084228,3.6049427e-05,-1.635429e-05,-0.0019990727,-0.0027737387,-0.04921721,4977,4977,0,1,2
684121481,684121263,2490378,2490378,-0.000112325986,3.651834e-06,-1.7152965e-05,-0.0017796059,-0.0026501908,-0.048937526,4977,4977,0,1,2
684619180,684618965,2490378,2490378,-9.570911e-05,5.817205e-05,-2.2503637e-05,-0.0017371854,-0.0027104386,-0.048566002,4977,4977,0,1,2
685116883,685116667,2490378,2490378,-1.6629241e-05,-5.5762153e-05,2.0517987e-06,-0.0021816376,-0.0029091716,-0.050744593,4977,4977,0,1,2
685619566,685619347,2490378,2490378,-9.130346e-05,-6.2461454e-06,-8.99457e-06,-0.0020217614,-0.002849729,-0.049159683,4978,4978,0,1,2
686117280,686117048,2490378,2490378,-0.0001015466,1.6161537e-05,-2.0140484e-05,-0.0020168333,-0.0026696906,-0.048330758,4977,4977,0,1,2
686620157,686619726,2490378,2490378,-0.0001052834,1.887421e-06,-1.7255476e-05,-0.0020321307,-0.0027159385,-0.049086925,4977,4977,0,1,2
687122627,687122404,2490378,2490378,-9.780375e-05,4.897713e-05,-2.5124707e-05,-0.0020790056,-0.0027357216,-0.04911241,4977,4977,0,1,2
687620328,687620105,2490378,2490378,-7.8787954e-05,-6.634972e-06,-1.2805781e-05,-0.0020407964,-0.0027492822,-0.04928136,4977,4977,0,1,2
688118023,688117806,2490378,2490378,-8.422902e-05,2.532956e-06,-1.3681519e-05,-0.002071907,-0.0030534163,-0.04951637,4977,4977,0,1,2
688620703,688620484,2490378,2490378,-9.235125e-05,-1.2101811e-05,-1.6969345e-05,-0.0021276372,-0.0029433537,-0.049226053,4977,4977,0,1,2
689118417,689118185,2490378,2490378,-0.00011064424,3.3643326e-05,-1.9949828e-05,-0.0021532085,-0.002928418,-0.049109828,4977,4977,0,1,2
689621081,689620862,2490378,2490378,-8.882365e-05,3.3068365e-05,-1.60724e-05,-0.0021488466,-0.0027737934,-0.048906244,4977,4977,0,1,2
690118828,690118562,2490378,2490378,-7.97936e-05,-1.0542891e-05,-1.2491394e-05,-0.00218914,-0.0027564454,-0.04934003,4977,4977,0,1,2
690621491,690621239,2490378,2490378,-9.411928e-05,1.01698615e-05,-1.9843837e-05,-0.0021812841,-0.0023942639,-0.048330966,4977,4977,0,1,2
691119171,691118939,2490378,2490378,-9.0693175e-05,2.2987606e-05,-1.4915067e-05,-0.0022062743,-0.0029467414,-0.049191874,4977,4977,0,1,2
691616870,691616639,2490378,2490378,-0.00010146665,1.9461408e-05,-1.4401746e-05,-0.0020681561,-0.0028452855,-0.048931953,4977,4977,0,1,2
692119534,692119315,2490378,2490378,-0.00010251555,-1.0561616e-06,-1.42567205e-05,-0.0019720683,-0.0026730918,-0.048793197,4976,4976,0,1,2
692617230,692617015,2490378,2490378,-8.053471e-05,1.2214767e-05,-1.7102717e-05,-0.0020730277,-0.0028337808,-0.049237236,4977,4977,0,1,2
693119912,693119691,2490378,2490378,-8.564353e-05,1.0308101e-05,-1.2029933e-05,-0.0020678963,-0.002857402,-0.04887482,4977,4977,0,1,2
693617607,693617390,2490378,2490378,-9.558083e-05,-1.1117904e-05,-1.5745241e-05,-0.0019270777,-0.0028540702,-0.048941363,4977,4977,0,1,2
694120284,694120066,2490378,2490378,-9.582451e-05,1.0681009e-05,-1.7531765e-05,-0.002125829,-0.0027900508,-0.04913334,4977,4977,0,1,2
694622957,694622742,2490378,2490378,-9.60516e-05,1.4775147e-05,-1.4715753e-05,-0.0021557475,-0.0028569747,-0.049224395,4977,4977,0,1,2
695115685,695115463,2490378,2490378,-9.3800125e-05,9.192574e-06,-1.5006312e-05,-0.0020665543,-0.0027538366,-0.048939638,4977,4977,0,1,2
695618371,695618139,2490378,2490378,-8.961014e-05,-6.6516727e-06,-1.23146065e-05,-0.002109544,-0.002817717,-0.04899537,4977,4977,0,1,2
696121030,696120814,2490378,2490378,-9.413552e-05,1.0970379e-05,-1.7509305e-05,-0.0022965379,-0.002851936,-0.049108926,4977,4977,0,1,2
696618731,696618512,2490378,2490378,-9.946042e-05,1.882465e-05,-1.49046955e-05,-0.002121814,-0.0028208462,-0.04903027,4977,4977,0,1,2
697121407,697121187,2490378,2490378,-9.078624e-05,1.1176192e-05,-1.752061e-05,-0.0020592997,-0.0028540879,-0.048919324,4977,4977,0,1,2
697619105,697618885,2490378,2490378,-9.567878e-05,1.7019362e-05,-1.64193e-05,-0.0020357405,-0.0028874055,-0.048874218,4977,4977,0,1,2
698121775,698121559,2490378,2490378,-0.00010688972,8.10631e-06,-1.4297401e-05,-0.0019814484,-0.0027913577,-0.04926117,4977,4977,0,1,2
698619480,698619257,2490378,2490378,-9.338938e-05,-1.8938581e-06,-1.4064074e-05,-0.0021359853,-0.0028040328,-0.049397293,4977,4977,0,1,2
699117173,699116954,2490378,2490378,-9.547826e-05,-4.5444293e-07,-1.5034542e-05,-0.0021098144,-0.0027469147,-0.048578136,4977,4977,0,1,2
699619848,699619628,2490378,2490378,-9.65032e-05,1.61924e-05,-1.6094045e-05,-0.0021489824,-0.0027754186,-0.049235635,4977,4977,0,1,2
700117555,700117325,2490378,2490378,-9.2233364e-05,7.5218504e-06,-1.6374424e-05,-0.0021369322,-0.002860833,-0.049150858,4976,4976,0,1,2
700620235,700619999,2490378,2490378,-9.428147e-05,9.2241335e-06,-1.568111e-05,-0.0021066219,-0.0027894047,-0.04909367,4977,4977,0,1,2
701122891,701122672,2490378,2490378,-8.1260834e-05,1.6730228e-05,-1.8988207e-05,-0.002062869,-0.0028057168,-0.049447555,4976,4976,0,1,2
701620586,701620369,2490378,2490378,-8.154247e-05,5.0806025e-06,-1.6739681e-05,-0.0020341047,-0.002809623,-0.04902973,4977,4977,0,1,2
702118283,702118065,2490378,2490378,-9.2354305e-05,1.1115481e-05,-1.38746755e-05,-0.0020357354,-0.002933307,-0.04931968,4977,4977,0,1,2
702620973,702620739,2490378,2490378,-9.929152e-05,2.1815778e-05,-1.0990186e-05,-0.0020390053,-0.0028578371,-0.049119323,4977,4977,0,1,2
703118658,703118435,2490378,2490378,-0.0001035089,1.1910338e-05,-1.46067e-05,-0.0020082905,-0.002842107,-0.04903354,4977,4977,0,1,2
703621347,703621108,2490378,2490378,-0.00010040159,-1.0779612e-06,-1.7474886e-05,-0.0020613004,-0.0028023934,-0.04904121,4977,4977,0,1,2
704119020,704118803,2490378,2490378,-9.2348295e-05,-3.296328e-05,-1.1034413e-05,-0.0020871656,-0.0027146447,-0.04936446,4977,4977,0,1,2
704621696,704621476,2490378,2490378,-9.017597e-05,1.23071695e-05,-1.7315735e-05,-0.002108103,-0.0028084195,-0.04897681,4977,4977,0,1,2
705119403,705119171,2490378,2490378,-8.905877e-05,-2.1649523e-06,-1.4514007e-05,-0.0021482534,-0.0028202708,-0.049040485,4977,4977,0,1,2
705617087,705616867,2490378,2490378,-9.6812204e-05,8.8387554e-07,-1.5780113e-05,-0.0022071928,-0.0027441054,-0.048773218,4977,4977,0,1,2
706119754,706119539,2490378,2490378,-9.484612e-05,-5.258503e-05,-2.2570462e-06,-0.0020170119,-0.0025532842,-0.048217606,4977,4977,0,1,2
706617452,706617234,2490378,2490378,-9.4550116e-05,2.2690472e-05,-1.6186013e-05,-0.0023746577,-0.0029163358,-0.04958963,4977,4977,0,1,2
707120123,707119905,2490378,2490378,-0.00010078959,1.662396e-05,-1.474976e-05,-0.002335568,-0.0029524479,-0.049221303,4977,4977,0,1,2
707617821,707617600,2490378,2490378,-9.7212825e-05,9.810934e-06,-1.6191918e-05,-0.0021866811,-0.0029639597,-0.049194507,4977,4977,0,1,2
708120492,708120272,2490378,2490378,-0.0001008852,-2.7814874e-06,-1.6103995e-05,-0.002336605,-0.0029483193,-0.04903085,4977,4977,0,1,2
708623159,708622943,2490378,2490378,-9.836981e-05,9.6455515e-06,-1.7464503e-05,-0.0021996207,-0.0028843943,-0.049163245,4977,4977,0,1,2
709115875,709115660,2490378,2490378,-5.019138e-05,-5.721327e-05,-1.5335636e-05,-0.0025222898,-0.0028614935,-0.04600541,4977,4977,0,1,2
709618563,709618331,2490378,2490378,-9.3320254e-05,8.151576e-05,-2.2999204e-05,-0.001993562,-0.0029714985,-0.04867685,4977,4977,0,1,2
710121218,710121002,2490378,2490378,-8.6681044e-05,1.2215594e-05,-1.62233e-05,-0.0021726736,-0.00304549,-0.049287822,4977,4977,0,1,2
710618950,710618696,2490378,2490378,-7.239107e-05,-2.1711745e-05,-1.2258864e-05,-0.0019437367,-0.0031060942,-0.049295075,4977,4977,0,1,2
711121583,711121366,2490378,2490378,-9.76966e-05,1.640019e-05,-1.8271061e-05,-0.0021196594,-0.003017494,-0.049245093,4976,4976,0,1,2
711619284,711619060,2490378,2490378,-0.00011418319,-2.0872107e-05,-1.1268428e-05,-0.0019326041,-0.0030573427,-0.04925083,4977,4977,0,1,2
712121947,712121730,2490378,2490378,-8.4063155e-05,5.011378e-06,-1.50567785e-05,-0.0021037224,-0.0029039076,-0.049033206,4977,4977,0,1,2
712619647,712619424,2490378,2490378,-4.7492045e-05,-5.484856e-06,-8.1369635e-06,-0.002365385,-0.0028911652,-0.049437013,4977,4977,0,1,2
713117338,713117117,2490378,2490378,-0.000115979,4.8139635e-05,-1.6809112e-05,-0.002042838,-0.0030032399,-0.049360063,4977,4977,0,1,2
713620008,713619786,2490378,2490378,-9.822297e-05,-9.956738e-06,-1.6438426e-05,-0.0022700608,-0.002867276,-0.049229436,4977,4977,0,1,2
714117719,714117479,2490378,2490378,-8.3376966e-05,2.636609e-05,-1.782065e-05,-0.0019917842,-0.002857269,-0.04903849,4977,4977,0,1,2
714620386,714620149,2490378,2490378,-7.988198e-05,6.0190105e-06,-1.3969623e-05,-0.0019889558,-0.0029334594,-0.049118716,4977,4977,0,1,2
715123039,715122818,2490378,2490378,-9.94298e-05,1.3911357e-05,-1.4503751e-05,-0.0020631123,-0.0029206192,-0.04893278,4977,4977,0,1,2
715620731,715620510,2490378,2490378,-0.00010170943,1.0609083e-06,-1.6913198e-05,-0.0020508317,-0.003014048,-0.049242396,4976,4976,0,1,2
716118435,716118203,2490378,2490378,-0.000101088626,-1.6516531e-05,-1.1811249e-05,-0.0020412751,-0.0029944715,-0.049124092,4977,4977,0,1,2
716616114,716615895,2490378,2490378,-9.1784306e-05,3.2765347e-05,-1.3589584e-05,-0.0020871928,-0.0029190208,-0.048972968,4977,4977,0,1,2
717118783,717118563,2490378,2490378,-8.6385386e-05,-3.0669867e-06,-1.3899058e-05,-0.0020701927,-0.0028570537,-0.04911979,4976,4976,0,1,2
717621448,717621232,2490378,2490378,-8.8536624e-05,-9.1153197e-07,-1.3992899e-05,-0.0021036689,-0.0029307883,-0.049064536,4977,4977,0,1,2
718119145,718118924,2490378,2490378,-8.8348206e-05,3.4419281e-06,-1.544518e-05,-0.0021425923,-0.0027097478,-0.04939854,4977,4977,0,1,2
718621811,718621592,2490378,2490378,-8.286935e-05,2.4969686e-05,-1.6190086e-05,-0.0019037867,-0.0029509566,-0.04895246,4977,4977,0,1,2
719119517,719119283,2490378,2490378,-9.6313095e-05,2.1022533e-05,-1.4981479e-05,-0.0019670397,-0.0029572416,-0.049233217,4976,4976,0,1,2
719617193,719616975,2490378,2490378,-0.00010073353,-1.30328e-06,-1.790642e-05,-0.0019376241,-0.0029336605,-0.04896291,4977,4977,0,1,2
720119860,720119643,2490378,2490378,-8.835994e-05,2.7828053e-06,-1.5489453e-05,-0.0019774223,-0.002899031,-0.049155716,4977,4977,0,1,2
720617570,720617335,2490378,2490378,-9.3013965e-05,3.3086276e-06,-1.1483246e-05,-0.0020475904,-0.002886982,-0.048964176,4978,4978,0,1,2
721120218,721120001,2490378,2490378,-9.1161535e-05,6.984135e-06,-1.4248043e-05,-0.002115323,-0.002955351,-0.049107388,4977,4977,0,1,2
721617912,721617692,2490378,2490378,-8.3238905e-05,9.004942e-06,-1.4201848e-05,-0.0020354844,-0.0029164378,-0.049035646,4977,4977,0,1,2
722120580,722120359,2490378,2490378,-9.3716284e-05,1.7964527e-05,-1.6349983e-05,-0.00209289,-0.0029617893,-0.0492603,4977,4977,0,1,2
722623245,722623027,2490378,2490378,-0.0001001965,2.440311e-05,-1.5487978e-05,-0.0019167052,-0.003030977,-0.049010176,4977,4977,0,1,2
723115959,723115740,2490378,2490378,-9.1044734e-05,5.8354715e-07,-1.6905113e-05,-0.0019796372,-0.002862987,-0.048975613,4977,4977,0,1,2
723618644,723618407,2490378,2490378,-8.0175305e-05,-9.293175e-06,-1.28811835e-05,-0.001988623,-0.003017501,-0.048907865,4977,4977,0,1,2
724121289,724121074,2490378,2490378,-9.443254e-05,7.6233073e-06,-1.4125431e-05,-0.002034021,-0.002837196,-0.048958663,4977,4977,0,1,2
724619003,724618764,2490378,2490378,-8.2158906e-05,4.089048e-06,-1.32660525e-05,-0.0020586026,-0.0029454904,-0.04939083,4977,4977,0,1,2
725121649,725121430,2490378,2490378,1.1859403e-05,-5.4529023e-06,5.8710134e-07,-0.001987003,-0.0029084103,-0.048999198,4976,4976,0,1,3
725619340,725619120,2490378,2490378,-5.341045e-06,1.1968263e-05,-2.789349e-06,-0.0018918985,-0.0030026943,-0.048951495,4977,4977,0,1,3
726122014,726121786,2490378,2490378,-2.5501292e-06,-6.7532146e-06,-1.3975815e-06,-0.0019708648,-0.0030018806,-0.04904695,4976,4976,0,1,3
726619689,726619476,2490378,2490378,-3.2711745e-05,-2.6691803e-06,-2.0918212e-06,-0.0019426306,-0.0029024975,-0.048797555,4977,4977,0,1,3
727117424,727117165,2490378,2490378,-9.6898e-06,-6.3610287e-06,2.6358643e-06,-0.0019811862,-0.0027903556,-0.04879016,4977,4977,0,1,3
727620048,727619831,2490378,2490378,1.6543329e-06,8.815187e-07,3.4517657e-06,-0.00216274,-0.0028774333,-0.04911849,4977,4977,0,1,3
728117735,728117520,2490378,2490378,1.3228279e-06,-1.9122845e-06,1.4273708e-06,-0.0020590154,-0.002786175,-0.048939925,4977,4977,0,1,3
728620419,728620186,2490378,2490378,1.3964001e-05,3.937634e-06,1.6357975e-06,-0.0019543357,-0.0030684464,-0.049226254,4977,4977,0,1,3
729123072,729122852,2490378,2490378,5.806843e-06,-1.0673899e-05,2.298917e-06,-0.002091537,-0.0029240858,-0.049206786,4978,4978,0,1,3
729620756,729620540,2490378,2490378,-2.124031e-05,3.5610544e-06,2.0088587e-06,-0.0020054353,-0.002800509,-0.049063325,4977,4977,0,1,3
730118465,730118229,2490378,2490378,-2.2988614e-05,6.0847024e-06,-1.6428743e-06,-0.0019808316,-0.0027867726,-0.04882713,4977,4977,0,1,3
730616153,730615917,2490378,2490378,3.6222077e-06,-1.6549358e-05,4.7807157e-06,-0.002022387,-0.0027887337,-0.04899401,4977,4977,0,1,3
731118798,731118582,2490378,2490378,6.8000204e-06,1.1263574e-05,1.1175063e-06,-0.0021181225,-0.002787883,-0.048958316,4977,4977,0,1,3
731621490,731621247,2490378,2490378,-9.140328e-06,1.9508936e-05,3.4097773e-06,-0.0019779082,-0.0028826518,-0.049057662,4977,4977,0,1,3
732119155,732118935,2490378,2490378,7.931111e-06,-1.0995537e-05,2.5650584e-06,-0.0020114903,-0.002964922,-0.049246017,4977,4977,0,1,3
732621817,732621600,2490378,2490378,7.6564065e-06,-1.4610622e-06,-2.122784e-06,-0.0020675974,-0.0030145491,-0.04911744,4977,4977,0,1,3
733119516,733119288,2490378,2490378,-1.043078e-05,-3.525075e-06,7.5794084e-08,-0.0020731662,-0.0029434576,-0.049049105,4977,4977,0,1,3
733617206,733616976,2490378,2490378,-1.9418274e-05,-4.402639e-06,-3.191599e-07,-0.0020728437,-0.002870033,-0.049002305,4977,4977,0,1,3
734119945,734119640,2490378,2490378,3.3056199e-06,-6.7783244e-06,7.4612063e-07,-0.0021221885,-0.002759258,-0.048795503,4977,4977,0,1,3
734617559,734617327,2490378,2490378,1.161537e-05,-4.6933833e-06,1.3951874e-06,-0.0020857481,-0.002829586,-0.049044672,4976,4976,0,1,3
735120206,735119992,2490378,2490378,1.9566212e-05,-3.48001e-06,-9.708955e-07,-0.0020368537,-0.0027976844,-0.048349198,4977,4977,0,1,3
735617920,735617679,2490378,2490378,1.565563e-05,4.1288004e-06,-9.0953e-08,-0.0021636533,-0.0030117778,-0.049159236,4977,4977,0,1,3
736120559,736120343,2490378,2490378,1.4617475e-05,-1.6644866e-05,4.4443827e-06,-0.0021403972,-0.0027734844,-0.048164327,4977,4977,0,1,3
736623223,736623007,2490378,2490378,-3.312763e-05,7.717109e-06,-1.1920065e-08,-0.0019815646,-0.0029651143,-0.049301066,4977,4977,0,1,3
737115932,737115717,2490378,2490378,-4.383524e-06,4.8117713e-06,-6.276882e-07,-0.0020006024,-0.0027637808,-0.04883036,4977,4977,0,1,3
737618603,737618380,2490378,2490378,1.4257691e-05,1.5744434e-05,2.6568534e-06,-0.0018968869,-0.0027002338,-0.048680373,4977,4977,0,1,3
738121754,738121044,2490378,2490378,7.330215e-06,9.7971915e-06,-2.1200685e-06,-0.0018878995,-0.0026708136,-0.048757415,4977,4977,0,1,3
738618946,738618730,2490378,2490378,5.9410963e-06,-9.8278615e-06,2.1482804e-06,-0.0017830991,-0.002913013,-0.049347796,4977,4977,0,1,3
739121613,739121394,2490378,2490378,-3.94694e-06,-2.9671664e-05,3.3708093e-06,-0.0017261071,-0.0028437797,-0.04917933,4977,4977,0,1,3
739619293,739619080,2490378,2490378,2.3273212e-06,-4.1631072e-05,3.4462123e-06,-0.0021126368,-0.0029973967,-0.049318906,4977,4977,0,1,3
740121979,740121743,2490378,2490378,-3.4366699e-06,-5.4149346e-05,5.9469016e-06,-0.0020836394,-0.002730527,-0.049134765,4977,4977,0,1,3
740619690,740619429,2490378,2490378,-5.574889e-06,7.989508e-06,5.771535e-06,-0.002004569,-0.0025174038,-0.048883498,4977,4977,0,1,3
741117334,741117115,2490378,2490378,1.9490935e-05,1.6805177e-05,-1.5584564e-07,-0.0021770315,-0.002824695,-0.048962243,4977,4977,0,1,3
741619996,741619778,2490378,2490378,2.505884e-05,-5.026406e-06,3.50988e-06,-0.0021845605,-0.0028830632,-0.04911918,4977,4977,0,1,3
742117679,742117464,2490378,2490378,-4.481591e-06,-1.0413676e-05,2.3127418e-06,-0.0023001241,-0.0028550224,-0.049061965,4977,4977,0,1,3
742620355,742620126,2490378,2490378,-1.8490593e-05,1.0012293e-05,7.43901e-07,-0.0020979675,-0.002274434,-0.049712177,4977,4977,0,1,3
743123006,743122789,2490378,2490378,-7.937351e-06,-1.1575027e-05,6.0786255e-07,-0.0020494442,-0.0028845293,-0.049171913,4977,4977,0,1,3
743620691,743620474,2490378,2490378,6.2250924e-06,5.9399167e-06,-8.870674e-07,-0.0020858112,-0.002759304,-0.049038853,4977,4977,0,1,3
744118375,744118159,2490378,2490378,1.2102268e-05,-3.5484527e-06,-4.3436808e-06,-0.0021292595,-0.002765391,-0.049092554,4976,4976,0,1,3
744621037,744620822,2490378,2490378,7.214911e-06,-7.6340375e-06,2.8946206e-06,-0.0021163605,-0.0029111814,-0.04919405,4977,4977,0,1,3
745118724,745118507,2490378,2490378,1.362694e-05,-1.9503606e-05,5.450193e-06,-0.002208397,-0.0028353818,-0.04919237,4977,4977,0,1,3
745621402,745621169,2490378,2490378,2.3434654e-06,-1.10024275e-05,3.7952034e-06,-0.0020709548,-0.0028403623,-0.049069848,4977,4977,0,1,3
746119090,746118854,2490378,2490378,1.0884406e-05,1.8583276e-05,7.9710514e-07,-0.0021183072,-0.0028229526,-0.049114875,4977,4977,0,1,3
746621732,746621515,2490378,2490378,-4.099227e-06,-8.751029e-06,-1.1947764e-06,-0.0021343157,-0.0028250269,-0.049131963,4977,4977,0,1,3
747119440,747119202,2490378,2490378,-7.3910237e-06,1.0142734e-06,8.012392e-07,-0.0020560664,-0.0027733587,-0.04894329,4979,4979,0,1,3
747617108,747616884,2490378,2490378,2.8830245e-06,-2.5193574e-05,-3.2052716e-07,-0.002141228,-0.0023844857,-0.0490786,4976,4976,0,1,3
748119765,748119546,2490378,2490378,1.339573e-05,1.7839598e-07,-1.5236466e-06,-0.0021151195,-0.0027147585,-0.048470832,4977,4977,0,1,3
748617445,748617230,2490378,2490378,2.8595283e-05,1.7091676e-05,2.9528637e-06,-0.0020487027,-0.0029266828,-0.04945396,4977,4977,0,1,3
749120105,749119891,2490378,2490378,-4.1021385e-06,4.656291e-06,-1.782231e-06,-0.0021054903,-0.0028851263,-0.049148895,4977,4977,0,1,3
749617794,749617576,2490378,2490378,-1.7348337e-05,-9.264751e-07,-9.287091e-07,-0.0021389085,-0.0028733707,-0.04902912,4977,4977,0,1,3
750120483,750120236,2490378,2490378,-1.8756793e-05,-1.6684011e-05,1.9060868e-06,-0.0021216157,-0.0026622522,-0.048979566,4976,4976,0,1,3
750623113,750622897,2490378,2490378,1.2273723e-05,-1.068409e-05,5.4518946e-06,-0.002049657,-0.002690036,-0.049052466,4977,4977,0,1,3
751115824,751115604,2490378,2490378,2.8214927e-05,-1.2354374e-06,3.67821e-06,-0.002101287,-0.0028222487,-0.04919967,4977,4977,0,1,3
751618481,751618265,2490378,2490378,1.9561268e-05,-4.78522e-06,-2.0988716e-07,-0.0020784186,-0.002945526,-0.049117487,4976,4976,0,1,3
752121155,752120925,2490378,2490378,1.144066e-06,3.0387473e-05,-2.7761334e-06,-0.0021370372,-0.0030261117,-0.049137432,4977,4977,0,1,3
752618927,752618609,2490378,2490378,-2.7226351e-05,6.2184845e-06,-1.3985502e-06,-0.0020036595,-0.0028398875,-0.048895914,4977,4977,0,1,3
753121483,753121269,2490378,2490378,-1.4088353e-05,-1.579463e-05,3.3464828e-06,-0.001984608,-0.0026883653,-0.04893672,4977,4977,0,1,3
753619169,753618952,2490378,2490378,1.4522301e-05,-6.7453616e-06,-2.0414936e-06,-0.0020440267,-0.0026914126,-0.04915953,4977,4977,0,1,3
754121829,754121612,2490378,2490378,2.6561103e-05,-8.930034e-06,-3.5195728e-07,-0.0021181349,-0.0027989943,-0.04885451,4977,4977,0,1,3
754619572,754619295,2490378,2490378,2.776187e-06,2.5676834e-05,-4.3560303e-06,-0.0020828005,-0.0029075027,-0.04926551,4977,4977,0,1,3
755117193,755116978,2490378,2490378,-6.9993803e-06,-1.2145446e-05,3.755633e-06,-0.002074505,-0.002815756,-0.04904304,4977,4977,0,1,3
755619854,755619638,2490378,2490378,-4.754072e-06,-3.1779957e-06,3.3796387e-06,-0.002089366,-0.0027955712,-0.049145695,4977,4977,0,1,3
756117535,756117320,2490378,2490378,2.990819e-06,-5.2209134e-06,-2.036395e-06,-0.0019442593,-0.002747523,-0.04902759,4976,4976,0,1,3
756620215,756619980,2490378,2490378,-4.0738423e-06,4.367857e-06,-9.16978e-07,-0.002024533,-0.002646246,-0.048511967,4977,4977,0,1,3
757122882,757122639,2490378,2490378,-1.1418933e-05,7.437566e-06,-1.0370563e-06,-0.0021916965,-0.0027146381,-0.049214385,4977,4977,0,1,3
757620542,757620322,2490378,2490378,8.2106735e-06,-4.2715965e-06,-4.5224718e-07,-0.002021258,-0.002800847,-0.049118154,4977,4977,0,1,3
758118221,758118004,2490378,2490378,1.601582e-05,-8.899302e-06,1.3427848e-06,-0.002134675,-0.002819935,-0.04913091,4977,4977,0,1,3
758620877,758620663,2490378,2490378,-2.9362936e-06,9.143334e-05,-8.916747e-06,-0.0025419514,-0.0029828919,-0.049456436,4977,4977,0,1,3
759118563,759118345,2490378,2490378,6.2450235e-06,2.1645801e-05,5.1417254e-07,-0.0023053214,-0.002686788,-0.050089892,4977,4977,0,1,3
759621219,759621003,2490378,2490378,-2.7163333e-05,2.4936928e-05,-4.2197285e-06,-0.0019922021,-0.0027679708,-0.048776217,4976,4976,0,1,3
