timestamp,timestamp_sample,output_tracking_error[0],output_tracking_error[1],output_tracking_error[2],control_mode_flags,filter_fault_flags,pos_horiz_accuracy,pos_vert_accuracy,mag_test_ratio,vel_test_ratio,pos_test_ratio,hgt_test_ratio,tas_test_ratio,hagl_test_ratio,beta_test_ratio,time_slip,accel_device_id,gyro_device_id,baro_device_id,mag_device_id,gps_check_fail_flags,innovation_check_flags,solution_status_flags,reset_count_vel_ne,reset_count_vel_d,reset_count_pos_ne,reset_count_pod_d,reset_count_quat,pre_flt_fail_innov_heading,pre_flt_fail_innov_vel_horiz,pre_flt_fail_innov_vel_vert,pre_flt_fail_innov_height,pre_flt_fail_mag_field_disturbed,health_flags,timeout_flags
539374271,539274037,8.796053e-05,0.00549957,0.016542012,67240471,0,0.6202123,0.45725036,0.012401106,0.020280624,0.023800215,0.00956393,0.0,0.0,0.0,0.0,2490378,2490378,4028193,396321,0,0,895,2,1,2,0,4,0,0,0,0,0,0,0
539384157,539283992,8.768472e-05,0.00538247,0.015925974,67240471,0,0.6214603,0.458164,0.012401106,0.020280624,0.023800215,0.00956393,0.0,0.0,0.0,0.0,2490378,2490378,4028193,396321,0,0,895,2,1,2,0,4,0,0,0,0,0,0,0
539573433,539473129,0.00018485142,0.0087127425,0.017115079,67240471,0,0.62081856,0.46050632,0.011819864,0.056752026,0.025159804,0.000654382,0.0,0.0,0.0,0.0,2490378,2490378,4028193,396321,0,0,895,2,1,2,0,4,0,0,0,0,0,0,0
539772392,539672221,0.00021797304,0.009068141,0.014428324,67240471,0,0.6227285,0.46024,0.015586936,0.048970398,0.025227897,0.01577209,0.0,0.0,0.0,0.0,2490378,2490378,4028193,396321,0,0,895,2,1,2,0,4,0,0,0,0,0,0,0
539971496,539871313,0.00025458616,0.0056167883,0.01626014,67240471,0,0.621141,0.45878863,0.03178605,0.01698711,0.028197143,0.011191914,0.0,0.0,0.0,0.0,2490378,2490378,4028193,396321,0,0,895,2,1,2,0,4,0,0,0,0,0,0,0
540170513,540070405,0.00018701122,0.006876555,0.021559592,67240471,0,0.61152923,0.45828453,0.0068146903,0.031766817,0.030684954,0.012042635,0.0,0.0,0.0,0.0,2490378,2490378,4028193,396321,0,0,895,2,1,2,0,4,0,0,0,0,0,0,0
540369686,540269497,8.98844e-05,0.0031058018,0.015602974,67240471,0,0.60405886,0.45434913,0.0033135745,0.008871102,0.032385975,0.0007746909,0.0,0.0,0.0,0.0,2490378,2490378,4028193,396321,0,0,895,2,1,2,0,4,0,0,0,0,0,0,0
540568941,540468590,0.00019231075,0.008548458,0.024174806,67240471,0,0.59552246,0.44974092,0.006620154,0.026361087,0.035109922,0.011828263,0.0,0.0,0.0,0.0,2490378,2490378,4028193,396321,0,0,895,2,1,2,0,4,0,0,0,0,0,0,0
540777906,540677636,0.0003016915,0.012207179,0.02986977,67240471,0,0.5912194,0.44733888,0.0068293978,0.033027053,0.034521163,0.0022613988,0.0,0.0,0.0,0.0,2490378,2490378,4028193,396321,0,0,895,2,1,2,0,4,0,0,0,0,0,0,0
540976878,540876728,0.00037005055,0.01640863,0.036481146,67240471,0,0.5859465,0.44769302,0.0090243425,0.05925809,0.033312064,0.012723193,0.0,0.0,0.0,0.0,2490378,2490378,4028193,396321,0,0,895,2,1,2,0,4,0,0,0,0,0,0,0
541175943,541075820,0.00017701893,0.010417668,0.026984463,67240471,0,0.58437,0.44617927,0.013330402,0.024259485,0.03198788,0.007056047,0.0,0.0,0.0,0.0,2490378,2490378,4028193,396321,0,0,895,2,1,2,0,4,0,0,0,0,0,0,0
541375091,541274912,0.0002804441,0.012302636,0.029471658,67240471,0,0.5817994,0.44418347,0.015514099,0.04818572,0.031025756,0.003869476,0.0,0.0,0.0,0.0,2490378,2490378,4028193,396321,0,0,895,2,1,2,0,4,0,0,0,0,0,0,0
541574144,541474005,0.00017167222,0.0040465724,0.0067656883,67240471,0,0.57930267,0.44586137,0.004537526,0.039915636,0.027811179,0.002328833,0.0,0.0,0.0,0.0,2490378,2490378,4028193,396321,0,0,895,2,1,2,0,4,0,0,0,0,0,0,0
541773327,541673097,0.00015166285,0.0016747614,0.0045738765,67240471,0,0.5808074,0.44593242,0.011352691,0.009257284,0.026704086,0.0021807912,0.0,0.0,0.0,0.0,2490378,2490378,4028193,396321,0,0,895,2,1,2,0,4,0,0,0,0,0,0,0
541972382,541872189,9.985036e-05,0.0043460364,0.0075751045,67240471,0,0.58127266,0.4454181,0.0063979505,0.030496627,0.02547417,0.008389393,0.0,0.0,0.0,0.0,2490378,2490378,4028193,396321,0,0,895,2,1,2,0,4,0,0,0,0,0,0,0
542171477,542071281,0.0001883482,0.0038870242,0.008992986,67240471,0,0.58246714,0.44886896,0.006268654,0.040038746,0.026053438,0.003229745,0.0,0.0,0.0,0.0,2490378,2490378,4028193,396321,0,0,895,2,1,2,0,4,0,0,0,0,0,0,0
542370558,542270373,0.00041902723,0.012578705,0.025898062,67240471,0,0.58356243,0.4485878,0.0013190621,0.079776265,0.027910165,0.015745752,0.0,0.0,0.0,0.0,2490378,2490378,4028193,396321,0,0,895,2,1,2,0,4,0,0,0,0,0,0,0
542569637,542469465,0.00018948132,0.0075682676,0.018372564,67240471,0,0.58443666,0.44814873,0.029731875,0.025288614,0.025440883,0.011887769,0.0,0.0,0.0,0.0,2490378,2490378,4028193,396321,0,0,895,2,1,2,0,4,0,0,0,0,0,0,0
542768715,542668558,0.00020454894,0.007312444,0.013383125,67240471,0,0.58117664,0.44955537,0.010645569,0.04471218,0.022477558,0.001874062,0.0,0.0,0.0,0.0,2490378,2490378,4028193,396321,0,0,895,2,1,2,0,4,0,0,0,0,0,0,0
542977805,542877604,0.00017465815,0.0093923705,0.018851386,67240471,0,0.58061975,0.4488796,0.0056822267,0.025288973,0.022159133,0.0033452013,0.0,0.0,0.0,0.0,2490378,2490378,4028193,396321,0,0,895,2,1,2,0,4,0,0,0,0,0,0,0
543176833,543076696,0.00031288623,0.008119001,0.015942354,67240471,0,0.58036566,0.44794726,0.008209067,0.07467501,0.021709371,0.0060710027,0.0,0.0,0.0,0.0,2490378,2490378,4028193,396321,0,0,895,2,1,2,0,4,0,0,0,0,0,0,0
543375935,543275789,0.00020787088,0.0087695485,0.018845335,67240471,0,0.5801961,0.44703242,0.0119882105,0.033678267,0.018852893,0.0057184207,0.0,0.0,0.0,0.0,2490378,2490378,4028193,396321,0,0,895,2,1,2,0,4,0,0,0,0,0,0,0
543575034,543474881,0.00035673837,0.015757566,0.032732572,67240471,0,0.5801649,0.4498554,0.0024826212,0.076921396,0.0154551,0.02028973,0.0,0.0,0.0,0.0,2490378,2490378,4028193,396321,0,0,895,2,1,2,0,4,0,0,0,0,0,0,0
543774063,543673973,0.00023754392,0.013502143,0.029652236,67240471,0,0.57659006,0.44739622,0.028125627,0.030393774,0.015634472,0.0071947696,0.0,0.0,0.0,0.0,2490378,2490378,4028193,396321,0,0,895,2,1,2,0,4,0,0,0,0,0,0,0
543973243,543873065,0.00027444883,0.012593333,0.024821453,67240471,0,0.576214,0.4463617,0.012355826,0.054539863,0.016103921,0.0036833466,0.0,0.0,0.0,0.0,2490378,2490378,4028193,396321,0,0,895,2,1,2,0,4,0,0,0,0,0,0,0
544172287,544072157,0.0002584387,0.013369748,0.028378574,67240471,0,0.5762901,0.44919613,0.0066097947,0.06768141,0.01167191,0.006335314,0.0,0.0,0.0,0.0,2490378,2490378,4028193,396321,0,0,895,2,1,2,0,4,0,0,0,0,0,0,0
544371340,544271250,0.00022762496,0.01028914,0.024975069,67240471,0,0.5753357,0.4479408,0.0011656837,0.034260362,0.01019046,0.010926857,0.0,0.0,0.0,0.0,2490378,2490378,4028193,396321,0,0,895,2,1,2,0,4,0,0,0,0,0,0,0
544570459,544470342,0.0002773855,0.0112021705,0.022559911,67240471,0,0.5746262,0.44677463,0.017075691,0.05107053,0.0094832275,0.00987371,0.0,0.0,0.0,0.0,2490378,2490378,4028193,396321,0,0,895,2,1,2,0,4,0,0,0,0,0,0,0
544769540,544669434,0.00028561038,0.010955572,0.02007582,67240471,0,0.5759583,0.45013812,0.017260859,0.046544515,0.009386169,0.0067359335,0.0,0.0,0.0,0.0,2490378,2490378,4028193,396321,0,0,895,2,1,2,0,4,0,0,0,0,0,0,0
544968674,544868526,0.00016202098,0.00449102,0.0063823713,67240471,0,0.5799738,0.45087954,0.017876076,0.015663376,0.01003363,0.0064384975,0.0,0.0,0.0,0.0,2490378,2490378,4028193,396321,0,0,895,2,1,2,0,4,0,0,0,0,0,0,0
545168194,545067620,0.0002132274,0.008121115,0.012275105,67240471,0,0.5811594,0.4503884,0.0046874825,0.04502151,0.010166501,0.0126896165,0.0,0.0,0.0,0.0,2490378,2490378,4028193,396321,0,0,895,2,1,2,0,4,0,0,0,0,0,0,0
545376926,545276665,0.00023647316,0.0077234106,0.020592699,67240471,0,0.58073807,0.44958857,0.0062133893,0.050779507,0.01133809,0.0050494582,0.0,0.0,0.0,0.0,2490378,2490378,4028193,396321,0,0,895,2,1,2,0,4,0,0,0,0,0,0,0
545575849,545475758,0.00017455494,0.0076546893,0.022000926,67240471,0,0.58355767,0.45341873,0.014741128,0.02189467,0.0097111175,0.0129164215,0.0,0.0,0.0,0.0,2490378,2490378,4028193,396321,0,0,895,2,1,2,0,4,0,0,0,0,0,0,0
545775061,545674850,0.00017759083,0.005526451,0.016182004,67240471,0,0.587507,0.45392278,0.014363879,0.015896572,0.011067598,0.005762484,0.0,0.0,0.0,0.0,2490378,2490378,4028193,396321,0,0,895,2,1,2,0,4,0,0,0,0,0,0,0
545974084,545873942,0.0001822111,0.003243414,0.004499137,67240471,0,0.5887958,0.45332998,0.004859542,0.03427268,0.009423089,0.009498229,0.0,0.0,0.0,0.0,2490378,2490378,4028193,396321,0,0,895,2,1,2,0,4,0,0,0,0,0,0,0
546173125,546073035,0.00014112386,0.0027015358,0.006460141,67240471,0,0.5884468,0.45591077,0.011528057,0.015415937,0.009690357,0.017117854,0.0,0.0,0.0,0.0,2490378,2490378,4028193,396321,0,0,895,2,1,2,0,4,0,0,0,0,0,0,0
546372341,546272127,0.00023444423,0.0036102203,0.01013275,67240471,0,0.59170336,0.45600176,0.019899743,0.029607993,0.00770968,0.0039291154,0.0,0.0,0.0,0.0,2490378,2490378,4028193,396321,0,0,895,2,1,2,0,4,0,0,0,0,0,0,0
546571396,546471219,0.00026128793,0.007642044,0.017742775,67240471,0,0.5941093,0.45578012,0.0068603763,0.050697505,0.0063137366,0.0042303167,0.0,0.0,0.0,0.0,2490378,2490378,4028193,396321,0,0,895,2,1,2,0,4,0,0,0,0,0,0,0
546770503,546670311,0.00026285287,0.009001426,0.020923022,67240471,0,0.59570813,0.45524535,0.033582192,0.03761242,0.004323426,0.004433709,0.0,0.0,0.0,0.0,2490378,2490378,4028193,396321,0,0,895,2,1,2,0,4,0,0,0,0,0,0,0
546969499,546869404,0.00028854242,0.011578662,0.027045729,67240471,0,0.59699374,0.45843837,0.008778265,0.046139274,0.0052638645,0.0012366793,0.0,0.0,0.0,0.0,2490378,2490378,4028193,396321,0,0,895,2,1,2,0,4,0,0,0,0,0,0,0
547178544,547078451,0.00020086653,0.008629337,0.022379046,67240471,0,0.6009214,0.459133,0.0022478707,0.04755372,0.005855468,0.0062558535,0.0,0.0,0.0,0.0,2490378,2490378,4028193,396321,0,0,895,2,1,2,0,4,0,0,0,0,0,0,0
547377957,547277543,7.000625e-05,0.002225258,0.00505118,67240471,0,0.60082597,0.45791242,0.008034706,0.016404081,0.006044191,0.009864423,0.0,0.0,0.0,0.0,2490378,2490378,4028193,396321,0,0,895,2,1,2,0,4,0,0,0,0,0,0,0
547576726,547476635,0.00031865033,0.010120068,0.022155816,67240471,0,0.603555,0.4616357,0.0058246613,0.07313481,0.0071728146,0.0021256446,0.0,0.0,0.0,0.0,2490378,2490378,4028193,396321,0,0,895,2,1,2,0,4,0,0,0,0,0,0,0
547775881,547675728,0.0002803189,0.0071058953,0.016995365,67240471,0,0.6055062,0.46112472,0.011648124,0.06507108,0.00900249,0.003936575,0.0,0.0,0.0,0.0,2490378,2490378,4028193,396321,0,0,895,2,1,2,0,4,0,0,0,0,0,0,0
547974976,547874820,0.00044131253,0.012325041,0.021023626,67240471,0,0.6034436,0.4591828,0.033269975,0.058882903,0.0073771584,0.01375818,0.0,0.0,0.0,0.0,2490378,2490378,4028193,396321,0,0,895,2,1,2,0,4,0,0,0,0,0,0,0
548174010,548073912,0.00023595407,0.00612719,0.016228551,67240471,0,0.6038231,0.46205342,0.021014284,0.044269774,0.010163921,0.0010991488,0.0,0.0,0.0,0.0,2490378,2490378,4028193,396321,0,0,895,2,1,2,0,4,0,0,0,0,0,0,0
548373130,548273005,0.00044731915,0.014818603,0.033461716,67240471,0,0.6051388,0.4612289,0.0019072047,0.07712434,0.01143646,0.011137587,0.0,0.0,0.0,0.0,2490378,2490378,4028193,396321,0,0,895,2,1,2,0,4,0,0,0,0,0,0,0
548572391,548472097,0.00030132517,0.011259612,0.02628265,67240471,0,0.6088156,0.46121922,0.012735565,0.0676007,0.010006109,0.004595086,0.0,0.0,0.0,0.0,2490378,2490378,4028193,396321,0,0,895,2,1,2,0,4,0,0,0,0,0,0,0
548771374,548671190,0.00011424895,0.002252091,0.0037194558,67240471,0,0.61095136,0.4606409,0.0027569633,0.034644548,0.008912553,0.0048355847,0.0,0.0,0.0,0.0,2490378,2490378,4028193,396321,0,0,895,2,1,2,0,4,0,0,0,0,0,0,0
548970423,548870282,0.00014127925,0.005780272,0.010310558,67240471,0,0.6139074,0.46433356,0.008146766,0.032588992,0.009444707,0.00037685523,0.0,0.0,0.0,0.0,2490378,2490378,4028193,396321,0,0,895,2,1,2,0,4,0,0,0,0,0,0,0
549169633,549069379,0.00032138688,0.014184914,0.02787126,67240471,0,0.6154217,0.4634885,0.019169206,0.057565622,0.0075557646,0.00076534954,0.0,0.0,0.0,0.0,2490378,2490378,4028193,396321,0,0,895,2,1,2,0,4,0,0,0,0,0,0,0
549368558,549268467,0.0002529617,0.0059738294,0.012376674,67240471,0,0.6146674,0.46194035,0.0461183,0.03337796,0.012932257,0.0059673605,0.0,0.0,0.0,0.0,2490378,2490378,4028193,396321,0,0,895,2,1,2,0,4,0,0,0,0,0,0,0
549567860,549467559,0.00033999348,0.015273307,0.031325538,67240471,0,0.6122117,0.46383125,0.016866753,0.0568578,0.01206099,0.0036164925,0.0,0.0,0.0,0.0,2490378,2490378,4028193,396321,0,0,895,2,1,2,0,4,0,0,0,0,0,0,0
549766760,549666652,0.00029155897,0.014084709,0.03141181,67240471,0,0.6089673,0.4613622,0.019337062,0.038557343,0.014418505,0.014462851,0.0,0.0,0.0,0.0,2490378,2490378,4028193,396321,0,0,895,2,1,2,0,4,0,0,0,0,0,0,0
549975789,549875699,0.0002956967,0.013111173,0.030318052,67240471,0,0.6084037,0.46030256,0.003193162,0.0326137,0.013375252,0.007154782,0.0,0.0,0.0,0.0,2490378,2490378,4028193,396321,0,0,895,2,1,2,0,4,0,0,0,0,0,0,0
550174997,550074791,0.00022634745,0.011410003,0.027684258,67240471,0,0.60640204,0.4582686,0.002261052,0.03583101,0.012513187,0.01578828,0.0,0.0,0.0,0.0,2490378,2490378,4028193,396321,0,0,895,2,1,2,0,4,0,0,0,0,0,0,0
550374009,550273883,0.00020693363,0.0050091995,0.009281868,67240471,0,0.60671544,0.46110559,0.0027515152,0.055939525,0.009078636,0.0079349475,0.0,0.0,0.0,0.0,2490378,2490378,4028193,396321,0,0,895,2,1,2,0,4,0,0,0,0,0,0,0
550573081,550472976,0.0002679739,0.009730134,0.019218866,67240471,0,0.60499835,0.45921054,0.0021085534,0.04084357,0.008669341,0.004882861,0.0,0.0,0.0,0.0,2490378,2490378,4028193,396321,0,0,895,2,1,2,0,4,0,0,0,0,0,0,0
550772307,550672068,0.00022315525,0.009996677,0.023005279,67240471,0,0.59880453,0.45555523,0.0071601877,0.030862378,0.009824879,0.020817915,0.0,0.0,0.0,0.0,2490378,2490378,4028193,396321,0,0,895,2,1,2,0,4,0,0,0,0,0,0,0
550971265,550871161,0.00018153513,0.008550796,0.021844737,67240471,0,0.59386593,0.45621377,0.0136017855,0.026070608,0.0102979755,0.007984638,0.0,0.0,0.0,0.0,2490378,2490378,4028193,396321,0,0,895,2,1,2,0,4,0,0,0,0,0,0,0
551170348,551070254,0.00025379632,0.00525758,0.014723405,67240471,0,0.5939169,0.45509195,0.029857242,0.020292444,0.012321057,0.0069940668,0.0,0.0,0.0,0.0,2490378,2490378,4028193,396321,0,0,895,2,1,2,0,4,0,0,0,0,0,0,0
551379428,551279301,0.00022991128,0.00529698,0.015289587,67240471,0,0.5946327,0.45467332,0.013194637,0.020998787,0.013830456,0.017371532,0.0,0.0,0.0,0.0,2490378,2490378,4028193,396321,0,0,895,2,1,2,0,4,0,0,0,0,0,0,0
551578734,551478393,0.00011776448,0.0049654203,0.017017232,67240471,0,0.5918859,0.4523919,0.019528301,0.011385768,0.015519713,0.011046773,0.0,0.0,0.0,0.0,2490378,2490378,4028193,396321,0,0,895,2,1,2,0,4,0,0,0,0,0,0,0
551777580,551677485,0.00014520163,0.0020881998,0.007930221,67240471,0,0.5896804,0.45417428,0.023773242,0.020432029,0.01669078,0.0036121644,0.0,0.0,0.0,0.0,2490378,2490378,4028193,396321,0,0,895,2,1,2,0,4,0,0,0,0,0,0,0
551976672,551876578,0.00015318574,0.0058372957,0.015173266,67240471,0,0.5889298,0.45272517,0.0037742765,0.029716048,0.018047215,0.014664668,0.0,0.0,0.0,0.0,2490378,2490378,4028193,396321,0,0,895,2,1,2,0,4,0,0,0,0,0,0,0
552175821,552075671,0.00017586972,0.0084185405,0.021971356,67240471,0,0.58881116,0.45158562,0.0087497225,0.029327823,0.020184716,0.017511744,0.0,0.0,0.0,0.0,2490378,2490378,4028193,396321,0,0,895,2,1,2,0,4,0,0,0,0,0,0,0
552374857,552274763,0.00031594647,0.007738787,0.011445301,67240471,0,0.58815956,0.45404914,0.01598201,0.07189406,0.021170769,0.023456482,0.0,0.0,0.0,0.0,2490378,2490378,4028193,396321,0,0,895,2,1,2,0,4,0,0,0,0,0,0,0
552574058,552473856,0.00025944138,0.0010451714,0.0061316555,67240471,0,0.5857788,0.45195895,0.02865188,0.029839281,0.022090046,0.0099676745,0.0,0.0,0.0,0.0,2490378,2490378,4028193,396321,0,0,895,2,1,2,0,4,0,0,0,0,0,0,0
552773192,552672948,0.00043217742,0.011369862,0.025312418,67240471,0,0.5801581,0.44838202,0.023726176,0.053322155,0.024553591,0.011268076,0.0,0.0,0.0,0.0,2490378,2490378,4028193,396321,0,0,895,2,1,2,0,4,0,0,0,0,0,0,0
552972210,552872041,0.00016958805,0.0057911384,0.016085612,67240471,0,0.5755908,0.44897476,0.00042580662,0.03991644,0.023956109,0.009872959,0.0,0.0,0.0,0.0,2490378,2490378,4028193,396321,0,0,895,2,1,2,0,4,0,0,0,0,0,0,0
553171225,553071133,0.00018154099,0.0056300806,0.007684682,67240471,0,0.57394886,0.44726038,0.0085597625,0.03252544,0.02240069,0.009749729,0.0,0.0,0.0,0.0,2490378,2490378,4028193,396321,0,0,895,2,1,2,0,4,0,0,0,0,0,0,0
553370453,553270226,0.00030861318,0.011027611,0.025425386,67240471,0,0.57015187,0.44450393,0.012197139,0.049856268,0.023012588,0.008888706,0.0,0.0,0.0,0.0,2490378,2490378,4028193,396321,0,0,895,2,1,2,0,4,0,0,0,0,0,0,0
553569435,553469318,0.00025309427,0.009405733,0.02455378,67240471,0,0.56463295,0.4444336,0.0045670713,0.029224444,0.021791596,0.0017464404,0.0,0.0,0.0,0.0,2490378,2490378,4028193,396321,0,0,895,2,1,2,0,4,0,0,0,0,0,0,0
553768557,553668411,0.00018209041,0.007953668,0.018545005,67240471,0,0.5654833,0.44410822,0.002979444,0.037062634,0.021320814,0.01593476,0.0,0.0,0.0,0.0,2490378,2490378,4028193,396321,0,0,895,2,1,2,0,4,0,0,0,0,0,0,0
553967716,553867504,0.000100024554,0.001411952,0.00450236,67240471,0,0.56457007,0.44285065,0.0027397017,0.025050651,0.018170245,0.012152106,0.0,0.0,0.0,0.0,2490378,2490378,4028193,396321,0,0,895,2,1,2,0,4,0,0,0,0,0,0,0
554177100,554076551,0.0005040619,0.014214649,0.03069992,67240471,0,0.56315875,0.44164872,0.04804063,0.08998036,0.018045915,0.005040994,0.0,0.0,0.0,0.0,2490378,2490378,4028193,396321,0,0,895,2,1,2,0,4,0,0,0,0,0,0,0
554375744,554275643,0.00021566305,0.0056182765,0.015881566,67240471,0,0.5622134,0.44394073,0.019000748,0.013337839,0.016367272,0.012201959,0.0,0.0,0.0,0.0,2490378,2490378,4028193,396321,0,0,895,2,1,2,0,4,0,0,0,0,0,0,0
554574879,554474736,0.00012169648,0.0062526325,0.01685538,67240471,0,0.56328523,0.44368485,0.007160712,0.020836782,0.014729724,0.0072030853,0.0,0.0,0.0,0.0,2490378,2490378,4028193,396321,0,0,895,2,1,2,0,4,0,0,0,0,0,0,0
554773953,554673829,0.00022370134,0.010194591,0.024250552,67240471,0,0.5616187,0.44205523,0.010457728,0.042804174,0.012280886,0.0081977965,0.0,0.0,0.0,0.0,2490378,2490378,4028193,396321,0,0,895,2,1,2,0,4,0,0,0,0,0,0,0
554973078,554872921,0.0011736957,0.042581037,0.08745121,67240471,0,0.56205124,0.44504324,0.004675405,0.21969223,0.017983202,0.01741476,0.0,0.0,0.0,0.0,2490378,2490378,4028193,396321,0,0,895,2,1,2,0,4,0,0,0,0,0,0,0
555172153,555072014,0.00026382503,0.00845935,0.022148808,67240471,0,0.5603547,0.4434777,5.337924e-05,0.089332245,0.014120198,0.0057153716,0.0,0.0,0.0,0.0,2490378,2490378,4028193,396321,0,0,895,2,1,2,0,4,0,0,0,0,0,0,0
555371248,555271112,0.00027778014,0.0035409224,0.008798249,67240471,0,0.5576836,0.4414124,0.00649123,0.03086998,0.013278043,0.011215524,0.0,0.0,0.0,0.0,2490378,2490378,4028193,396321,0,0,895,2,1,2,0,4,0,0,0,0,0,0,0
555570344,555470199,0.00019421674,0.0041496255,0.012940815,67240471,0,0.5565134,0.44360924,0.019737562,0.029809587,0.010806798,0.0087776305,0.0,0.0,0.0,0.0,2490378,2490378,4028193,396321,0,0,895,2,1,2,0,4,0,0,0,0,0,0,0
555769494,555669292,0.000278375,0.0037549238,0.0064452454,67240471,0,0.5493368,0.43920803,0.028843513,0.01498644,0.007662054,0.010068639,0.0,0.0,0.0,0.0,2490378,2490378,4028193,396321,0,0,895,2,1,2,0,4,0,0,0,0,0,0,0
555968487,555868385,0.0003433264,0.0093510365,0.019061308,67240471,0,0.54948467,0.43863568,0.029336777,0.082034595,0.006076913,0.0068306876,0.0,0.0,0.0,0.0,2490378,2490378,4028193,396321,0,0,895,2,1,2,0,4,0,0,0,0,0,0,0
556177622,556077432,0.00020144532,0.0067397295,0.012506176,67240471,0,0.5516059,0.43939555,0.010272369,0.045722015,0.0100632375,0.00287061,0.0,0.0,0.0,0.0,2490378,2490378,4028193,396321,0,0,895,2,1,2,0,4,0,0,0,0,0,0,0
556376924,556276525,0.0002999339,0.011902077,0.022863368,67240471,0,0.5507218,0.44176066,0.009143174,0.03667815,0.010507475,0.009099155,0.0,0.0,0.0,0.0,2490378,2490378,4028193,396321,0,0,895,2,1,2,0,4,0,0,0,0,0,0,0
556575710,556475619,0.0002854384,0.013344464,0.028114898,67240471,0,0.5491677,0.44027334,0.0029877399,0.04752025,0.0095198415,0.009977862,0.0,0.0,0.0,0.0,2490378,2490378,4028193,396321,0,0,895,2,1,2,0,4,0,0,0,0,0,0,0
556774815,556674710,0.00023149072,0.01073449,0.025065491,67240471,0,0.5485974,0.4392373,0.04918872,0.02440298,0.009925074,0.0041523045,0.0,0.0,0.0,0.0,2490378,2490378,4028193,396321,0,0,895,2,1,2,0,4,0,0,0,0,0,0,0
556973932,556873803,0.00026189117,0.011589602,0.026232854,67240471,0,0.5512137,0.44321242,0.0008589583,0.057117533,0.012183323,0.011970909,0.0,0.0,0.0,0.0,2490378,2490378,4028193,396321,0,0,895,2,1,2,0,4,0,0,0,0,0,0,0
557173003,557072896,0.00017718057,0.0041355677,0.01141288,67240471,0,0.554723,0.44401175,0.004415893,0.07126442,0.010335544,0.011558985,0.0,0.0,0.0,0.0,2490378,2490378,4028193,396321,0,0,895,2,1,2,0,4,0,0,0,0,0,0,0
557372116,557271988,0.0001012874,0.0032690126,0.009679652,67240471,0,0.5558707,0.44366595,0.0033046796,0.02381335,0.01145731,0.01107743,0.0,0.0,0.0,0.0,2490378,2490378,4028193,396321,0,0,895,2,1,2,0,4,0,0,0,0,0,0,0
557571373,557471081,0.00014838473,0.0033066538,0.0090569295,67240471,0,0.55649155,0.44302124,0.015890194,0.014565144,0.013423365,0.009114502,0.0,0.0,0.0,0.0,2490378,2490378,4028193,396321,0,0,895,2,1,2,0,4,0,0,0,0,0,0,0
557770282,557670174,0.00023077818,0.0071667535,0.017590638,67240471,0,0.5602186,0.4473016,0.033041112,0.028441897,0.015285984,0.0042244284,0.0,0.0,0.0,0.0,2490378,2490378,4028193,396321,0,0,895,2,1,2,0,4,0,0,0,0,0,0,0
557969357,557869267,0.00018103003,0.001168605,0.0063735046,67240471,0,0.56321645,0.44761273,0.014983073,0.018326327,0.0149291605,0.0026528565,0.0,0.0,0.0,0.0,2490378,2490378,4028193,396321,0,0,895,2,1,2,0,4,0,0,0,0,0,0,0
558168593,558068359,0.00022641868,0.00791742,0.02136327,67240471,0,0.5626524,0.44645932,0.011492629,0.037130047,0.01730752,0.003170818,0.0,0.0,0.0,0.0,2490378,2490378,4028193,396321,0,0,895,2,1,2,0,4,0,0,0,0,0,0,0
558377553,558277407,0.0001809453,0.008234846,0.024242213,67240471,0,0.5628522,0.44972214,0.008963326,0.020833323,0.015650852,0.00322014,0.0,0.0,0.0,0.0,2490378,2490378,4028193,396321,0,0,895,2,1,2,0,4,0,0,0,0,0,0,0
558576830,558476500,0.00018419574,0.007994281,0.022555498,67240471,0,0.5626388,0.4487217,0.017989513,0.024510968,0.01416782,0.00014139795,0.0,0.0,0.0,0.0,2490378,2490378,4028193,396321,0,0,895,2,1,2,0,4,0,0,0,0,0,0,0
558775732,558675592,0.00030279794,0.008871825,0.015222964,67240471,0,0.56370527,0.44826025,0.008616221,0.067377865,0.006855456,0.0047303373,0.0,0.0,0.0,0.0,2490378,2490378,4028193,396321,0,0,895,2,1,2,0,4,0,0,0,0,0,0,0
558974843,558874685,0.00030671732,0.012342149,0.023994736,67240471,0,0.5640332,0.4511835,0.008349023,0.045706697,0.0079080975,0.006726392,0.0,0.0,0.0,0.0,2490378,2490378,4028193,396321,0,0,895,2,1,2,0,4,0,0,0,0,0,0,0
559173905,559073778,0.0003950231,0.015244082,0.02985108,67240471,0,0.5628884,0.44976458,0.022670288,0.055777546,0.007629487,0.00254766,0.0,0.0,0.0,0.0,2490378,2490378,4028193,396321,0,0,895,2,1,2,0,4,0,0,0,0,0,0,0
559372985,559272871,0.00013288304,0.002355866,0.0061211563,67240471,0,0.56184256,0.44836646,0.0024887593,0.026408743,0.0047205044,5.750938e-05,0.0,0.0,0.0,0.0,2490378,2490378,4028193,396321,0,0,895,2,1,2,0,4,0,0,0,0,0,0,0
559572215,559471964,0.00015395552,0.0052937777,0.014244757,67240471,0,0.56250083,0.44769016,0.008412497,0.028196458,0.0037336189,0.00026375437,0.0,0.0,0.0,0.0,2490378,2490378,4028193,396321,0,0,895,2,1,2,0,4,0,0,0,0,0,0,0
559771261,559671056,0.00015103526,0.007751223,0.020391826,67240471,0,0.5629568,0.4506007,0.0036085409,0.02787564,0.001976817,0.0013391235,0.0,0.0,0.0,0.0,2490378,2490378,4028193,396321,0,0,895,2,1,2,0,4,0,0,0,0,0,0,0
559970240,559870149,0.0001838568,0.01145856,0.029487997,67240471,0,0.5618719,0.44912547,0.0062647755,0.042588558,0.0036767207,0.0038828552,0.0,0.0,0.0,0.0,2490378,2490378,4028193,396321,0,0,895,2,1,2,0,4,0,0,0,0,0,0,0
560169385,560069242,0.00024043726,0.0041596163,0.006138912,67240471,0,0.56393117,0.44897795,0.0066649863,0.04742185,0.005719764,0.012078902,0.0,0.0,0.0,0.0,2490378,2490378,4028193,396321,0,0,895,2,1,2,0,4,0,0,0,0,0,0,0
560368461,560268335,0.00018733354,0.0038309346,0.004776992,67240471,0,0.5648369,0.45204863,0.0048729233,0.021090874,0.0059862332,0.009282136,0.0,0.0,0.0,0.0,2490378,2490378,4028193,396321,0,0,895,2,1,2,0,4,0,0,0,0,0,0,0
560567526,560467428,0.00010684759,0.0028061403,0.0054204897,67240471,0,0.56593704,0.45140475,0.00012475916,0.026851786,0.0059817783,0.008274801,0.0,0.0,0.0,0.0,2490378,2490378,4028193,396321,0,0,895,2,1,2,0,4,0,0,0,0,0,0,0
560776595,560676475,0.00026028208,0.008341575,0.015069696,67240471,0,0.56793827,0.4515398,0.0030692618,0.05511253,0.005879496,0.009589972,0.0,0.0,0.0,0.0,2490378,2490378,4028193,396321,0,0,895,2,1,2,0,4,0,0,0,0,0,0,0
560976152,560875568,0.00020649756,0.00747313,0.017228,67240471,0,0.56880367,0.45078328,0.029844038,0.028503902,0.009550841,0.0039476445,0.0,0.0,0.0,0.0,2490378,2490378,4028193,396321,0,0,895,2,1,2,0,4,0,0,0,0,0,0,0
561174751,561074661,0.00031199778,0.008689362,0.018286802,67240471,0,0.56995106,0.4538993,0.0004136282,0.06058423,0.015212723,0.011098702,0.0,0.0,0.0,0.0,2490378,2490378,4028193,396321,0,0,895,2,1,2,0,4,0,0,0,0,0,0,0
561373888,561273754,0.00023276065,0.00958616,0.02527593,67240471,0,0.5728953,0.45391706,0.012690405,0.033019833,0.017006407,0.0047623552,0.0,0.0,0.0,0.0,2490378,2490378,4028193,396321,0,0,895,2,1,2,0,4,0,0,0,0,0,0,0
561573047,561472847,0.00023835052,0.008466851,0.020699272,67240471,0,0.5735956,0.45305213,0.019632736,0.048970427,0.016730737,0.0030265152,0.0,0.0,0.0,0.0,2490378,2490378,4028193,396321,0,0,895,2,1,2,0,4,0,0,0,0,0,0,0
561772028,561671940,0.0002632287,0.008506799,0.025170682,67240471,0,0.5713229,0.45487383,0.032874998,0.042027574,0.013947932,0.0049393224,0.0,0.0,0.0,0.0,2490378,2490378,4028193,396321,0,0,895,2,1,2,0,4,0,0,0,0,0,0,0
561971254,561871033,0.00027977405,0.011872925,0.030733548,67240471,0,0.5693353,0.4528854,0.0017069854,0.039937496,0.014603371,0.008480566,0.0,0.0,0.0,0.0,2490378,2490378,4028193,396321,0,0,895,2,1,2,0,4,0,0,0,0,0,0,0
562170232,562070126,0.00010032344,0.0076747066,0.022689333,67240471,0,0.5649962,0.44990677,0.006641876,0.0137830805,0.016531058,0.014024112,0.0,0.0,0.0,0.0,2490378,2490378,4028193,396321,0,0,895,2,1,2,0,4,0,0,0,0,0,0,0
562369316,562269219,0.0002565624,0.01090259,0.029219547,67240471,0,0.56872123,0.4540542,0.01938146,0.058799762,0.016420795,0.00335376,0.0,0.0,0.0,0.0,2490378,2490378,4028193,396321,0,0,895,2,1,2,0,4,0,0,0,0,0,0,0
562578393,562478266,0.00078408344,0.008413941,0.016927639,67240471,0,0.57113093,0.45422736,0.09357576,0.073093556,0.017365366,0.016839918,0.0,0.0,0.0,0.0,2490378,2490378,4028193,396321,0,0,895,2,1,2,0,4,0,0,0,0,0,0,0
562777533,562677359,0.0009689264,0.001956803,0.009675906,131607,0,0.57022065,0.45260182,0.07963265,0.013803781,0.020868976,0.016586041,0.0,0.0,0.0,0.0,2490378,2490378,4028193,396321,0,0,895,2,1,2,0,4,0,0,0,0,0,0,0
562976568,562876452,0.00073296466,0.0050898427,0.020098824,131607,0,0.57136565,0.45188317,0.09993414,0.022504276,0.025458438,0.006700696,0.0,0.0,0.0,0.0,2490378,2490378,4028193,396321,0,0,895,2,1,2,0,4,0,0,0,0,0,0,0
563175978,563075545,0.00077253266,0.009292766,0.020030035,131607,0,0.57215524,0.4547876,0.07549342,0.061872225,0.027979102,0.0038018825,0.0,0.0,0.0,0.0,2490378,2490378,4028193,396321,0,0,895,2,1,2,0,4,0,0,0,0,0,0,0
563374730,563274638,0.00053640874,0.0053306175,0.016594162,131607,0,0.57129997,0.45326698,0.07628384,0.05013242,0.033003367,0.0075920196,0.0,0.0,0.0,0.0,2490378,2490378,4028193,396321,0,0,895,2,1,2,0,4,0,0,0,0,0,0,0
563573840,563473731,0.00070216245,0.004320149,0.013622857,131607,0,0.57152903,0.45217714,0.09081292,0.047717504,0.039757956,0.0027093873,0.0,0.0,0.0,0.0,2490378,2490378,4028193,396321,0,0,895,2,1,2,0,4,0,0,0,0,0,0,0
563772938,563672824,0.0007268212,0.0045603537,0.012070659,131607,0,0.57450235,0.4560368,0.0737921,0.03149957,0.04141163,0.013410593,0.0,0.0,0.0,0.0,2490378,2490378,4028193,396321,0,0,895,2,1,2,0,4,0,0,0,0,0,0,0
563972014,563871917,0.00057660986,0.008004989,0.029836144,131607,0,0.5732449,0.45432213,0.07623157,0.027000632,0.045085642,0.007846349,0.0,0.0,0.0,0.0,2490378,2490378,4028193,396321,0,0,895,2,1,2,0,4,0,0,0,0,0,0,0
564171123,564071010,0.0006388873,0.0036513926,0.010343074,67240471,0,0.5712885,0.45230076,0.06658779,0.050906774,0.044112336,0.006997597,0.0,0.0,0.0,0.0,2490378,2490378,4028193,396321,0,0,895,2,1,2,0,4,0,0,0,0,0,0,0
564370375,564270103,0.0007176256,0.009090838,0.014675629,67240471,0,0.57476467,0.45632693,0.07102039,0.076626636,0.047845453,0.0016804143,0.0,0.0,0.0,0.0,2490378,2490378,4028193,396321,0,0,895,2,1,2,0,4,0,0,0,0,0,0,0
564569303,564469196,0.0005282094,0.00595206,0.007339434,67240471,0,0.57532,0.45530567,0.07271128,0.037144274,0.049779426,0.00484786,0.0,0.0,0.0,0.0,2490378,2490378,4028193,396321,0,0,895,2,1,2,0,4,0,0,0,0,0,0,0
564768439,564668289,0.00071487564,0.013588401,0.02038953,67240471,0,0.5783263,0.45523617,0.057734754,0.087466605,0.04900782,0.00013616712,0.0,0.0,0.0,0.0,2490378,2490378,4028193,396321,0,0,895,2,1,2,0,4,0,0,0,0,0,0,0
564967533,564867382,0.0005438054,0.0098468885,0.030731272,67240471,0,0.5809082,0.45492902,0.077388905,0.05687663,0.05456024,0.014366393,0.0,0.0,0.0,0.0,2490378,2490378,4028193,396321,0,0,895,2,1,2,0,4,0,0,0,0,0,0,0
565166579,565066476,0.00069189735,0.011964549,0.03486766,67240471,0,0.58395493,0.4587154,0.0664334,0.03501223,0.054354098,0.002838679,0.0,0.0,0.0,0.0,2490378,2490378,4028193,396321,0,0,895,2,1,2,0,4,0,0,0,0,0,0,0
565376024,565275523,0.0006821898,0.009782655,0.031082384,67240471,0,0.587828,0.45929193,0.080944575,0.045115527,0.054859612,0.004551922,0.0,0.0,0.0,0.0,2490378,2490378,4028193,396321,0,0,895,2,1,2,0,4,0,0,0,0,0,0,0
565574824,565474616,0.0007764291,0.0021699963,0.014500688,67240471,0,0.58886516,0.45833597,0.0687891,0.046258386,0.054514457,0.006378792,0.0,0.0,0.0,0.0,2490378,2490378,4028193,396321,0,0,895,2,1,2,0,4,0,0,0,0,0,0,0
565773992,565673709,0.00057677197,0.00929072,0.029386178,67240471,0,0.58384234,0.45516366,0.070916526,0.029596014,0.056937035,0.0051992605,0.0,0.0,0.0,0.0,2490378,2490378,4028193,396321,0,0,895,2,1,2,0,4,0,0,0,0,0,0,0
565972933,565872802,0.0005338609,0.0032075266,0.01529003,67240471,0,0.5865717,0.45873895,0.049005985,0.04197651,0.054438494,0.006963531,0.0,0.0,0.0,0.0,2490378,2490378,4028193,396321,0,0,895,2,1,2,0,4,0,0,0,0,0,0,0
566171986,566071895,0.00043270574,0.008760412,0.026835369,67240471,0,0.582017,0.4556119,0.057238817,0.035642236,0.05275788,0.008902175,0.0,0.0,0.0,0.0,2490378,2490378,4028193,396321,0,0,895,2,1,2,0,4,0,0,0,0,0,0,0
566371130,566270988,0.0005653338,0.010498021,0.028854562,67240471,0,0.58546454,0.4594604,0.06462303,0.042401183,0.049444117,0.007703419,0.0,0.0,0.0,0.0,2490378,2490378,4028193,396321,0,0,895,2,1,2,0,4,0,0,0,0,0,0,0
566570313,566470081,0.0006029042,0.009468908,0.026948689,67240471,0,0.5868489,0.45858067,0.06145826,0.0129096415,0.047535814,0.009418758,0.0,0.0,0.0,0.0,2490378,2490378,4028193,396321,0,0,895,2,1,2,0,4,0,0,0,0,0,0,0
566779294,566679129,0.0006954742,0.021023337,0.045898225,67240471,0,0.5908889,0.4591331,0.066095576,0.10773234,0.04271067,0.005926275,0.0,0.0,0.0,0.0,2490378,2490378,4028193,396321,0,0,895,2,1,2,0,4,0,0,0,0,0,0,0
566978391,566878222,0.00060379,0.014624973,0.034067746,67240471,0,0.5931746,0.45852953,0.060624354,0.041119464,0.040431164,0.0034395107,0.0,0.0,0.0,0.0,2490378,2490378,4028193,396321,0,0,895,2,1,2,0,4,0,0,0,0,0,0,0
567177404,567077315,0.0006480716,0.0110073015,0.02768263,67240471,0,0.5943491,0.461463,0.06683326,0.029319549,0.039240535,0.009563617,0.0,0.0,0.0,0.0,2490378,2490378,4028193,396321,0,0,895,2,1,2,0,4,0,0,0,0,0,0,0
567376521,567276408,0.0005521937,0.010835924,0.027282936,67240471,0,0.597101,0.46099824,0.06874684,0.039187506,0.038864926,0.008111761,0.0,0.0,0.0,0.0,2490378,2490378,4028193,396321,0,0,895,2,1,2,0,4,0,0,0,0,0,0,0
567575739,567475505,0.00064201135,0.014619866,0.034774035,67240471,0,0.5999095,0.4605049,0.06213994,0.07594558,0.037698083,0.000658226,0.0,0.0,0.0,0.0,2490378,2490378,4028193,396321,0,0,895,2,1,2,0,4,0,0,0,0,0,0,0
567774821,567674594,0.0011229529,0.03234092,0.07181371,67240471,0,0.60393554,0.46445274,0.12862866,0.16798057,0.0420857,0.0024673513,0.0,0.0,0.0,0.0,2490378,2490378,4028193,396321,0,0,895,2,1,2,0,4,0,0,0,0,0,0,0
567973830,567873687,0.00059923006,0.013387046,0.0351564,67240471,0,0.6073804,0.46413955,0.06288067,0.013598629,0.040770367,0.023452485,0.0,0.0,0.0,0.0,2490378,2490378,4028193,396321,0,0,895,2,1,2,0,4,0,0,0,0,0,0,0
568172900,568072780,0.0006555925,0.009949148,0.018053355,67240471,0,0.6075371,0.46268165,0.06795757,0.047725145,0.039720524,0.00484376,0.0,0.0,0.0,0.0,2490378,2490378,4028193,396321,0,0,895,2,1,2,0,4,0,0,0,0,0,0,0
568372151,568271873,0.0007105043,0.011621347,0.022125667,67240471,0,0.60937625,0.46174434,0.06980808,0.01729471,0.03949357,0.011625829,0.0,0.0,0.0,0.0,2490378,2490378,4028193,396321,0,0,895,2,1,2,0,4,0,0,0,0,0,0,0
568571063,568470966,0.0005519404,0.011900514,0.024510628,67240471,0,0.61394256,0.46578842,0.06533037,0.021286985,0.039468605,0.009500374,0.0,0.0,0.0,0.0,2490378,2490378,4028193,396321,0,0,895,2,1,2,0,4,0,0,0,0,0,0,0
568770313,568670059,0.0014126328,0.049869977,0.10169203,67240471,0,0.61814195,0.46558613,0.074116334,0.31964776,0.036031224,0.00610286,0.0,0.0,0.0,0.0,2490378,2490378,4028193,396321,0,0,895,2,1,2,0,4,0,1,0,0,0,0,0
568969299,568869152,0.0005313187,0.021179974,0.047272753,67240471,0,0.6226128,0.46546322,0.05217779,0.048806135,0.036746968,0.016155522,0.0,0.0,0.0,0.0,2490378,2490378,4028193,396321,0,0,895,2,1,2,0,4,0,0,0,0,0,0,0
569168442,569068245,0.00046583207,0.008186443,0.0172553,67240471,0,0.6219007,0.46785554,0.055141952,0.058389816,0.037619542,0.024551922,0.0,0.0,0.0,0.0,2490378,2490378,4028193,396321,0,0,895,2,1,2,0,4,0,0,0,0,0,0,0
569367520,569267339,0.0006086692,0.015357082,0.030954486,67240471,0,0.6242818,0.46709183,0.0569323,0.06756821,0.036025096,0.00899194,0.0,0.0,0.0,0.0,2490378,2490378,4028193,396321,0,0,895,2,1,2,0,4,0,0,0,0,0,0,0
569576482,569476386,0.000631727,0.021550603,0.046070382,67240471,0,0.6300878,0.46790648,0.060658477,0.105588056,0.03365361,0.015531111,0.0,0.0,0.0,0.0,2490378,2490378,4028193,396321,0,0,895,2,1,2,0,4,0,0,0,0,0,0,0
569775590,569675479,0.0005783088,0.0118864,0.026093174,67240471,0,0.6274433,0.46974337,0.06961407,0.035459433,0.033315305,0.006946006,0.0,0.0,0.0,0.0,2490378,2490378,4028193,396321,0,0,895,2,1,2,0,4,0,0,0,0,0,0,0
569974675,569874572,0.0006467952,0.0047391322,0.011850881,67240471,0,0.62941355,0.4687796,0.06418427,0.03540225,0.03418198,0.010333304,0.0,0.0,0.0,0.0,2490378,2490378,4028193,396321,0,0,895,2,1,2,0,4,0,0,0,0,0,0,0
570173758,570073665,0.0005781421,0.013942006,0.031793166,67240471,0,0.6341099,0.46870363,0.050785128,0.062535346,0.034262817,0.02478312,0.0,0.0,0.0,0.0,2490378,2490378,4028193,396321,0,0,895,2,1,2,0,4,0,0,0,0,0,0,0
570372950,570272758,0.0005434991,0.007420288,0.017391993,67240471,0,0.6378884,0.46828973,0.040555097,0.105345845,0.029665736,0.022740286,0.0,0.0,0.0,0.0,2490378,2490378,4028193,396321,0,0,895,2,1,2,0,4,0,0,0,0,0,0,0
570571994,570471852,0.00053122634,0.0054035457,0.016996473,67240471,0,0.6445011,0.47292548,0.0559237,0.0386883,0.028552776,0.019492418,0.0,0.0,0.0,0.0,2490378,2490378,4028193,396321,0,0,895,2,1,2,0,4,0,0,0,0,0,0,0
570771039,570670948,0.00046459553,0.0062968656,0.019923825,67240471,0,0.65164757,0.47338468,0.06199906,0.04361589,0.026040938,0.0110715255,0.0,0.0,0.0,0.0,2490378,2490378,4028193,396321,0,0,895,2,1,2,0,4,0,0,0,0,0,0,0
570970206,570870038,0.000700379,0.017352095,0.04111434,67240471,0,0.65695804,0.4732709,0.07327457,0.10028006,0.026133562,0.01568684,0.0,0.0,0.0,0.0,2490378,2490378,4028193,396321,0,0,895,2,1,2,0,4,0,0,0,0,0,0,0
571169347,571069134,0.00062037824,0.011699652,0.029160896,67240471,0,0.66053945,0.47703615,0.046348393,0.038981926,0.02339506,0.013313116,0.0,0.0,0.0,0.0,2490378,2490378,4028193,396321,0,0,895,2,1,2,0,4,0,0,0,0,0,0,0
571378377,571278178,0.0004837842,0.014144194,0.036035653,67240471,0,0.66828096,0.47807714,0.045338403,0.08999863,0.018296834,0.021881983,0.0,0.0,0.0,0.0,2490378,2490378,4028193,396321,0,0,895,2,1,2,0,4,0,0,0,0,0,0,0
571577452,571477271,0.0004984765,0.0127013475,0.03383161,67240471,0,0.6743363,0.47808787,0.044735346,0.055294827,0.017883427,0.0046845255,0.0,0.0,0.0,0.0,2490378,2490378,4028193,396321,0,0,895,2,1,2,0,4,0,0,0,0,0,0,0
571776561,571676365,0.0005252833,0.0051648896,0.01800314,67240471,0,0.67733866,0.47732925,0.051120028,0.017231872,0.015981548,0.007502828,0.0,0.0,0.0,0.0,2490378,2490378,4028193,396321,0,0,895,2,1,2,0,4,0,0,0,0,0,0,0
571975598,571875458,0.00040434828,0.0038739215,0.013640046,67240471,0,0.68078816,0.48115015,0.049403552,0.022943147,0.016072819,0.018090483,0.0,0.0,0.0,0.0,2490378,2490378,4028193,396321,0,0,895,2,1,2,0,4,0,0,0,0,0,0,0
572174962,572074551,0.00062820833,0.016756019,0.032565758,67240471,0,0.6808741,0.4796032,0.058977835,0.062443804,0.020323142,0.009962766,0.0,0.0,0.0,0.0,2490378,2490378,4028193,396321,0,0,895,2,1,2,0,4,0,0,0,0,0,0,0
572373796,572273644,0.0003821215,0.005538804,0.013305332,67240471,0,0.68517476,0.47912547,0.049040902,0.0415008,0.017685244,0.030594772,0.0,0.0,0.0,0.0,2490378,2490378,4028193,396321,0,0,895,2,1,2,0,4,0,0,0,0,0,0,0
572572956,572472737,0.0004988211,0.0033434138,0.008425632,67240471,0,0.68544364,0.48215953,0.059716113,0.017345496,0.018708855,0.013525524,0.0,0.0,0.0,0.0,2490378,2490378,4028193,396321,0,0,895,2,1,2,0,4,0,0,0,0,0,0,0
572771942,572671830,0.00063568813,0.016788369,0.037128024,67240471,0,0.6821867,0.47967938,0.04925752,0.061513193,0.020522323,0.01769089,0.0,0.0,0.0,0.0,2490378,2490378,4028193,396321,0,0,895,2,1,2,0,4,0,0,0,0,0,0,0
572971030,572870923,0.00045494523,0.017697575,0.04060121,67240471,0,0.68588924,0.47901937,0.031186424,0.040015243,0.023685219,0.013355453,0.0,0.0,0.0,0.0,2490378,2490378,4028193,396321,0,0,895,2,1,2,0,4,0,0,0,0,0,0,0
573170165,573070016,0.00036972738,0.008061921,0.020738091,67240471,0,0.69003356,0.48300818,0.04753526,0.044439275,0.022000454,0.011114413,0.0,0.0,0.0,0.0,2490378,2490378,4028193,396321,0,0,895,2,1,2,0,4,0,0,0,0,0,0,0
573369251,573269109,0.00060295186,0.017151946,0.041011613,67240471,0,0.67838603,0.47824913,0.06797025,0.046084482,0.023324365,0.011848161,0.0,0.0,0.0,0.0,2490378,2490378,4028193,396321,0,0,895,2,1,2,0,4,0,0,0,0,0,0,0
573568311,573468202,0.00043451058,0.007951133,0.019824706,67240471,0,0.6771195,0.4762566,0.05279589,0.02900151,0.027180644,0.02431057,0.0,0.0,0.0,0.0,2490378,2490378,4028193,396321,0,0,895,2,1,2,0,4,0,0,0,0,0,0,0
573777402,573677250,0.00039256006,0.002451437,0.011501197,67240471,0,0.681105,0.47640145,0.04140931,0.018409211,0.030890524,0.02200007,0.0,0.0,0.0,0.0,2490378,2490378,4028193,396321,0,0,895,2,1,2,0,4,0,0,0,0,0,0,0
573976438,573876343,0.00045923644,0.008989607,0.01996289,131607,0,0.6822227,0.47961482,0.040101923,0.0574636,0.034079712,0.013727688,0.0,0.0,0.0,0.0,2490378,2490378,4028193,396321,0,0,895,2,1,2,0,4,0,0,0,0,0,0,0
574175535,574075436,0.0005232861,0.0055871266,0.009257746,131607,0,0.6805393,0.47757718,0.072552614,0.056516793,0.038625445,0.027947865,0.0,0.0,0.0,0.0,2490378,2490378,4028193,396321,0,0,895,2,1,2,0,4,0,0,0,0,0,0,0
574374932,574274529,0.00075108284,0.007640927,0.02723422,131607,0,0.6787006,0.47551063,0.08784575,0.0247755,0.04086673,0.036101934,0.0,0.0,0.0,0.0,2490378,2490378,4028193,396321,0,0,895,2,1,2,0,4,0,0,0,0,0,0,0
574573771,574473622,0.00088389876,0.005927789,0.014761599,131607,0,0.6780395,0.4782284,0.09750216,0.046907052,0.03917651,0.008241026,0.0,0.0,0.0,0.0,2490378,2490378,4028193,396321,0,0,895,2,1,2,0,4,0,0,0,0,0,0,0
574772805,574672715,0.00069008616,0.0049931407,0.019373791,131607,0,0.6775558,0.4765655,0.08817559,0.021553444,0.03871159,0.015264249,0.0,0.0,0.0,0.0,2490378,2490378,4028193,396321,0,0,895,2,1,2,0,4,0,0,0,0,0,0,0
574971989,574871808,0.00090974185,0.009858523,0.023268232,131607,0,0.6765785,0.4747489,0.074513,0.055988558,0.03753698,0.009649816,0.0,0.0,0.0,0.0,2490378,2490378,4028193,396321,0,0,895,2,1,2,0,4,0,0,0,0,0,0,0
575170992,575070901,0.0005044871,0.0047263037,0.016521644,131607,0,0.67440367,0.47701272,0.07324525,0.022523047,0.03837646,0.004361686,0.0,0.0,0.0,0.0,2490378,2490378,4028193,396321,0,0,895,2,1,2,0,4,0,0,0,0,0,0,0
575370087,575269997,0.0006939168,0.012663788,0.03488641,131607,0,0.6693214,0.47391596,0.07911416,0.03873077,0.03829112,0.0010475958,0.0,0.0,0.0,0.0,2490378,2490378,4028193,396321,0,0,895,2,1,2,0,4,0,0,0,0,0,0,0
575569349,575469088,0.0007348201,0.0058628707,0.018860547,67240471,0,0.66520196,0.471104,0.07910626,0.021817945,0.036182776,0.014068098,0.0,0.0,0.0,0.0,2490378,2490378,4028193,396321,0,0,895,2,1,2,0,4,0,0,0,0,0,0,0
575768346,575668181,0.00069282914,0.01813001,0.04666633,67240471,0,0.6649815,0.46960565,0.08056414,0.08202959,0.03934537,0.0073711826,0.0,0.0,0.0,0.0,2490378,2490378,4028193,396321,0,0,895,2,1,2,0,4,0,0,0,0,0,0,0
575977324,575877228,0.0006092049,0.011378489,0.03094377,67240471,0,0.66639143,0.4734334,0.06352855,0.021590311,0.036425564,0.020138564,0.0,0.0,0.0,0.0,2490378,2490378,4028193,396321,0,0,895,2,1,2,0,4,0,0,0,0,0,0,0
576176463,576076321,0.000737879,0.00798532,0.025935465,67240471,0,0.66702986,0.4721868,0.090168454,0.029644378,0.034648344,0.016376419,0.0,0.0,0.0,0.0,2490378,2490378,4028193,396321,0,0,895,2,1,2,0,4,0,0,0,0,0,0,0
576375505,576275414,0.00067840796,0.0076899636,0.027777435,67240471,0,0.66776025,0.47097683,0.088627376,0.04535315,0.036586605,0.0073814252,0.0,0.0,0.0,0.0,2490378,2490378,4028193,396321,0,0,895,2,1,2,0,4,0,0,0,0,0,0,0
576574881,576474508,0.00075841416,0.0049213534,0.015393234,67240471,0,0.6687194,0.46987933,0.08741788,0.041376702,0.035381254,0.010558106,0.0,0.0,0.0,0.0,2490378,2490378,4028193,396321,0,0,895,2,1,2,0,4,0,0,0,0,0,0,0
576773695,576673601,0.00074373075,0.01059941,0.024149397,67240471,0,0.6707354,0.47336933,0.06704963,0.05134636,0.03414217,0.004216393,0.0,0.0,0.0,0.0,2490378,2490378,4028193,396321,0,0,895,2,1,2,0,4,0,0,0,0,0,0,0
576972792,576872694,0.00051573623,0.010644399,0.024067746,67240471,0,0.6728669,0.47256458,0.058412105,0.034571975,0.03177586,0.012837859,0.0,0.0,0.0,0.0,2490378,2490378,4028193,396321,0,0,895,2,1,2,0,4,0,0,0,0,0,0,0
577171999,577071786,0.00060451083,0.0060593896,0.016228203,67240471,0,0.6730068,0.47111738,0.07400306,0.02804321,0.03093723,0.004508329,0.0,0.0,0.0,0.0,2490378,2490378,4028193,396321,0,0,895,2,1,2,0,4,0,0,0,0,0,0,0
577371070,577270881,0.0007118296,0.0034565018,0.0073630605,67240471,0,0.67541975,0.4747196,0.076299824,0.025181845,0.03207073,0.006292294,0.0,0.0,0.0,0.0,2490378,2490378,4028193,396321,0,0,895,2,1,2,0,4,0,0,0,0,0,0,0
577570082,577469973,0.0005909676,0.009562951,0.022981286,67240471,0,0.6785122,0.47413486,0.070944965,0.051145967,0.030655438,0.00805697,0.0,0.0,0.0,0.0,2490378,2490378,4028193,396321,0,0,895,2,1,2,0,4,0,0,0,0,0,0,0
577769307,577669066,0.00049022783,0.003993744,0.009847257,67240471,0,0.6813469,0.4734632,0.04819656,0.0372496,0.030894578,0.0184364,0.0,0.0,0.0,0.0,2490378,2490378,4028193,396321,0,0,895,2,1,2,0,4,0,0,0,0,0,0,0
577978272,577878113,0.0009860195,0.032093607,0.070087716,67240471,0,0.68230855,0.47716343,0.055115793,0.15345073,0.03165975,0.01427077,0.0,0.0,0.0,0.0,2490378,2490378,4028193,396321,0,0,895,2,1,2,0,4,0,0,0,0,0,0,0
578177379,578077206,0.00048502377,0.01052425,0.02786183,67240471,0,0.6847828,0.47635916,0.065701485,0.042956803,0.026696581,0.007904394,0.0,0.0,0.0,0.0,2490378,2490378,4028193,396321,0,0,895,2,1,2,0,4,0,0,0,0,0,0,0
578376466,578276299,0.0006169477,0.008251813,0.02293073,67240471,0,0.6864422,0.47530785,0.063425496,0.038733054,0.026199255,0.004988509,0.0,0.0,0.0,0.0,2490378,2490378,4028193,396321,0,0,895,2,1,2,0,4,0,0,0,0,0,0,0
578575570,578475392,0.00059565465,0.002778679,0.013063822,67240471,0,0.6889063,0.47446647,0.09891241,0.026354356,0.026532907,0.012035171,0.0,0.0,0.0,0.0,2490378,2490378,4028193,396321,0,0,895,2,1,2,0,4,0,0,0,0,0,0,0
578774658,578674485,0.0008668338,0.009046609,0.019900434,67240471,0,0.68815064,0.4771662,0.11733493,0.03317909,0.0236197,0.005420671,0.0,0.0,0.0,0.0,2490378,2490378,4028193,396321,0,0,895,2,1,2,0,4,0,0,0,0,0,0,0
578973676,578873578,0.0011766319,0.008105714,0.014896824,67240471,0,0.69045734,0.47630802,0.12593473,0.031539418,0.02407343,0.008361541,0.0,0.0,0.0,0.0,2490378,2490378,4028193,396321,0,0,895,2,1,2,0,4,0,0,0,0,0,0,0
579172826,579072671,0.00075082184,0.007439397,0.017256768,67240471,0,0.68548787,0.4733833,0.07757552,0.019794505,0.02349389,0.004766672,0.0,0.0,0.0,0.0,2490378,2490378,4028193,396321,0,0,895,2,1,2,0,4,0,0,0,0,0,0,0
579371920,579271764,0.00092220143,0.0072162077,0.016768085,67240471,0,0.68829155,0.4770373,0.10948003,0.02606442,0.022224175,0.008268193,0.0,0.0,0.0,0.0,2490378,2490378,4028193,396321,0,0,895,2,1,2,0,4,0,0,0,0,0,0,0
579570970,579470857,0.00088116433,0.0049236887,0.012895072,67240471,0,0.69278836,0.47672462,0.09371149,0.011323967,0.022159789,0.0076880166,0.0,0.0,0.0,0.0,2490378,2490378,4028193,396321,0,0,895,2,1,2,0,4,0,0,0,0,0,0,0
579770123,579669950,0.0007351713,0.01390455,0.03346696,67240471,0,0.69567275,0.47591162,0.09767907,0.08107837,0.021299083,0.007211274,0.0,0.0,0.0,0.0,2490378,2490378,4028193,396321,0,0,895,2,1,2,0,4,0,0,0,0,0,0,0
579969261,579869043,0.0009823791,0.016798498,0.039050326,67240471,0,0.69823503,0.47944447,0.107537545,0.061918985,0.02422172,0.009389124,0.0,0.0,0.0,0.0,2490378,2490378,4028193,396321,0,0,895,2,1,2,0,4,0,0,0,0,0,0,0
580168280,580068136,0.001043778,0.0058276267,0.019112902,67240471,0,0.70326877,0.47913328,0.10063479,0.03367542,0.026607297,0.0032823982,0.0,0.0,0.0,0.0,2490378,2490378,4028193,396321,0,0,895,2,1,2,0,4,0,0,0,0,0,0,0
580367383,580267229,0.0008980975,0.0069511607,0.022580357,131607,0,0.7049427,0.47792694,0.11943384,0.02146426,0.0253529,0.0028033445,0.0,0.0,0.0,0.0,2490378,2490378,4028193,396321,0,0,895,2,1,2,0,4,0,0,0,0,0,0,0
580576413,580476276,0.0011311048,0.007982705,0.023241783,131607,0,0.7109192,0.48290995,0.13314243,0.048827454,0.021831254,0.0032088717,0.0,0.0,0.0,0.0,2490378,2490378,4028193,396321,0,0,895,2,1,2,0,4,0,0,0,0,0,0,0
580775524,580675369,0.0012347047,0.00620327,0.019747652,131607,0,0.70793474,0.48045668,0.11891409,0.011239064,0.022208901,0.0009290281,0.0,0.0,0.0,0.0,2490378,2490378,4028193,396321,0,0,895,2,1,2,0,4,0,0,0,0,0,0,0
580974589,580874462,0.0010514392,0.021539995,0.050851475,131607,0,0.71138537,0.47967824,0.13587704,0.10274157,0.02851327,0.00027942972,0.0,0.0,0.0,0.0,2490378,2490378,4028193,396321,0,0,895,2,1,2,0,4,0,0,0,0,0,0,0
581174184,581073557,0.0011290737,0.021727355,0.053433403,131607,0,0.7156567,0.47906363,0.12199432,0.07820904,0.030734947,0.0058564832,0.0,0.0,0.0,0.0,2490378,2490378,4028193,396321,0,0,895,2,1,2,0,4,0,0,0,0,0,0,0
581372771,581272648,0.001023623,0.015931623,0.036696117,67240471,0,0.72108835,0.4832234,0.12651499,0.13622881,0.032907072,0.010747663,0.0,0.0,0.0,0.0,2490378,2490378,4028193,396321,0,0,895,2,1,2,0,4,0,0,0,0,0,0,0
581571847,581471741,0.0013660763,0.03428839,0.07750981,131607,0,0.7261264,0.48277715,0.11556596,0.16909285,0.03884251,0.0061499667,0.0,0.0,0.0,0.0,2490378,2490378,4028193,396321,0,0,895,2,1,2,0,4,0,0,0,0,0,0,0
581771012,581670834,0.0008828357,0.027750434,0.06794191,131607,0,0.7221441,0.4801928,0.06747064,0.056828015,0.037014198,0.01244706,0.0,0.0,0.0,0.0,2490378,2490378,4028193,396321,0,0,895,2,1,2,0,4,0,0,0,0,0,0,0
581970029,581869927,0.0006005185,0.013748525,0.035237763,131607,0,0.7199888,0.48254362,0.0700255,0.08429683,0.030689074,0.0053659817,0.0,0.0,0.0,0.0,2490378,2490378,4028193,396321,0,0,895,2,1,2,0,4,0,0,0,0,0,0,0
582179066,582078974,0.0005367902,0.0046108975,0.01345986,131607,0,0.71818113,0.48101598,0.06749424,0.027652428,0.02561148,0.0047167307,0.0,0.0,0.0,0.0,2490378,2490378,4028193,396321,0,0,895,2,1,2,0,4,0,0,0,0,0,0,0
582378197,582278067,0.00060244807,0.014446251,0.032466672,131607,0,0.7087329,0.47678226,0.072349526,0.06580353,0.01844427,0.009614421,0.0,0.0,0.0,0.0,2490378,2490378,4028193,396321,0,0,895,2,1,2,0,4,0,0,0,0,0,0,0
582577335,582477160,0.0008195598,0.027675482,0.0669964,67240471,0,0.7156977,0.47699007,0.06549678,0.20109203,0.021907873,3.800701e-05,0.0,0.0,0.0,0.0,2490378,2490378,4028193,396321,0,0,895,2,1,2,0,4,0,1,0,0,0,0,0
582776380,582676253,0.0005442677,0.015275918,0.044693638,67240471,0,0.7186757,0.48057845,0.072245546,0.0060166516,0.022568626,0.00080114894,0.0,0.0,0.0,0.0,2490378,2490378,4028193,396321,0,0,895,2,1,2,0,4,0,0,0,0,0,0,0
582975440,582875347,0.0005476801,0.017884934,0.046515275,67240471,0,0.72264385,0.4800583,0.06220188,0.077980064,0.02031446,0.0021939431,0.0,0.0,0.0,0.0,2490378,2490378,4028193,396321,0,0,895,2,1,2,0,4,0,0,0,0,0,0,0
583174589,583074438,0.00052514824,0.018750634,0.052082844,67240471,0,0.7226471,0.47845504,0.062192146,0.060451407,0.019346569,0.00081364816,0.0,0.0,0.0,0.0,2490378,2490378,4028193,396321,0,0,895,2,1,2,0,4,0,0,0,0,0,0,0
583373981,583273531,0.0006128813,0.014508244,0.041971523,67240471,0,0.7204129,0.4808012,0.07571592,0.020727746,0.019174363,0.003938486,0.0,0.0,0.0,0.0,2490378,2490378,4028193,396321,0,0,895,2,1,2,0,4,0,0,0,0,0,0,0
583572795,583472624,0.0006149693,0.010820503,0.035497647,67240471,0,0.7211136,0.47940543,0.061622016,0.024469249,0.020133095,0.0006849769,0.0,0.0,0.0,0.0,2490378,2490378,4028193,396321,0,0,895,2,1,2,0,4,0,0,0,0,0,0,0
583771839,583671717,0.0004964753,0.0057707313,0.013340581,67240471,0,0.7183699,0.47713256,0.059762415,0.04171347,0.018843941,0.0107420795,0.0,0.0,0.0,0.0,2490378,2490378,4028193,396321,0,0,895,2,1,2,0,4,0,0,0,0,0,0,0
583970934,583870811,0.00047907032,0.0077140057,0.025080746,67240471,0,0.7187269,0.48016372,0.042707928,0.047435097,0.018029626,0.0007381613,0.0,0.0,0.0,0.0,2490378,2490378,4028193,396321,0,0,895,2,1,2,0,4,0,0,0,0,0,0,0
584170004,584069902,0.0006513266,0.019346641,0.049565215,67240471,0,0.7206317,0.4791437,0.053580165,0.112512074,0.017753785,0.00498727,0.0,0.0,0.0,0.0,2490378,2490378,4028193,396321,0,0,895,2,1,2,0,4,0,0,0,0,0,0,0
584369083,584268995,0.00047073685,0.010914772,0.034139197,67240471,0,0.718971,0.47718742,0.059847265,0.044844113,0.012005333,0.00026605712,0.0,0.0,0.0,0.0,2490378,2490378,4028193,396321,0,0,895,2,1,2,0,4,0,0,0,0,0,0,0
584568388,584468088,0.0005660341,0.012840321,0.030762859,67240471,0,0.70787317,0.47248492,0.026474662,0.042635813,0.008571895,0.004036371,0.0,0.0,0.0,0.0,2490378,2490378,4028193,396321,0,0,895,2,1,2,0,4,0,0,0,0,0,0,0
584767303,584667180,0.00047433094,0.0035084125,0.012016188,67240471,0,0.7106887,0.47619826,0.06721656,0.06706329,0.011653418,0.0077752788,0.0,0.0,0.0,0.0,2490378,2490378,4028193,396321,0,0,895,2,1,2,0,4,0,0,0,0,0,0,0
584976398,584876228,0.0005585498,0.0045013973,0.018492252,67240471,0,0.7130779,0.47594985,0.06831149,0.02756819,0.014642795,0.0059371265,0.0,0.0,0.0,0.0,2490378,2490378,4028193,396321,0,0,895,2,1,2,0,4,0,0,0,0,0,0,0
585175414,585075320,0.00069887,0.0130811315,0.03259143,67240471,0,0.71626455,0.47542852,0.05389448,0.08525481,0.01380964,0.0021424263,0.0,0.0,0.0,0.0,2490378,2490378,4028193,396321,0,0,895,2,1,2,0,4,0,0,0,0,0,0,0
585374518,585274413,0.0005018416,0.0056226184,0.012377647,67240471,0,0.71640676,0.47846502,0.07596418,0.01816831,0.009778235,0.0058946586,0.0,0.0,0.0,0.0,2490378,2490378,4028193,396321,0,0,895,2,1,2,0,4,0,0,0,0,0,0,0
585573843,585473506,0.0006953504,0.015836481,0.0325901,67240471,0,0.71894103,0.4777754,0.06659252,0.09398716,0.010230801,0.008918228,0.0,0.0,0.0,0.0,2490378,2490378,4028193,396321,0,0,895,2,1,2,0,4,0,0,0,0,0,0,0
585772690,585672599,0.0005870011,0.008946595,0.019594342,67240471,0,0.72239804,0.4773218,0.059468515,0.01309199,0.00933651,0.01821186,0.0,0.0,0.0,0.0,2490378,2490378,4028193,396321,0,0,895,2,1,2,0,4,0,0,0,0,0,0,0
585971814,585871691,0.0004256927,0.0048083626,0.008965852,67240471,0,0.72371536,0.4807991,0.05483166,0.01232407,0.0072459774,0.011298907,0.0,0.0,0.0,0.0,2490378,2490378,4028193,396321,0,0,895,2,1,2,0,4,0,0,0,0,0,0,0
586170987,586070784,0.00054387294,0.007402076,0.015883163,67240471,0,0.7265318,0.48014516,0.06329487,0.029160915,0.007123761,0.007741262,0.0,0.0,0.0,0.0,2490378,2490378,4028193,396321,0,0,895,2,1,2,0,4,0,0,0,0,0,0,0
586370017,586269876,0.00071112067,0.0043027634,0.015250237,67240471,0,0.72587496,0.47856507,0.07687025,0.0134276105,0.005964377,0.0048224553,0.0,0.0,0.0,0.0,2490378,2490378,4028193,396321,0,0,895,2,1,2,0,4,0,0,0,0,0,0,0
586569117,586468969,0.00081982464,0.025289482,0.058672138,67240471,0,0.7260623,0.47722855,0.08840207,0.1173702,0.0035146042,0.0004072758,0.0,0.0,0.0,0.0,2490378,2490378,4028193,396321,0,0,895,2,1,2,0,4,0,0,0,0,0,0,0
586778226,586678016,0.0008149991,0.028567834,0.06876216,67240471,0,0.72404426,0.4803958,0.070659,0.09662682,0.0021502858,0.008431552,0.0,0.0,0.0,0.0,2490378,2490378,4028193,396321,0,0,895,2,1,2,0,4,0,0,0,0,0,0,0
586977249,586877109,0.00074548036,0.018645758,0.048400946,67240471,0,0.7261998,0.47957706,0.07299269,0.071107335,0.005100916,0.003906997,0.0,0.0,0.0,0.0,2490378,2490378,4028193,396321,0,0,895,2,1,2,0,4,0,0,0,0,0,0,0
587176362,587076201,0.0005514352,0.019710207,0.051386766,67240471,0,0.72854424,0.4787582,0.058352686,0.081470296,0.0075672544,0.0015707626,0.0,0.0,0.0,0.0,2490378,2490378,4028193,396321,0,0,895,2,1,2,0,4,0,0,0,0,0,0,0
587375508,587275294,0.0006808575,0.018468171,0.048221685,67240471,0,0.7281253,0.4772456,0.07570652,0.056792445,0.008767948,0.0049054455,0.0,0.0,0.0,0.0,2490378,2490378,4028193,396321,0,0,895,2,1,2,0,4,0,0,0,0,0,0,0
587574573,587474388,0.0007763058,0.017716844,0.046561055,67240471,0,0.71801597,0.47749737,0.07156513,0.05356116,0.00711399,0.00065784185,0.0,0.0,0.0,0.0,2490378,2490378,4028193,396321,0,0,895,2,1,2,0,4,0,0,0,0,0,0,0
587773597,587673481,0.00065256027,0.018004768,0.046919882,67240471,0,0.7090727,0.4733619,0.07852963,0.048289273,0.006423959,0.00078446796,0.0,0.0,0.0,0.0,2490378,2490378,4028193,396321,0,0,895,2,1,2,0,4,0,0,0,0,0,0,0
587972748,587872572,0.0006727794,0.009004877,0.025078129,67240471,0,0.70614165,0.47097334,0.07452849,0.035525225,0.004513882,0.0039964346,0.0,0.0,0.0,0.0,2490378,2490378,4028193,396321,0,0,895,2,1,2,0,4,0,0,0,0,0,0,0
588171757,588071664,0.0005399742,0.007741507,0.017099053,67240471,0,0.7032319,0.47292808,0.074479096,0.040134948,0.0069439034,0.009012687,0.0,0.0,0.0,0.0,2490378,2490378,4028193,396321,0,0,895,2,1,2,0,4,0,0,0,0,0,0,0
588370878,588270757,0.0006292071,0.002486338,0.0068528224,67240471,0,0.7060531,0.47238797,0.080956705,0.054503616,0.0093717305,0.007574551,0.0,0.0,0.0,0.0,2490378,2490378,4028193,396321,0,0,895,2,1,2,0,4,0,0,0,0,0,0,0
588570094,588469849,0.0007410173,0.0021143663,0.005311987,67240471,0,0.699674,0.46888614,0.07673958,0.024184648,0.0105699375,0.009544096,0.0,0.0,0.0,0.0,2490378,2490378,4028193,396321,0,0,895,2,1,2,0,4,0,0,0,0,0,0,0
588769029,588668942,0.00062773115,0.009158951,0.0219569,67240471,0,0.70319045,0.47286725,0.06871535,0.069305755,0.013991551,0.0024824517,0.0,0.0,0.0,0.0,2490378,2490378,4028193,396321,0,0,895,2,1,2,0,4,0,0,0,0,0,0,0
588968207,588868034,0.0006370766,0.006254553,0.017893007,67240471,0,0.69899505,0.4700377,0.07195416,0.047049828,0.0154479565,0.0023948378,0.0,0.0,0.0,0.0,2490378,2490378,4028193,396321,0,0,895,2,1,2,0,4,0,0,0,0,0,0,0
589177170,589077081,0.0007011722,0.009582873,0.015853446,67240471,0,0.70100784,0.46974802,0.068609186,0.07730844,0.014675797,0.006492646,0.0,0.0,0.0,0.0,2490378,2490378,4028193,396321,0,0,895,2,1,2,0,4,0,0,0,0,0,0,0
589376353,589276174,0.0005634251,0.0048588784,0.0100201005,67240471,0,0.7024028,0.46875983,0.069935605,0.054736067,0.016569225,0.003765208,0.0,0.0,0.0,0.0,2490378,2490378,4028193,396321,0,0,895,2,1,2,0,4,0,0,0,0,0,0,0
589575446,589475266,0.0006332166,0.006158627,0.012665344,67240471,0,0.7009987,0.47113925,0.08021761,0.044198647,0.015865207,0.007969779,0.0,0.0,0.0,0.0,2490378,2490378,4028193,396321,0,0,895,2,1,2,0,4,0,0,0,0,0,0,0
589774561,589674359,0.00066042814,0.008847602,0.02314064,67240471,0,0.7032017,0.47039235,0.065387785,0.04332116,0.017205361,0.008349202,0.0,0.0,0.0,0.0,2490378,2490378,4028193,396321,0,0,895,2,1,2,0,4,0,0,0,0,0,0,0
589973612,589873451,0.0003305892,0.0057055317,0.021433303,67240471,0,0.70711464,0.47013268,0.050896604,0.043876592,0.017121779,0.011926623,0.0,0.0,0.0,0.0,2490378,2490378,4028193,396321,0,0,895,2,1,2,0,4,0,0,0,0,0,0,0
590172959,590072543,0.00031212706,0.0104533825,0.029113673,67240471,0,0.70704746,0.472981,0.01242443,0.05451406,0.018010069,0.0062765284,0.0,0.0,0.0,0.0,2490378,2490378,4028193,396321,0,0,895,2,1,2,0,4,0,0,0,0,0,0,0
590371854,590271636,0.00023375168,0.005492512,0.016170772,67240471,0,0.71090263,0.4727017,0.004340989,0.06851035,0.01756448,0.00042681897,0.0,0.0,0.0,0.0,2490378,2490378,4028193,396321,0,0,895,2,1,2,0,4,0,0,0,0,0,0,0
590570881,590470728,0.00031246935,0.0108810235,0.02729559,67240471,0,0.7173592,0.47307074,0.00501395,0.08274391,0.018782537,0.009727845,0.0,0.0,0.0,0.0,2490378,2490378,4028193,396321,0,0,895,2,1,2,0,4,0,0,0,0,0,0,0
590769936,590669820,0.00021356139,0.007620646,0.020162014,67240471,0,0.7233376,0.47761035,0.008600834,0.04287509,0.019240342,0.0018958418,0.0,0.0,0.0,0.0,2490378,2490378,4028193,396321,0,0,895,2,1,2,0,4,0,0,0,0,0,0,0
590969045,590868913,0.00030415843,0.0109122805,0.023621375,67240471,0,0.7292963,0.47773978,0.010239613,0.08957437,0.021344936,0.004725185,0.0,0.0,0.0,0.0,2490378,2490378,4028193,396321,0,0,895,2,1,2,0,4,0,0,0,0,0,0,0
591168195,591068005,7.7989054e-05,0.003821048,0.015798023,67240471,0,0.7318252,0.47696787,0.011298778,0.027671305,0.025108976,0.007032599,0.0,0.0,0.0,0.0,2490378,2490378,4028193,396321,0,0,895,2,1,2,0,4,0,0,0,0,0,0,0
591377203,591277052,0.00016979122,0.004923851,0.01801395,67240471,0,0.73388255,0.47669438,0.016652258,0.025807692,0.024177382,0.004137198,0.0,0.0,0.0,0.0,2490378,2490378,4028193,396321,0,0,895,2,1,2,0,4,0,0,0,0,0,0,0
591576232,591476144,9.714841e-05,0.005779153,0.019675843,67240471,0,0.7303403,0.478885,0.0007815615,0.021929413,0.029412208,0.009698594,0.0,0.0,0.0,0.0,2490378,2490378,4028193,396321,0,0,895,2,1,2,0,4,0,0,0,0,0,0,0
591775439,591675236,0.00014500029,0.004894946,0.019611409,67240471,0,0.7315324,0.4778264,0.017005825,0.014326788,0.030235935,0.011687666,0.0,0.0,0.0,0.0,2490378,2490378,4028193,396321,0,0,895,2,1,2,0,4,0,0,0,0,0,0,0
591974500,591874329,0.0003423761,0.015331614,0.036778092,67240471,0,0.73742,0.47793385,0.017276106,0.09104906,0.026991433,0.009530332,0.0,0.0,0.0,0.0,2490378,2490378,4028193,396321,0,0,895,2,1,2,0,4,0,0,0,0,0,0,0
592173546,592073421,0.0004524181,0.023451217,0.056960408,131607,0,0.7413351,0.48202306,0.017380135,0.06665082,0.028807418,0.022595907,0.0,0.0,0.0,0.0,2490378,2490378,4028193,396321,0,0,895,2,1,2,0,4,0,0,0,0,0,0,0
592373152,592272513,0.00012215918,0.014193231,0.040262047,131607,0,0.73411703,0.47884783,0.010840581,0.021719187,0.026174415,0.013956931,0.0,0.0,0.0,0.0,2490378,2490378,4028193,396321,0,0,895,2,1,2,0,4,0,0,0,0,0,0,0
592571765,592471605,0.00037270677,0.017757032,0.04457068,131607,0,0.737787,0.4783553,0.0010039494,0.07079887,0.025942385,0.009254996,0.0,0.0,0.0,0.0,2490378,2490378,4028193,396321,0,0,895,2,1,2,0,4,0,0,0,0,0,0,0
592770821,592670698,0.0004156435,0.018995814,0.04608104,131607,0,0.74284714,0.4826822,0.03800305,0.08140996,0.025475485,0.017931145,0.0,0.0,0.0,0.0,2490378,2490378,4028193,396321,0,0,895,2,1,2,0,4,0,0,0,0,0,0,0
592969988,592869790,0.00047196535,0.021004023,0.052970737,131607,0,0.7474363,0.48234147,0.02976404,0.066361606,0.027719572,0.0064718053,0.0,0.0,0.0,0.0,2490378,2490378,4028193,396321,0,0,895,2,1,2,0,4,0,0,0,0,0,0,0
593169095,593068882,0.00059784064,0.01720737,0.047644284,131607,0,0.75352854,0.48228168,0.07646771,0.07183263,0.027219951,0.0018451832,0.0,0.0,0.0,0.0,2490378,2490378,4028193,396321,0,0,895,2,1,2,0,4,0,0,0,0,0,0,0
593378084,593277929,0.00052071834,0.009527787,0.027542409,131607,0,0.76038915,0.48295054,0.055193797,0.0248394,0.025922813,0.009875152,0.0,0.0,0.0,0.0,2490378,2490378,4028193,396321,0,0,895,2,1,2,0,4,0,0,0,0,0,0,0
593577261,593477021,0.00039457183,0.004848412,0.0056711864,131607,0,0.7630117,0.48666552,0.035317034,0.04326022,0.02145658,0.004606443,0.0,0.0,0.0,0.0,2490378,2490378,4028193,396321,0,0,895,2,1,2,0,4,0,0,0,0,0,0,0
593776272,593676113,0.0003923256,0.0055104536,0.01725844,131607,0,0.760346,0.48450086,0.0324208,0.03572348,0.020729957,0.006595354,0.0,0.0,0.0,0.0,2490378,2490378,4028193,396321,0,0,895,2,1,2,0,4,0,0,0,0,0,0,0
