timestamp,timestamp_sample,gps_hvel[0],gps_hvel[1],gps_vvel,gps_hpos[0],gps_hpos[1],gps_vpos,ev_hvel[0],ev_hvel[1],ev_vvel,ev_hpos[0],ev_hpos[1],ev_vpos,rng_vpos,baro_vpos,aux_hvel[0],aux_hvel[1],aux_vvel,flow[0],flow[1],heading,mag_field[0],mag_field[1],mag_field[2],drag[0],drag[1],airspeed,beta,hagl,hagl_rate
539722597,539622449,0.001021809,0.0,0.0023980998,0.0006364468,0.0,0.0,0.0,0.0,0.0,0.0,0.0,0.0,0.0,0.00033276467,0.0,0.0,nan,0.0,0.0,0.00024295258,0.0,0.0,0.0,0.0,0.0,0.0,0.0,0.0,0.0
540220327,540120178,0.00011574034,0.0,0.0010091306,0.00094156637,0.0,0.0,0.0,0.0,0.0,0.0,0.0,0.0,0.0,6.882544e-05,0.0,0.0,nan,0.0,0.0,3.084944e-05,0.0,0.0,0.0,0.0,0.0,0.0,0.0,0.0,0.0
540718509,540617909,0.0010907863,0.0,4.6112455e-05,0.0011917106,0.0,0.0,0.0,0.0,0.0,0.0,0.0,0.0,0.0,1.22193815e-05,0.0,0.0,nan,0.0,0.0,0.0002073562,0.0,0.0,0.0,0.0,0.0,0.0,0.0,0.0,0.0
541215819,541115639,0.0005885226,0.0,5.8926882e-05,0.0010232243,0.0,0.0,0.0,0.0,0.0,0.0,0.0,0.0,0.0,5.7221782e-06,0.0,0.0,nan,0.0,0.0,0.00017769962,0.0,0.0,0.0,0.0,0.0,0.0,0.0,0.0,0.0
541713873,541613369,8.5697306e-05,0.0,3.170787e-06,0.00071310817,0.0,0.0,0.0,0.0,0.0,0.0,0.0,0.0,0.0,1.4513025e-06,0.0,0.0,nan,0.0,0.0,6.9969334e-05,0.0,0.0,0.0,0.0,0.0,0.0,0.0,0.0,0.0
542221188,542121055,0.0016031011,0.0,0.0004038004,0.00067878165,0.0,0.0,0.0,0.0,0.0,0.0,0.0,0.0,0.0,4.628821e-05,0.0,0.0,nan,0.0,0.0,1.6172697e-05,0.0,0.0,0.0,0.0,0.0,0.0,0.0,0.0,0.0
542718896,542618784,0.001999179,0.0,5.4614746e-05,0.00050524063,0.0,0.0,0.0,0.0,0.0,0.0,0.0,0.0,0.0,7.083342e-05,0.0,0.0,nan,0.0,0.0,1.2940707e-05,0.0,0.0,0.0,0.0,0.0,0.0,0.0,0.0,0.0
543216722,543116515,0.0055763572,0.0,2.0193724e-05,0.0004712968,0.0,0.0,0.0,0.0,0.0,0.0,0.0,0.0,0.0,6.942953e-06,0.0,0.0,nan,0.0,0.0,0.00021204299,0.0,0.0,0.0,0.0,0.0,0.0,0.0,0.0,0.0
543724284,543624200,0.0009237815,0.0,5.636216e-05,0.0002444367,0.0,0.0,0.0,0.0,0.0,0.0,0.0,0.0,0.0,4.666664e-05,0.0,0.0,nan,0.0,0.0,3.068653e-05,0.0,0.0,0.0,0.0,0.0,0.0,0.0,0.0,0.0
544222051,544121930,0.0045807734,0.0,7.421281e-09,0.00013623349,0.0,0.0,0.0,0.0,0.0,0.0,0.0,0.0,0.0,0.00031461034,0.0,0.0,nan,0.0,0.0,2.6307223e-06,0.0,0.0,0.0,0.0,0.0,0.0,0.0,0.0,0.0
544719768,544619661,0.0021663918,0.0,1.27735075e-05,8.810017e-05,0.0,0.0,0.0,0.0,0.0,0.0,0.0,0.0,0.0,3.6506997e-06,0.0,0.0,nan,0.0,0.0,0.00029793725,0.0,0.0,0.0,0.0,0.0,0.0,0.0,0.0,0.0
545217473,545117392,0.0020269365,0.0,0.00011045845,0.000103357735,0.0,0.0,0.0,0.0,0.0,0.0,0.0,0.0,0.0,3.297515e-05,0.0,0.0,nan,0.0,0.0,2.1972492e-05,0.0,0.0,0.0,0.0,0.0,0.0,0.0,0.0,0.0
545715554,545615122,0.00025270102,0.0,9.558141e-07,0.00012249174,0.0,0.0,0.0,0.0,0.0,0.0,0.0,0.0,0.0,0.0005116564,0.0,0.0,nan,0.0,0.0,0.0005626378,0.0,0.0,0.0,0.0,0.0,0.0,0.0,0.0,0.0
546223123,546122808,0.0002376511,0.0,8.7833394e-07,9.390303e-05,0.0,0.0,0.0,0.0,0.0,0.0,0.0,0.0,0.0,9.146771e-06,0.0,0.0,nan,0.0,0.0,0.000256859,0.0,0.0,0.0,0.0,0.0,0.0,0.0,0.0,0.0
546721053,546620538,0.001414694,0.0,0.0006387457,1.8692013e-05,0.0,0.0,0.0,0.0,0.0,0.0,0.0,0.0,0.0,0.00014001012,0.0,0.0,nan,0.0,0.0,1.3961175e-06,0.0,0.0,0.0,0.0,0.0,0.0,0.0,0.0,0.0
547218354,547118269,0.0022613565,0.0,0.0013822027,3.4286506e-05,0.0,0.0,0.0,0.0,0.0,0.0,0.0,0.0,0.0,2.7048577e-06,0.0,0.0,nan,0.0,0.0,0.00040883047,0.0,0.0,0.0,0.0,0.0,0.0,0.0,0.0,0.0
547716420,547616000,0.0042342455,0.0,0.0008073153,8.1044825e-05,0.0,0.0,0.0,0.0,0.0,0.0,0.0,0.0,0.0,1.2674419e-06,0.0,0.0,nan,0.0,0.0,0.000120671175,0.0,0.0,0.0,0.0,0.0,0.0,0.0,0.0,0.0
548213869,548113731,0.001959813,0.0,0.001734719,0.00010330529,0.0,0.0,0.0,0.0,0.0,0.0,0.0,0.0,0.0,0.00016593916,0.0,0.0,nan,0.0,0.0,1.5004574e-05,0.0,0.0,0.0,0.0,0.0,0.0,0.0,0.0,0.0
548721552,548621416,0.00073513936,0.0,0.0012002446,7.94336e-05,0.0,0.0,0.0,0.0,0.0,0.0,0.0,0.0,0.0,0.00042774374,0.0,0.0,nan,0.0,0.0,7.6008464e-06,0.0,0.0,0.0,0.0,0.0,0.0,0.0,0.0,0.0
549219264,549119147,0.0033138008,0.0,0.0014562387,5.708958e-05,0.0,0.0,0.0,0.0,0.0,0.0,0.0,0.0,0.0,0.00011454468,0.0,0.0,nan,0.0,0.0,0.00036745844,0.0,0.0,0.0,0.0,0.0,0.0,0.0,0.0,0.0
549718000,549616879,0.0014866688,0.0,0.00019254288,0.0002078933,0.0,0.0,0.0,0.0,0.0,0.0,0.0,0.0,0.0,0.00015777735,0.0,0.0,nan,0.0,0.0,0.00037392197,0.0,0.0,0.0,0.0,0.0,0.0,0.0,0.0,0.0
550214757,550114610,0.0012838615,0.0,0.00053198653,0.00015657984,0.0,0.0,0.0,0.0,0.0,0.0,0.0,0.0,0.0,0.0002492698,0.0,0.0,nan,0.0,0.0,5.112356e-06,0.0,0.0,0.0,0.0,0.0,0.0,0.0,0.0,0.0
550722454,550622295,0.0009524864,0.0,0.0006930068,9.652824e-05,0.0,0.0,0.0,0.0,0.0,0.0,0.0,0.0,0.0,0.00054522377,0.0,0.0,nan,0.0,0.0,3.710911e-05,0.0,0.0,0.0,0.0,0.0,0.0,0.0,0.0,0.0
551220108,551120027,0.0004117833,0.0,2.6646064e-06,0.00015180843,0.0,0.0,0.0,0.0,0.0,0.0,0.0,0.0,0.0,0.00028390405,0.0,0.0,nan,0.0,0.0,0.0005740877,0.0,0.0,0.0,0.0,0.0,0.0,0.0,0.0,0.0
551718193,551617758,2.3327413e-05,0.0,0.00041746782,0.00027858213,0.0,0.0,0.0,0.0,0.0,0.0,0.0,0.0,0.0,3.078329e-05,0.0,0.0,nan,0.0,0.0,0.00011568007,0.0,0.0,0.0,0.0,0.0,0.0,0.0,0.0,0.0
552215592,552115489,0.00086012116,0.0,6.8839713e-06,0.00040742275,0.0,0.0,0.0,0.0,0.0,0.0,0.0,0.0,0.0,0.0003066612,0.0,0.0,nan,0.0,0.0,1.5381385e-05,0.0,0.0,0.0,0.0,0.0,0.0,0.0,0.0,0.0
552723373,552623175,0.0028432522,0.0,0.0008541297,0.0006028788,0.0,0.0,0.0,0.0,0.0,0.0,0.0,0.0,0.0,0.00024889407,0.0,0.0,nan,0.0,0.0,0.0005629314,0.0,0.0,0.0,0.0,0.0,0.0,0.0,0.0,0.0
553221100,553120906,0.0010579041,0.0,0.00021570477,0.00050179096,0.0,0.0,0.0,0.0,0.0,0.0,0.0,0.0,0.0,4.146171e-06,0.0,0.0,nan,0.0,0.0,3.127604e-06,0.0,0.0,0.0,0.0,0.0,0.0,0.0,0.0,0.0
553718732,553618638,0.0013736387,0.0,0.00014666126,0.00045457715,0.0,0.0,0.0,0.0,0.0,0.0,0.0,0.0,0.0,0.00015971485,0.0,0.0,nan,0.0,0.0,8.877087e-06,0.0,0.0,0.0,0.0,0.0,0.0,0.0,0.0,0.0
554216480,554116369,0.008096464,0.0,9.585632e-06,0.00032565507,0.0,0.0,0.0,0.0,0.0,0.0,0.0,0.0,0.0,2.5411618e-05,0.0,0.0,nan,0.0,0.0,0.0023079019,0.0,0.0,0.0,0.0,0.0,0.0,0.0,0.0,0.0
554724234,554624055,0.0018321973,0.0,0.0002726119,0.00015082017,0.0,0.0,0.0,0.0,0.0,0.0,0.0,0.0,0.0,0.00014198436,0.0,0.0,nan,0.0,0.0,0.00013979773,0.0,0.0,0.0,0.0,0.0,0.0,0.0,0.0,0.0
555222008,555121787,0.00798025,0.0,0.0012405064,0.00019938,0.0,0.0,0.0,0.0,0.0,0.0,0.0,0.0,0.0,6.5630105e-05,0.0,0.0,nan,0.0,0.0,0.00013125622,0.0,0.0,0.0,0.0,0.0,0.0,0.0,0.0,0.0
555719672,555619519,4.440566e-05,0.0,0.00022459337,5.870707e-05,0.0,0.0,0.0,0.0,0.0,0.0,0.0,0.0,0.0,3.7352856e-05,0.0,0.0,nan,0.0,0.0,0.0012826829,0.0,0.0,0.0,0.0,0.0,0.0,0.0,0.0,0.0
556217421,556117251,0.0020905028,0.0,0.00014186847,0.00010126876,0.0,0.0,0.0,0.0,0.0,0.0,0.0,0.0,0.0,8.240401e-06,0.0,0.0,nan,0.0,0.0,0.00028316086,0.0,0.0,0.0,0.0,0.0,0.0,0.0,0.0,0.0
556715360,556614982,0.00059550547,0.0,6.13548e-05,9.850709e-05,0.0,0.0,0.0,0.0,0.0,0.0,0.0,0.0,0.0,6.5555696e-06,0.0,0.0,nan,0.0,0.0,3.6135377e-06,0.0,0.0,0.0,0.0,0.0,0.0,0.0,0.0,0.0
557222756,557122669,0.0050786184,0.0,0.00014306132,0.00010682346,0.0,0.0,0.0,0.0,0.0,0.0,0.0,0.0,0.0,1.6536751e-05,0.0,0.0,nan,0.0,0.0,2.4690113e-05,0.0,0.0,0.0,0.0,0.0,0.0,0.0,0.0,0.0
557720804,557620401,0.0008089415,0.0,1.2783718e-05,0.00023366131,0.0,0.0,0.0,0.0,0.0,0.0,0.0,0.0,0.0,3.0567495e-05,0.0,0.0,nan,0.0,0.0,0.0010917152,0.0,0.0,0.0,0.0,0.0,0.0,0.0,0.0,0.0
558218275,558118133,0.0013786404,0.0,0.0010701654,0.0002995502,0.0,0.0,0.0,0.0,0.0,0.0,0.0,0.0,0.0,4.390597e-06,0.0,0.0,nan,0.0,0.0,0.0001320805,0.0,0.0,0.0,0.0,0.0,0.0,0.0,0.0,0.0
558716935,558615865,0.004539777,0.0,2.695833e-05,4.6997277e-05,0.0,0.0,0.0,0.0,0.0,0.0,0.0,0.0,0.0,1.3303568e-05,0.0,0.0,nan,0.0,0.0,4.2054796e-07,0.0,0.0,0.0,0.0,0.0,0.0,0.0,0.0,0.0
559213779,559113597,0.0031111347,0.0,0.00033592826,5.8209076e-05,0.0,0.0,0.0,0.0,0.0,0.0,0.0,0.0,0.0,0.0007996826,0.0,0.0,nan,0.0,0.0,0.0005139419,0.0,0.0,0.0,0.0,0.0,0.0,0.0,0.0,0.0
559721613,559621283,0.0007770513,0.0,0.0003249908,3.9078054e-06,0.0,0.0,0.0,0.0,0.0,0.0,0.0,0.0,0.0,1.7743984e-06,0.0,0.0,nan,0.0,0.0,4.0493633e-06,0.0,0.0,0.0,0.0,0.0,0.0,0.0,0.0,0.0
560219186,560119015,0.0022488318,0.0,3.736847e-06,3.27157e-05,0.0,0.0,0.0,0.0,0.0,0.0,0.0,0.0,0.0,2.984883e-06,0.0,0.0,nan,0.0,0.0,0.0012534487,0.0,0.0,0.0,0.0,0.0,0.0,0.0,0.0,0.0
560716836,560616748,0.0030373908,0.0,3.9210954e-06,3.4568475e-05,0.0,0.0,0.0,0.0,0.0,0.0,0.0,0.0,0.0,1.4024192e-06,0.0,0.0,nan,0.0,0.0,6.634296e-06,0.0,0.0,0.0,0.0,0.0,0.0,0.0,0.0,0.0
561224526,561124434,0.003670449,0.0,4.354343e-05,0.00023142695,0.0,0.0,0.0,0.0,0.0,0.0,0.0,0.0,0.0,2.1409913e-05,0.0,0.0,nan,0.0,0.0,0.000102831786,0.0,0.0,0.0,0.0,0.0,0.0,0.0,0.0,0.0
561722309,561622167,0.001766317,0.0,0.00082829443,0.0001945448,0.0,0.0,0.0,0.0,0.0,0.0,0.0,0.0,0.0,1.2662911e-05,0.0,0.0,nan,0.0,0.0,0.0010807654,0.0,0.0,0.0,0.0,0.0,0.0,0.0,0.0,0.0
562220042,562119899,0.00018997332,0.0,6.4966994e-06,0.0002732759,0.0,0.0,0.0,0.0,0.0,0.0,0.0,0.0,0.0,2.404088e-05,0.0,0.0,nan,0.0,0.0,0.00043304043,0.0,0.0,0.0,0.0,0.0,0.0,0.0,0.0,0.0
562717768,562617631,0.00019054436,0.0,7.974979e-05,0.0004355141,0.0,0.0,0.0,0.0,0.0,0.0,0.0,0.0,0.0,3.946291e-05,0.0,0.0,nan,0.0,0.0,0.008852038,0.0,0.0,0.0,0.0,0.0,0.0,0.0,0.0,0.0
563215501,563115364,0.003828172,0.0,0.0002376159,0.0007828302,0.0,0.0,0.0,0.0,0.0,0.0,0.0,0.0,0.0,0.00027357187,0.0,0.0,nan,0.0,0.0,0.005699256,0.0,0.0,0.0,0.0,0.0,0.0,0.0,0.0,0.0
563723519,563623051,0.0009922228,0.0,2.897062e-06,0.0017149233,0.0,0.0,0.0,0.0,0.0,0.0,0.0,0.0,0.0,5.0877036e-09,0.0,0.0,nan,0.0,0.0,0.0048176507,0.0,0.0,0.0,0.0,0.0,0.0,0.0,0.0,0.0
564221107,564120783,0.0025914996,0.0,0.00045657725,0.0019458982,0.0,0.0,0.0,0.0,0.0,0.0,0.0,0.0,0.0,8.203921e-05,0.0,0.0,nan,0.0,0.0,0.0049434365,0.0,0.0,0.0,0.0,0.0,0.0,0.0,0.0,0.0
564718892,564618516,0.0076504066,0.0,7.9885736e-05,0.0024017666,0.0,0.0,0.0,0.0,0.0,0.0,0.0,0.0,0.0,4.7148184e-05,0.0,0.0,nan,0.0,0.0,0.005734391,0.0,0.0,0.0,0.0,0.0,0.0,0.0,0.0,0.0
565216353,565116248,0.0012258562,0.0,8.699691e-05,0.002954368,0.0,0.0,0.0,0.0,0.0,0.0,0.0,0.0,0.0,3.710701e-05,0.0,0.0,nan,0.0,0.0,0.0037641155,0.0,0.0,0.0,0.0,0.0,0.0,0.0,0.0,0.0
565714361,565613981,0.00084146607,0.0,0.0008759241,0.0032418258,0.0,0.0,0.0,0.0,0.0,0.0,0.0,0.0,0.0,0.00025443095,0.0,0.0,nan,0.0,0.0,0.0038232722,0.0,0.0,0.0,0.0,0.0,0.0,0.0,0.0,0.0
566221811,566121668,0.000582712,0.0,0.001270369,0.002783394,0.0,0.0,0.0,0.0,0.0,0.0,0.0,0.0,0.0,0.00019883203,0.0,0.0,nan,0.0,0.0,0.0043333527,0.0,0.0,0.0,0.0,0.0,0.0,0.0,0.0,0.0
566719931,566619401,0.0116062565,0.0,2.4871357e-05,0.0018242013,0.0,0.0,0.0,0.0,0.0,0.0,0.0,0.0,0.0,0.00017470968,0.0,0.0,nan,0.0,0.0,0.0043686246,0.0,0.0,0.0,0.0,0.0,0.0,0.0,0.0,0.0
567217222,567117133,0.00085963594,0.0,0.00061567297,0.0015398198,0.0,0.0,0.0,0.0,0.0,0.0,0.0,0.0,0.0,0.00010333906,0.0,0.0,nan,0.0,0.0,0.004466684,0.0,0.0,0.0,0.0,0.0,0.0,0.0,0.0,0.0
567716042,567614866,0.028217468,0.0,0.00030050587,0.001771206,0.0,0.0,0.0,0.0,0.0,0.0,0.0,0.0,0.0,7.924611e-06,0.0,0.0,nan,0.0,0.0,0.0025654098,0.0,0.0,0.0,0.0,0.0,0.0,0.0,0.0,0.0
568222741,568122553,0.0022776893,0.0,0.00041752827,0.0015777202,0.0,0.0,0.0,0.0,0.0,0.0,0.0,0.0,0.0,0.00020387596,0.0,0.0,nan,0.0,0.0,0.0056037735,0.0,0.0,0.0,0.0,0.0,0.0,0.0,0.0,0.0
568720524,568620286,0.1021747,0.0,0.00031403318,0.0012982491,0.0,0.0,0.0,0.0,0.0,0.0,0.0,0.0,0.0,0.00040950673,0.0,0.0,nan,0.0,0.0,0.0050386074,0.0,0.0,0.0,0.0,0.0,0.0,0.0,0.0,0.0
569218200,569118019,0.0034093705,0.0,0.0030178106,0.0014152299,0.0,0.0,0.0,0.0,0.0,0.0,0.0,0.0,0.0,0.00020772971,0.0,0.0,nan,0.0,0.0,0.0039792983,0.0,0.0,0.0,0.0,0.0,0.0,0.0,0.0,0.0
569716134,569615751,0.0010100978,0.0,0.0012573713,0.0011099096,0.0,0.0,0.0,0.0,0.0,0.0,0.0,0.0,0.0,0.00014900383,0.0,0.0,nan,0.0,0.0,0.003946554,0.0,0.0,0.0,0.0,0.0,0.0,0.0,0.0,0.0
570213637,570113488,0.0039106696,0.0,0.00010813146,0.0011739407,0.0,0.0,0.0,0.0,0.0,0.0,0.0,0.0,0.0,0.0006026462,0.0,0.0,nan,0.0,0.0,0.004153842,0.0,0.0,0.0,0.0,0.0,0.0,0.0,0.0,0.0
570721304,570621171,0.0019023457,0.0,9.154828e-05,0.0006781305,0.0,0.0,0.0,0.0,0.0,0.0,0.0,0.0,0.0,0.00031570913,0.0,0.0,nan,0.0,0.0,0.0038438833,0.0,0.0,0.0,0.0,0.0,0.0,0.0,0.0,0.0
571218990,571118904,0.0010313084,0.0,0.0015195905,0.0005473288,0.0,0.0,0.0,0.0,0.0,0.0,0.0,0.0,0.0,9.247112e-05,0.0,0.0,nan,0.0,0.0,0.0021481735,0.0,0.0,0.0,0.0,0.0,0.0,0.0,0.0,0.0
571717017,571616637,0.000150014,0.0,0.00029693745,0.00025540986,0.0,0.0,0.0,0.0,0.0,0.0,0.0,0.0,0.0,0.00020791286,0.0,0.0,nan,0.0,0.0,0.0038032068,0.0,0.0,0.0,0.0,0.0,0.0,0.0,0.0,0.0
572224407,572124324,0.0038992288,0.0,0.00054883416,0.00041303012,0.0,0.0,0.0,0.0,0.0,0.0,0.0,0.0,0.0,0.00025288106,0.0,0.0,nan,0.0,0.0,0.003478385,0.0,0.0,0.0,0.0,0.0,0.0,0.0,0.0,0.0
572722252,572622057,0.003783873,0.0,0.00011352534,0.0004211657,0.0,0.0,0.0,0.0,0.0,0.0,0.0,0.0,0.0,4.350039e-05,0.0,0.0,nan,0.0,0.0,0.0026835685,0.0,0.0,0.0,0.0,0.0,0.0,0.0,0.0,0.0
573219959,573119789,0.001974849,0.0,1.3131179e-05,0.00048401995,0.0,0.0,0.0,0.0,0.0,0.0,0.0,0.0,0.0,0.0001499995,0.0,0.0,nan,0.0,0.0,0.0017579467,0.0,0.0,0.0,0.0,0.0,0.0,0.0,0.0,0.0
573717725,573617522,0.0008410876,0.0,4.7777226e-05,0.00073878735,0.0,0.0,0.0,0.0,0.0,0.0,0.0,0.0,0.0,1.8896235e-05,0.0,0.0,nan,0.0,0.0,0.0021319161,0.0,0.0,0.0,0.0,0.0,0.0,0.0,0.0,0.0
574215397,574115255,0.0031941477,0.0,1.06749085e-05,0.0014919251,0.0,0.0,0.0,0.0,0.0,0.0,0.0,0.0,0.0,0.0001007639,0.0,0.0,nan,0.0,0.0,0.0066147377,0.0,0.0,0.0,0.0,0.0,0.0,0.0,0.0,0.0
574723099,574622942,0.00046455092,0.0,3.7582762e-05,0.0014985871,0.0,0.0,0.0,0.0,0.0,0.0,0.0,0.0,0.0,0.00041411113,0.0,0.0,nan,0.0,0.0,0.0077749346,0.0,0.0,0.0,0.0,0.0,0.0,0.0,0.0,0.0
575220757,575120675,0.0005072877,0.0,0.00027694835,0.0014727529,0.0,0.0,0.0,0.0,0.0,0.0,0.0,0.0,0.0,5.6367513e-05,0.0,0.0,nan,0.0,0.0,0.007015183,0.0,0.0,0.0,0.0,0.0,0.0,0.0,0.0,0.0
575718896,575618407,0.0067288536,0.0,0.00016799623,0.001548058,0.0,0.0,0.0,0.0,0.0,0.0,0.0,0.0,0.0,0.00011948209,0.0,0.0,nan,0.0,0.0,0.006490581,0.0,0.0,0.0,0.0,0.0,0.0,0.0,0.0,0.0
576216303,576116140,0.0008787891,0.0,0.00025662204,0.0012005079,0.0,0.0,0.0,0.0,0.0,0.0,0.0,0.0,0.0,0.00026440926,0.0,0.0,nan,0.0,0.0,0.00813035,0.0,0.0,0.0,0.0,0.0,0.0,0.0,0.0,0.0
576714887,576613873,0.002636449,0.0,4.2909487e-05,0.0011656877,0.0,0.0,0.0,0.0,0.0,0.0,0.0,0.0,0.0,0.00023177186,0.0,0.0,nan,0.0,0.0,0.005922343,0.0,0.0,0.0,0.0,0.0,0.0,0.0,0.0,0.0
577221844,577121560,0.00015118257,0.0,0.00078642165,0.0009571122,0.0,0.0,0.0,0.0,0.0,0.0,0.0,0.0,0.0,4.1014628e-05,0.0,0.0,nan,0.0,0.0,0.00550122,0.0,0.0,0.0,0.0,0.0,0.0,0.0,0.0,0.0
577719843,577619292,0.0013875326,0.0,2.3577715e-05,0.00095447496,0.0,0.0,0.0,0.0,0.0,0.0,0.0,0.0,0.0,0.00048977445,0.0,0.0,nan,0.0,0.0,0.0022912316,0.0,0.0,0.0,0.0,0.0,0.0,0.0,0.0,0.0
578217109,578117025,0.001845287,0.0,6.903143e-05,0.00071270746,0.0,0.0,0.0,0.0,0.0,0.0,0.0,0.0,0.0,0.000342961,0.0,0.0,nan,0.0,0.0,0.0044982936,0.0,0.0,0.0,0.0,0.0,0.0,0.0,0.0,0.0
578724801,578624712,0.001100852,0.0,0.00015620393,0.0005578903,0.0,0.0,0.0,0.0,0.0,0.0,0.0,0.0,0.0,0.0005336256,0.0,0.0,nan,0.0,0.0,0.0104669295,0.0,0.0,0.0,0.0,0.0,0.0,0.0,0.0,0.0
579222576,579122444,0.00015157925,0.0,0.0003918224,0.0005519628,0.0,0.0,0.0,0.0,0.0,0.0,0.0,0.0,0.0,2.272116e-05,0.0,0.0,nan,0.0,0.0,0.012976247,0.0,0.0,0.0,0.0,0.0,0.0,0.0,0.0,0.0
579720363,579620177,0.006573702,0.0,2.7786573e-06,0.0004536509,0.0,0.0,0.0,0.0,0.0,0.0,0.0,0.0,0.0,2.1566028e-10,0.0,0.0,nan,0.0,0.0,0.0095412005,0.0,0.0,0.0,0.0,0.0,0.0,0.0,0.0,0.0
580218034,580117909,0.0011340339,0.0,0.00012489306,0.0007079483,0.0,0.0,0.0,0.0,0.0,0.0,0.0,0.0,0.0,1.2310348e-06,0.0,0.0,nan,0.0,0.0,0.010127362,0.0,0.0,0.0,0.0,0.0,0.0,0.0,0.0,0.0
580716141,580615641,2.5547693e-05,0.0,0.00012631656,0.0004932353,0.0,0.0,0.0,0.0,0.0,0.0,0.0,0.0,0.0,5.984877e-06,0.0,0.0,nan,0.0,0.0,0.017368494,0.0,0.0,0.0,0.0,0.0,0.0,0.0,0.0,0.0
581223912,581123329,0.0061166547,0.0,0.00063526205,0.000944637,0.0,0.0,0.0,0.0,0.0,0.0,0.0,0.0,0.0,3.42984e-05,0.0,0.0,nan,0.0,0.0,0.012528261,0.0,0.0,0.0,0.0,0.0,0.0,0.0,0.0,0.0
581721224,581621062,0.0029523545,0.0,0.0032294234,0.0013700507,0.0,0.0,0.0,0.0,0.0,0.0,0.0,0.0,0.0,4.4288463e-06,0.0,0.0,nan,0.0,0.0,0.005116938,0.0,0.0,0.0,0.0,0.0,0.0,0.0,0.0,0.0
582219047,582118793,0.00057418336,0.0,0.00076465675,0.00065594795,0.0,0.0,0.0,0.0,0.0,0.0,0.0,0.0,0.0,3.9931065e-06,0.0,0.0,nan,0.0,0.0,0.0041602626,0.0,0.0,0.0,0.0,0.0,0.0,0.0,0.0,0.0
582716615,582616525,3.6200097e-05,0.0,9.331107e-06,0.00050934294,0.0,0.0,0.0,0.0,0.0,0.0,0.0,0.0,0.0,8.535074e-05,0.0,0.0,nan,0.0,0.0,0.0036582847,0.0,0.0,0.0,0.0,0.0,0.0,0.0,0.0,0.0
583214348,583114257,0.0036543724,0.0,0.00073000166,0.00037428972,0.0,0.0,0.0,0.0,0.0,0.0,0.0,0.0,0.0,6.620233e-07,0.0,0.0,nan,0.0,0.0,0.004353966,0.0,0.0,0.0,0.0,0.0,0.0,0.0,0.0,0.0
583722090,583621943,0.0017400134,0.0,0.00016703941,0.00035509412,0.0,0.0,0.0,0.0,0.0,0.0,0.0,0.0,0.0,2.7442968e-05,0.0,0.0,nan,0.0,0.0,0.0035715464,0.0,0.0,0.0,0.0,0.0,0.0,0.0,0.0,0.0
584219797,584119675,0.012658967,0.0,0.0009892426,0.00031519687,0.0,0.0,0.0,0.0,0.0,0.0,0.0,0.0,0.0,2.4287909e-05,0.0,0.0,nan,0.0,0.0,0.0023171734,0.0,0.0,0.0,0.0,0.0,0.0,0.0,0.0,0.0
584717530,584617407,0.0044974843,0.0,3.3871125e-05,0.00013580214,0.0,0.0,0.0,0.0,0.0,0.0,0.0,0.0,0.0,6.309451e-07,0.0,0.0,nan,0.0,0.0,0.004518066,0.0,0.0,0.0,0.0,0.0,0.0,0.0,0.0,0.0
585215278,585115139,0.0072683822,0.0,2.737036e-08,0.00019070615,0.0,0.0,0.0,0.0,0.0,0.0,0.0,0.0,0.0,1.5664315e-05,0.0,0.0,nan,0.0,0.0,0.0029046147,0.0,0.0,0.0,0.0,0.0,0.0,0.0,0.0,0.0
585722998,585622825,0.0001714002,0.0,4.2450498e-05,8.717041e-05,0.0,0.0,0.0,0.0,0.0,0.0,0.0,0.0,0.0,1.1659394e-08,0.0,0.0,nan,0.0,0.0,0.003899223,0.0,0.0,0.0,0.0,0.0,0.0,0.0,0.0,0.0
586220757,586120557,0.0008503589,0.0,5.1987405e-05,5.074797e-05,0.0,0.0,0.0,0.0,0.0,0.0,0.0,0.0,0.0,2.222875e-05,0.0,0.0,nan,0.0,0.0,0.0059179445,0.0,0.0,0.0,0.0,0.0,0.0,0.0,0.0,0.0
586718460,586618289,0.009336742,0.0,0.0007233996,4.623729e-06,0.0,0.0,0.0,0.0,0.0,0.0,0.0,0.0,0.0,0.00015741581,0.0,0.0,nan,0.0,0.0,0.0059867757,0.0,0.0,0.0,0.0,0.0,0.0,0.0,0.0,0.0
587216262,587116020,0.006637409,0.0,0.00027982253,5.726334e-05,0.0,0.0,0.0,0.0,0.0,0.0,0.0,0.0,0.0,1.9027955e-06,0.0,0.0,nan,0.0,0.0,0.0045608906,0.0,0.0,0.0,0.0,0.0,0.0,0.0,0.0,0.0
587714210,587613751,0.0023318538,0.0,0.00095501624,4.1267253e-05,0.0,0.0,0.0,0.0,0.0,0.0,0.0,0.0,0.0,1.7622025e-06,0.0,0.0,nan,0.0,0.0,0.0056478195,0.0,0.0,0.0,0.0,0.0,0.0,0.0,0.0,0.0
588221523,588121437,0.000625651,0.0,0.001610814,4.8217793e-05,0.0,0.0,0.0,0.0,0.0,0.0,0.0,0.0,0.0,7.2290066e-05,0.0,0.0,nan,0.0,0.0,0.0051060393,0.0,0.0,0.0,0.0,0.0,0.0,0.0,0.0,0.0
588719385,588619169,0.004803288,0.0,0.0006208962,0.00019576348,0.0,0.0,0.0,0.0,0.0,0.0,0.0,0.0,0.0,2.184116e-05,0.0,0.0,nan,0.0,0.0,0.0047217994,0.0,0.0,0.0,0.0,0.0,0.0,0.0,0.0,0.0
589217043,589116900,0.005976595,0.0,0.00021260962,0.00021537903,0.0,0.0,0.0,0.0,0.0,0.0,0.0,0.0,0.0,0.0002979684,0.0,0.0,nan,0.0,0.0,0.0047072205,0.0,0.0,0.0,0.0,0.0,0.0,0.0,0.0,0.0
589724756,589624585,0.0018767229,0.0,8.034105e-05,0.00029602443,0.0,0.0,0.0,0.0,0.0,0.0,0.0,0.0,0.0,1.5288388e-05,0.0,0.0,nan,0.0,0.0,0.0033656517,0.0,0.0,0.0,0.0,0.0,0.0,0.0,0.0,0.0
590212518,590112362,0.0017076959,0.0,0.002971783,0.0003243626,0.0,0.0,0.0,0.0,0.0,0.0,0.0,0.0,0.0,6.416917e-05,0.0,0.0,nan,0.0,0.0,0.00015436647,0.0,0.0,0.0,0.0,0.0,0.0,0.0,0.0,0.0
590720186,590620047,0.0018382731,0.0,7.390206e-05,0.00037019077,0.0,0.0,0.0,0.0,0.0,0.0,0.0,0.0,0.0,8.869692e-05,0.0,0.0,nan,0.0,0.0,7.383263e-05,0.0,0.0,0.0,0.0,0.0,0.0,0.0,0.0,0.0
591217997,591117778,0.0007657011,0.0,0.00048792263,0.0006304607,0.0,0.0,0.0,0.0,0.0,0.0,0.0,0.0,0.0,2.6999312e-05,0.0,0.0,nan,0.0,0.0,4.4837005e-05,0.0,0.0,0.0,0.0,0.0,0.0,0.0,0.0,0.0
591715590,591615509,0.00020525683,0.0,1.722879e-05,0.00091421173,0.0,0.0,0.0,0.0,0.0,0.0,0.0,0.0,0.0,5.0568477e-05,0.0,0.0,nan,0.0,0.0,0.0004923152,0.0,0.0,0.0,0.0,0.0,0.0,0.0,0.0,0.0
592223429,592123194,0.0044423323,0.0,0.00022656433,0.0008298673,0.0,0.0,0.0,0.0,0.0,0.0,0.0,0.0,0.0,6.348972e-05,0.0,0.0,nan,0.0,0.0,0.00010000891,0.0,0.0,0.0,0.0,0.0,0.0,0.0,0.0,0.0
592721075,592620924,0.006627582,0.0,0.0010677042,0.00064900034,0.0,0.0,0.0,0.0,0.0,0.0,0.0,0.0,0.0,0.00041933445,0.0,0.0,nan,0.0,0.0,0.0014442317,0.0,0.0,0.0,0.0,0.0,0.0,0.0,0.0,0.0
593218751,593118655,0.0051599266,0.0,7.062218e-05,0.0007409257,0.0,0.0,0.0,0.0,0.0,0.0,0.0,0.0,0.0,5.847587e-08,0.0,0.0,nan,0.0,0.0,0.0058473106,0.0,0.0,0.0,0.0,0.0,0.0,0.0,0.0,0.0
593716525,593616385,0.0012761671,0.0,0.00049932976,0.0004297311,0.0,0.0,0.0,0.0,0.0,0.0,0.0,0.0,0.0,2.4146786e-06,0.0,0.0,nan,0.0,0.0,0.00078808184,0.0,0.0,0.0,0.0,0.0,0.0,0.0,0.0,0.0
594214207,594114115,0.0028996684,0.0,6.0739603e-05,0.0005300358,0.0,0.0,0.0,0.0,0.0,0.0,0.0,0.0,0.0,0.00039294094,0.0,0.0,nan,0.0,0.0,0.0013436581,0.0,0.0,0.0,0.0,0.0,0.0,0.0,0.0,0.0
594722403,594621800,0.0049569476,0.0,1.1912196e-06,0.00069513556,0.0,0.0,0.0,0.0,0.0,0.0,0.0,0.0,0.0,5.3821597e-05,0.0,0.0,nan,0.0,0.0,0.002064668,0.0,0.0,0.0,0.0,0.0,0.0,0.0,0.0,0.0
595219709,595119530,0.0006210089,0.0,0.00067787187,0.00070090086,0.0,0.0,0.0,0.0,0.0,0.0,0.0,0.0,0.0,0.000124311,0.0,0.0,nan,0.0,0.0,0.0016962449,0.0,0.0,0.0,0.0,0.0,0.0,0.0,0.0,0.0
595717444,595617260,0.01632638,0.0,0.0008487793,0.0003499644,0.0,0.0,0.0,0.0,0.0,0.0,0.0,0.0,0.0,3.7653346e-05,0.0,0.0,nan,0.0,0.0,0.0034870203,0.0,0.0,0.0,0.0,0.0,0.0,0.0,0.0,0.0
596215167,596114990,0.0023698611,0.0,0.00049068034,0.00018564629,0.0,0.0,0.0,0.0,0.0,0.0,0.0,0.0,0.0,0.00025648176,0.0,0.0,nan,0.0,0.0,0.0021375204,0.0,0.0,0.0,0.0,0.0,0.0,0.0,0.0,0.0
596722915,596622674,0.00029299132,0.0,6.9362264e-05,0.00023594624,0.0,0.0,0.0,0.0,0.0,0.0,0.0,0.0,0.0,1.8238509e-06,0.0,0.0,nan,0.0,0.0,0.002015264,0.0,0.0,0.0,0.0,0.0,0.0,0.0,0.0,0.0
597220492,597120403,0.00051040296,0.0,4.5439927e-05,0.00017987481,0.0,0.0,0.0,0.0,0.0,0.0,0.0,0.0,0.0,1.1950184e-05,0.0,0.0,nan,0.0,0.0,0.0018237962,0.0,0.0,0.0,0.0,0.0,0.0,0.0,0.0,0.0
597718220,597618133,0.00033595055,0.0,0.00015616484,0.00020157367,0.0,0.0,0.0,0.0,0.0,0.0,0.0,0.0,0.0,0.00024197868,0.0,0.0,nan,0.0,0.0,0.0018260649,0.0,0.0,0.0,0.0,0.0,0.0,0.0,0.0,0.0
598215991,598115862,0.0010399885,0.0,4.1932977e-05,0.00020035802,0.0,0.0,0.0,0.0,0.0,0.0,0.0,0.0,0.0,4.8202008e-05,0.0,0.0,nan,0.0,0.0,0.0009895333,0.0,0.0,0.0,0.0,0.0,0.0,0.0,0.0,0.0
598723817,598623546,0.000712623,0.0,0.00039399357,0.00018240906,0.0,0.0,0.0,0.0,0.0,0.0,0.0,0.0,0.0,1.5915877e-05,0.0,0.0,nan,0.0,0.0,0.0012295615,0.0,0.0,0.0,0.0,0.0,0.0,0.0,0.0,0.0
599221417,599121275,0.0016877647,0.0,6.857412e-05,0.00039784322,0.0,0.0,0.0,0.0,0.0,0.0,0.0,0.0,0.0,4.1573745e-05,0.0,0.0,nan,0.0,0.0,0.0015070236,0.0,0.0,0.0,0.0,0.0,0.0,0.0,0.0,0.0
599719146,599619004,0.0011224112,0.0,0.00032110672,0.00041332858,0.0,0.0,0.0,0.0,0.0,0.0,0.0,0.0,0.0,9.606908e-05,0.0,0.0,nan,0.0,0.0,0.001525914,0.0,0.0,0.0,0.0,0.0,0.0,0.0,0.0,0.0
600216905,600116732,1.35990895e-05,0.0,0.00017328288,0.0006301082,0.0,0.0,0.0,0.0,0.0,0.0,0.0,0.0,0.0,0.00019032977,0.0,0.0,nan,0.0,0.0,0.00015207185,0.0,0.0,0.0,0.0,0.0,0.0,0.0,0.0,0.0
600714555,600614461,0.00043996048,0.0,8.61447e-06,0.00095401553,0.0,0.0,0.0,0.0,0.0,0.0,0.0,0.0,0.0,3.2449756e-05,0.0,0.0,nan,0.0,0.0,3.8645052e-05,0.0,0.0,0.0,0.0,0.0,0.0,0.0,0.0,0.0
601222236,601122144,0.016415706,0.0,0.0043478846,0.0012877361,0.0,0.0,0.0,0.0,0.0,0.0,0.0,0.0,0.0,3.1096242e-05,0.0,0.0,nan,0.0,0.0,0.00024928284,0.0,0.0,0.0,0.0,0.0,0.0,0.0,0.0,0.0
601720053,601619873,0.000101966405,0.0,0.0005843247,0.0015728138,0.0,0.0,0.0,0.0,0.0,0.0,0.0,0.0,0.0,3.436828e-07,0.0,0.0,nan,0.0,0.0,3.616767e-05,0.0,0.0,0.0,0.0,0.0,0.0,0.0,0.0,0.0
602217696,602117601,0.0016892543,0.0,0.0002310198,0.0015201517,0.0,0.0,0.0,0.0,0.0,0.0,0.0,0.0,0.0,3.4819695e-05,0.0,0.0,nan,0.0,0.0,1.9885963e-05,0.0,0.0,0.0,0.0,0.0,0.0,0.0,0.0,0.0
602715498,602615329,0.00034696018,0.0,2.2940632e-05,0.0014168109,0.0,0.0,0.0,0.0,0.0,0.0,0.0,0.0,0.0,6.518286e-05,0.0,0.0,nan,0.0,0.0,1.665533e-05,0.0,0.0,0.0,0.0,0.0,0.0,0.0,0.0,0.0
603223173,603123012,0.005105659,0.0,0.00022692698,0.0013391823,0.0,0.0,0.0,0.0,0.0,0.0,0.0,0.0,0.0,1.4711425e-08,0.0,0.0,nan,0.0,0.0,1.1648659e-05,0.0,0.0,0.0,0.0,0.0,0.0,0.0,0.0,0.0
603720853,603620740,0.0037586247,0.0,0.0006388164,0.0010299867,0.0,0.0,0.0,0.0,0.0,0.0,0.0,0.0,0.0,3.553875e-05,0.0,0.0,nan,0.0,0.0,2.807504e-05,0.0,0.0,0.0,0.0,0.0,0.0,0.0,0.0,0.0
604218669,604118467,0.0078571085,0.0,0.0009925847,0.00088351115,0.0,0.0,0.0,0.0,0.0,0.0,0.0,0.0,0.0,2.3111309e-06,0.0,0.0,nan,0.0,0.0,6.0139002e-05,0.0,0.0,0.0,0.0,0.0,0.0,0.0,0.0,0.0
604716427,604616195,0.00900147,0.0,0.0020769842,0.0007944646,0.0,0.0,0.0,0.0,0.0,0.0,0.0,0.0,0.0,1.8130222e-05,0.0,0.0,nan,0.0,0.0,0.00016162182,0.0,0.0,0.0,0.0,0.0,0.0,0.0,0.0,0.0
605214018,605113922,0.042104438,0.0,0.00069228746,0.0008772283,0.0,0.0,0.0,0.0,0.0,0.0,0.0,0.0,0.0,8.066274e-06,0.0,0.0,nan,0.0,0.0,0.00064838165,0.0,0.0,0.0,0.0,0.0,0.0,0.0,0.0,0.0
605721736,605621604,0.0024136773,0.0,0.0005556349,0.000485921,0.0,0.0,0.0,0.0,0.0,0.0,0.0,0.0,0.0,1.2964985e-05,0.0,0.0,nan,0.0,0.0,0.0008341794,0.0,0.0,0.0,0.0,0.0,0.0,0.0,0.0,0.0
606219421,606119332,0.0024168522,0.0,2.1193714e-06,0.00020377073,0.0,0.0,0.0,0.0,0.0,0.0,0.0,0.0,0.0,8.483619e-05,0.0,0.0,nan,0.0,0.0,0.0016755784,0.0,0.0,0.0,0.0,0.0,0.0,0.0,0.0,0.0
606717258,606617059,0.0064062173,0.0,0.00018669177,3.685246e-05,0.0,0.0,0.0,0.0,0.0,0.0,0.0,0.0,0.0,9.322869e-05,0.0,0.0,nan,0.0,0.0,0.00060860306,0.0,0.0,0.0,0.0,0.0,0.0,0.0,0.0,0.0
607224861,607124740,0.0048511787,0.0,0.0002465553,0.00011485554,0.0,0.0,0.0,0.0,0.0,0.0,0.0,0.0,0.0,5.634284e-05,0.0,0.0,nan,0.0,0.0,0.0011979558,0.0,0.0,0.0,0.0,0.0,0.0,0.0,0.0,0.0
607712607,607612512,0.007620969,0.0,0.00070681,0.00028405135,0.0,0.0,0.0,0.0,0.0,0.0,0.0,0.0,0.0,9.655844e-06,0.0,0.0,nan,0.0,0.0,0.0012947118,0.0,0.0,0.0,0.0,0.0,0.0,0.0,0.0,0.0
608220369,608120193,0.00017422218,0.0,6.0806695e-05,0.0003312442,0.0,0.0,0.0,0.0,0.0,0.0,0.0,0.0,0.0,0.00016143988,0.0,0.0,nan,0.0,0.0,0.0005804298,0.0,0.0,0.0,0.0,0.0,0.0,0.0,0.0,0.0
608718052,608617920,0.00066628144,0.0,0.00015712406,0.0005375419,0.0,0.0,0.0,0.0,0.0,0.0,0.0,0.0,0.0,1.9420344e-05,0.0,0.0,nan,0.0,0.0,0.00015468634,0.0,0.0,0.0,0.0,0.0,0.0,0.0,0.0,0.0
609215841,609115646,0.00041424084,0.0,1.1452004e-05,0.00095026806,0.0,0.0,0.0,0.0,0.0,0.0,0.0,0.0,0.0,5.971406e-05,0.0,0.0,nan,0.0,0.0,0.0002365416,0.0,0.0,0.0,0.0,0.0,0.0,0.0,0.0,0.0
609723422,609623327,0.0027809022,0.0,0.00047895758,0.0013121461,0.0,0.0,0.0,0.0,0.0,0.0,0.0,0.0,0.0,4.4793014e-10,0.0,0.0,nan,0.0,0.0,0.00067872886,0.0,0.0,0.0,0.0,0.0,0.0,0.0,0.0,0.0
610221261,610121053,0.00033921984,0.0,8.34514e-06,0.0014368155,0.0,0.0,0.0,0.0,0.0,0.0,0.0,0.0,0.0,6.891958e-07,0.0,0.0,nan,0.0,0.0,0.00021878682,0.0,0.0,0.0,0.0,0.0,0.0,0.0,0.0,0.0
610719019,610618779,0.000878723,0.0,0.0013660908,0.0013563776,0.0,0.0,0.0,0.0,0.0,0.0,0.0,0.0,0.0,0.00011392909,0.0,0.0,nan,0.0,0.0,0.00040261733,0.0,0.0,0.0,0.0,0.0,0.0,0.0,0.0,0.0
611216637,611116505,0.0006992177,0.0,0.000107098356,0.0014176653,0.0,0.0,0.0,0.0,0.0,0.0,0.0,0.0,0.0,3.7113834e-05,0.0,0.0,nan,0.0,0.0,0.0002523455,0.0,0.0,0.0,0.0,0.0,0.0,0.0,0.0,0.0
611714330,611614231,3.2039694e-05,0.0,0.0011435974,0.0015773254,0.0,0.0,0.0,0.0,0.0,0.0,0.0,0.0,0.0,2.3927507e-05,0.0,0.0,nan,0.0,0.0,0.0012497335,0.0,0.0,0.0,0.0,0.0,0.0,0.0,0.0,0.0
612222078,612121911,0.0020266862,0.0,0.0005366297,0.0015783807,0.0,0.0,0.0,0.0,0.0,0.0,0.0,0.0,0.0,8.437451e-05,0.0,0.0,nan,0.0,0.0,0.000103859216,0.0,0.0,0.0,0.0,0.0,0.0,0.0,0.0,0.0
612719784,612619636,1.5203536e-05,0.0,0.0005132692,0.0014156202,0.0,0.0,0.0,0.0,0.0,0.0,0.0,0.0,0.0,1.5916412e-05,0.0,0.0,nan,0.0,0.0,0.0003783028,0.0,0.0,0.0,0.0,0.0,0.0,0.0,0.0,0.0
613217547,613117362,0.004767091,0.0,0.0014936619,0.0015716797,0.0,0.0,0.0,0.0,0.0,0.0,0.0,0.0,0.0,1.0212649e-05,0.0,0.0,nan,0.0,0.0,2.1298679e-06,0.0,0.0,0.0,0.0,0.0,0.0,0.0,0.0,0.0
613715261,613615087,0.004882911,0.0,0.0005436304,0.0015273786,0.0,0.0,0.0,0.0,0.0,0.0,0.0,0.0,0.0,1.6952728e-05,0.0,0.0,nan,0.0,0.0,0.00010875318,0.0,0.0,0.0,0.0,0.0,0.0,0.0,0.0,0.0
614222916,614122766,0.003414187,0.0,8.98223e-05,0.0013561996,0.0,0.0,0.0,0.0,0.0,0.0,0.0,0.0,0.0,1.4867901e-06,0.0,0.0,nan,0.0,0.0,0.00028133704,0.0,0.0,0.0,0.0,0.0,0.0,0.0,0.0,0.0
614720646,614620491,0.0009813847,0.0,1.8716384e-05,0.0013222751,0.0,0.0,0.0,0.0,0.0,0.0,0.0,0.0,0.0,2.4976714e-05,0.0,0.0,nan,0.0,0.0,0.00069047813,0.0,0.0,0.0,0.0,0.0,0.0,0.0,0.0,0.0
615218304,615118216,0.002616465,0.0,0.001690547,0.0010969966,0.0,0.0,0.0,0.0,0.0,0.0,0.0,0.0,0.0,1.17677155e-05,0.0,0.0,nan,0.0,0.0,0.0009556479,0.0,0.0,0.0,0.0,0.0,0.0,0.0,0.0,0.0
615716097,615615940,0.0055610198,0.0,0.0011318439,0.0012528322,0.0,0.0,0.0,0.0,0.0,0.0,0.0,0.0,0.0,2.540596e-07,0.0,0.0,nan,0.0,0.0,0.0005600902,0.0,0.0,0.0,0.0,0.0,0.0,0.0,0.0,0.0
616223785,616123619,0.0008190737,0.0,0.00042869395,0.0014145729,0.0,0.0,0.0,0.0,0.0,0.0,0.0,0.0,0.0,0.00012465031,0.0,0.0,nan,0.0,0.0,0.00038278973,0.0,0.0,0.0,0.0,0.0,0.0,0.0,0.0,0.0
616721468,616621344,0.0009483555,0.0,2.7664262e-08,0.0011406861,0.0,0.0,0.0,0.0,0.0,0.0,0.0,0.0,0.0,7.291632e-07,0.0,0.0,nan,0.0,0.0,6.167685e-05,0.0,0.0,0.0,0.0,0.0,0.0,0.0,0.0,0.0
617219223,617119068,6.4499276e-05,0.0,2.2997732e-07,0.0010070775,0.0,0.0,0.0,0.0,0.0,0.0,0.0,0.0,0.0,0.00010780754,0.0,0.0,nan,0.0,0.0,0.00021167101,0.0,0.0,0.0,0.0,0.0,0.0,0.0,0.0,0.0
617716965,617616792,0.0014032271,0.0,1.7102533e-05,0.0005845918,0.0,0.0,0.0,0.0,0.0,0.0,0.0,0.0,0.0,3.5532885e-06,0.0,0.0,nan,0.0,0.0,0.00019176387,0.0,0.0,0.0,0.0,0.0,0.0,0.0,0.0,0.0
618214765,618114516,0.0010144052,0.0,4.008175e-05,0.0003976654,0.0,0.0,0.0,0.0,0.0,0.0,0.0,0.0,0.0,2.1288115e-05,0.0,0.0,nan,0.0,0.0,1.8512059e-05,0.0,0.0,0.0,0.0,0.0,0.0,0.0,0.0,0.0
618722282,618622194,0.00062297325,0.0,0.0010101827,0.00037464776,0.0,0.0,0.0,0.0,0.0,0.0,0.0,0.0,0.0,3.8964763e-06,0.0,0.0,nan,0.0,0.0,1.8844284e-07,0.0,0.0,0.0,0.0,0.0,0.0,0.0,0.0,0.0
619220058,619119917,0.00013275673,0.0,0.0022847513,0.00015308973,0.0,0.0,0.0,0.0,0.0,0.0,0.0,0.0,0.0,4.4022354e-06,0.0,0.0,nan,0.0,0.0,1.4793209e-05,0.0,0.0,0.0,0.0,0.0,0.0,0.0,0.0,0.0
619717783,619617641,7.692609e-06,0.0,0.00040108195,1.2593182e-05,0.0,0.0,0.0,0.0,0.0,0.0,0.0,0.0,0.0,1.2570232e-05,0.0,0.0,nan,0.0,0.0,7.735244e-06,0.0,0.0,0.0,0.0,0.0,0.0,0.0,0.0,0.0
620215523,620115364,0.0017315414,0.0,0.0002672512,2.7783847e-06,0.0,0.0,0.0,0.0,0.0,0.0,0.0,0.0,0.0,1.7549435e-05,0.0,0.0,nan,0.0,0.0,0.0014901105,0.0,0.0,0.0,0.0,0.0,0.0,0.0,0.0,0.0
620723183,620623041,0.0007140201,0.0,7.801301e-05,7.588834e-05,0.0,0.0,0.0,0.0,0.0,0.0,0.0,0.0,0.0,1.5542406e-05,0.0,0.0,nan,0.0,0.0,0.0019638566,0.0,0.0,0.0,0.0,0.0,0.0,0.0,0.0,0.0
621220907,621120764,0.00039677703,0.0,0.00042278433,0.00019025555,0.0,0.0,0.0,0.0,0.0,0.0,0.0,0.0,0.0,3.739542e-05,0.0,0.0,nan,0.0,0.0,0.0016556852,0.0,0.0,0.0,0.0,0.0,0.0,0.0,0.0,0.0
621718637,621618487,0.003498726,0.0,0.0011937899,0.00012144574,0.0,0.0,0.0,0.0,0.0,0.0,0.0,0.0,0.0,4.255017e-05,0.0,0.0,nan,0.0,0.0,0.0011035936,0.0,0.0,0.0,0.0,0.0,0.0,0.0,0.0,0.0
622216475,622116210,0.00038156996,0.0,6.3170753e-09,9.544589e-05,0.0,0.0,0.0,0.0,0.0,0.0,0.0,0.0,0.0,4.6078092e-08,0.0,0.0,nan,0.0,0.0,0.0010978859,0.0,0.0,0.0,0.0,0.0,0.0,0.0,0.0,0.0
622714156,622613932,0.006100454,0.0,0.00019476282,2.30806e-05,0.0,0.0,0.0,0.0,0.0,0.0,0.0,0.0,0.0,9.9397e-05,0.0,0.0,nan,0.0,0.0,0.0011301426,0.0,0.0,0.0,0.0,0.0,0.0,0.0,0.0,0.0
623221731,623121609,0.0026179876,0.0,8.411573e-05,3.1018357e-05,0.0,0.0,0.0,0.0,0.0,0.0,0.0,0.0,0.0,7.469564e-06,0.0,0.0,nan,0.0,0.0,0.0024353762,0.0,0.0,0.0,0.0,0.0,0.0,0.0,0.0,0.0
623719483,623619331,0.00085256906,0.0,0.0012212297,6.3918014e-05,0.0,0.0,0.0,0.0,0.0,0.0,0.0,0.0,0.0,8.102377e-07,0.0,0.0,nan,0.0,0.0,0.002558318,0.0,0.0,0.0,0.0,0.0,0.0,0.0,0.0,0.0
624217209,624117053,0.0022263855,0.0,1.32295e-05,0.000112732996,0.0,0.0,0.0,0.0,0.0,0.0,0.0,0.0,0.0,1.3897051e-05,0.0,0.0,nan,0.0,0.0,0.0016049863,0.0,0.0,0.0,0.0,0.0,0.0,0.0,0.0,0.0
624724871,624624729,8.92869e-05,0.0,0.0007492468,0.00018218487,0.0,0.0,0.0,0.0,0.0,0.0,0.0,0.0,0.0,6.4998585e-06,0.0,0.0,nan,0.0,0.0,0.0014139089,0.0,0.0,0.0,0.0,0.0,0.0,0.0,0.0,0.0
625212665,625112497,0.0077160657,0.0,0.00050571095,0.0001305329,0.0,0.0,0.0,0.0,0.0,0.0,0.0,0.0,0.0,2.0369864e-05,0.0,0.0,nan,0.0,0.0,0.0016979801,0.0,0.0,0.0,0.0,0.0,0.0,0.0,0.0,0.0
625720327,625620173,0.00060813315,0.0,0.0001697377,0.0001599616,0.0,0.0,0.0,0.0,0.0,0.0,0.0,0.0,0.0,1.51359645e-05,0.0,0.0,nan,0.0,0.0,0.001318353,0.0,0.0,0.0,0.0,0.0,0.0,0.0,0.0,0.0
626218036,626117894,0.0024042784,0.0,0.00018237527,6.573454e-05,0.0,0.0,0.0,0.0,0.0,0.0,0.0,0.0,0.0,6.0808292e-05,0.0,0.0,nan,0.0,0.0,0.0019960552,0.0,0.0,0.0,0.0,0.0,0.0,0.0,0.0,0.0
626715758,626615616,0.00045816033,0.0,0.0006946222,0.00010843557,0.0,0.0,0.0,0.0,0.0,0.0,0.0,0.0,0.0,5.214942e-06,0.0,0.0,nan,0.0,0.0,0.0011230969,0.0,0.0,0.0,0.0,0.0,0.0,0.0,0.0,0.0
627223467,627123291,0.001696238,0.0,0.00013088029,0.00019951598,0.0,0.0,0.0,0.0,0.0,0.0,0.0,0.0,0.0,8.518282e-06,0.0,0.0,nan,0.0,0.0,0.0005120039,0.0,0.0,0.0,0.0,0.0,0.0,0.0,0.0,0.0
627721213,627621012,0.0002756461,0.0,0.00014917045,0.00019032008,0.0,0.0,0.0,0.0,0.0,0.0,0.0,0.0,0.0,3.347551e-05,0.0,0.0,nan,0.0,0.0,0.00044164172,0.0,0.0,0.0,0.0,0.0,0.0,0.0,0.0,0.0
628218860,628118733,0.0016491616,0.0,0.00023189005,0.00029404424,0.0,0.0,0.0,0.0,0.0,0.0,0.0,0.0,0.0,1.9483894e-06,0.0,0.0,nan,0.0,0.0,0.002732806,0.0,0.0,0.0,0.0,0.0,0.0,0.0,0.0,0.0
628716671,628616454,0.0013970728,0.0,3.1927506e-05,0.0004352328,0.0,0.0,0.0,0.0,0.0,0.0,0.0,0.0,0.0,7.208521e-05,0.0,0.0,nan,0.0,0.0,0.0011366941,0.0,0.0,0.0,0.0,0.0,0.0,0.0,0.0,0.0
629214317,629114174,0.0016107366,0.0,0.0009503559,0.0004411636,0.0,0.0,0.0,0.0,0.0,0.0,0.0,0.0,0.0,0.00012627634,0.0,0.0,nan,0.0,0.0,0.0003524744,0.0,0.0,0.0,0.0,0.0,0.0,0.0,0.0,0.0
629722046,629621849,0.00063997984,0.0,0.0002275487,0.00031962345,0.0,0.0,0.0,0.0,0.0,0.0,0.0,0.0,0.0,0.00012165728,0.0,0.0,nan,0.0,0.0,0.0011073874,0.0,0.0,0.0,0.0,0.0,0.0,0.0,0.0,0.0
630219686,630119569,0.0019803958,0.0,9.140028e-05,0.0003234078,0.0,0.0,0.0,0.0,0.0,0.0,0.0,0.0,0.0,0.00010074083,0.0,0.0,nan,0.0,0.0,0.0019691063,0.0,0.0,0.0,0.0,0.0,0.0,0.0,0.0,0.0
630717383,630617289,0.0012238419,0.0,0.00030842825,0.0006398639,0.0,0.0,0.0,0.0,0.0,0.0,0.0,0.0,0.0,5.5785375e-05,0.0,0.0,nan,0.0,0.0,0.00083786563,0.0,0.0,0.0,0.0,0.0,0.0,0.0,0.0,0.0
631215149,631115009,0.0077937352,0.0,0.00066065724,0.0007065385,0.0,0.0,0.0,0.0,0.0,0.0,0.0,0.0,0.0,1.9956864e-05,0.0,0.0,nan,0.0,0.0,0.0009887859,0.0,0.0,0.0,0.0,0.0,0.0,0.0,0.0,0.0
631722865,631622683,0.0013385592,0.0,0.00055397436,0.0011860864,0.0,0.0,0.0,0.0,0.0,0.0,0.0,0.0,0.0,7.914575e-06,0.0,0.0,nan,0.0,0.0,0.0013776211,0.0,0.0,0.0,0.0,0.0,0.0,0.0,0.0,0.0
632220507,632120403,0.0022297716,0.0,0.0022631832,0.00088275014,0.0,0.0,0.0,0.0,0.0,0.0,0.0,0.0,0.0,1.4599389e-05,0.0,0.0,nan,0.0,0.0,0.0016251418,0.0,0.0,0.0,0.0,0.0,0.0,0.0,0.0,0.0
632718363,632618122,0.0008912524,0.0,0.0003528567,0.00074359786,0.0,0.0,0.0,0.0,0.0,0.0,0.0,0.0,0.0,1.4056435e-05,0.0,0.0,nan,0.0,0.0,0.0009854119,0.0,0.0,0.0,0.0,0.0,0.0,0.0,0.0,0.0
633215963,633115841,0.0035073007,0.0,0.000491709,0.00047444474,0.0,0.0,0.0,0.0,0.0,0.0,0.0,0.0,0.0,9.0507776e-05,0.0,0.0,nan,0.0,0.0,0.0015653918,0.0,0.0,0.0,0.0,0.0,0.0,0.0,0.0,0.0
633723619,633623515,0.0014418,0.0,6.8747323e-07,0.00068672135,0.0,0.0,0.0,0.0,0.0,0.0,0.0,0.0,0.0,7.7416444e-05,0.0,0.0,nan,0.0,0.0,0.0020806154,0.0,0.0,0.0,0.0,0.0,0.0,0.0,0.0,0.0
634221396,634121234,0.0007633446,0.0,0.00072287547,0.00076005835,0.0,0.0,0.0,0.0,0.0,0.0,0.0,0.0,0.0,0.00016019103,0.0,0.0,nan,0.0,0.0,0.001658986,0.0,0.0,0.0,0.0,0.0,0.0,0.0,0.0,0.0
634719085,634618953,6.2366234e-05,0.0,0.00014939874,0.00065710786,0.0,0.0,0.0,0.0,0.0,0.0,0.0,0.0,0.0,2.6677597e-05,0.0,0.0,nan,0.0,0.0,0.0040015867,0.0,0.0,0.0,0.0,0.0,0.0,0.0,0.0,0.0
635216811,635116672,0.0013983485,0.0,0.00026744648,0.0008725885,0.0,0.0,0.0,0.0,0.0,0.0,0.0,0.0,0.0,1.7291395e-05,0.0,0.0,nan,0.0,0.0,0.0008421621,0.0,0.0,0.0,0.0,0.0,0.0,0.0,0.0,0.0
635714628,635614390,0.00022198743,0.0,0.0010243478,0.0012404547,0.0,0.0,0.0,0.0,0.0,0.0,0.0,0.0,0.0,2.845803e-05,0.0,0.0,nan,0.0,0.0,0.0012034497,0.0,0.0,0.0,0.0,0.0,0.0,0.0,0.0,0.0
636222254,636122063,0.005768972,0.0,5.223598e-05,0.0012489884,0.0,0.0,0.0,0.0,0.0,0.0,0.0,0.0,0.0,3.246048e-05,0.0,0.0,nan,0.0,0.0,0.0015630502,0.0,0.0,0.0,0.0,0.0,0.0,0.0,0.0,0.0
636719964,636619781,0.0038455497,0.0,0.0009189936,0.0009802212,0.0,0.0,0.0,0.0,0.0,0.0,0.0,0.0,0.0,5.00182e-05,0.0,0.0,nan,0.0,0.0,0.0011607234,0.0,0.0,0.0,0.0,0.0,0.0,0.0,0.0,0.0
637217597,637117499,0.0046020835,0.0,0.00017624978,0.0007415067,0.0,0.0,0.0,0.0,0.0,0.0,0.0,0.0,0.0,1.4591549e-06,0.0,0.0,nan,0.0,0.0,0.0009158406,0.0,0.0,0.0,0.0,0.0,0.0,0.0,0.0,0.0
637715376,637615217,0.003156908,0.0,8.22025e-08,0.0006644277,0.0,0.0,0.0,0.0,0.0,0.0,0.0,0.0,0.0,2.4600802e-06,0.0,0.0,nan,0.0,0.0,0.0013143675,0.0,0.0,0.0,0.0,0.0,0.0,0.0,0.0,0.0
638222983,638122889,7.010281e-05,0.0,1.5397152e-05,0.0005017068,0.0,0.0,0.0,0.0,0.0,0.0,0.0,0.0,0.0,0.00025229433,0.0,0.0,nan,0.0,0.0,0.0018449633,0.0,0.0,0.0,0.0,0.0,0.0,0.0,0.0,0.0
638720739,638620607,0.00077285356,0.0,0.0002348613,0.00059550884,0.0,0.0,0.0,0.0,0.0,0.0,0.0,0.0,0.0,0.00014988065,0.0,0.0,nan,0.0,0.0,0.0008521607,0.0,0.0,0.0,0.0,0.0,0.0,0.0,0.0,0.0
639218573,639118325,0.0002878866,0.0,0.000825093,0.00039272287,0.0,0.0,0.0,0.0,0.0,0.0,0.0,0.0,0.0,6.7494256e-08,0.0,0.0,nan,0.0,0.0,0.001044969,0.0,0.0,0.0,0.0,0.0,0.0,0.0,0.0,0.0
639716146,639616042,0.0041902065,0.0,0.00074571464,0.00037736158,0.0,0.0,0.0,0.0,0.0,0.0,0.0,0.0,0.0,3.5837917e-07,0.0,0.0,nan,0.0,0.0,0.0016147051,0.0,0.0,0.0,0.0,0.0,0.0,0.0,0.0,0.0
640213995,640113759,0.0049835974,0.0,7.185348e-06,0.0004801869,0.0,0.0,0.0,0.0,0.0,0.0,0.0,0.0,0.0,0.00022417746,0.0,0.0,nan,0.0,0.0,0.0014447253,0.0,0.0,0.0,0.0,0.0,0.0,0.0,0.0,0.0
640721731,640621430,0.0016478249,0.0,0.00014665812,0.00049380126,0.0,0.0,0.0,0.0,0.0,0.0,0.0,0.0,0.0,2.8203222e-05,0.0,0.0,nan,0.0,0.0,0.002632573,0.0,0.0,0.0,0.0,0.0,0.0,0.0,0.0,0.0
641219359,641119147,0.0002778706,0.0,0.0002155808,0.0004736532,0.0,0.0,0.0,0.0,0.0,0.0,0.0,0.0,0.0,1.8968291e-06,0.0,0.0,nan,0.0,0.0,0.002104114,0.0,0.0,0.0,0.0,0.0,0.0,0.0,0.0,0.0
641717035,641616864,0.0013006777,0.0,4.9581962e-05,0.00032015948,0.0,0.0,0.0,0.0,0.0,0.0,0.0,0.0,0.0,1.837899e-05,0.0,0.0,nan,0.0,0.0,0.003038219,0.0,0.0,0.0,0.0,0.0,0.0,0.0,0.0,0.0
642224630,642124535,0.0009081009,0.0,6.0701614e-06,0.00018020319,0.0,0.0,0.0,0.0,0.0,0.0,0.0,0.0,0.0,0.00019856013,0.0,0.0,nan,0.0,0.0,0.00028400382,0.0,0.0,0.0,0.0,0.0,0.0,0.0,0.0,0.0
642722384,642622252,0.0034745587,0.0,4.673678e-05,4.185746e-05,0.0,0.0,0.0,0.0,0.0,0.0,0.0,0.0,0.0,6.140178e-06,0.0,0.0,nan,0.0,0.0,0.00069761375,0.0,0.0,0.0,0.0,0.0,0.0,0.0,0.0,0.0
643220116,643119968,0.0008886235,0.0,0.00015450893,5.5955006e-05,0.0,0.0,0.0,0.0,0.0,0.0,0.0,0.0,0.0,6.790906e-05,0.0,0.0,nan,0.0,0.0,0.0010241871,0.0,0.0,0.0,0.0,0.0,0.0,0.0,0.0,0.0
643717778,643617684,0.0012802891,0.0,0.00015376249,6.3385464e-06,0.0,0.0,0.0,0.0,0.0,0.0,0.0,0.0,0.0,9.059767e-06,0.0,0.0,nan,0.0,0.0,0.00059137185,0.0,0.0,0.0,0.0,0.0,0.0,0.0,0.0,0.0
644215536,644115400,0.0018115729,0.0,7.375346e-05,1.5800337e-05,0.0,0.0,0.0,0.0,0.0,0.0,0.0,0.0,0.0,4.515279e-06,0.0,0.0,nan,0.0,0.0,0.0009902626,0.0,0.0,0.0,0.0,0.0,0.0,0.0,0.0,0.0
644723166,644623070,2.6064867e-05,0.0,7.055096e-05,0.00016488205,0.0,0.0,0.0,0.0,0.0,0.0,0.0,0.0,0.0,5.0677514e-05,0.0,0.0,nan,0.0,0.0,0.00056062534,0.0,0.0,0.0,0.0,0.0,0.0,0.0,0.0,0.0
645221062,645120786,0.0010470507,0.0,1.399886e-06,0.000567207,0.0,0.0,0.0,0.0,0.0,0.0,0.0,0.0,0.0,4.9879956e-05,0.0,0.0,nan,0.0,0.0,0.0007474634,0.0,0.0,0.0,0.0,0.0,0.0,0.0,0.0,0.0
645718639,645618501,0.00019990839,0.0,0.00050700875,0.0011660022,0.0,0.0,0.0,0.0,0.0,0.0,0.0,0.0,0.0,1.8095984e-06,0.0,0.0,nan,0.0,0.0,0.0011560299,0.0,0.0,0.0,0.0,0.0,0.0,0.0,0.0,0.0
646216309,646116217,0.0011315227,0.0,0.00065608404,0.0013731964,0.0,0.0,0.0,0.0,0.0,0.0,0.0,0.0,0.0,2.2356196e-05,0.0,0.0,nan,0.0,0.0,0.0013594525,0.0,0.0,0.0,0.0,0.0,0.0,0.0,0.0,0.0
646714026,646613932,0.0030581767,0.0,0.00012884232,0.0019845404,0.0,0.0,0.0,0.0,0.0,0.0,0.0,0.0,0.0,3.000735e-05,0.0,0.0,nan,0.0,0.0,0.0006121005,0.0,0.0,0.0,0.0,0.0,0.0,0.0,0.0,0.0
647221744,647121601,0.00015700236,0.0,0.00017799424,0.0018155174,0.0,0.0,0.0,0.0,0.0,0.0,0.0,0.0,0.0,9.759985e-07,0.0,0.0,nan,0.0,0.0,0.0015427591,0.0,0.0,0.0,0.0,0.0,0.0,0.0,0.0,0.0
647719482,647619316,0.00014757576,0.0,1.7518678e-05,0.0019469846,0.0,0.0,0.0,0.0,0.0,0.0,0.0,0.0,0.0,2.8379546e-10,0.0,0.0,nan,0.0,0.0,0.0015943233,0.0,0.0,0.0,0.0,0.0,0.0,0.0,0.0,0.0
648217199,648117031,0.00033273015,0.0,4.7059555e-05,0.001451163,0.0,0.0,0.0,0.0,0.0,0.0,0.0,0.0,0.0,3.1302876e-05,0.0,0.0,nan,0.0,0.0,0.0014242519,0.0,0.0,0.0,0.0,0.0,0.0,0.0,0.0,0.0
648724850,648624699,0.0015033998,0.0,5.7753317e-05,0.0011683775,0.0,0.0,0.0,0.0,0.0,0.0,0.0,0.0,0.0,1.595756e-05,0.0,0.0,nan,0.0,0.0,0.0006155614,0.0,0.0,0.0,0.0,0.0,0.0,0.0,0.0,0.0
649222502,649122414,0.00017045169,0.0,0.00017740532,0.0012517096,0.0,0.0,0.0,0.0,0.0,0.0,0.0,0.0,0.0,3.496009e-05,0.0,0.0,nan,0.0,0.0,0.0013633464,0.0,0.0,0.0,0.0,0.0,0.0,0.0,0.0,0.0
649720401,649620128,0.0011138916,0.0,3.9884076e-06,0.0017501878,0.0,0.0,0.0,0.0,0.0,0.0,0.0,0.0,0.0,1.0625813e-05,0.0,0.0,nan,0.0,0.0,0.0012694354,0.0,0.0,0.0,0.0,0.0,0.0,0.0,0.0,0.0
650217978,650117842,0.0011008565,0.0,0.0012547304,0.0019189176,0.0,0.0,0.0,0.0,0.0,0.0,0.0,0.0,0.0,0.00023398617,0.0,0.0,nan,0.0,0.0,0.0002545597,0.0,0.0,0.0,0.0,0.0,0.0,0.0,0.0,0.0
650715787,650615556,0.0011729646,0.0,1.49252e-05,0.0023754248,0.0,0.0,0.0,0.0,0.0,0.0,0.0,0.0,0.0,0.00011212776,0.0,0.0,nan,0.0,0.0,0.0010944324,0.0,0.0,0.0,0.0,0.0,0.0,0.0,0.0,0.0
651223324,651123224,0.0002759616,0.0,2.0248131e-05,0.002123695,0.0,0.0,0.0,0.0,0.0,0.0,0.0,0.0,0.0,0.00010830825,0.0,0.0,nan,0.0,0.0,0.00058290176,0.0,0.0,0.0,0.0,0.0,0.0,0.0,0.0,0.0
651721321,651620937,0.003149242,0.0,0.00056976057,0.0017457822,0.0,0.0,0.0,0.0,0.0,0.0,0.0,0.0,0.0,6.453728e-05,0.0,0.0,nan,0.0,0.0,0.00059252966,0.0,0.0,0.0,0.0,0.0,0.0,0.0,0.0,0.0
652218743,652118651,0.00045919625,0.0,0.00019877986,0.002072124,0.0,0.0,0.0,0.0,0.0,0.0,0.0,0.0,0.0,2.2851252e-06,0.0,0.0,nan,0.0,0.0,0.00094494555,0.0,0.0,0.0,0.0,0.0,0.0,0.0,0.0,0.0
652716814,652616364,0.0013934434,0.0,0.00047646055,0.0012882343,0.0,0.0,0.0,0.0,0.0,0.0,0.0,0.0,0.0,1.3297292e-05,0.0,0.0,nan,0.0,0.0,0.00089977426,0.0,0.0,0.0,0.0,0.0,0.0,0.0,0.0,0.0
653214190,653114077,0.0009616688,0.0,0.00031247785,0.0011625177,0.0,0.0,0.0,0.0,0.0,0.0,0.0,0.0,0.0,6.179344e-06,0.0,0.0,nan,0.0,0.0,0.00023126011,0.0,0.0,0.0,0.0,0.0,0.0,0.0,0.0,0.0
653722221,653621744,0.001541992,0.0,1.8525187e-05,0.0009275062,0.0,0.0,0.0,0.0,0.0,0.0,0.0,0.0,0.0,4.2188276e-05,0.0,0.0,nan,0.0,0.0,0.00091563707,0.0,0.0,0.0,0.0,0.0,0.0,0.0,0.0,0.0
654219664,654119457,0.00038533992,0.0,8.594229e-07,0.00059861416,0.0,0.0,0.0,0.0,0.0,0.0,0.0,0.0,0.0,1.4720208e-05,0.0,0.0,nan,0.0,0.0,0.00037213365,0.0,0.0,0.0,0.0,0.0,0.0,0.0,0.0,0.0
654717429,654617170,0.0016394708,0.0,0.0009149129,0.00059481536,0.0,0.0,0.0,0.0,0.0,0.0,0.0,0.0,0.0,4.7623624e-05,0.0,0.0,nan,0.0,0.0,0.00016518624,0.0,0.0,0.0,0.0,0.0,0.0,0.0,0.0,0.0
655215257,655114882,0.0002934605,0.0,2.6826694e-05,0.00045018058,0.0,0.0,0.0,0.0,0.0,0.0,0.0,0.0,0.0,6.479128e-07,0.0,0.0,nan,0.0,0.0,0.0008391727,0.0,0.0,0.0,0.0,0.0,0.0,0.0,0.0,0.0
655722723,655622548,0.013306469,0.0,6.326792e-05,0.00017500728,0.0,0.0,0.0,0.0,0.0,0.0,0.0,0.0,0.0,1.431782e-08,0.0,0.0,nan,0.0,0.0,0.00047074992,0.0,0.0,0.0,0.0,0.0,0.0,0.0,0.0,0.0
656220349,656120261,2.9250274e-05,0.0,0.00010261126,0.00013208386,0.0,0.0,0.0,0.0,0.0,0.0,0.0,0.0,0.0,1.916688e-05,0.0,0.0,nan,0.0,0.0,0.00026081802,0.0,0.0,0.0,0.0,0.0,0.0,0.0,0.0,0.0
656718412,656617972,0.00093443994,0.0,1.13431915e-05,0.00011210462,0.0,0.0,0.0,0.0,0.0,0.0,0.0,0.0,0.0,0.000108151275,0.0,0.0,nan,0.0,0.0,1.8759627e-05,0.0,0.0,0.0,0.0,0.0,0.0,0.0,0.0,0.0
657215836,657115687,0.00051456137,0.0,8.939827e-05,0.00017920657,0.0,0.0,0.0,0.0,0.0,0.0,0.0,0.0,0.0,4.0375867e-06,0.0,0.0,nan,0.0,0.0,0.0002337625,0.0,0.0,0.0,0.0,0.0,0.0,0.0,0.0,0.0
657713511,657613396,0.00063835585,0.0,0.00016688502,0.0002003836,0.0,0.0,0.0,0.0,0.0,0.0,0.0,0.0,0.0,0.0002651818,0.0,0.0,nan,0.0,0.0,0.00030932386,0.0,0.0,0.0,0.0,0.0,0.0,0.0,0.0,0.0
658221194,658121066,0.0016268322,0.0,0.00024229346,0.00027642117,0.0,0.0,0.0,0.0,0.0,0.0,0.0,0.0,0.0,3.0413808e-06,0.0,0.0,nan,0.0,0.0,0.00017505263,0.0,0.0,0.0,0.0,0.0,0.0,0.0,0.0,0.0
658719040,658618773,0.003007513,0.0,7.385786e-05,0.00036234435,0.0,0.0,0.0,0.0,0.0,0.0,0.0,0.0,0.0,1.2305542e-05,0.0,0.0,nan,0.0,0.0,0.00023221671,0.0,0.0,0.0,0.0,0.0,0.0,0.0,0.0,0.0
659216633,659116484,0.0025124776,0.0,8.238309e-05,0.00025690268,0.0,0.0,0.0,0.0,0.0,0.0,0.0,0.0,0.0,0.00010705382,0.0,0.0,nan,0.0,0.0,3.231686e-05,0.0,0.0,0.0,0.0,0.0,0.0,0.0,0.0,0.0
659724439,659624149,0.0020327715,0.0,0.00023162225,0.00032151668,0.0,0.0,0.0,0.0,0.0,0.0,0.0,0.0,0.0,2.044398e-06,0.0,0.0,nan,0.0,0.0,2.8572347e-06,0.0,0.0,0.0,0.0,0.0,0.0,0.0,0.0,0.0
660222003,660121859,0.00031502373,0.0,2.9140381e-05,0.0003145241,0.0,0.0,0.0,0.0,0.0,0.0,0.0,0.0,0.0,2.5169915e-05,0.0,0.0,nan,0.0,0.0,0.00026613637,0.0,0.0,0.0,0.0,0.0,0.0,0.0,0.0,0.0
660719737,660619570,0.0020861633,0.0,0.00042780742,0.00041758685,0.0,0.0,0.0,0.0,0.0,0.0,0.0,0.0,0.0,1.1530674e-07,0.0,0.0,nan,0.0,0.0,3.753049e-05,0.0,0.0,0.0,0.0,0.0,0.0,0.0,0.0,0.0
661217374,661117280,0.003167613,0.0,8.204909e-05,0.00034710596,0.0,0.0,0.0,0.0,0.0,0.0,0.0,0.0,0.0,2.3869165e-07,0.0,0.0,nan,0.0,0.0,4.3250067e-05,0.0,0.0,0.0,0.0,0.0,0.0,0.0,0.0,0.0
661715487,661614993,0.0003550006,0.0,3.2013015e-06,0.0004928343,0.0,0.0,0.0,0.0,0.0,0.0,0.0,0.0,0.0,5.653821e-05,0.0,0.0,nan,0.0,0.0,3.439559e-05,0.0,0.0,0.0,0.0,0.0,0.0,0.0,0.0,0.0
662222743,662122655,0.0025646235,0.0,2.2873924e-06,0.00038633027,0.0,0.0,0.0,0.0,0.0,0.0,0.0,0.0,0.0,7.425924e-05,0.0,0.0,nan,0.0,0.0,1.675755e-05,0.0,0.0,0.0,0.0,0.0,0.0,0.0,0.0,0.0
662720467,662620365,0.00043539386,0.0,0.00036421383,0.0004905329,0.0,0.0,0.0,0.0,0.0,0.0,0.0,0.0,0.0,6.346425e-06,0.0,0.0,nan,0.0,0.0,2.8948045e-05,0.0,0.0,0.0,0.0,0.0,0.0,0.0,0.0,0.0
663218193,663118075,0.0005039614,0.0,0.0016486845,0.00051903335,0.0,0.0,0.0,0.0,0.0,0.0,0.0,0.0,0.0,6.673028e-05,0.0,0.0,nan,0.0,0.0,6.609435e-07,0.0,0.0,0.0,0.0,0.0,0.0,0.0,0.0,0.0
663716341,663615784,0.008606013,0.0,0.00033297957,0.00044333172,0.0,0.0,0.0,0.0,0.0,0.0,0.0,0.0,0.0,1.1511556e-07,0.0,0.0,nan,0.0,0.0,0.00026590744,0.0,0.0,0.0,0.0,0.0,0.0,0.0,0.0,0.0
664213767,664113494,0.0003630002,0.0,6.941035e-08,0.00044485545,0.0,0.0,0.0,0.0,0.0,0.0,0.0,0.0,0.0,0.00010839676,0.0,0.0,nan,0.0,0.0,1.10125145e-08,0.0,0.0,0.0,0.0,0.0,0.0,0.0,0.0,0.0
664721245,664621157,0.00049019186,0.0,4.7109975e-07,0.0005613732,0.0,0.0,0.0,0.0,0.0,0.0,0.0,0.0,0.0,3.5499637e-05,0.0,0.0,nan,0.0,0.0,0.00010738293,0.0,0.0,0.0,0.0,0.0,0.0,0.0,0.0,0.0
665218960,665118866,0.007172026,0.0,9.343016e-05,0.00029144643,0.0,0.0,0.0,0.0,0.0,0.0,0.0,0.0,0.0,9.7315915e-06,0.0,0.0,nan,0.0,0.0,0.0001528855,0.0,0.0,0.0,0.0,0.0,0.0,0.0,0.0,0.0
665717019,665616575,0.004123005,0.0,0.00018406926,0.00015310042,0.0,0.0,0.0,0.0,0.0,0.0,0.0,0.0,0.0,1.2351741e-05,0.0,0.0,nan,0.0,0.0,7.110121e-05,0.0,0.0,0.0,0.0,0.0,0.0,0.0,0.0,0.0
666224349,666124238,0.00093479664,0.0,0.00042613054,0.00011303168,0.0,0.0,0.0,0.0,0.0,0.0,0.0,0.0,0.0,1.6089427e-05,0.0,0.0,nan,0.0,0.0,0.00042492867,0.0,0.0,0.0,0.0,0.0,0.0,0.0,0.0,0.0
666722087,666621946,0.0011969038,0.0,0.00043921848,8.30593e-05,0.0,0.0,0.0,0.0,0.0,0.0,0.0,0.0,0.0,3.3792312e-05,0.0,0.0,nan,0.0,0.0,0.00019403498,0.0,0.0,0.0,0.0,0.0,0.0,0.0,0.0,0.0
667219767,667119655,0.0005803016,0.0,8.9506124e-05,4.464398e-05,0.0,0.0,0.0,0.0,0.0,0.0,0.0,0.0,0.0,3.9655668e-05,0.0,0.0,nan,0.0,0.0,0.00015748334,0.0,0.0,0.0,0.0,0.0,0.0,0.0,0.0,0.0
667717450,667617363,0.0028539074,0.0,0.00037842902,7.611893e-05,0.0,0.0,0.0,0.0,0.0,0.0,0.0,0.0,0.0,4.7543323e-05,0.0,0.0,nan,0.0,0.0,0.0004924118,0.0,0.0,0.0,0.0,0.0,0.0,0.0,0.0,0.0
668215249,668115071,0.00056730147,0.0,0.00010065928,8.546528e-05,0.0,0.0,0.0,0.0,0.0,0.0,0.0,0.0,0.0,2.6186004e-05,0.0,0.0,nan,0.0,0.0,0.00022331302,0.0,0.0,0.0,0.0,0.0,0.0,0.0,0.0,0.0
668723141,668622733,0.0006791862,0.0,0.00030217858,0.00021950068,0.0,0.0,0.0,0.0,0.0,0.0,0.0,0.0,0.0,9.176243e-06,0.0,0.0,nan,0.0,0.0,0.00016236752,0.0,0.0,0.0,0.0,0.0,0.0,0.0,0.0,0.0
669220561,669120440,0.00051583414,0.0,9.601415e-06,0.00020366999,0.0,0.0,0.0,0.0,0.0,0.0,0.0,0.0,0.0,7.1805305e-05,0.0,0.0,nan,0.0,0.0,0.0001551873,0.0,0.0,0.0,0.0,0.0,0.0,0.0,0.0,0.0
669718274,669618147,0.00015045815,0.0,2.6612327e-07,0.00020115159,0.0,0.0,0.0,0.0,0.0,0.0,0.0,0.0,0.0,9.049696e-05,0.0,0.0,nan,0.0,0.0,0.00019792966,0.0,0.0,0.0,0.0,0.0,0.0,0.0,0.0,0.0
670216072,670115855,0.00024398066,0.0,0.000640411,0.00022526286,0.0,0.0,0.0,0.0,0.0,0.0,0.0,0.0,0.0,7.1413626e-05,0.0,0.0,nan,0.0,0.0,0.00029239358,0.0,0.0,0.0,0.0,0.0,0.0,0.0,0.0,0.0
670713946,670613562,0.0005523689,0.0,1.0902348e-06,0.00023218301,0.0,0.0,0.0,0.0,0.0,0.0,0.0,0.0,0.0,1.2764396e-05,0.0,0.0,nan,0.0,0.0,0.00019254189,0.0,0.0,0.0,0.0,0.0,0.0,0.0,0.0,0.0
671221322,671121223,0.0001056375,0.0,3.2971977e-05,0.00028616196,0.0,0.0,0.0,0.0,0.0,0.0,0.0,0.0,0.0,7.3756586e-05,0.0,0.0,nan,0.0,0.0,0.0002794673,0.0,0.0,0.0,0.0,0.0,0.0,0.0,0.0,0.0
671719399,671618930,1.0313544e-05,0.0,0.00012314509,0.00016155103,0.0,0.0,0.0,0.0,0.0,0.0,0.0,0.0,0.0,3.0930462e-07,0.0,0.0,nan,0.0,0.0,0.000299351,0.0,0.0,0.0,0.0,0.0,0.0,0.0,0.0,0.0
672216788,672116636,0.003387317,0.0,9.660716e-05,0.00016731983,0.0,0.0,0.0,0.0,0.0,0.0,0.0,0.0,0.0,5.7085003e-06,0.0,0.0,nan,0.0,0.0,6.8643145e-05,0.0,0.0,0.0,0.0,0.0,0.0,0.0,0.0,0.0
672714842,672614342,2.4967032e-05,0.0,0.000117340234,0.0002393819,0.0,0.0,0.0,0.0,0.0,0.0,0.0,0.0,0.0,1.0576084e-07,0.0,0.0,nan,0.0,0.0,0.000564909,0.0,0.0,0.0,0.0,0.0,0.0,0.0,0.0,0.0
673222536,673122003,0.0004828455,0.0,0.00043724506,0.00026433548,0.0,0.0,0.0,0.0,0.0,0.0,0.0,0.0,0.0,4.515853e-06,0.0,0.0,nan,0.0,0.0,0.00091630046,0.0,0.0,0.0,0.0,0.0,0.0,0.0,0.0,0.0
673719830,673619709,0.00045298244,0.0,2.4217237e-05,0.00021902849,0.0,0.0,0.0,0.0,0.0,0.0,0.0,0.0,0.0,0.00012710862,0.0,0.0,nan,0.0,0.0,0.00043959182,0.0,0.0,0.0,0.0,0.0,0.0,0.0,0.0,0.0
674217532,674117414,7.848503e-05,0.0,0.0001587374,0.00029594963,0.0,0.0,0.0,0.0,0.0,0.0,0.0,0.0,0.0,2.5568415e-05,0.0,0.0,nan,0.0,0.0,0.0004127923,0.0,0.0,0.0,0.0,0.0,0.0,0.0,0.0,0.0
674715259,674615120,0.0006811877,0.0,0.00049605296,0.00030008936,0.0,0.0,0.0,0.0,0.0,0.0,0.0,0.0,0.0,6.0624093e-06,0.0,0.0,nan,0.0,0.0,0.0011084857,0.0,0.0,0.0,0.0,0.0,0.0,0.0,0.0,0.0
675222904,675122780,0.0003217459,0.0,9.570011e-05,0.0004796375,0.0,0.0,0.0,0.0,0.0,0.0,0.0,0.0,0.0,2.3647102e-05,0.0,0.0,nan,0.0,0.0,0.0012678703,0.0,0.0,0.0,0.0,0.0,0.0,0.0,0.0,0.0
675720636,675620485,0.00019716662,0.0,4.8037964e-06,0.000914337,0.0,0.0,0.0,0.0,0.0,0.0,0.0,0.0,0.0,2.9834093e-06,0.0,0.0,nan,0.0,0.0,0.0002535971,0.0,0.0,0.0,0.0,0.0,0.0,0.0,0.0,0.0
676218276,676118190,0.004634158,0.0,0.0001931315,0.0019534149,0.0,0.0,0.0,0.0,0.0,0.0,0.0,0.0,0.0,3.4906016e-06,0.0,0.0,nan,0.0,0.0,0.00038911842,0.0,0.0,0.0,0.0,0.0,0.0,0.0,0.0,0.0
676716109,676615895,0.009687004,0.0,0.0010353454,0.0023195741,0.0,0.0,0.0,0.0,0.0,0.0,0.0,0.0,0.0,8.371448e-06,0.0,0.0,nan,0.0,0.0,0.0005342609,0.0,0.0,0.0,0.0,0.0,0.0,0.0,0.0,0.0
677223685,677123554,0.0015412908,0.0,0.00065040635,0.0034143447,0.0,0.0,0.0,0.0,0.0,0.0,0.0,0.0,0.0,3.093197e-05,0.0,0.0,nan,0.0,0.0,0.00029224736,0.0,0.0,0.0,0.0,0.0,0.0,0.0,0.0,0.0
677721833,677621258,0.00066539634,0.0,4.386206e-05,0.0036127185,0.0,0.0,0.0,0.0,0.0,0.0,0.0,0.0,0.0,4.353298e-05,0.0,0.0,nan,0.0,0.0,0.00018920406,0.0,0.0,0.0,0.0,0.0,0.0,0.0,0.0,0.0
678219095,678118962,0.0060044187,0.0,2.8175577e-06,0.0045578717,0.0,0.0,0.0,0.0,0.0,0.0,0.0,0.0,0.0,3.1541627e-09,0.0,0.0,nan,0.0,0.0,0.00019047325,0.0,0.0,0.0,0.0,0.0,0.0,0.0,0.0,0.0
678716797,678616667,0.00016719462,0.0,0.00010535755,0.0032174718,0.0,0.0,0.0,0.0,0.0,0.0,0.0,0.0,0.0,1.2894725e-05,0.0,0.0,nan,0.0,0.0,0.00015581117,0.0,0.0,0.0,0.0,0.0,0.0,0.0,0.0,0.0
679214526,679114371,0.0033468243,0.0,2.3377194e-07,0.0031040872,0.0,0.0,0.0,0.0,0.0,0.0,0.0,0.0,0.0,3.2619514e-06,0.0,0.0,nan,0.0,0.0,0.00014511829,0.0,0.0,0.0,0.0,0.0,0.0,0.0,0.0,0.0
679722261,679622029,0.00023625632,0.0,0.00024538426,0.0035526203,0.0,0.0,0.0,0.0,0.0,0.0,0.0,0.0,0.0,9.80243e-05,0.0,0.0,nan,0.0,0.0,0.0002923723,0.0,0.0,0.0,0.0,0.0,0.0,0.0,0.0,0.0
680219857,680119732,0.00027213836,0.0,0.0004141405,0.003979544,0.0,0.0,0.0,0.0,0.0,0.0,0.0,0.0,0.0,4.3099295e-05,0.0,0.0,nan,0.0,0.0,0.000115267496,0.0,0.0,0.0,0.0,0.0,0.0,0.0,0.0,0.0
680717545,680617436,0.00029740913,0.0,0.0006273455,0.004255023,0.0,0.0,0.0,0.0,0.0,0.0,0.0,0.0,0.0,8.43882e-06,0.0,0.0,nan,0.0,0.0,0.00034864747,0.0,0.0,0.0,0.0,0.0,0.0,0.0,0.0,0.0
681215303,681115139,0.0012575448,0.0,0.00022051024,0.00399011,0.0,0.0,0.0,0.0,0.0,0.0,0.0,0.0,0.0,1.2656017e-05,0.0,0.0,nan,0.0,0.0,0.00023817644,0.0,0.0,0.0,0.0,0.0,0.0,0.0,0.0,0.0
681713041,681612842,0.0005843793,0.0,0.00045169046,0.003580337,0.0,0.0,0.0,0.0,0.0,0.0,0.0,0.0,0.0,4.8157664e-05,0.0,0.0,nan,0.0,0.0,0.0004636412,0.0,0.0,0.0,0.0,0.0,0.0,0.0,0.0,0.0
682220885,682120499,0.0006838679,0.0,1.0860812e-05,0.0029569753,0.0,0.0,0.0,0.0,0.0,0.0,0.0,0.0,0.0,0.00019110623,0.0,0.0,nan,0.0,0.0,2.900061e-05,0.0,0.0,0.0,0.0,0.0,0.0,0.0,0.0,0.0
682718328,682618202,0.0059145214,0.0,0.00015524188,0.00205726,0.0,0.0,0.0,0.0,0.0,0.0,0.0,0.0,0.0,9.148336e-06,0.0,0.0,nan,0.0,0.0,0.0001898593,0.0,0.0,0.0,0.0,0.0,0.0,0.0,0.0,0.0
683215991,683115905,0.0007457502,0.0,8.973666e-06,0.0016222466,0.0,0.0,0.0,0.0,0.0,0.0,0.0,0.0,0.0,5.6022873e-05,0.0,0.0,nan,0.0,0.0,0.00012980892,0.0,0.0,0.0,0.0,0.0,0.0,0.0,0.0,0.0
683723655,683623564,0.00027602995,0.0,0.00088735623,0.0012486042,0.0,0.0,0.0,0.0,0.0,0.0,0.0,0.0,0.0,0.00012249887,0.0,0.0,nan,0.0,0.0,0.00013103525,0.0,0.0,0.0,0.0,0.0,0.0,0.0,0.0,0.0
684221354,684121263,0.001731789,0.0,0.00018312625,0.0015243094,0.0,0.0,0.0,0.0,0.0,0.0,0.0,0.0,0.0,8.614636e-06,0.0,0.0,nan,0.0,0.0,0.0005577685,0.0,0.0,0.0,0.0,0.0,0.0,0.0,0.0,0.0
684719064,684618965,3.2844076e-05,0.0,1.8384064e-06,0.0018511463,0.0,0.0,0.0,0.0,0.0,0.0,0.0,0.0,0.0,0.0001971426,0.0,0.0,nan,0.0,0.0,0.0012039795,0.0,0.0,0.0,0.0,0.0,0.0,0.0,0.0,0.0
685216765,685116667,0.00076347165,0.0,0.00029387887,0.0016878052,0.0,0.0,0.0,0.0,0.0,0.0,0.0,0.0,0.0,8.60599e-06,0.0,0.0,nan,0.0,0.0,7.3267984e-05,0.0,0.0,0.0,0.0,0.0,0.0,0.0,0.0,0.0
685714569,685614369,0.0003866352,0.0,0.00018519445,0.0016206988,0.0,0.0,0.0,0.0,0.0,0.0,0.0,0.0,0.0,2.6811751e-05,0.0,0.0,nan,0.0,0.0,8.877555e-05,0.0,0.0,0.0,0.0,0.0,0.0,0.0,0.0,0.0
686222168,686122025,0.0018037093,0.0,0.00050091674,0.0014889259,0.0,0.0,0.0,0.0,0.0,0.0,0.0,0.0,0.0,1.5799862e-05,0.0,0.0,nan,0.0,0.0,0.00010602788,0.0,0.0,0.0,0.0,0.0,0.0,0.0,0.0,0.0
686720174,686619726,0.002665548,0.0,0.0018564505,0.0015036134,0.0,0.0,0.0,0.0,0.0,0.0,0.0,0.0,0.0,2.9381717e-05,0.0,0.0,nan,0.0,0.0,4.56869e-05,0.0,0.0,0.0,0.0,0.0,0.0,0.0,0.0,0.0
687217543,687117427,0.0015441778,0.0,0.00035118766,0.0010758147,0.0,0.0,0.0,0.0,0.0,0.0,0.0,0.0,0.0,0.00022969447,0.0,0.0,nan,0.0,0.0,0.000106631785,0.0,0.0,0.0,0.0,0.0,0.0,0.0,0.0,0.0
687725169,687625082,0.0072177774,0.0,0.0006404924,0.0012958666,0.0,0.0,0.0,0.0,0.0,0.0,0.0,0.0,0.0,6.9866335e-05,0.0,0.0,nan,0.0,0.0,0.00029935103,0.0,0.0,0.0,0.0,0.0,0.0,0.0,0.0,0.0
688212971,688112829,0.0011644079,0.0,0.00032256692,0.00034797817,0.0,0.0,0.0,0.0,0.0,0.0,0.0,0.0,0.0,4.123586e-05,0.0,0.0,nan,0.0,0.0,5.967603e-05,0.0,0.0,0.0,0.0,0.0,0.0,0.0,0.0,0.0
688720612,688620484,0.0024381515,0.0,3.3507364e-05,0.00023288895,0.0,0.0,0.0,0.0,0.0,0.0,0.0,0.0,0.0,0.00020926478,0.0,0.0,nan,0.0,0.0,3.4610624e-05,0.0,0.0,0.0,0.0,0.0,0.0,0.0,0.0,0.0
689218309,689118185,0.0019349557,0.0,9.840278e-06,0.00013615443,0.0,0.0,0.0,0.0,0.0,0.0,0.0,0.0,0.0,5.9418668e-05,0.0,0.0,nan,0.0,0.0,0.00030541947,0.0,0.0,0.0,0.0,0.0,0.0,0.0,0.0,0.0
689716117,689615885,0.0029000114,0.0,0.00039149847,9.4594725e-05,0.0,0.0,0.0,0.0,0.0,0.0,0.0,0.0,0.0,5.4324853e-05,0.0,0.0,nan,0.0,0.0,0.00031104335,0.0,0.0,0.0,0.0,0.0,0.0,0.0,0.0,0.0
690223654,690123539,0.0007669659,0.0,0.0050124996,0.00020022583,0.0,0.0,0.0,0.0,0.0,0.0,0.0,0.0,0.0,1.2041471e-08,0.0,0.0,nan,0.0,0.0,3.2471623e-06,0.0,0.0,0.0,0.0,0.0,0.0,0.0,0.0,0.0
690721410,690621239,0.0044079567,0.0,0.00054800976,0.0004177463,0.0,0.0,0.0,0.0,0.0,0.0,0.0,0.0,0.0,5.59207e-05,0.0,0.0,nan,0.0,0.0,0.00018483141,0.0,0.0,0.0,0.0,0.0,0.0,0.0,0.0,0.0
691219549,691118939,0.00032962873,0.0,0.0005271887,0.002062009,0.0,0.0,0.0,0.0,0.0,0.0,0.0,0.0,0.0,6.986667e-05,0.0,0.0,nan,0.0,0.0,0.00014571396,0.0,0.0,0.0,0.0,0.0,0.0,0.0,0.0,0.0
691716767,691616639,0.003420874,0.0,0.00019827776,0.002528808,0.0,0.0,0.0,0.0,0.0,0.0,0.0,0.0,0.0,0.00027825194,0.0,0.0,nan,0.0,0.0,1.5488735e-05,0.0,0.0,0.0,0.0,0.0,0.0,0.0,0.0,0.0
692214434,692114339,0.0037641162,0.0,0.0002535572,0.002475623,0.0,0.0,0.0,0.0,0.0,0.0,0.0,0.0,0.0,8.073905e-09,0.0,0.0,nan,0.0,0.0,0.00011050304,0.0,0.0,0.0,0.0,0.0,0.0,0.0,0.0,0.0
692722132,692621992,0.0005382907,0.0,0.0001186559,0.0023757638,0.0,0.0,0.0,0.0,0.0,0.0,0.0,0.0,0.0,1.0135283e-07,0.0,0.0,nan,0.0,0.0,0.00013037931,0.0,0.0,0.0,0.0,0.0,0.0,0.0,0.0,0.0
693219902,693119691,0.003518073,0.0,0.00022657517,0.0021058526,0.0,0.0,0.0,0.0,0.0,0.0,0.0,0.0,0.0,0.00015715462,0.0,0.0,nan,0.0,0.0,0.00015272676,0.0,0.0,0.0,0.0,0.0,0.0,0.0,0.0,0.0
693717475,693617390,0.0013032441,0.0,0.00020871482,0.0021369634,0.0,0.0,0.0,0.0,0.0,0.0,0.0,0.0,0.0,8.727796e-05,0.0,0.0,nan,0.0,0.0,4.8427893e-05,0.0,0.0,0.0,0.0,0.0,0.0,0.0,0.0,0.0
694215233,694115089,0.0016968409,0.0,0.0016019837,0.0034234454,0.0,0.0,0.0,0.0,0.0,0.0,0.0,0.0,0.0,1.5811818e-05,0.0,0.0,nan,0.0,0.0,0.0004182635,0.0,0.0,0.0,0.0,0.0,0.0,0.0,0.0,0.0
694722900,694622742,0.0006032487,0.0,0.00038805028,0.005940067,0.0,0.0,0.0,0.0,0.0,0.0,0.0,0.0,0.0,5.4486884e-07,0.0,0.0,nan,0.0,0.0,3.1101051e-06,0.0,0.0,0.0,0.0,0.0,0.0,0.0,0.0,0.0
695220602,695120440,0.00058379903,0.0,1.7889117e-05,0.0044075386,0.0,0.0,0.0,0.0,0.0,0.0,0.0,0.0,0.0,1.5572181e-05,0.0,0.0,nan,0.0,0.0,8.012133e-05,0.0,0.0,0.0,0.0,0.0,0.0,0.0,0.0,0.0
695718243,695618139,0.00332535,0.0,0.0003336103,0.004632762,0.0,0.0,0.0,0.0,0.0,0.0,0.0,0.0,0.0,5.0961127e-05,0.0,0.0,nan,0.0,0.0,4.1671712e-05,0.0,0.0,0.0,0.0,0.0,0.0,0.0,0.0,0.0
696215970,696115837,0.002559565,0.0,7.2835433e-06,0.004651086,0.0,0.0,0.0,0.0,0.0,0.0,0.0,0.0,0.0,2.7252303e-05,0.0,0.0,nan,0.0,0.0,0.00045089488,0.0,0.0,0.0,0.0,0.0,0.0,0.0,0.0,0.0
696723675,696623492,0.0018807676,0.0,7.2007126e-05,0.0053808726,0.0,0.0,0.0,0.0,0.0,0.0,0.0,0.0,0.0,9.461665e-05,0.0,0.0,nan,0.0,0.0,5.131873e-05,0.0,0.0,0.0,0.0,0.0,0.0,0.0,0.0,0.0
697221378,697121187,0.000461355,0.0,0.00023115434,0.0054356474,0.0,0.0,0.0,0.0,0.0,0.0,0.0,0.0,0.0,6.790395e-05,0.0,0.0,nan,0.0,0.0,0.00032334257,0.0,0.0,0.0,0.0,0.0,0.0,0.0,0.0,0.0
697718979,697618885,0.00039578773,0.0,0.0002697686,0.004729216,0.0,0.0,0.0,0.0,0.0,0.0,0.0,0.0,0.0,0.00013537209,0.0,0.0,nan,0.0,0.0,4.0238847e-05,0.0,0.0,0.0,0.0,0.0,0.0,0.0,0.0,0.0
698216694,698116582,0.0013279081,0.0,7.0036794e-09,0.004300282,0.0,0.0,0.0,0.0,0.0,0.0,0.0,0.0,0.0,1.6236852e-06,0.0,0.0,nan,0.0,0.0,4.7645684e-05,0.0,0.0,0.0,0.0,0.0,0.0,0.0,0.0,0.0
698714382,698614280,0.000307821,0.0,0.00016558712,0.0038741243,0.0,0.0,0.0,0.0,0.0,0.0,0.0,0.0,0.0,1.1858514e-06,0.0,0.0,nan,0.0,0.0,6.232528e-05,0.0,0.0,0.0,0.0,0.0,0.0,0.0,0.0,0.0
699222089,699121931,0.009097528,0.0,3.4779907e-05,0.0029101344,0.0,0.0,0.0,0.0,0.0,0.0,0.0,0.0,0.0,3.7448206e-08,0.0,0.0,nan,0.0,0.0,5.289545e-05,0.0,0.0,0.0,0.0,0.0,0.0,0.0,0.0,0.0
699719803,699619628,0.00023901688,0.0,0.00034302252,0.002676835,0.0,0.0,0.0,0.0,0.0,0.0,0.0,0.0,0.0,2.1815244e-05,0.0,0.0,nan,0.0,0.0,1.8032136e-07,0.0,0.0,0.0,0.0,0.0,0.0,0.0,0.0,0.0
700217412,700117325,0.007246562,0.0,0.000496411,0.00147441,0.0,0.0,0.0,0.0,0.0,0.0,0.0,0.0,0.0,8.1922735e-06,0.0,0.0,nan,0.0,0.0,1.1694445e-07,0.0,0.0,0.0,0.0,0.0,0.0,0.0,0.0,0.0
700715232,700615022,0.0006184103,0.0,2.9726643e-06,0.001164734,0.0,0.0,0.0,0.0,0.0,0.0,0.0,0.0,0.0,6.99711e-05,0.0,0.0,nan,0.0,0.0,3.4470653e-05,0.0,0.0,0.0,0.0,0.0,0.0,0.0,0.0,0.0
701222983,701122672,0.015670026,0.0,0.0042829737,0.00087901193,0.0,0.0,0.0,0.0,0.0,0.0,0.0,0.0,0.0,5.7766676e-05,0.0,0.0,nan,0.0,0.0,2.4205194e-08,0.0,0.0,0.0,0.0,0.0,0.0,0.0,0.0,0.0
701720462,701620369,0.00013311389,0.0,0.00014580913,0.00078571093,0.0,0.0,0.0,0.0,0.0,0.0,0.0,0.0,0.0,1.4244559e-07,0.0,0.0,nan,0.0,0.0,1.3674672e-05,0.0,0.0,0.0,0.0,0.0,0.0,0.0,0.0,0.0
702218205,702118065,0.003994626,0.0,3.7532198e-05,0.00067925913,0.0,0.0,0.0,0.0,0.0,0.0,0.0,0.0,0.0,2.414689e-07,0.0,0.0,nan,0.0,0.0,1.9485236e-07,0.0,0.0,0.0,0.0,0.0,0.0,0.0,0.0,0.0
