timestamp,timestamp_sample,gps_hvel[0],gps_hvel[1],gps_vvel,gps_hpos[0],gps_hpos[1],gps_vpos,ev_hvel[0],ev_hvel[1],ev_vvel,ev_hpos[0],ev_hpos[1],ev_vpos,rng_vpos,baro_vpos,aux_hvel[0],aux_hvel[1],aux_vvel,flow[0],flow[1],heading,mag_field[0],mag_field[1],mag_field[2],drag[0],drag[1],airspeed,beta,hagl,hagl_rate
539698567,539598154,0.089552335,-0.061667606,-0.2257911,-0.21984339,0.25386477,0.0,0.0,0.0,0.0,0.0,0.0,0.0,0.0,0.2998581,0.0,0.0,nan,0.0,0.0,-0.013553858,0.0,0.0,0.0,0.0,0.0,0.0,0.0,0.0,0.0
540198429,540098092,-0.010303602,0.012270782,-0.08698244,-0.24668384,0.3067248,0.0,0.0,0.0,0.0,0.0,0.0,0.0,0.0,0.14089203,0.0,0.0,nan,0.0,0.0,-0.002149582,0.0,0.0,0.0,0.0,0.0,0.0,0.0,0.0,0.0
540698356,540598035,0.04202577,0.024514034,-0.028490305,-0.28251576,0.34989095,0.0,0.0,0.0,0.0,0.0,0.0,0.0,0.0,0.05949402,0.0,0.0,nan,0.0,0.0,0.008917332,0.0,0.0,0.0,0.0,0.0,0.0,0.0,0.0,0.0
541198340,541097977,0.019603755,0.042127915,0.02387946,-0.2853303,0.31587696,0.0,0.0,0.0,0.0,0.0,0.0,0.0,0.0,-0.12892151,0.0,0.0,nan,0.0,0.0,-0.009571314,0.0,0.0,0.0,0.0,0.0,0.0,0.0,0.0,0.0
541698366,541597920,-0.002215404,-0.09494942,0.006135196,-0.22792983,0.27259016,0.0,0.0,0.0,0.0,0.0,0.0,0.0,0.0,-0.025520325,0.0,0.0,nan,0.0,0.0,-0.005806923,0.0,0.0,0.0,0.0,0.0,0.0,0.0,0.0,0.0
542198172,542097866,0.050314166,0.10300795,0.079806514,-0.19577193,0.25278473,0.0,0.0,0.0,0.0,0.0,0.0,0.0,0.0,0.11619568,0.0,0.0,nan,0.0,0.0,0.00605011,0.0,0.0,0.0,0.0,0.0,0.0,0.0,0.0,0.0
542698129,542597805,-0.06409739,0.026212938,0.063425116,-0.18128943,0.24587512,0.0,0.0,0.0,0.0,0.0,0.0,0.0,0.0,0.1448288,0.0,0.0,nan,0.0,0.0,0.003281355,0.0,0.0,0.0,0.0,0.0,0.0,0.0,0.0,0.0
543198109,543097748,0.18290474,0.024129406,-0.017102916,-0.12447405,0.20839691,0.0,0.0,0.0,0.0,0.0,0.0,0.0,0.0,0.10387421,0.0,0.0,nan,0.0,0.0,-0.010821581,0.0,0.0,0.0,0.0,0.0,0.0,0.0,0.0,0.0
543698073,543597690,-0.049506605,-0.19545026,-0.103880316,-0.122779846,0.14760923,0.0,0.0,0.0,0.0,0.0,0.0,0.0,0.0,-0.12452698,0.0,0.0,nan,0.0,0.0,0.0059969425,0.0,0.0,0.0,0.0,0.0,0.0,0.0,0.0,0.0
544197940,544097633,-0.018992942,-0.17168054,-0.0038246326,-0.007050991,0.109932184,0.0,0.0,0.0,0.0,0.0,0.0,0.0,0.0,0.3089981,0.0,0.0,nan,0.0,0.0,0.0024616718,0.0,0.0,0.0,0.0,0.0,0.0,0.0,0.0,0.0
544697903,544597575,-0.12728,-0.068163306,-0.13299409,0.03481984,0.08809757,0.0,0.0,0.0,0.0,0.0,0.0,0.0,0.0,-0.037849426,0.0,0.0,nan,0.0,0.0,-0.006136179,0.0,0.0,0.0,0.0,0.0,0.0,0.0,0.0,0.0
545197882,545097518,-0.12639305,-0.10557334,-0.038732823,0.06537032,0.09426856,0.0,0.0,0.0,0.0,0.0,0.0,0.0,0.0,0.22009277,0.0,0.0,nan,0.0,0.0,-0.0024602413,0.0,0.0,0.0,0.0,0.0,0.0,0.0,0.0,0.0
545697822,545597461,0.053326182,-0.06911567,-0.07997135,0.08666086,0.0901103,0.0,0.0,0.0,0.0,0.0,0.0,0.0,0.0,0.3961029,0.0,0.0,nan,0.0,0.0,0.019058704,0.0,0.0,0.0,0.0,0.0,0.0,0.0,0.0,0.0
546197843,546097404,-0.02572973,-0.044794135,-0.0019973544,0.036177397,0.08951807,0.0,0.0,0.0,0.0,0.0,0.0,0.0,0.0,0.05091095,0.0,0.0,nan,0.0,0.0,-0.009509087,0.0,0.0,0.0,0.0,0.0,0.0,0.0,0.0,0.0
546697759,546597347,-0.036893606,-0.15000011,-0.10282537,-0.0044472218,0.056239128,0.0,0.0,0.0,0.0,0.0,0.0,0.0,0.0,-0.043022156,0.0,0.0,nan,0.0,0.0,0.001332283,0.0,0.0,0.0,0.0,0.0,0.0,0.0,0.0,0.0
547197595,547097290,-0.0070081986,-0.14092913,-0.15651758,-0.06710863,0.027595758,0.0,0.0,0.0,0.0,0.0,0.0,0.0,0.0,0.109809875,0.0,0.0,nan,0.0,0.0,0.002434492,0.0,0.0,0.0,0.0,0.0,0.0,0.0,0.0,0.0
547707549,547607232,0.12598528,-0.21649648,-0.13357832,-0.08074403,0.007929802,0.0,0.0,0.0,0.0,0.0,0.0,0.0,0.0,0.019340515,0.0,0.0,nan,0.0,0.0,-0.00916481,0.0,0.0,0.0,0.0,0.0,0.0,0.0,0.0,0.0
548197563,548097176,-0.12850995,-0.05758921,-0.158476,-0.111251116,0.014271259,0.0,0.0,0.0,0.0,0.0,0.0,0.0,0.0,0.22662354,0.0,0.0,nan,0.0,0.0,-0.0039167404,0.0,0.0,0.0,0.0,0.0,0.0,0.0,0.0,0.0
548697425,548597119,-0.050214123,-0.2102513,-0.20044413,-0.110423565,0.012842178,0.0,0.0,0.0,0.0,0.0,0.0,0.0,0.0,0.12921143,0.0,0.0,nan,0.0,0.0,-0.0018727779,0.0,0.0,0.0,0.0,0.0,0.0,0.0,0.0,0.0
549197367,549097062,0.14895321,0.06261492,-0.15832317,-0.08736396,0.071208715,0.0,0.0,0.0,0.0,0.0,0.0,0.0,0.0,0.0118637085,0.0,0.0,nan,0.0,0.0,-0.0155649185,0.0,0.0,0.0,0.0,0.0,0.0,0.0,0.0,0.0
549697440,549597005,0.12563941,0.070752844,-0.033754893,-0.13155985,0.08891344,0.0,0.0,0.0,0.0,0.0,0.0,0.0,0.0,0.21907043,0.0,0.0,nan,0.0,0.0,-0.016280413,0.0,0.0,0.0,0.0,0.0,0.0,0.0,0.0,0.0
550197250,550096948,-0.08981584,0.013194088,-0.084519036,-0.1338942,0.05091667,0.0,0.0,0.0,0.0,0.0,0.0,0.0,0.0,0.275589,0.0,0.0,nan,0.0,0.0,-0.0019056797,0.0,0.0,0.0,0.0,0.0,0.0,0.0,0.0,0.0
550707580,550606890,0.042392544,0.066631645,-0.07994473,-0.098489046,0.095549345,0.0,0.0,0.0,0.0,0.0,0.0,0.0,0.0,0.2184143,0.0,0.0,nan,0.0,0.0,0.0034034252,0.0,0.0,0.0,0.0,0.0,0.0,0.0,0.0,0.0
551207258,551106834,0.05110795,-0.03193569,-0.010027146,-0.09749079,0.11922431,0.0,0.0,0.0,0.0,0.0,0.0,0.0,0.0,0.29286957,0.0,0.0,nan,0.0,0.0,-0.025424957,0.0,0.0,0.0,0.0,0.0,0.0,0.0,0.0,0.0
551697126,551596778,0.026716014,0.025609422,-0.035828814,-0.11351967,0.15065145,0.0,0.0,0.0,0.0,0.0,0.0,0.0,0.0,0.092453,0.0,0.0,nan,0.0,0.0,-0.008989334,0.0,0.0,0.0,0.0,0.0,0.0,0.0,0.0,0.0
552197077,552096722,-0.06931175,0.025627136,0.0061409604,-0.13328266,0.19659448,0.0,0.0,0.0,0.0,0.0,0.0,0.0,0.0,0.3033676,0.0,0.0,nan,0.0,0.0,-0.004600048,0.0,0.0,0.0,0.0,0.0,0.0,0.0,0.0,0.0
552696984,552596665,-0.036834314,0.033761855,-0.10092383,-0.0869236,0.2150662,0.0,0.0,0.0,0.0,0.0,0.0,0.0,0.0,0.18737793,0.0,0.0,nan,0.0,0.0,-0.034963846,0.0,0.0,0.0,0.0,0.0,0.0,0.0,0.0,0.0
553196973,553096609,-0.029107936,-0.060731843,-0.049249522,-0.0403533,0.21542716,0.0,0.0,0.0,0.0,0.0,0.0,0.0,0.0,0.030082703,0.0,0.0,nan,0.0,0.0,-0.0033373833,0.0,0.0,0.0,0.0,0.0,0.0,0.0,0.0,0.0
553696855,553596552,0.014395669,0.06301983,-0.079873554,-0.0138731,0.20823741,0.0,0.0,0.0,0.0,0.0,0.0,0.0,0.0,0.21762085,0.0,0.0,nan,0.0,0.0,-0.006042719,0.0,0.0,0.0,0.0,0.0,0.0,0.0,0.0,0.0
554206826,554106494,0.19252707,0.0069549605,-0.0137855355,0.05256605,0.17295814,0.0,0.0,0.0,0.0,0.0,0.0,0.0,0.0,0.08339691,0.0,0.0,nan,0.0,0.0,-0.0388546,0.0,0.0,0.0,0.0,0.0,0.0,0.0,0.0,0.0
554696797,554596439,0.044285964,-0.0338623,0.020550579,0.0846796,0.14248443,0.0,0.0,0.0,0.0,0.0,0.0,0.0,0.0,0.23118591,0.0,0.0,nan,0.0,0.0,-0.010815144,0.0,0.0,0.0,0.0,0.0,0.0,0.0,0.0,0.0
555196824,555096383,-0.19397943,0.1235956,-0.11350559,0.13062382,0.06906128,0.0,0.0,0.0,0.0,0.0,0.0,0.0,0.0,0.13743591,0.0,0.0,nan,0.0,0.0,-0.0011999607,0.0,0.0,0.0,0.0,0.0,0.0,0.0,0.0,0.0
555696637,555596327,0.066325784,0.0007017292,0.04768736,0.0990777,0.05136299,0.0,0.0,0.0,0.0,0.0,0.0,0.0,0.0,0.10268402,0.0,0.0,nan,0.0,0.0,-0.028724194,0.0,0.0,0.0,0.0,0.0,0.0,0.0,0.0,0.0
556196574,556096270,-0.06762642,0.138898,0.043102376,0.023780346,0.099722385,0.0,0.0,0.0,0.0,0.0,0.0,0.0,0.0,0.045684814,0.0,0.0,nan,0.0,0.0,-0.009714842,0.0,0.0,0.0,0.0,0.0,0.0,0.0,0.0,0.0
556696593,556596214,-0.100809634,-0.04900317,0.0031313235,-0.043010235,0.09609461,0.0,0.0,0.0,0.0,0.0,0.0,0.0,0.0,0.18521881,0.0,0.0,nan,0.0,0.0,-0.0015485287,0.0,0.0,0.0,0.0,0.0,0.0,0.0,0.0,0.0
557206468,557106160,0.0681582,-0.20520638,-0.054510728,-0.09424305,0.10545826,0.0,0.0,0.0,0.0,0.0,0.0,0.0,0.0,0.06752777,0.0,0.0,nan,0.0,0.0,-0.0053622723,0.0,0.0,0.0,0.0,0.0,0.0,0.0,0.0,0.0
557706493,557606101,0.002097753,0.02566126,0.050093595,-0.12469101,0.10062456,0.0,0.0,0.0,0.0,0.0,0.0,0.0,0.0,-0.10157776,0.0,0.0,nan,0.0,0.0,-0.0064024925,0.0,0.0,0.0,0.0,0.0,0.0,0.0,0.0,0.0
558206355,558106045,-0.04907068,-0.068026215,-0.111550145,-0.1608262,0.04687929,0.0,0.0,0.0,0.0,0.0,0.0,0.0,0.0,0.05215454,0.0,0.0,nan,0.0,0.0,-0.009748697,0.0,0.0,0.0,0.0,0.0,0.0,0.0,0.0,0.0
558696360,558595990,-0.036445107,-0.028748076,-0.08603979,-0.13113213,0.049065113,0.0,0.0,0.0,0.0,0.0,0.0,0.0,0.0,0.3375244,0.0,0.0,nan,0.0,0.0,-0.0018484592,0.0,0.0,0.0,0.0,0.0,0.0,0.0,0.0,0.0
559196293,559095934,-0.009739941,0.14362279,0.057618603,-0.01556921,0.08412099,0.0,0.0,0.0,0.0,0.0,0.0,0.0,0.0,0.49559784,0.0,0.0,nan,0.0,0.0,-0.02026701,0.0,0.0,0.0,0.0,0.0,0.0,0.0,0.0,0.0
559696285,559595878,0.025539972,-0.053612307,-0.06413402,0.01703167,0.047773838,0.0,0.0,0.0,0.0,0.0,0.0,0.0,0.0,-0.02722168,0.0,0.0,nan,0.0,0.0,-0.003130436,0.0,0.0,0.0,0.0,0.0,0.0,0.0,0.0,0.0
560206195,560105824,-0.111562386,0.14568356,0.005743123,0.052561283,0.0011091232,0.0,0.0,0.0,0.0,0.0,0.0,0.0,0.0,0.20948792,0.0,0.0,nan,0.0,0.0,0.024918795,0.0,0.0,0.0,0.0,0.0,0.0,0.0,0.0,0.0
560706449,560605765,-0.13868833,-0.018076483,-0.009038588,0.054257393,-0.02099371,0.0,0.0,0.0,0.0,0.0,0.0,0.0,0.0,0.017196655,0.0,0.0,nan,0.0,0.0,-0.004485607,0.0,0.0,0.0,0.0,0.0,0.0,0.0,0.0,0.0
561206049,561105709,0.10394965,0.16775498,0.021201383,0.14135838,-0.02486515,0.0,0.0,0.0,0.0,0.0,0.0,0.0,0.0,-0.08571625,0.0,0.0,nan,0.0,0.0,0.00703907,0.0,0.0,0.0,0.0,0.0,0.0,0.0,0.0,0.0
561706259,561605654,0.0077915965,-0.08221423,-0.09546479,0.12945175,-0.06671929,0.0,0.0,0.0,0.0,0.0,0.0,0.0,0.0,0.05835724,0.0,0.0,nan,0.0,0.0,0.02111125,0.0,0.0,0.0,0.0,0.0,0.0,0.0,0.0,0.0
562195914,562095599,0.025480125,0.010881882,0.0053044204,0.15344763,-0.09090972,0.0,0.0,0.0,0.0,0.0,0.0,0.0,0.0,0.2432251,0.0,0.0,nan,0.0,0.0,-0.01782322,0.0,0.0,0.0,0.0,0.0,0.0,0.0,0.0,0.0
562695848,562595543,-0.19125468,0.02459976,-0.19731851,0.14502239,-0.15095043,0.0,0.0,0.0,0.0,0.0,0.0,0.0,0.0,0.28731537,0.0,0.0,nan,0.0,0.0,-0.08531523,0.0,0.0,0.0,0.0,0.0,0.0,0.0,0.0,0.0
563205812,563105486,0.047474436,0.15149209,-0.064032935,0.25983524,-0.23900795,0.0,0.0,0.0,0.0,0.0,0.0,0.0,0.0,0.2864685,0.0,0.0,nan,0.0,0.0,-0.06115985,0.0,0.0,0.0,0.0,0.0,0.0,0.0,0.0,0.0
563705756,563605431,-0.00430139,0.11436629,-0.035178162,0.3688135,-0.29209614,0.0,0.0,0.0,0.0,0.0,0.0,0.0,0.0,-0.0053863525,0.0,0.0,nan,0.0,0.0,-0.05802107,0.0,0.0,0.0,0.0,0.0,0.0,0.0,0.0,0.0
564205802,564105375,-0.12566689,0.05135925,-0.07608932,0.4092815,-0.29858756,0.0,0.0,0.0,0.0,0.0,0.0,0.0,0.0,0.1162796,0.0,0.0,nan,0.0,0.0,-0.05601287,0.0,0.0,0.0,0.0,0.0,0.0,0.0,0.0,0.0
564705644,564605320,-0.10413242,0.04433687,0.016158937,0.46383858,-0.27637362,0.0,0.0,0.0,0.0,0.0,0.0,0.0,0.0,0.111961365,0.0,0.0,nan,0.0,0.0,-0.061003923,0.0,0.0,0.0,0.0,0.0,0.0,0.0,0.0,0.0
565205568,565105264,-0.01481951,-0.09970477,-0.04709715,0.51002717,-0.24210382,0.0,0.0,0.0,0.0,0.0,0.0,0.0,0.0,0.09767914,0.0,0.0,nan,0.0,0.0,-0.051502943,0.0,0.0,0.0,0.0,0.0,0.0,0.0,0.0,0.0
565695525,565595209,-0.13503481,-0.001737963,-0.015773831,0.5134845,-0.22525048,0.0,0.0,0.0,0.0,0.0,0.0,0.0,0.0,0.27114868,0.0,0.0,nan,0.0,0.0,-0.05253315,0.0,0.0,0.0,0.0,0.0,0.0,0.0,0.0,0.0
566197998,566095154,0.037492316,0.006608161,-0.11414348,0.49971938,-0.2614107,0.0,0.0,0.0,0.0,0.0,0.0,0.0,0.0,0.14662933,0.0,0.0,nan,0.0,0.0,-0.054127455,0.0,0.0,0.0,0.0,0.0,0.0,0.0,0.0,0.0
566705425,566605097,0.021254342,-0.017561175,-0.0143014435,0.45246553,-0.28258753,0.0,0.0,0.0,0.0,0.0,0.0,0.0,0.0,0.22142792,0.0,0.0,nan,0.0,0.0,-0.05321598,0.0,0.0,0.0,0.0,0.0,0.0,0.0,0.0,0.0
567205363,567105042,-0.089815855,-0.038587406,-0.10278822,0.37505913,-0.32943845,0.0,0.0,0.0,0.0,0.0,0.0,0.0,0.0,0.16693115,0.0,0.0,nan,0.0,0.0,-0.05708027,0.0,0.0,0.0,0.0,0.0,0.0,0.0,0.0,0.0
567705376,567604987,-0.23347795,-0.08136502,-0.17616002,0.36166358,-0.35951805,0.0,0.0,0.0,0.0,0.0,0.0,0.0,0.0,0.03630066,0.0,0.0,nan,0.0,0.0,-0.041958094,0.0,0.0,0.0,0.0,0.0,0.0,0.0,0.0,0.0
568205232,568104931,0.104900435,0.13029888,-0.086950555,0.3787217,-0.388669,0.0,0.0,0.0,0.0,0.0,0.0,0.0,0.0,-0.09980011,0.0,0.0,nan,0.0,0.0,-0.055457592,0.0,0.0,0.0,0.0,0.0,0.0,0.0,0.0,0.0
568705582,568604876,0.16232301,1.0178105,-0.091091394,0.35288715,-0.30768347,0.0,0.0,0.0,0.0,0.0,0.0,0.0,0.0,0.34181976,0.0,0.0,nan,0.0,0.0,-0.058975697,0.0,0.0,0.0,0.0,0.0,0.0,0.0,0.0,0.0
569195124,569094821,-0.16748038,0.050438054,-0.20959938,0.3130026,-0.37462306,0.0,0.0,0.0,0.0,0.0,0.0,0.0,0.0,0.23851776,0.0,0.0,nan,0.0,0.0,-0.045452356,0.0,0.0,0.0,0.0,0.0,0.0,0.0,0.0,0.0
569700137,569594766,-0.23614448,0.36253303,-0.0919343,0.27461958,-0.33581853,0.0,0.0,0.0,0.0,0.0,0.0,0.0,0.0,0.2006836,0.0,0.0,nan,0.0,0.0,-0.053766012,0.0,0.0,0.0,0.0,0.0,0.0,0.0,0.0,0.0
570205012,570104710,0.009960011,-0.19326523,-0.055739447,0.30922174,-0.34485888,0.0,0.0,0.0,0.0,0.0,0.0,0.0,0.0,0.42430878,0.0,0.0,nan,0.0,0.0,-0.052041292,0.0,0.0,0.0,0.0,0.0,0.0,0.0,0.0,0.0
570705087,570604654,-0.17473266,0.08596923,0.01106162,0.25261664,-0.2864282,0.0,0.0,0.0,0.0,0.0,0.0,0.0,0.0,0.3013687,0.0,0.0,nan,0.0,0.0,-0.046619892,0.0,0.0,0.0,0.0,0.0,0.0,0.0,0.0,0.0
571204899,571104599,-0.12855218,0.02007987,-0.19014332,0.18568444,-0.23187971,0.0,0.0,0.0,0.0,0.0,0.0,0.0,0.0,0.15771484,0.0,0.0,nan,0.0,0.0,-0.04031253,0.0,0.0,0.0,0.0,0.0,0.0,0.0,0.0,0.0
571704910,571604543,-0.21138805,0.23405199,0.022653112,0.1687429,-0.13755274,0.0,0.0,0.0,0.0,0.0,0.0,0.0,0.0,0.2433548,0.0,0.0,nan,0.0,0.0,-0.05052066,0.0,0.0,0.0,0.0,0.0,0.0,0.0,0.0,0.0
572204921,572104488,0.16353926,-0.08343564,-0.10330823,0.19561076,-0.15199804,0.0,0.0,0.0,0.0,0.0,0.0,0.0,0.0,0.2708435,0.0,0.0,nan,0.0,0.0,-0.049265146,0.0,0.0,0.0,0.0,0.0,0.0,0.0,0.0,0.0
572704782,572604433,-0.03962739,0.06989267,-0.06840508,0.179878,-0.12857652,0.0,0.0,0.0,0.0,0.0,0.0,0.0,0.0,0.10651398,0.0,0.0,nan,0.0,0.0,-0.04395914,0.0,0.0,0.0,0.0,0.0,0.0,0.0,0.0,0.0
573204751,573104381,-0.05169148,0.17440443,-0.024738323,0.21923971,-0.17017722,0.0,0.0,0.0,0.0,0.0,0.0,0.0,0.0,0.20644379,0.0,0.0,nan,0.0,0.0,-0.039511442,0.0,0.0,0.0,0.0,0.0,0.0,0.0,0.0,0.0
573704660,573604322,-0.044662807,0.09364697,-0.03453072,0.23585153,-0.28113317,0.0,0.0,0.0,0.0,0.0,0.0,0.0,0.0,0.2656021,0.0,0.0,nan,0.0,0.0,-0.0388484,0.0,0.0,0.0,0.0,0.0,0.0,0.0,0.0,0.0
574204637,574104267,0.011958759,0.16774374,-0.018899176,0.28767014,-0.4054135,0.0,0.0,0.0,0.0,0.0,0.0,0.0,0.0,0.16732788,0.0,0.0,nan,0.0,0.0,-0.067234755,0.0,0.0,0.0,0.0,0.0,0.0,0.0,0.0,0.0
574704820,574604211,-0.09665093,-0.03241881,0.014897069,0.27928448,-0.40967047,0.0,0.0,0.0,0.0,0.0,0.0,0.0,0.0,0.3483734,0.0,0.0,nan,0.0,0.0,-0.068467855,0.0,0.0,0.0,0.0,0.0,0.0,0.0,0.0,0.0
575204467,575104156,0.0146930255,-0.032072756,0.050337084,0.26047802,-0.4090414,0.0,0.0,0.0,0.0,0.0,0.0,0.0,0.0,0.12031555,0.0,0.0,nan,0.0,0.0,-0.06859803,0.0,0.0,0.0,0.0,0.0,0.0,0.0,0.0,0.0
575704518,575604100,-0.0047590137,0.001859203,-0.008290681,0.26688647,-0.38659382,0.0,0.0,0.0,0.0,0.0,0.0,0.0,0.0,-0.023399353,0.0,0.0,nan,0.0,0.0,-0.067818165,0.0,0.0,0.0,0.0,0.0,0.0,0.0,0.0,0.0
576204412,576104045,-0.16473839,-0.06364767,-0.08954202,0.24007201,-0.37914455,0.0,0.0,0.0,0.0,0.0,0.0,0.0,0.0,-0.30486298,0.0,0.0,nan,0.0,0.0,-0.07370591,0.0,0.0,0.0,0.0,0.0,0.0,0.0,0.0,0.0
576704335,576603990,-0.12747109,0.037847072,0.029260742,0.25326848,-0.39943862,0.0,0.0,0.0,0.0,0.0,0.0,0.0,0.0,0.24655914,0.0,0.0,nan,0.0,0.0,-0.06305289,0.0,0.0,0.0,0.0,0.0,0.0,0.0,0.0,0.0
577204323,577103934,-0.12416253,-0.07564454,0.091722526,0.1970675,-0.3749025,0.0,0.0,0.0,0.0,0.0,0.0,0.0,0.0,0.053627014,0.0,0.0,nan,0.0,0.0,-0.062761545,0.0,0.0,0.0,0.0,0.0,0.0,0.0,0.0,0.0
577704276,577603879,-0.28253776,-0.08233203,-0.04215081,0.09396815,-0.3842888,0.0,0.0,0.0,0.0,0.0,0.0,0.0,0.0,0.22156525,0.0,0.0,nan,0.0,0.0,-0.042648792,0.0,0.0,0.0,0.0,0.0,0.0,0.0,0.0,0.0
578204353,578103823,-0.13478339,0.028621472,0.011593664,0.05356884,-0.35728455,0.0,0.0,0.0,0.0,0.0,0.0,0.0,0.0,0.29135895,0.0,0.0,nan,0.0,0.0,-0.057872534,0.0,0.0,0.0,0.0,0.0,0.0,0.0,0.0,0.0
578704484,578603768,-0.023270234,-0.016046721,0.019522682,0.025692463,-0.33742213,0.0,0.0,0.0,0.0,0.0,0.0,0.0,0.0,0.36732483,0.0,0.0,nan,0.0,0.0,-0.08550668,0.0,0.0,0.0,0.0,0.0,0.0,0.0,0.0,0.0
579204027,579103712,-0.06273335,-0.07981288,-0.10482636,0.043909788,-0.3394779,0.0,0.0,0.0,0.0,0.0,0.0,0.0,0.0,0.041870117,0.0,0.0,nan,0.0,0.0,-0.09540701,0.0,0.0,0.0,0.0,0.0,0.0,0.0,0.0,0.0
579703963,579603657,-0.04361005,-0.07088784,-0.006269235,0.10220361,-0.32235193,0.0,0.0,0.0,0.0,0.0,0.0,0.0,0.0,0.0386734,0.0,0.0,nan,0.0,0.0,-0.07272029,0.0,0.0,0.0,0.0,0.0,0.0,0.0,0.0,0.0
580203969,580103601,-0.0222435,-0.20749873,-0.09751276,0.087504625,-0.38636518,0.0,0.0,0.0,0.0,0.0,0.0,0.0,0.0,-0.032829285,0.0,0.0,nan,0.0,0.0,-0.08482242,0.0,0.0,0.0,0.0,0.0,0.0,0.0,0.0,0.0
580703857,580603546,-0.25460377,0.033426594,-0.13334918,0.10854268,-0.33779502,0.0,0.0,0.0,0.0,0.0,0.0,0.0,0.0,-0.09941864,0.0,0.0,nan,0.0,0.0,-0.10955715,0.0,0.0,0.0,0.0,0.0,0.0,0.0,0.0,0.0
581203818,581103491,-0.35262778,7.432327e-05,-0.16577831,-0.028642654,-0.44216907,0.0,0.0,0.0,0.0,0.0,0.0,0.0,0.0,0.04660797,0.0,0.0,nan,0.0,0.0,-0.10030079,0.0,0.0,0.0,0.0,0.0,0.0,0.0,0.0,0.0
581703749,581603434,0.58166826,-0.33627683,-0.30571538,0.048781157,-0.54063046,0.0,0.0,0.0,0.0,0.0,0.0,0.0,0.0,0.17321777,0.0,0.0,nan,0.0,0.0,-0.06434631,0.0,0.0,0.0,0.0,0.0,0.0,0.0,0.0,0.0
582203764,582103379,0.00901147,-0.067864925,-0.13763162,0.09641814,-0.37612283,0.0,0.0,0.0,0.0,0.0,0.0,0.0,0.0,-0.09378052,0.0,0.0,nan,0.0,0.0,-0.06279254,0.0,0.0,0.0,0.0,0.0,0.0,0.0,0.0,0.0
582704133,582603323,-0.062596925,-0.009710339,-0.013839719,0.20211005,-0.10481918,0.0,0.0,0.0,0.0,0.0,0.0,0.0,0.0,0.104537964,0.0,0.0,nan,0.0,0.0,-0.055555344,0.0,0.0,0.0,0.0,0.0,0.0,0.0,0.0,0.0
583203572,583103267,-0.030506656,0.1602077,0.0896961,0.1625762,-0.06750929,0.0,0.0,0.0,0.0,0.0,0.0,0.0,0.0,-0.04434204,0.0,0.0,nan,0.0,0.0,-0.060822487,0.0,0.0,0.0,0.0,0.0,0.0,0.0,0.0,0.0
583703583,583603211,-0.0047712475,0.06542758,0.022150172,0.17666984,-0.052235126,0.0,0.0,0.0,0.0,0.0,0.0,0.0,0.0,-0.15233612,0.0,0.0,nan,0.0,0.0,-0.05684638,0.0,0.0,0.0,0.0,0.0,0.0,0.0,0.0,0.0
584203500,584103156,0.35424918,0.13937475,0.12369711,0.15518832,0.044002533,0.0,0.0,0.0,0.0,0.0,0.0,0.0,0.0,0.028198242,0.0,0.0,nan,0.0,0.0,-0.046437502,0.0,0.0,0.0,0.0,0.0,0.0,0.0,0.0,0.0
584703488,584603100,-0.1028396,-0.026136864,0.044772625,0.039542913,0.06013298,0.0,0.0,0.0,0.0,0.0,0.0,0.0,0.0,-0.0717392,0.0,0.0,nan,0.0,0.0,-0.062022924,0.0,0.0,0.0,0.0,0.0,0.0,0.0,0.0,0.0
585203404,585103044,0.31682742,0.1809895,-0.030327268,0.07443714,0.13051224,0.0,0.0,0.0,0.0,0.0,0.0,0.0,0.0,-0.095687866,0.0,0.0,nan,0.0,0.0,-0.050297022,0.0,0.0,0.0,0.0,0.0,0.0,0.0,0.0,0.0
585703387,585602988,0.3495717,-0.041848212,0.052968472,0.08599138,0.04266095,0.0,0.0,0.0,0.0,0.0,0.0,0.0,0.0,0.09763336,0.0,0.0,nan,0.0,0.0,-0.056346416,0.0,0.0,0.0,0.0,0.0,0.0,0.0,0.0,0.0
586203267,586102932,0.068993255,-0.048299454,-0.06820215,0.06148386,0.022574306,0.0,0.0,0.0,0.0,0.0,0.0,0.0,0.0,-0.14375305,0.0,0.0,nan,0.0,0.0,-0.058318377,0.0,0.0,0.0,0.0,0.0,0.0,0.0,0.0,0.0
586703549,586602876,-0.21084191,0.054611914,-0.14017059,-0.023828268,-0.02276957,0.0,0.0,0.0,0.0,0.0,0.0,0.0,0.0,0.15963745,0.0,0.0,nan,0.0,0.0,-0.06682849,0.0,0.0,0.0,0.0,0.0,0.0,0.0,0.0,0.0
587203213,587102819,-0.22687638,-0.0027268603,-0.120149635,-0.0055162907,-0.08124983,0.0,0.0,0.0,0.0,0.0,0.0,0.0,0.0,-0.090156555,0.0,0.0,nan,0.0,0.0,-0.05824232,0.0,0.0,0.0,0.0,0.0,0.0,0.0,0.0,0.0
587703100,587602763,-0.033009347,0.055551138,-0.20700356,-0.050344467,-0.06830275,0.0,0.0,0.0,0.0,0.0,0.0,0.0,0.0,-0.019752502,0.0,0.0,nan,0.0,0.0,-0.064539194,0.0,0.0,0.0,0.0,0.0,0.0,0.0,0.0,0.0
588203010,588102707,0.11440582,0.054120224,-0.18229635,-0.010627508,-0.08110309,0.0,0.0,0.0,0.0,0.0,0.0,0.0,0.0,0.09033966,0.0,0.0,nan,0.0,0.0,-0.061187983,0.0,0.0,0.0,0.0,0.0,0.0,0.0,0.0,0.0
588703239,588602651,-0.13976617,-0.20110293,-0.16432518,0.05920601,-0.16313088,0.0,0.0,0.0,0.0,0.0,0.0,0.0,0.0,0.021911621,0.0,0.0,nan,0.0,0.0,-0.07054329,0.0,0.0,0.0,0.0,0.0,0.0,0.0,0.0,0.0
589202934,589102594,-0.045990665,0.27819943,-0.09285726,0.1221292,-0.16779435,0.0,0.0,0.0,0.0,0.0,0.0,0.0,0.0,0.054855347,0.0,0.0,nan,0.0,0.0,-0.057549,0.0,0.0,0.0,0.0,0.0,0.0,0.0,0.0,0.0
589703228,589602538,0.18244569,0.14042619,-0.06969016,0.21162128,-0.1662916,0.0,0.0,0.0,0.0,0.0,0.0,0.0,0.0,0.009963989,0.0,0.0,nan,0.0,0.0,-0.0498116,0.0,0.0,0.0,0.0,0.0,0.0,0.0,0.0,0.0
590202806,590102481,0.06159001,-0.072965264,-0.2551625,0.22920918,-0.19210196,0.0,0.0,0.0,0.0,0.0,0.0,0.0,0.0,0.08217621,0.0,0.0,nan,0.0,0.0,0.005405903,0.0,0.0,0.0,0.0,0.0,0.0,0.0,0.0,0.0
590703068,590602424,-0.12963566,-0.056614697,-0.07807256,0.20902586,-0.20528138,0.0,0.0,0.0,0.0,0.0,0.0,0.0,0.0,0.10517883,0.0,0.0,nan,0.0,0.0,-0.011011839,0.0,0.0,0.0,0.0,0.0,0.0,0.0,0.0,0.0
591202810,591102367,-0.0028143749,-0.046970434,-0.13748905,0.33859968,-0.19065213,0.0,0.0,0.0,0.0,0.0,0.0,0.0,0.0,0.06320953,0.0,0.0,nan,0.0,0.0,-0.010021448,0.0,0.0,0.0,0.0,0.0,0.0,0.0,0.0,0.0
591702745,591602311,0.0007912889,0.06573099,0.05936776,0.29842353,-0.31879222,0.0,0.0,0.0,0.0,0.0,0.0,0.0,0.0,0.066207886,0.0,0.0,nan,0.0,0.0,-0.02040863,0.0,0.0,0.0,0.0,0.0,0.0,0.0,0.0,0.0
592202568,592102254,0.288651,0.24445367,0.05970511,0.3860029,-0.22947097,0.0,0.0,0.0,0.0,0.0,0.0,0.0,0.0,0.08215332,0.0,0.0,nan,0.0,0.0,-0.011164665,0.0,0.0,0.0,0.0,0.0,0.0,0.0,0.0,0.0
592702557,592602197,0.12314578,0.24935006,-0.007657459,0.34801614,-0.18025887,0.0,0.0,0.0,0.0,0.0,0.0,0.0,0.0,0.30501556,0.0,0.0,nan,0.0,0.0,-0.02733779,0.0,0.0,0.0,0.0,0.0,0.0,0.0,0.0,0.0
593202520,593102140,0.03241854,0.21836329,0.03491045,0.35911798,-0.027979612,0.0,0.0,0.0,0.0,0.0,0.0,0.0,0.0,-0.021125793,0.0,0.0,nan,0.0,0.0,-0.06336689,0.0,0.0,0.0,0.0,0.0,0.0,0.0,0.0,0.0
593702515,593602083,-0.20419252,-0.22490695,-0.09196547,0.27925384,-0.055566072,0.0,0.0,0.0,0.0,0.0,0.0,0.0,0.0,-0.07804108,0.0,0.0,nan,0.0,0.0,-0.024477005,0.0,0.0,0.0,0.0,0.0,0.0,0.0,0.0,0.0
594202327,594102026,0.10804312,0.012319997,-0.060933262,0.28953946,-0.038990974,0.0,0.0,0.0,0.0,0.0,0.0,0.0,0.0,0.302742,0.0,0.0,nan,0.0,0.0,-0.031440258,0.0,0.0,0.0,0.0,0.0,0.0,0.0,0.0,0.0
594702691,594601969,0.20129745,-0.1204775,-0.020319024,0.3119619,-0.0539881,0.0,0.0,0.0,0.0,0.0,0.0,0.0,0.0,0.20091248,0.0,0.0,nan,0.0,0.0,-0.039299726,0.0,0.0,0.0,0.0,0.0,0.0,0.0,0.0,0.0
595202212,595101911,-0.05009225,-0.15341799,-0.14910272,0.3121723,-0.07922244,0.0,0.0,0.0,0.0,0.0,0.0,0.0,0.0,0.084243774,0.0,0.0,nan,0.0,0.0,-0.0352304,0.0,0.0,0.0,0.0,0.0,0.0,0.0,0.0,0.0
595702587,595601854,-0.57025105,-0.09668304,-0.17638843,0.21124244,-0.09079087,0.0,0.0,0.0,0.0,0.0,0.0,0.0,0.0,0.07671356,0.0,0.0,nan,0.0,0.0,-0.05067396,0.0,0.0,0.0,0.0,0.0,0.0,0.0,0.0,0.0
596202117,596101796,-0.20517242,-0.389785,-0.109875396,0.1349144,-0.13773036,0.0,0.0,0.0,0.0,0.0,0.0,0.0,0.0,0.24517822,0.0,0.0,nan,0.0,0.0,-0.04271102,0.0,0.0,0.0,0.0,0.0,0.0,0.0,0.0,0.0
596702107,596601739,-0.21203107,-0.19406116,-0.21648806,0.14391541,-0.13926291,0.0,0.0,0.0,0.0,0.0,0.0,0.0,0.0,0.13023376,0.0,0.0,nan,0.0,0.0,-0.053438663,0.0,0.0,0.0,0.0,0.0,0.0,0.0,0.0,0.0
597201983,597101681,-0.14606422,-0.2858948,0.02362571,0.13951778,-0.15189123,0.0,0.0,0.0,0.0,0.0,0.0,0.0,0.0,0.06587219,0.0,0.0,nan,0.0,0.0,-0.04138565,0.0,0.0,0.0,0.0,0.0,0.0,0.0,0.0,0.0
597701944,597601623,-0.30014342,-0.2264947,0.0051822057,0.13749123,-0.16018987,0.0,0.0,0.0,0.0,0.0,0.0,0.0,0.0,0.24042511,0.0,0.0,nan,0.0,0.0,-0.038176775,0.0,0.0,0.0,0.0,0.0,0.0,0.0,0.0,0.0
598201959,598101566,-0.16925135,-0.24899076,-0.053010184,0.15030444,-0.2344594,0.0,0.0,0.0,0.0,0.0,0.0,0.0,0.0,0.088890076,0.0,0.0,nan,0.0,0.0,-0.034454107,0.0,0.0,0.0,0.0,0.0,0.0,0.0,0.0,0.0
598701822,598601508,-0.26758537,-0.21303602,-0.12494032,0.09914458,-0.27365553,0.0,0.0,0.0,0.0,0.0,0.0,0.0,0.0,0.099220276,0.0,0.0,nan,0.0,0.0,-0.03652644,0.0,0.0,0.0,0.0,0.0,0.0,0.0,0.0,0.0
599201774,599101450,0.14243111,-0.15931307,0.031436086,0.23486984,-0.29411674,0.0,0.0,0.0,0.0,0.0,0.0,0.0,0.0,0.12312317,0.0,0.0,nan,0.0,0.0,-0.03176713,0.0,0.0,0.0,0.0,0.0,0.0,0.0,0.0,0.0
599701747,599601392,0.17624965,-0.4512246,0.27798298,0.24626386,-0.3696431,0.0,0.0,0.0,0.0,0.0,0.0,0.0,0.0,0.13759613,0.0,0.0,nan,0.0,0.0,-0.040540934,0.0,0.0,0.0,0.0,0.0,0.0,0.0,0.0,0.0
600201758,600101334,0.0012871979,-0.08535345,0.04474033,0.3142171,-0.46817672,0.0,0.0,0.0,0.0,0.0,0.0,0.0,0.0,0.20835114,0.0,0.0,nan,0.0,0.0,-0.02072525,0.0,0.0,0.0,0.0,0.0,0.0,0.0,0.0,0.0
600701615,600601275,0.19628482,-0.016070414,0.07787493,0.36443734,-0.4995191,0.0,0.0,0.0,0.0,0.0,0.0,0.0,0.0,0.06451416,0.0,0.0,nan,0.0,0.0,-0.0066607,0.0,0.0,0.0,0.0,0.0,0.0,0.0,0.0,0.0
601201579,601101217,0.5064331,-0.22424667,0.33602276,0.42812753,-0.5947764,0.0,0.0,0.0,0.0,0.0,0.0,0.0,0.0,0.062171936,0.0,0.0,nan,0.0,0.0,-0.024027348,0.0,0.0,0.0,0.0,0.0,0.0,0.0,0.0,0.0
601701762,601601159,0.07603278,-0.0025653765,0.12104596,0.43421805,-0.64039415,0.0,0.0,0.0,0.0,0.0,0.0,0.0,0.0,-0.027565002,0.0,0.0,nan,0.0,0.0,-0.00068092346,0.0,0.0,0.0,0.0,0.0,0.0,0.0,0.0,0.0
602201433,602101100,-0.12124066,-0.1251001,0.063788265,0.36014444,-0.63154143,0.0,0.0,0.0,0.0,0.0,0.0,0.0,0.0,-0.14202118,0.0,0.0,nan,0.0,0.0,-0.014788389,0.0,0.0,0.0,0.0,0.0,0.0,0.0,0.0,0.0
602701691,602601041,0.109516755,0.031006567,-0.046536997,0.30617905,-0.6123014,0.0,0.0,0.0,0.0,0.0,0.0,0.0,0.0,-0.18711853,0.0,0.0,nan,0.0,0.0,-0.014606476,0.0,0.0,0.0,0.0,0.0,0.0,0.0,0.0,0.0
603201365,603100983,-0.023074009,0.25423157,0.06644465,0.32132936,-0.5947422,0.0,0.0,0.0,0.0,0.0,0.0,0.0,0.0,-0.03565979,0.0,0.0,nan,0.0,0.0,-0.005086422,0.0,0.0,0.0,0.0,0.0,0.0,0.0,0.0,0.0
603701270,603600924,0.16483974,0.23315617,0.064463705,0.27285916,-0.55978984,0.0,0.0,0.0,0.0,0.0,0.0,0.0,0.0,0.068122864,0.0,0.0,nan,0.0,0.0,-0.015565395,0.0,0.0,0.0,0.0,0.0,0.0,0.0,0.0,0.0
604201261,604100865,-0.1420676,0.2957318,-0.16794312,0.123119295,-0.48661786,0.0,0.0,0.0,0.0,0.0,0.0,0.0,0.0,-0.008735657,0.0,0.0,nan,0.0,0.0,-0.018089533,0.0,0.0,0.0,0.0,0.0,0.0,0.0,0.0,0.0
604701469,604600806,-0.103691235,0.21998787,-0.17142007,0.057104886,-0.45766616,0.0,0.0,0.0,0.0,0.0,0.0,0.0,0.0,-0.15183258,0.0,0.0,nan,0.0,0.0,-0.02029252,0.0,0.0,0.0,0.0,0.0,0.0,0.0,0.0,0.0
605201240,605100747,-0.68019015,0.2615543,0.124167725,0.022606611,-0.4717905,0.0,0.0,0.0,0.0,0.0,0.0,0.0,0.0,-0.0806427,0.0,0.0,nan,0.0,0.0,-0.030452013,0.0,0.0,0.0,0.0,0.0,0.0,0.0,0.0,0.0
605701300,605600688,0.17079924,-0.12206329,-0.12092437,0.14411515,-0.3529708,0.0,0.0,0.0,0.0,0.0,0.0,0.0,0.0,-0.091293335,0.0,0.0,nan,0.0,0.0,-0.03301859,0.0,0.0,0.0,0.0,0.0,0.0,0.0,0.0,0.0
606201025,606100628,0.02309665,0.12480301,-0.009325018,0.08536899,-0.24478868,0.0,0.0,0.0,0.0,0.0,0.0,0.0,0.0,-0.18680573,0.0,0.0,nan,0.0,0.0,-0.041552782,0.0,0.0,0.0,0.0,0.0,0.0,0.0,0.0,0.0
606700884,606600569,-0.2336741,-0.08858907,0.012569971,0.0111759305,-0.1382488,0.0,0.0,0.0,0.0,0.0,0.0,0.0,0.0,-0.01423645,0.0,0.0,nan,0.0,0.0,-0.027255535,0.0,0.0,0.0,0.0,0.0,0.0,0.0,0.0,0.0
607200884,607100510,-0.07354382,0.14098008,-0.05127132,0.121114224,0.10415846,0.0,0.0,0.0,0.0,0.0,0.0,0.0,0.0,-0.14833069,0.0,0.0,nan,0.0,0.0,-0.0370934,0.0,0.0,0.0,0.0,0.0,0.0,0.0,0.0,0.0
607701162,607600450,-0.077855594,0.2551223,0.12009808,0.15189672,0.19370753,0.0,0.0,0.0,0.0,0.0,0.0,0.0,0.0,-0.06719208,0.0,0.0,nan,0.0,0.0,-0.037958384,0.0,0.0,0.0,0.0,0.0,0.0,0.0,0.0,0.0
608200712,608100390,0.06374223,0.022588335,0.04101061,0.16679645,0.21483338,0.0,0.0,0.0,0.0,0.0,0.0,0.0,0.0,0.21456146,0.0,0.0,nan,0.0,0.0,-0.028655767,0.0,0.0,0.0,0.0,0.0,0.0,0.0,0.0,0.0
608700972,608600331,-0.036014207,0.09032627,-0.05075654,0.06492531,0.28749585,0.0,0.0,0.0,0.0,0.0,0.0,0.0,0.0,0.13070679,0.0,0.0,nan,0.0,0.0,-0.019454956,0.0,0.0,0.0,0.0,0.0,0.0,0.0,0.0,0.0
609200667,609100271,0.012877958,0.077467866,0.013197335,0.06667614,0.38823247,0.0,0.0,0.0,0.0,0.0,0.0,0.0,0.0,0.1295929,0.0,0.0,nan,0.0,0.0,-0.025376081,0.0,0.0,0.0,0.0,0.0,0.0,0.0,0.0,0.0
609700924,609600211,0.21560228,-0.016471341,-0.10852742,0.08076781,0.466725,0.0,0.0,0.0,0.0,0.0,0.0,0.0,0.0,-0.005569458,0.0,0.0,nan,0.0,0.0,-0.029132605,0.0,0.0,0.0,0.0,0.0,0.0,0.0,0.0,0.0
610200552,610100151,0.08924763,0.11212883,-0.008329494,0.13089693,0.49640495,0.0,0.0,0.0,0.0,0.0,0.0,0.0,0.0,0.109680176,0.0,0.0,nan,0.0,0.0,-0.020110846,0.0,0.0,0.0,0.0,0.0,0.0,0.0,0.0,0.0
610700688,610600091,0.101020604,0.118815444,-0.10032989,0.110452265,0.48457688,0.0,0.0,0.0,0.0,0.0,0.0,0.0,0.0,0.0603714,0.0,0.0,nan,0.0,0.0,-0.02142787,0.0,0.0,0.0,0.0,0.0,0.0,0.0,0.0,0.0
611200388,611100031,0.10748449,-0.021561272,-0.046789445,0.10165736,0.48932976,0.0,0.0,0.0,0.0,0.0,0.0,0.0,0.0,-0.108802795,0.0,0.0,nan,0.0,0.0,-0.019328117,0.0,0.0,0.0,0.0,0.0,0.0,0.0,0.0,0.0
611700685,611599973,0.025807073,0.041701797,-0.12827489,0.11361644,0.5181404,0.0,0.0,0.0,0.0,0.0,0.0,0.0,0.0,0.08552551,0.0,0.0,nan,0.0,0.0,-0.034314632,0.0,0.0,0.0,0.0,0.0,0.0,0.0,0.0,0.0
612200211,612099910,-0.0016812123,-0.064098075,0.08191187,0.14075997,0.51808,0.0,0.0,0.0,0.0,0.0,0.0,0.0,0.0,-0.016204834,0.0,0.0,nan,0.0,0.0,-0.013499737,0.0,0.0,0.0,0.0,0.0,0.0,0.0,0.0,0.0
612700221,612599849,0.16555177,0.18225062,0.060833607,0.11128372,0.5182852,0.0,0.0,0.0,0.0,0.0,0.0,0.0,0.0,0.061424255,0.0,0.0,nan,0.0,0.0,0.009407759,0.0,0.0,0.0,0.0,0.0,0.0,0.0,0.0,0.0
613200147,613099788,-0.2110946,0.27237362,0.20263478,0.0010624528,0.5157089,0.0,0.0,0.0,0.0,0.0,0.0,0.0,0.0,0.05580139,0.0,0.0,nan,0.0,0.0,-0.021725655,0.0,0.0,0.0,0.0,0.0,0.0,0.0,0.0,0.0
613700587,613599728,0.26735744,-0.23982215,0.12853245,0.062200308,0.5099733,0.0,0.0,0.0,0.0,0.0,0.0,0.0,0.0,0.07221222,0.0,0.0,nan,0.0,0.0,0.0031723976,0.0,0.0,0.0,0.0,0.0,0.0,0.0,0.0,0.0
614200039,614099667,0.24853644,-0.12119177,0.05426216,0.07631922,0.48567486,0.0,0.0,0.0,0.0,0.0,0.0,0.0,0.0,0.2734604,0.0,0.0,nan,0.0,0.0,0.008056164,0.0,0.0,0.0,0.0,0.0,0.0,0.0,0.0,0.0
614700343,614599606,0.06343207,0.13494037,0.021461826,0.03559214,0.4855777,0.0,0.0,0.0,0.0,0.0,0.0,0.0,0.0,-0.026527405,0.0,0.0,nan,0.0,0.0,0.015158653,0.0,0.0,0.0,0.0,0.0,0.0,0.0,0.0,0.0
615199845,615099545,0.06983516,-0.10315573,-0.15317266,0.06872487,0.44074285,0.0,0.0,0.0,0.0,0.0,0.0,0.0,0.0,-0.060424805,0.0,0.0,nan,0.0,0.0,0.019793987,0.0,0.0,0.0,0.0,0.0,0.0,0.0,0.0,0.0
615700066,615599484,-0.091727994,-0.20319334,-0.13579129,0.07915604,0.46177208,0.0,0.0,0.0,0.0,0.0,0.0,0.0,0.0,-0.007896423,0.0,0.0,nan,0.0,0.0,0.021353722,0.0,0.0,0.0,0.0,0.0,0.0,0.0,0.0,0.0
616199730,616099423,0.00082094595,-0.093614265,-0.082997285,0.12009138,0.48379242,0.0,0.0,0.0,0.0,0.0,0.0,0.0,0.0,0.13302612,0.0,0.0,nan,0.0,0.0,0.011174679,0.0,0.0,0.0,0.0,0.0,0.0,0.0,0.0,0.0
616699729,616599361,-0.005675927,-0.13167273,-0.109624416,0.13856667,0.45657897,0.0,0.0,0.0,0.0,0.0,0.0,0.0,0.0,0.018592834,0.0,0.0,nan,0.0,0.0,0.0024709702,0.0,0.0,0.0,0.0,0.0,0.0,0.0,0.0,0.0
617199662,617099300,-0.013376698,-0.05491155,0.0056971405,0.19425982,0.40001857,0.0,0.0,0.0,0.0,0.0,0.0,0.0,0.0,0.18875885,0.0,0.0,nan,0.0,0.0,-0.013794184,0.0,0.0,0.0,0.0,0.0,0.0,0.0,0.0,0.0
617699542,617599238,-0.07852043,-0.033327397,0.06805967,0.21855533,0.3515383,0.0,0.0,0.0,0.0,0.0,0.0,0.0,0.0,0.042182922,0.0,0.0,nan,0.0,0.0,-0.013833046,0.0,0.0,0.0,0.0,0.0,0.0,0.0,0.0,0.0
618199650,618099177,0.05497778,-0.07445132,-0.012505569,0.24316746,0.24180806,0.0,0.0,0.0,0.0,0.0,0.0,0.0,0.0,0.12730408,0.0,0.0,nan,0.0,0.0,-0.007626772,0.0,0.0,0.0,0.0,0.0,0.0,0.0,0.0,0.0
618699589,618599115,-0.12484293,0.07404261,0.11206314,0.24853823,0.24521208,0.0,0.0,0.0,0.0,0.0,0.0,0.0,0.0,-0.01322937,0.0,0.0,nan,0.0,0.0,-0.002510786,0.0,0.0,0.0,0.0,0.0,0.0,0.0,0.0,0.0
619199425,619099053,-0.05315623,0.013743244,0.22378929,0.13834879,0.1503439,0.0,0.0,0.0,0.0,0.0,0.0,0.0,0.0,-0.02305603,0.0,0.0,nan,0.0,0.0,-0.006175518,0.0,0.0,0.0,0.0,0.0,0.0,0.0,0.0,0.0
619699345,619598991,-0.0041427054,-0.007202346,0.07025721,0.06000799,0.06480813,0.0,0.0,0.0,0.0,0.0,0.0,0.0,0.0,-0.047431946,0.0,0.0,nan,0.0,0.0,-0.0067653656,0.0,0.0,0.0,0.0,0.0,0.0,0.0,0.0,0.0
620199229,620098929,0.019193696,-0.17725854,-0.069614485,0.0076695085,-0.028654218,0.0,0.0,0.0,0.0,0.0,0.0,0.0,0.0,0.01158905,0.0,0.0,nan,0.0,0.0,0.0260458,0.0,0.0,0.0,0.0,0.0,0.0,0.0,0.0,0.0
620699360,620598867,0.032647446,0.051456537,-0.02532687,0.037912846,-0.075632095,0.0,0.0,0.0,0.0,0.0,0.0,0.0,0.0,-0.05596161,0.0,0.0,nan,0.0,0.0,0.030474424,0.0,0.0,0.0,0.0,0.0,0.0,0.0,0.0,0.0
621199105,621098805,0.009189218,-0.0784551,0.099727154,0.15219727,-0.179595,0.0,0.0,0.0,0.0,0.0,0.0,0.0,0.0,0.12439728,0.0,0.0,nan,0.0,0.0,0.027433634,0.0,0.0,0.0,0.0,0.0,0.0,0.0,0.0,0.0
621699355,621598743,-0.19244114,0.17879553,0.18275453,0.12998536,-0.14580703,0.0,0.0,0.0,0.0,0.0,0.0,0.0,0.0,0.20409393,0.0,0.0,nan,0.0,0.0,0.021936893,0.0,0.0,0.0,0.0,0.0,0.0,0.0,0.0,0.0
622199090,622098680,-0.022666404,-0.07290497,0.0068721436,0.108406454,-0.13148487,0.0,0.0,0.0,0.0,0.0,0.0,0.0,0.0,0.016494751,0.0,0.0,nan,0.0,0.0,0.027700663,0.0,0.0,0.0,0.0,0.0,0.0,0.0,0.0,0.0
622699417,622598618,-0.2542354,0.31757826,0.091885716,0.056805998,-0.06939268,0.0,0.0,0.0,0.0,0.0,0.0,0.0,0.0,0.19103241,0.0,0.0,nan,0.0,0.0,0.022224665,0.0,0.0,0.0,0.0,0.0,0.0,0.0,0.0,0.0
623198996,623098555,-0.14353785,0.09878029,0.053846825,0.073765814,0.00440681,0.0,0.0,0.0,0.0,0.0,0.0,0.0,0.0,-0.03264618,0.0,0.0,nan,0.0,0.0,0.034604788,0.0,0.0,0.0,0.0,0.0,0.0,0.0,0.0,0.0
623698793,623598492,0.08028241,0.28422946,0.050170448,0.12048137,0.11897409,0.0,0.0,0.0,0.0,0.0,0.0,0.0,0.0,-0.07662964,0.0,0.0,nan,0.0,0.0,0.035746574,0.0,0.0,0.0,0.0,0.0,0.0,0.0,0.0,0.0
624198755,624098429,-0.09005837,0.0053625777,-0.000294014,0.07481569,0.1346159,0.0,0.0,0.0,0.0,0.0,0.0,0.0,0.0,0.050376892,0.0,0.0,nan,0.0,0.0,0.028250694,0.0,0.0,0.0,0.0,0.0,0.0,0.0,0.0,0.0
624698761,624598366,0.020759124,0.15088286,0.100536846,0.07320213,0.16109526,0.0,0.0,0.0,0.0,0.0,0.0,0.0,0.0,-0.025665283,0.0,0.0,nan,0.0,0.0,0.020787716,0.0,0.0,0.0,0.0,0.0,0.0,0.0,0.0,0.0
625198633,625098303,-0.09810645,-0.17968535,-0.07750374,-0.00092819333,0.14988983,0.0,0.0,0.0,0.0,0.0,0.0,0.0,0.0,-0.0603714,0.0,0.0,nan,0.0,0.0,0.029919147,0.0,0.0,0.0,0.0,0.0,0.0,0.0,0.0,0.0
625698621,625598239,-0.0060742106,0.070977114,-0.13227066,0.08550343,0.17051554,0.0,0.0,0.0,0.0,0.0,0.0,0.0,0.0,0.08896637,0.0,0.0,nan,0.0,0.0,0.026092768,0.0,0.0,0.0,0.0,0.0,0.0,0.0,0.0,0.0
626198502,626098176,0.20720074,-0.09269333,-0.064631544,0.11023089,0.1268152,0.0,0.0,0.0,0.0,0.0,0.0,0.0,0.0,0.023849487,0.0,0.0,nan,0.0,0.0,0.02622819,0.0,0.0,0.0,0.0,0.0,0.0,0.0,0.0,0.0
626698413,626598113,0.04835368,0.17861256,-0.082355656,0.082910225,0.17983317,0.0,0.0,0.0,0.0,0.0,0.0,0.0,0.0,0.061294556,0.0,0.0,nan,0.0,0.0,0.025395393,0.0,0.0,0.0,0.0,0.0,0.0,0.0,0.0,0.0
627198572,627098049,-0.12122023,0.16877319,0.07112985,-0.019420356,0.2231754,0.0,0.0,0.0,0.0,0.0,0.0,0.0,0.0,-0.031059265,0.0,0.0,nan,0.0,0.0,0.017483234,0.0,0.0,0.0,0.0,0.0,0.0,0.0,0.0,0.0
627698400,627597985,-0.20490326,0.32600534,0.11222765,-0.016212761,0.23481083,0.0,0.0,0.0,0.0,0.0,0.0,0.0,0.0,0.0210495,0.0,0.0,nan,0.0,0.0,0.016821861,0.0,0.0,0.0,0.0,0.0,0.0,0.0,0.0,0.0
628198285,628097922,-0.12167751,0.22674572,-0.087811254,-0.031468183,0.28299677,0.0,0.0,0.0,0.0,0.0,0.0,0.0,0.0,-0.006706238,0.0,0.0,nan,0.0,0.0,0.04198432,0.0,0.0,0.0,0.0,0.0,0.0,0.0,0.0,0.0
628698457,628597858,0.004149884,0.21891478,-0.0238861,-0.0173347,0.33789384,0.0,0.0,0.0,0.0,0.0,0.0,0.0,0.0,-0.13630676,0.0,0.0,nan,0.0,0.0,0.03366041,0.0,0.0,0.0,0.0,0.0,0.0,0.0,0.0,0.0
629198108,629097794,0.11648954,0.2071222,-0.12342929,-0.0031319857,0.34080458,0.0,0.0,0.0,0.0,0.0,0.0,0.0,0.0,0.21255493,0.0,0.0,nan,0.0,0.0,0.016873121,0.0,0.0,0.0,0.0,0.0,0.0,0.0,0.0,0.0
629698107,629597730,0.10532011,-0.032014236,-0.11214198,0.07985833,0.30481732,0.0,0.0,0.0,0.0,0.0,0.0,0.0,0.0,0.07067871,0.0,0.0,nan,0.0,0.0,0.028663874,0.0,0.0,0.0,0.0,0.0,0.0,0.0,0.0,0.0
630198001,630097666,0.20264989,0.0058763027,0.046113186,0.26134318,0.23358858,0.0,0.0,0.0,0.0,0.0,0.0,0.0,0.0,-0.12594604,0.0,0.0,nan,0.0,0.0,0.037980318,0.0,0.0,0.0,0.0,0.0,0.0,0.0,0.0,0.0
630698014,630597604,0.17687681,-0.060566634,0.10169931,0.35784143,0.21631968,0.0,0.0,0.0,0.0,0.0,0.0,0.0,0.0,-0.124824524,0.0,0.0,nan,0.0,0.0,0.026200771,0.0,0.0,0.0,0.0,0.0,0.0,0.0,0.0,0.0
631197839,631097537,0.2556863,-0.28518605,0.15711343,0.38031718,0.1785307,0.0,0.0,0.0,0.0,0.0,0.0,0.0,0.0,0.08434296,0.0,0.0,nan,0.0,0.0,0.023541689,0.0,0.0,0.0,0.0,0.0,0.0,0.0,0.0,0.0
631707827,631607473,0.21360391,0.016728282,0.14711758,0.492706,0.21599162,0.0,0.0,0.0,0.0,0.0,0.0,0.0,0.0,-0.22169495,0.0,0.0,nan,0.0,0.0,0.03448367,0.0,0.0,0.0,0.0,0.0,0.0,0.0,0.0,0.0
632197844,632097407,-0.10766513,0.2536095,0.24433543,0.43754458,0.25682652,0.0,0.0,0.0,0.0,0.0,0.0,0.0,0.0,0.14730835,0.0,0.0,nan,0.0,0.0,0.036924124,0.0,0.0,0.0,0.0,0.0,0.0,0.0,0.0,0.0
632698004,632597343,0.086615406,0.18502961,0.101071395,0.40939188,0.34622288,0.0,0.0,0.0,0.0,0.0,0.0,0.0,0.0,-0.0639267,0.0,0.0,nan,0.0,0.0,0.039054155,0.0,0.0,0.0,0.0,0.0,0.0,0.0,0.0,0.0
633197580,633097278,-0.10221957,-0.06549604,0.084251404,0.3404917,0.33136845,0.0,0.0,0.0,0.0,0.0,0.0,0.0,0.0,-0.16616821,0.0,0.0,nan,0.0,0.0,0.037827015,0.0,0.0,0.0,0.0,0.0,0.0,0.0,0.0,0.0
633697600,633597213,-0.19787876,0.2687104,-0.0542922,0.27320555,0.36939788,0.0,0.0,0.0,0.0,0.0,0.0,0.0,0.0,-0.09246826,0.0,0.0,nan,0.0,0.0,0.033393145,0.0,0.0,0.0,0.0,0.0,0.0,0.0,0.0,0.0
634197565,634097148,-0.055067226,0.14822185,0.14963438,0.35520142,0.43642557,0.0,0.0,0.0,0.0,0.0,0.0,0.0,0.0,-0.22296143,0.0,0.0,nan,0.0,0.0,0.03922105,0.0,0.0,0.0,0.0,0.0,0.0,0.0,0.0,0.0
634697385,634597083,0.037687033,0.009698771,-0.076991096,0.3862013,0.41019988,0.0,0.0,0.0,0.0,0.0,0.0,0.0,0.0,0.09505463,0.0,0.0,nan,0.0,0.0,0.05744958,0.0,0.0,0.0,0.0,0.0,0.0,0.0,0.0,0.0
635207330,635107016,-0.10405967,0.111863956,0.09091294,0.43751222,0.3987354,0.0,0.0,0.0,0.0,0.0,0.0,0.0,0.0,-0.0746994,0.0,0.0,nan,0.0,0.0,0.033222675,0.0,0.0,0.0,0.0,0.0,0.0,0.0,0.0,0.0
635697251,635596952,0.14661317,-0.050194938,0.21130951,0.49977818,0.34974325,0.0,0.0,0.0,0.0,0.0,0.0,0.0,0.0,-0.013771057,0.0,0.0,nan,0.0,0.0,0.035489082,0.0,0.0,0.0,0.0,0.0,0.0,0.0,0.0,0.0
636197356,636096886,0.041561913,-0.29660702,-0.049098298,0.5192025,0.26689827,0.0,0.0,0.0,0.0,0.0,0.0,0.0,0.0,-0.10485077,0.0,0.0,nan,0.0,0.0,0.04073572,0.0,0.0,0.0,0.0,0.0,0.0,0.0,0.0,0.0
636697206,636596821,-0.16986465,0.14699267,0.16464785,0.50714874,0.22973657,0.0,0.0,0.0,0.0,0.0,0.0,0.0,0.0,-0.1303482,0.0,0.0,nan,0.0,0.0,0.036610365,0.0,0.0,0.0,0.0,0.0,0.0,0.0,0.0,0.0
637197112,637096755,-0.28138486,0.16947073,0.088823475,0.42184287,0.23276949,0.0,0.0,0.0,0.0,0.0,0.0,0.0,0.0,-0.027130127,0.0,0.0,nan,0.0,0.0,0.032930136,0.0,0.0,0.0,0.0,0.0,0.0,0.0,0.0,0.0
637697022,637596689,-0.10476058,-0.0858244,0.07561551,0.41184747,0.21110189,0.0,0.0,0.0,0.0,0.0,0.0,0.0,0.0,-0.077941895,0.0,0.0,nan,0.0,0.0,0.03641653,0.0,0.0,0.0,0.0,0.0,0.0,0.0,0.0,0.0
638206982,638106622,0.08266739,-0.019387018,-0.02652203,0.3573045,0.20020604,0.0,0.0,0.0,0.0,0.0,0.0,0.0,0.0,-0.28660583,0.0,0.0,nan,0.0,0.0,0.044329405,0.0,0.0,0.0,0.0,0.0,0.0,0.0,0.0,0.0
638706879,638606556,-0.07232155,0.12271955,-0.09336045,0.38672882,0.16739845,0.0,0.0,0.0,0.0,0.0,0.0,0.0,0.0,-0.22148895,0.0,0.0,nan,0.0,0.0,0.03347826,0.0,0.0,0.0,0.0,0.0,0.0,0.0,0.0,0.0
639196795,639096491,-0.0299567,-0.04755273,-0.17150526,0.3238411,0.13283765,0.0,0.0,0.0,0.0,0.0,0.0,0.0,0.0,0.095954895,0.0,0.0,nan,0.0,0.0,0.038595915,0.0,0.0,0.0,0.0,0.0,0.0,0.0,0.0,0.0
639697140,639596425,-0.1617011,-0.06068079,-0.11872425,0.31291467,0.07194543,0.0,0.0,0.0,0.0,0.0,0.0,0.0,0.0,0.10610962,0.0,0.0,nan,0.0,0.0,0.043195486,0.0,0.0,0.0,0.0,0.0,0.0,0.0,0.0,0.0
640196789,640096358,0.054353133,0.14446083,0.009947127,0.34088725,0.100595236,0.0,0.0,0.0,0.0,0.0,0.0,0.0,0.0,0.26167297,0.0,0.0,nan,0.0,0.0,0.04498315,0.0,0.0,0.0,0.0,0.0,0.0,0.0,0.0,0.0
640697032,640596292,0.052986223,-0.115641534,-0.060834512,0.33186805,0.09496164,0.0,0.0,0.0,0.0,0.0,0.0,0.0,0.0,0.09208679,0.0,0.0,nan,0.0,0.0,0.051923275,0.0,0.0,0.0,0.0,0.0,0.0,0.0,0.0,0.0
641206625,641106227,0.08907659,0.0823467,-0.04841061,0.3316319,0.04460609,0.0,0.0,0.0,0.0,0.0,0.0,0.0,0.0,0.21765137,0.0,0.0,nan,0.0,0.0,0.047883034,0.0,0.0,0.0,0.0,0.0,0.0,0.0,0.0,0.0
641706913,641606157,0.06310193,0.13345516,0.027542252,0.26667678,-0.0058203936,0.0,0.0,0.0,0.0,0.0,0.0,0.0,0.0,0.07635498,0.0,0.0,nan,0.0,0.0,0.0411489,0.0,0.0,0.0,0.0,0.0,0.0,0.0,0.0,0.0
642206403,642106090,0.082277015,-0.057016514,0.01885914,0.20023471,-0.03016007,0.0,0.0,0.0,0.0,0.0,0.0,0.0,0.0,0.25130463,0.0,0.0,nan,0.0,0.0,0.025604248,0.0,0.0,0.0,0.0,0.0,0.0,0.0,0.0,0.0
642696374,642596024,0.35386586,-0.056325234,0.06341036,0.19220948,-0.052948713,0.0,0.0,0.0,0.0,0.0,0.0,0.0,0.0,0.04777527,0.0,0.0,nan,0.0,0.0,0.034359217,0.0,0.0,0.0,0.0,0.0,0.0,0.0,0.0,0.0
643196265,643095957,0.075025715,0.13394529,0.05582618,0.058162928,-0.07011497,0.0,0.0,0.0,0.0,0.0,0.0,0.0,0.0,-0.03565979,0.0,0.0,nan,0.0,0.0,0.03862405,0.0,0.0,0.0,0.0,0.0,0.0,0.0,0.0,0.0
643696499,643595890,0.04338978,0.17064066,0.06530437,0.020964026,-0.0039116144,0.0,0.0,0.0,0.0,0.0,0.0,0.0,0.0,0.031684875,0.0,0.0,nan,0.0,0.0,0.032402754,0.0,0.0,0.0,0.0,0.0,0.0,0.0,0.0,0.0
644206133,644105822,0.009162948,0.2068148,0.04870418,-0.007018745,0.063269615,0.0,0.0,0.0,0.0,0.0,0.0,0.0,0.0,-0.031028748,0.0,0.0,nan,0.0,0.0,0.032117844,0.0,0.0,0.0,0.0,0.0,0.0,0.0,0.0,0.0
644706436,644605754,0.100229815,0.029143263,0.043756988,-0.10977268,0.085653424,0.0,0.0,0.0,0.0,0.0,0.0,0.0,0.0,-0.11959076,0.0,0.0,nan,0.0,0.0,0.03325057,0.0,0.0,0.0,0.0,0.0,0.0,0.0,0.0,0.0
645206067,645105686,-0.02666784,0.121093586,-0.0037333837,-0.24634361,0.037905574,0.0,0.0,0.0,0.0,0.0,0.0,0.0,0.0,0.02178955,0.0,0.0,nan,0.0,0.0,0.035084963,0.0,0.0,0.0,0.0,0.0,0.0,0.0,0.0,0.0
645706111,645605619,0.009587899,0.08198957,-0.12476561,-0.3729909,0.015710235,0.0,0.0,0.0,0.0,0.0,0.0,0.0,0.0,0.028167725,0.0,0.0,nan,0.0,0.0,0.041621447,0.0,0.0,0.0,0.0,0.0,0.0,0.0,0.0,0.0
646195886,646095553,0.17548299,-0.027410459,0.12022274,-0.411581,-0.02189529,0.0,0.0,0.0,0.0,0.0,0.0,0.0,0.0,-0.08090973,0.0,0.0,nan,0.0,0.0,0.044401407,0.0,0.0,0.0,0.0,0.0,0.0,0.0,0.0,0.0
646695851,646595485,0.047734383,0.15575044,-0.05145314,-0.5012804,-0.023554444,0.0,0.0,0.0,0.0,0.0,0.0,0.0,0.0,-0.09686279,0.0,0.0,nan,0.0,0.0,0.041209936,0.0,0.0,0.0,0.0,0.0,0.0,0.0,0.0,0.0
647205723,647105415,0.07432153,-0.024769172,0.029297924,-0.47858268,-0.07625759,0.0,0.0,0.0,0.0,0.0,0.0,0.0,0.0,-0.35401917,0.0,0.0,nan,0.0,0.0,0.04492235,0.0,0.0,0.0,0.0,0.0,0.0,0.0,0.0,0.0
647705968,647605347,0.08118342,0.0047263373,-0.030827582,-0.5035033,-0.10342276,0.0,0.0,0.0,0.0,0.0,0.0,0.0,0.0,-0.006591797,0.0,0.0,nan,0.0,0.0,0.046434402,0.0,0.0,0.0,0.0,0.0,0.0,0.0,0.0,0.0
648205645,648105279,0.07633818,-0.068424664,0.010606535,-0.4273858,-0.12998724,0.0,0.0,0.0,0.0,0.0,0.0,0.0,0.0,-0.10809326,0.0,0.0,nan,0.0,0.0,0.036528826,0.0,0.0,0.0,0.0,0.0,0.0,0.0,0.0,0.0
648705866,648605210,0.088215895,0.07593694,-0.045632884,-0.3774889,-0.15708995,0.0,0.0,0.0,0.0,0.0,0.0,0.0,0.0,-0.0026016235,0.0,0.0,nan,0.0,0.0,0.034696102,0.0,0.0,0.0,0.0,0.0,0.0,0.0,0.0,0.0
649205559,649105142,0.06984637,-0.06286273,0.030849231,-0.39215714,-0.19854963,0.0,0.0,0.0,0.0,0.0,0.0,0.0,0.0,0.005004883,0.0,0.0,nan,0.0,0.0,0.04470086,0.0,0.0,0.0,0.0,0.0,0.0,0.0,0.0,0.0
649695440,649595075,-0.01440011,0.06566124,-0.10678808,-0.43653548,-0.22279644,0.0,0.0,0.0,0.0,0.0,0.0,0.0,0.0,0.060195923,0.0,0.0,nan,0.0,0.0,0.04260516,0.0,0.0,0.0,0.0,0.0,0.0,0.0,0.0,0.0
650195503,650095006,0.12369557,-0.0753678,0.12304413,-0.48438704,-0.26174152,0.0,0.0,0.0,0.0,0.0,0.0,0.0,0.0,-0.29174805,0.0,0.0,nan,0.0,0.0,0.027440786,0.0,0.0,0.0,0.0,0.0,0.0,0.0,0.0,0.0
650705624,650604936,-0.011216506,0.072627984,-0.035741463,-0.5424632,-0.21402895,0.0,0.0,0.0,0.0,0.0,0.0,0.0,0.0,0.1632309,0.0,0.0,nan,0.0,0.0,0.03546858,0.0,0.0,0.0,0.0,0.0,0.0,0.0,0.0,0.0
651205165,651104867,0.05955064,0.0029425109,0.0032675453,-0.50806904,-0.22007895,0.0,0.0,0.0,0.0,0.0,0.0,0.0,0.0,0.069755554,0.0,0.0,nan,0.0,0.0,0.032943726,0.0,0.0,0.0,0.0,0.0,0.0,0.0,0.0,0.0
651695241,651594799,0.024362624,0.024501024,0.02835018,-0.48335007,-0.22221196,0.0,0.0,0.0,0.0,0.0,0.0,0.0,0.0,0.11437988,0.0,0.0,nan,0.0,0.0,0.031727314,0.0,0.0,0.0,0.0,0.0,0.0,0.0,0.0,0.0
652205027,652104729,-0.007986642,-0.0015616342,0.028000357,-0.4978851,-0.21264362,0.0,0.0,0.0,0.0,0.0,0.0,0.0,0.0,-0.05189514,0.0,0.0,nan,0.0,0.0,0.03716016,0.0,0.0,0.0,0.0,0.0,0.0,0.0,0.0,0.0
652704959,652604659,0.24664243,-0.10207405,0.012420944,-0.4090145,-0.26520288,0.0,0.0,0.0,0.0,0.0,0.0,0.0,0.0,0.038520813,0.0,0.0,nan,0.0,0.0,0.0370214,0.0,0.0,0.0,0.0,0.0,0.0,0.0,0.0,0.0
653205048,653104590,-0.073224425,0.044459328,-0.09443684,-0.3645718,-0.28428733,0.0,0.0,0.0,0.0,0.0,0.0,0.0,0.0,0.017295837,0.0,0.0,nan,0.0,0.0,0.0239892,0.0,0.0,0.0,0.0,0.0,0.0,0.0,0.0,0.0
653704841,653604521,0.026041066,0.008953188,-0.07575335,-0.31848252,-0.28418672,0.0,0.0,0.0,0.0,0.0,0.0,0.0,0.0,0.08692932,0.0,0.0,nan,0.0,0.0,0.036218405,0.0,0.0,0.0,0.0,0.0,0.0,0.0,0.0,0.0
654204791,654104451,-0.03744379,0.00147531,-0.022126526,-0.25366628,-0.26907194,0.0,0.0,0.0,0.0,0.0,0.0,0.0,0.0,0.03907013,0.0,0.0,nan,0.0,0.0,0.02832532,0.0,0.0,0.0,0.0,0.0,0.0,0.0,0.0,0.0
654705121,654604381,0.035255782,0.038589954,0.0954062,-0.13839808,-0.30827403,0.0,0.0,0.0,0.0,0.0,0.0,0.0,0.0,0.12409973,0.0,0.0,nan,0.0,0.0,0.026413202,0.0,0.0,0.0,0.0,0.0,0.0,0.0,0.0,0.0
655204786,655104311,0.08302648,-0.0565817,0.012690013,-0.07736735,-0.2813145,0.0,0.0,0.0,0.0,0.0,0.0,0.0,0.0,-0.04701996,0.0,0.0,nan,0.0,0.0,0.034041405,0.0,0.0,0.0,0.0,0.0,0.0,0.0,0.0,0.0
655704600,655604241,-0.2547999,0.23218465,-0.027182568,-0.052144095,-0.25948203,0.0,0.0,0.0,0.0,0.0,0.0,0.0,0.0,-0.03665161,0.0,0.0,nan,0.0,0.0,0.028587818,0.0,0.0,0.0,0.0,0.0,0.0,0.0,0.0,0.0
656204522,656104171,0.011720588,-0.06369083,0.014375853,-0.063363805,-0.19979286,0.0,0.0,0.0,0.0,0.0,0.0,0.0,0.0,-0.11035919,0.0,0.0,nan,0.0,0.0,0.022266388,0.0,0.0,0.0,0.0,0.0,0.0,0.0,0.0,0.0
656704500,656604101,-0.031670477,0.0067112483,-0.21413924,-0.06410721,-0.17228985,0.0,0.0,0.0,0.0,0.0,0.0,0.0,0.0,0.0627594,0.0,0.0,nan,0.0,0.0,0.013216734,0.0,0.0,0.0,0.0,0.0,0.0,0.0,0.0,0.0
657204390,657104030,0.08184369,-0.12415789,0.033274412,-0.08116661,-0.19773984,0.0,0.0,0.0,0.0,0.0,0.0,0.0,0.0,0.0050201416,0.0,0.0,nan,0.0,0.0,0.02255869,0.0,0.0,0.0,0.0,0.0,0.0,0.0,0.0,0.0
657704295,657603960,-0.0068647675,-0.12787779,-0.05841008,-0.07203086,-0.213377,0.0,0.0,0.0,0.0,0.0,0.0,0.0,0.0,-0.317482,0.0,0.0,nan,0.0,0.0,0.022559881,0.0,0.0,0.0,0.0,0.0,0.0,0.0,0.0,0.0
658204237,658103889,0.14095013,-0.07152266,-0.08751157,-0.04427986,-0.24512738,0.0,0.0,0.0,0.0,0.0,0.0,0.0,0.0,0.0015411377,0.0,0.0,nan,0.0,0.0,0.018305063,0.0,0.0,0.0,0.0,0.0,0.0,0.0,0.0,0.0
658704446,658603819,0.11177325,-0.22786509,0.026543558,-0.04732302,-0.27950686,0.0,0.0,0.0,0.0,0.0,0.0,0.0,0.0,0.13230133,0.0,0.0,nan,0.0,0.0,0.02099657,0.0,0.0,0.0,0.0,0.0,0.0,0.0,0.0,0.0
659204157,659103748,-0.0117066335,0.051214267,-0.037348494,-0.06707293,-0.24436426,0.0,0.0,0.0,0.0,0.0,0.0,0.0,0.0,-0.20952606,0.0,0.0,nan,0.0,0.0,0.012560368,0.0,0.0,0.0,0.0,0.0,0.0,0.0,0.0,0.0
659704073,659603677,0.003179092,-0.11317596,-0.0841314,-0.069860876,-0.25938785,0.0,0.0,0.0,0.0,0.0,0.0,0.0,0.0,7.6293945e-05,0.0,0.0,nan,0.0,0.0,0.008016825,0.0,0.0,0.0,0.0,0.0,0.0,0.0,0.0,0.0
660203930,660103606,0.042438373,-0.017250434,0.021706268,-0.12529072,-0.25582427,0.0,0.0,0.0,0.0,0.0,0.0,0.0,0.0,0.065597534,0.0,0.0,nan,0.0,0.0,0.021013021,0.0,0.0,0.0,0.0,0.0,0.0,0.0,0.0,0.0
660704172,660603535,-0.14551483,0.02909204,-0.101910256,-0.21834841,-0.26452547,0.0,0.0,0.0,0.0,0.0,0.0,0.0,0.0,-0.2228241,0.0,0.0,nan,0.0,0.0,0.0129413605,0.0,0.0,0.0,0.0,0.0,0.0,0.0,0.0,0.0
661203829,661103465,0.20649469,-0.3208026,0.05469193,-0.18112805,-0.26724315,0.0,0.0,0.0,0.0,0.0,0.0,0.0,0.0,-0.026664734,0.0,0.0,nan,0.0,0.0,0.011338711,0.0,0.0,0.0,0.0,0.0,0.0,0.0,0.0,0.0
661703699,661603392,0.16625759,-0.14148511,-0.0061889244,-0.057157323,-0.33035782,0.0,0.0,0.0,0.0,0.0,0.0,0.0,0.0,0.1171875,0.0,0.0,nan,0.0,0.0,0.011970997,0.0,0.0,0.0,0.0,0.0,0.0,0.0,0.0,0.0
662203689,662103321,-0.06931923,0.021444898,-0.0044942377,-0.08112012,-0.3243809,0.0,0.0,0.0,0.0,0.0,0.0,0.0,0.0,0.13932037,0.0,0.0,nan,0.0,0.0,0.010079145,0.0,0.0,0.0,0.0,0.0,0.0,0.0,0.0,0.0
662703862,662603249,0.10869239,-0.1700426,0.14249587,-0.010287009,-0.3636578,0.0,0.0,0.0,0.0,0.0,0.0,0.0,0.0,-0.023117065,0.0,0.0,nan,0.0,0.0,0.009194374,0.0,0.0,0.0,0.0,0.0,0.0,0.0,0.0,0.0
663203594,663103177,0.108625874,-0.11021644,0.27991003,0.02333051,-0.39207843,0.0,0.0,0.0,0.0,0.0,0.0,0.0,0.0,0.13630676,0.0,0.0,nan,0.0,0.0,0.0049812794,0.0,0.0,0.0,0.0,0.0,0.0,0.0,0.0,0.0
663703407,663603105,-0.19034144,0.09348404,-0.06950322,0.024964806,-0.43392986,0.0,0.0,0.0,0.0,0.0,0.0,0.0,0.0,-0.00033569336,0.0,0.0,nan,0.0,0.0,0.024266005,0.0,0.0,0.0,0.0,0.0,0.0,0.0,0.0,0.0
664203404,664103034,-0.07845976,-0.010548391,-7.87694e-05,-0.035641998,-0.4118539,0.0,0.0,0.0,0.0,0.0,0.0,0.0,0.0,0.17967224,0.0,0.0,nan,0.0,0.0,0.0047135353,0.0,0.0,0.0,0.0,0.0,0.0,0.0,0.0,0.0
664703854,664602961,-0.109938696,-0.06490968,0.006054933,0.07896866,-0.4750041,0.0,0.0,0.0,0.0,0.0,0.0,0.0,0.0,-0.10827637,0.0,0.0,nan,0.0,0.0,-0.0035049915,0.0,0.0,0.0,0.0,0.0,0.0,0.0,0.0,0.0
665203190,665102889,-0.15476894,-0.00437163,0.026741087,-0.017409012,-0.4024953,0.0,0.0,0.0,0.0,0.0,0.0,0.0,0.0,0.053237915,0.0,0.0,nan,0.0,0.0,-0.0051441193,0.0,0.0,0.0,0.0,0.0,0.0,0.0,0.0,0.0
665703146,665602817,-0.39341304,0.110587046,0.011431925,-0.07165643,-0.31566754,0.0,0.0,0.0,0.0,0.0,0.0,0.0,0.0,0.061050415,0.0,0.0,nan,0.0,0.0,-0.003062725,0.0,0.0,0.0,0.0,0.0,0.0,0.0,0.0,0.0
666203042,666102744,-0.010624563,0.0024224767,0.097264394,-0.12412251,-0.21878277,0.0,0.0,0.0,0.0,0.0,0.0,0.0,0.0,-0.15940857,0.0,0.0,nan,0.0,0.0,0.010910511,0.0,0.0,0.0,0.0,0.0,0.0,0.0,0.0,0.0
666702972,666602672,0.036326356,0.013120798,0.13692266,-0.13184822,-0.1978413,0.0,0.0,0.0,0.0,0.0,0.0,0.0,0.0,0.02002716,0.0,0.0,nan,0.0,0.0,0.015116453,0.0,0.0,0.0,0.0,0.0,0.0,0.0,0.0,0.0
667203012,667102599,0.10691169,-0.106694356,-0.06408899,-0.07608984,-0.15828376,0.0,0.0,0.0,0.0,0.0,0.0,0.0,0.0,-0.114112854,0.0,0.0,nan,0.0,0.0,0.012357712,0.0,0.0,0.0,0.0,0.0,0.0,0.0,0.0,0.0
667702842,667602526,-0.20813015,0.08416446,-0.12004809,-0.10190539,-0.11244284,0.0,0.0,0.0,0.0,0.0,0.0,0.0,0.0,0.117385864,0.0,0.0,nan,0.0,0.0,0.01821208,0.0,0.0,0.0,0.0,0.0,0.0,0.0,0.0,0.0
668202756,668102453,0.06340477,5.196035e-05,0.039330952,-0.10855633,-0.09523263,0.0,0.0,0.0,0.0,0.0,0.0,0.0,0.0,-0.09591675,0.0,0.0,nan,0.0,0.0,0.013551235,0.0,0.0,0.0,0.0,0.0,0.0,0.0,0.0,0.0
668702809,668602380,-0.16351469,0.09734699,-0.071310416,-0.15133967,-0.071982875,0.0,0.0,0.0,0.0,0.0,0.0,0.0,0.0,-0.124679565,0.0,0.0,nan,0.0,0.0,0.011440992,0.0,0.0,0.0,0.0,0.0,0.0,0.0,0.0,0.0
669202625,669102306,-0.09093769,-0.01889625,-0.02858178,-0.17172514,-0.04376483,0.0,0.0,0.0,0.0,0.0,0.0,0.0,0.0,-0.15828705,0.0,0.0,nan,0.0,0.0,0.009521008,0.0,0.0,0.0,0.0,0.0,0.0,0.0,0.0,0.0
669702899,669602233,0.05932409,-0.08930186,-0.011571931,-0.17049107,-0.047965646,0.0,0.0,0.0,0.0,0.0,0.0,0.0,0.0,0.15758514,0.0,0.0,nan,0.0,0.0,0.011784315,0.0,0.0,0.0,0.0,0.0,0.0,0.0,0.0,0.0
670202465,670102159,0.06792029,-0.11183425,0.12525079,-0.179929,-0.044087216,0.0,0.0,0.0,0.0,0.0,0.0,0.0,0.0,0.13745117,0.0,0.0,nan,0.0,0.0,0.028458595,0.0,0.0,0.0,0.0,0.0,0.0,0.0,0.0,0.0
670702446,670602085,0.14362232,-0.13901374,0.0700552,-0.17928636,-0.04561867,0.0,0.0,0.0,0.0,0.0,0.0,0.0,0.0,0.049186707,0.0,0.0,nan,0.0,0.0,0.01046443,0.0,0.0,0.0,0.0,0.0,0.0,0.0,0.0,0.0
671202431,671102012,-0.0007605031,0.0006719474,-0.03586009,-0.20809928,0.041344896,0.0,0.0,0.0,0.0,0.0,0.0,0.0,0.0,0.13822174,0.0,0.0,nan,0.0,0.0,0.013199091,0.0,0.0,0.0,0.0,0.0,0.0,0.0,0.0,0.0
671702246,671601938,0.081427634,-0.018574346,0.072846115,-0.18895589,0.07118374,0.0,0.0,0.0,0.0,0.0,0.0,0.0,0.0,-0.023887634,0.0,0.0,nan,0.0,0.0,0.0143351555,0.0,0.0,0.0,0.0,0.0,0.0,0.0,0.0,0.0
672202170,672101864,0.15233819,-0.013318075,-0.037998505,-0.12297723,0.100021765,0.0,0.0,0.0,0.0,0.0,0.0,0.0,0.0,-0.013542175,0.0,0.0,nan,0.0,0.0,0.005470276,0.0,0.0,0.0,0.0,0.0,0.0,0.0,0.0,0.0
672702169,672601789,0.1497645,-0.115764126,0.059419543,-0.085150756,0.12039176,0.0,0.0,0.0,0.0,0.0,0.0,0.0,0.0,-0.018493652,0.0,0.0,nan,0.0,0.0,0.021225214,0.0,0.0,0.0,0.0,0.0,0.0,0.0,0.0,0.0
673202171,673101715,-0.033625208,0.03518033,0.07669548,-0.0983403,0.14800493,0.0,0.0,0.0,0.0,0.0,0.0,0.0,0.0,0.025138855,0.0,0.0,nan,0.0,0.0,0.022490978,0.0,0.0,0.0,0.0,0.0,0.0,0.0,0.0,0.0
673701959,673601640,0.097690776,-0.08996944,0.10959939,-0.096453235,0.1199411,0.0,0.0,0.0,0.0,0.0,0.0,0.0,0.0,-0.21194458,0.0,0.0,nan,0.0,0.0,0.014644384,0.0,0.0,0.0,0.0,0.0,0.0,0.0,0.0,0.0
674201876,674101566,-0.0002915468,-0.04082153,0.0453082,-0.118878976,0.15887648,0.0,0.0,0.0,0.0,0.0,0.0,0.0,0.0,0.038467407,0.0,0.0,nan,0.0,0.0,0.013822794,0.0,0.0,0.0,0.0,0.0,0.0,0.0,0.0,0.0
674701853,674601491,0.11619204,-0.08268057,0.10800179,-0.15651076,0.1616044,0.0,0.0,0.0,0.0,0.0,0.0,0.0,0.0,-0.05757904,0.0,0.0,nan,0.0,0.0,0.025321245,0.0,0.0,0.0,0.0,0.0,0.0,0.0,0.0,0.0
675201721,675101416,-0.02444526,0.014351562,0.03738568,-0.24394313,0.19829863,0.0,0.0,0.0,0.0,0.0,0.0,0.0,0.0,0.07256317,0.0,0.0,nan,0.0,0.0,0.01626277,0.0,0.0,0.0,0.0,0.0,0.0,0.0,0.0,0.0
675701649,675601341,-0.003952898,-0.06229378,0.00601368,-0.3400544,0.22669563,0.0,0.0,0.0,0.0,0.0,0.0,0.0,0.0,0.026290894,0.0,0.0,nan,0.0,0.0,0.010176897,0.0,0.0,0.0,0.0,0.0,0.0,0.0,0.0,0.0
676201564,676101266,-0.21088165,0.08848902,-0.07547539,-0.5086013,0.36227614,0.0,0.0,0.0,0.0,0.0,0.0,0.0,0.0,0.11375427,0.0,0.0,nan,0.0,0.0,0.013778925,0.0,0.0,0.0,0.0,0.0,0.0,0.0,0.0,0.0
676701551,676601190,0.18194395,-0.31092638,-0.14680766,-0.5500982,0.37448293,0.0,0.0,0.0,0.0,0.0,0.0,0.0,0.0,0.03955841,0.0,0.0,nan,0.0,0.0,0.024591446,0.0,0.0,0.0,0.0,0.0,0.0,0.0,0.0,0.0
677201417,677101115,0.14281891,-0.13891093,0.11864761,-0.66038096,0.41491607,0.0,0.0,0.0,0.0,0.0,0.0,0.0,0.0,0.087501526,0.0,0.0,nan,0.0,0.0,0.01053834,0.0,0.0,0.0,0.0,0.0,0.0,0.0,0.0,0.0
677701543,677601040,0.12866706,-0.07301442,0.031770553,-0.67289,0.4362973,0.0,0.0,0.0,0.0,0.0,0.0,0.0,0.0,0.07266235,0.0,0.0,nan,0.0,0.0,0.008897305,0.0,0.0,0.0,0.0,0.0,0.0,0.0,0.0,0.0
678201345,678100964,-0.14635795,0.06450242,0.0025687837,-0.7456768,0.50878936,0.0,0.0,0.0,0.0,0.0,0.0,0.0,0.0,-0.0099487305,0.0,0.0,nan,0.0,0.0,0.009257793,0.0,0.0,0.0,0.0,0.0,0.0,0.0,0.0,0.0
678701241,678600888,0.03100676,-0.052605532,0.03960044,-0.62222487,0.45549035,0.0,0.0,0.0,0.0,0.0,0.0,0.0,0.0,0.05328369,0.0,0.0,nan,0.0,0.0,0.007022381,0.0,0.0,0.0,0.0,0.0,0.0,0.0,0.0,0.0
679201112,679100812,0.03907308,-0.118924364,-0.0038492226,-0.6053244,0.38162816,0.0,0.0,0.0,0.0,0.0,0.0,0.0,0.0,-0.04120636,0.0,0.0,nan,0.0,0.0,0.0016622543,0.0,0.0,0.0,0.0,0.0,0.0,0.0,0.0,0.0
679701039,679600736,-0.027564898,0.040828165,-0.087602824,-0.6591157,0.38806105,0.0,0.0,0.0,0.0,0.0,0.0,0.0,0.0,0.098854065,0.0,0.0,nan,0.0,0.0,0.01157856,0.0,0.0,0.0,0.0,0.0,0.0,0.0,0.0,0.0
680201011,680100660,0.08230448,-0.014501747,-0.09218967,-0.6886921,0.36282974,0.0,0.0,0.0,0.0,0.0,0.0,0.0,0.0,-0.027687073,0.0,0.0,nan,0.0,0.0,0.005210638,0.0,0.0,0.0,0.0,0.0,0.0,0.0,0.0,0.0
680700900,680600583,0.01631628,-0.04419256,-0.11142473,-0.70825446,0.33894092,0.0,0.0,0.0,0.0,0.0,0.0,0.0,0.0,0.042518616,0.0,0.0,nan,0.0,0.0,0.011472225,0.0,0.0,0.0,0.0,0.0,0.0,0.0,0.0,0.0
681200825,681100507,0.14035538,-0.06785452,-0.06920927,-0.68018913,0.3310024,0.0,0.0,0.0,0.0,0.0,0.0,0.0,0.0,0.054244995,0.0,0.0,nan,0.0,0.0,0.009880781,0.0,0.0,0.0,0.0,0.0,0.0,0.0,0.0,0.0
681700730,681600430,-0.041329615,0.09652736,-0.11079942,-0.6412301,0.33362007,0.0,0.0,0.0,0.0,0.0,0.0,0.0,0.0,-0.13137054,0.0,0.0,nan,0.0,0.0,0.016265154,0.0,0.0,0.0,0.0,0.0,0.0,0.0,0.0,0.0
682200717,682100354,-0.01222343,0.112113446,-0.019660536,-0.57204664,0.3193779,0.0,0.0,0.0,0.0,0.0,0.0,0.0,0.0,0.23579407,0.0,0.0,nan,0.0,0.0,0.001554966,0.0,0.0,0.0,0.0,0.0,0.0,0.0,0.0,0.0
682700677,682600277,0.3180434,-0.1385443,0.06052088,-0.47012198,0.25630462,0.0,0.0,0.0,0.0,0.0,0.0,0.0,0.0,0.045425415,0.0,0.0,nan,0.0,0.0,0.00936532,0.0,0.0,0.0,0.0,0.0,0.0,0.0,0.0,0.0
683200502,683100199,0.15320787,-0.053804826,0.012079686,-0.4066205,0.23059726,0.0,0.0,0.0,0.0,0.0,0.0,0.0,0.0,0.12463379,0.0,0.0,nan,0.0,0.0,0.0070943832,0.0,0.0,0.0,0.0,0.0,0.0,0.0,0.0,0.0
683700447,683600122,0.041958794,0.07018162,0.124835484,-0.34529912,0.23854196,0.0,0.0,0.0,0.0,0.0,0.0,0.0,0.0,0.19163513,0.0,0.0,nan,0.0,0.0,0.006458521,0.0,0.0,0.0,0.0,0.0,0.0,0.0,0.0,0.0
684200532,684100045,0.21265963,-0.055781856,0.07064585,-0.39055073,0.2532735,0.0,0.0,0.0,0.0,0.0,0.0,0.0,0.0,0.044281006,0.0,0.0,nan,0.0,0.0,0.0167799,0.0,0.0,0.0,0.0,0.0,0.0,0.0,0.0,0.0
684700267,684599970,0.06612486,0.013581779,-0.0089027025,-0.44643366,0.24902523,0.0,0.0,0.0,0.0,0.0,0.0,0.0,0.0,0.24078369,0.0,0.0,nan,0.0,0.0,0.025407553,0.0,0.0,0.0,0.0,0.0,0.0,0.0,0.0,0.0
685200224,685099890,0.11212683,0.06841271,-0.06058272,-0.42541623,0.24717295,0.0,0.0,0.0,0.0,0.0,0.0,0.0,0.0,-0.058799744,0.0,0.0,nan,0.0,0.0,0.0044898987,0.0,0.0,0.0,0.0,0.0,0.0,0.0,0.0,0.0
685700215,685599813,-0.02119667,0.082976036,-0.07922771,-0.41490293,0.21497059,0.0,0.0,0.0,0.0,0.0,0.0,0.0,0.0,-0.10051727,0.0,0.0,nan,0.0,0.0,0.016005278,0.0,0.0,0.0,0.0,0.0,0.0,0.0,0.0,0.0
686200048,686099735,0.08084008,-0.09802938,0.069864534,-0.3850999,0.19697618,0.0,0.0,0.0,0.0,0.0,0.0,0.0,0.0,0.092414856,0.0,0.0,nan,0.0,0.0,0.00784874,0.0,0.0,0.0,0.0,0.0,0.0,0.0,0.0,0.0
686700022,686599657,0.25074545,-0.076454476,0.22934085,-0.3858664,0.20791435,0.0,0.0,0.0,0.0,0.0,0.0,0.0,0.0,0.08469391,0.0,0.0,nan,0.0,0.0,0.0040638447,0.0,0.0,0.0,0.0,0.0,0.0,0.0,0.0,0.0
687200063,687099579,0.12383046,-0.12014544,-0.09483633,-0.30826807,0.1525482,0.0,0.0,0.0,0.0,0.0,0.0,0.0,0.0,-0.280365,0.0,0.0,nan,0.0,0.0,0.0074591637,0.0,0.0,0.0,0.0,0.0,0.0,0.0,0.0,0.0
687699821,687599501,-0.2856085,0.19361869,-0.16524546,-0.34151077,0.16406691,0.0,0.0,0.0,0.0,0.0,0.0,0.0,0.0,-0.18475342,0.0,0.0,nan,0.0,0.0,0.013777494,0.0,0.0,0.0,0.0,0.0,0.0,0.0,0.0,0.0
688199803,688099423,0.20337036,-0.04524711,0.09867972,-0.1493659,0.11496043,0.0,0.0,0.0,0.0,0.0,0.0,0.0,0.0,0.09832001,0.0,0.0,nan,0.0,0.0,0.0054223537,0.0,0.0,0.0,0.0,0.0,0.0,0.0,0.0,0.0
688699644,688599344,-0.123518504,0.062327474,0.024451429,-0.10451317,0.07086301,0.0,0.0,0.0,0.0,0.0,0.0,0.0,0.0,0.2398758,0.0,0.0,nan,0.0,0.0,0.0044720173,0.0,0.0,0.0,0.0,0.0,0.0,0.0,0.0,0.0
689199620,689099266,-0.012108214,-0.076709665,-0.015158482,-0.0618608,0.07412088,0.0,0.0,0.0,0.0,0.0,0.0,0.0,0.0,0.12180328,0.0,0.0,nan,0.0,0.0,0.013807297,0.0,0.0,0.0,0.0,0.0,0.0,0.0,0.0,0.0
689699490,689599187,0.22350135,-0.12750405,-0.10272585,-0.06560826,0.096751094,0.0,0.0,0.0,0.0,0.0,0.0,0.0,0.0,0.037742615,0.0,0.0,nan,0.0,0.0,0.01318264,0.0,0.0,0.0,0.0,0.0,0.0,0.0,0.0,0.0
690199470,690099109,-0.031235693,0.024646614,-0.29516813,-0.113978386,0.14543772,0.0,0.0,0.0,0.0,0.0,0.0,0.0,0.0,-0.016540527,0.0,0.0,nan,0.0,0.0,-0.00284338,0.0,0.0,0.0,0.0,0.0,0.0,0.0,0.0,0.0
690699376,690599030,-0.1759809,0.08823635,-0.12155362,-0.1830554,0.2115202,0.0,0.0,0.0,0.0,0.0,0.0,0.0,0.0,0.116874695,0.0,0.0,nan,0.0,0.0,0.0022404194,0.0,0.0,0.0,0.0,0.0,0.0,0.0,0.0,0.0
691199338,691098951,0.08196998,-0.038585644,0.06951411,-0.45165515,0.3352623,0.0,0.0,0.0,0.0,0.0,0.0,0.0,0.0,0.11392975,0.0,0.0,nan,0.0,0.0,0.007915497,0.0,0.0,0.0,0.0,0.0,0.0,0.0,0.0,0.0
691699348,691598872,0.22111663,-0.14032027,0.058476824,-0.5059109,0.34515095,0.0,0.0,0.0,0.0,0.0,0.0,0.0,0.0,0.13421631,0.0,0.0,nan,0.0,0.0,0.0009703636,0.0,0.0,0.0,0.0,0.0,0.0,0.0,0.0,0.0
692199276,692098792,-0.17617857,0.07344035,0.07377691,-0.4982233,0.3830601,0.0,0.0,0.0,0.0,0.0,0.0,0.0,0.0,-0.01234436,0.0,0.0,nan,0.0,0.0,0.006469965,0.0,0.0,0.0,0.0,0.0,0.0,0.0,0.0,0.0
692699010,692598713,0.102933615,-0.0481744,-0.049081586,-0.48461556,0.3846135,0.0,0.0,0.0,0.0,0.0,0.0,0.0,0.0,-0.008651733,0.0,0.0,nan,0.0,0.0,0.0075387955,0.0,0.0,0.0,0.0,0.0,0.0,0.0,0.0,0.0
693198974,693098634,0.26089,-0.13443233,0.07815025,-0.45711398,0.3814683,0.0,0.0,0.0,0.0,0.0,0.0,0.0,0.0,-0.012321472,0.0,0.0,nan,0.0,0.0,-0.003216505,0.0,0.0,0.0,0.0,0.0,0.0,0.0,0.0,0.0
693698886,693598554,0.16923144,-0.1278214,0.07206334,-0.4585557,0.41252482,0.0,0.0,0.0,0.0,0.0,0.0,0.0,0.0,-0.032341003,0.0,0.0,nan,0.0,0.0,0.0037798882,0.0,0.0,0.0,0.0,0.0,0.0,0.0,0.0,0.0
694198940,694098474,0.1365102,-0.040640622,0.13222145,-0.59196377,0.49012053,0.0,0.0,0.0,0.0,0.0,0.0,0.0,0.0,0.05732727,0.0,0.0,nan,0.0,0.0,0.014436722,0.0,0.0,0.0,0.0,0.0,0.0,0.0,0.0,0.0
694698695,694598394,-0.04323058,-0.05015612,0.08678716,-0.800369,0.5426595,0.0,0.0,0.0,0.0,0.0,0.0,0.0,0.0,0.0008010864,0.0,0.0,nan,0.0,0.0,0.0069174767,0.0,0.0,0.0,0.0,0.0,0.0,0.0,0.0,0.0
695198625,695098314,0.12775551,-0.12576246,0.020233216,-0.68319607,0.47682643,0.0,0.0,0.0,0.0,0.0,0.0,0.0,0.0,-0.02054596,0.0,0.0,nan,0.0,0.0,0.0052514076,0.0,0.0,0.0,0.0,0.0,0.0,0.0,0.0,0.0
695698553,695598234,0.21779677,-0.17808458,0.07894557,-0.7016456,0.46960497,0.0,0.0,0.0,0.0,0.0,0.0,0.0,0.0,0.015167236,0.0,0.0,nan,0.0,0.0,0.009801149,0.0,0.0,0.0,0.0,0.0,0.0,0.0,0.0,0.0
