timestamp,time_utc_usec,lat,lon,alt,alt_ellipsoid,s_variance_m_s,c_variance_rad,eph,epv,hdop,vdop,noise_per_ms,jamming_indicator,vel_m_s,vel_n_m_s,vel_e_m_s,vel_d_m_s,cog_rad,timestamp_time_relative,heading,heading_offset,fix_type,jamming_state,vel_ned_valid,satellites_used,selected
539692985,1683118853999771,423585830,-710872889,7702,-25451,0.56700003,0.76190007,1.983,2.0860002,0.75,1.17,82,12,0.124000005,-0.045,0.116000004,0.23,4.0069685,0,nan,0.0,3,0,1,14,0
540292622,1683118854599770,423585840,-710872901,7818,-25336,0.36100003,0.76194286,1.9620001,2.078,0.71,1.15,77,12,0.048,0.033,0.035,0.015000001,4.0069685,0,nan,0.0,3,0,1,15,0
540690612,1683118854999771,423585844,-710872907,7900,-25254,0.36600003,0.7619681,1.945,2.072,0.71,1.15,77,12,0.058000002,-0.019000001,-0.054,0.025,4.0069685,0,nan,0.0,3,0,1,15,0
541294619,1683118855599771,423585843,-710872913,7952,-25201,0.40600002,0.76201123,1.9230001,2.052,0.71,1.15,77,12,0.120000005,-0.075,-0.093,-0.030000001,4.0069685,0,nan,0.0,3,0,1,15,0
541700613,1683118855999772,423585840,-710872912,7946,-25207,0.55700004,0.762046,1.9120001,2.0340002,0.71,1.15,77,12,0.057000004,0.018000001,-0.054,0.004,4.0069685,0,nan,0.0,3,0,1,15,0
542287613,1683118856599772,423585839,-710872921,8031,-25122,0.52000004,0.76210165,1.9030001,2.023,0.71,1.15,77,12,0.279,-0.11000001,-0.256,-0.058000002,4.0069685,0,nan,0.0,3,0,1,15,0
542696614,1683118856999773,423585840,-710872924,7982,-25171,0.39800003,0.76213425,1.899,2.02,0.71,1.15,77,12,0.028,0.008,0.027,-0.026,4.0069685,0,nan,0.0,3,0,1,15,0
543310614,1683118857599772,423585836,-710872925,7944,-25209,0.47000003,0.76218337,1.8950001,2.019,0.71,1.15,77,15,0.047000002,-0.045,0.015000001,-0.032,4.0069685,0,nan,0.0,3,0,1,15,0
543697614,1683118857999774,423585836,-710872921,7834,-25319,0.388,0.7622144,1.8880001,2.0110002,0.71,1.15,77,15,0.023000002,0.021000002,0.009000001,0.0050000004,4.0069685,0,nan,0.0,3,0,1,15,0
544297636,1683118858599773,423585827,-710872916,7624,-25529,0.44400004,0.76226383,1.8730001,2.0080001,0.71,1.15,77,14,0.053000003,-0.033,0.041,0.101,4.0069685,0,nan,0.0,3,0,1,15,0
544696613,1683118858999774,423585827,-710872915,7548,-25605,0.513,0.76229835,1.876,2.0170002,0.71,1.15,77,14,0.14400001,0.141,0.032,0.014,4.0069685,0,nan,0.0,3,0,1,15,0
545295614,1683118859599774,423585827,-710872919,7470,-25683,0.42900002,0.76235527,1.891,2.043,0.71,1.15,77,14,0.097,-0.081,-0.053000003,0.113000005,4.0069685,0,nan,0.0,3,0,1,15,0
545702614,1683118859999775,423585825,-710872921,7400,-25754,0.61700004,0.76239747,1.9000001,2.0600002,0.71,1.15,77,14,0.08400001,0.026,-0.080000006,-0.009000001,4.0069685,0,nan,0.0,3,0,1,15,0
546295614,1683118860599775,423585831,-710872919,7257,-25897,0.578,0.7624532,1.9100001,2.085,0.71,1.15,77,13,0.066,-0.001,0.066,0.057000004,4.0069685,0,nan,0.0,3,0,1,15,0
546702619,1683118860999776,423585838,-710872913,7066,-26087,0.52400005,0.76249176,1.914,2.0970001,0.71,1.15,77,13,0.125,0.083000004,0.094000004,0.096,4.0069685,0,nan,0.0,3,0,1,15,0
547295614,1683118861599775,423585845,-710872907,6944,-26209,0.48100004,0.7625474,1.9250001,2.117,0.71,1.15,77,14,0.046000004,0.040000003,-0.024,0.046000004,4.0069685,0,nan,0.0,3,0,1,15,0
547700613,1683118861999777,423585848,-710872901,6793,-26360,0.54300004,0.76258725,1.9290001,2.128,0.71,1.15,77,14,0.21700001,0.216,0.026,0.11800001,4.0069685,0,nan,0.0,3,0,1,15,0
548294613,1683118862599776,423585855,-710872902,6674,-26480,0.521,0.76263976,1.9430001,2.1550002,0.71,1.15,77,10,0.27600002,0.25300002,0.11000001,0.264,4.0069685,0,nan,0.0,3,0,1,15,0
548695615,1683118862999777,423585859,-710872896,6616,-26537,0.549,0.7626813,1.9560001,2.1780002,0.71,1.15,77,10,0.040000003,-0.012,0.038000003,0.16600001,4.0069685,0,nan,0.0,3,0,1,15,0
549297613,1683118863599777,423585863,-710872900,6519,-26634,0.483,0.7627387,1.96,2.1990001,0.71,1.15,76,12,0.1,0.069000006,0.07300001,0.14400001,4.0069685,0,nan,0.0,3,0,1,15,0
549701613,1683118863999778,423585865,-710872902,6490,-26663,0.43300003,0.7627705,1.9530001,2.206,0.71,1.15,76,12,0.081,0.071,-0.039,0.072000004,4.0069685,0,nan,0.0,3,0,1,15,0
550296612,1683118864599778,423585868,-710872900,6357,-26796,0.505,0.7628209,1.9440001,2.21,0.71,1.15,76,14,0.105000004,-0.08400001,0.063,0.037,4.0069685,0,nan,0.0,3,0,1,15,0
550695613,1683118864999779,423585867,-710872902,6313,-26840,0.377,0.76285094,1.932,2.204,0.71,1.15,76,14,0.017,-0.003,-0.017,0.104,4.0069685,0,nan,0.0,3,0,1,15,0
551291614,1683118865599778,423585870,-710872908,6203,-26950,0.47900003,0.7628998,1.9150001,2.2,0.71,1.15,76,11,0.040000003,0.036000002,-0.017,0.001,4.0069685,0,nan,0.0,3,0,1,15,0
551705613,1683118865999780,423585873,-710872913,6068,-27085,0.43,0.7629304,1.9100001,2.2,0.71,1.15,76,11,0.038000003,0.028,0.025,0.089,4.0069685,0,nan,0.0,3,0,1,15,0
552297613,1683118866599779,423585877,-710872920,5823,-27330,0.467,0.76298094,1.9020001,2.197,0.71,1.15,76,15,0.164,-0.126,0.106000006,0.098000005,4.0069685,0,nan,0.0,3,0,1,15,0
552693736,1683118866999780,423585872,-710872924,5658,-27496,0.36,0.7630092,1.8920001,2.194,0.71,1.15,76,15,0.076000005,-0.064,-0.041,0.104,4.0069685,0,nan,0.0,3,0,1,15,0
553297630,1683118867599780,423585873,-710872925,5551,-27603,0.377,0.76305145,1.871,2.174,0.74,1.15,76,10,0.12900001,0.09900001,-0.083000004,0.086,4.0069685,0,nan,0.0,3,0,1,14,0
553694613,1683118867999781,423585872,-710872929,5450,-27704,0.512,0.76308215,1.858,2.158,0.74,1.15,76,10,0.11800001,0.058000002,-0.10300001,-0.014,4.0069685,0,nan,0.0,3,0,1,14,0
554288613,1683118868599780,423585865,-710872927,5428,-27725,0.43400002,0.7631279,1.8460001,2.141,0.74,1.15,76,14,0.052,0.052,0.003,0.046000004,4.0069685,0,nan,0.0,3,0,1,14,0
554692614,1683118868999782,423585861,-710872923,5426,-27727,0.41400003,0.76316094,1.838,2.1200001,0.74,1.15,76,14,0.082,0.018000001,0.080000006,-0.030000001,4.0069685,0,nan,0.0,3,0,1,14,0
555287614,1683118869599781,423585856,-710872908,5266,-27887,0.39000002,0.48984268,1.82,2.0870001,0.74,1.15,76,11,0.052,-0.031000001,-0.041,-0.022000002,2.7751052,0,nan,0.0,3,0,1,14,0
555699943,1683118869999783,423585858,-710872910,5238,-27915,0.31300002,0.4898839,1.8090001,2.0760002,0.74,1.15,76,11,0.015000001,-0.007,0.013,-0.011000001,2.7751052,0,nan,0.0,3,0,1,14,0
556312615,1683118870599782,423585864,-710872912,5175,-27978,0.42900002,0.4899624,1.7990001,2.0640001,0.74,1.15,76,12,0.066,0.058000002,-0.031000001,0.057000004,2.7751052,0,nan,0.0,3,0,1,14,0
556697613,1683118870999783,423585871,-710872911,5171,-27982,0.43100002,0.49000937,1.7980001,2.055,0.74,1.15,76,12,0.064,0.043,0.048,0.040000003,2.7751052,0,nan,0.0,3,0,1,14,0
557296615,1683118871599783,423585877,-710872911,5213,-27940,0.48400003,0.49010187,1.8050001,2.055,0.74,1.15,76,9,0.035,-0.006,-0.035,-0.060000002,2.7751052,0,nan,0.0,3,0,1,14,0
557707615,1683118871999784,423585881,-710872911,5235,-27918,0.59800005,0.4901612,1.812,2.0640001,0.71,1.15,76,9,0.104,0.078,-0.069000006,-0.012,2.7751052,0,nan,0.0,3,0,1,15,0
558302882,1683118872599783,423585884,-710872903,5192,-27961,0.43600002,0.49024117,1.8050001,2.069,0.71,1.15,76,12,0.07,0.035,0.061000004,0.078,2.7751052,0,nan,0.0,3,0,1,15,0
558696675,1683118872999785,423585879,-710872904,5258,-27895,0.48900002,0.49029386,1.8030001,2.075,0.71,1.15,76,12,0.142,-0.018000001,-0.141,0.0,2.7751052,0,nan,0.0,3,0,1,15,0
559289615,1683118873599784,423585873,-710872910,5197,-27957,0.43300003,0.49036857,1.7980001,2.082,0.71,1.15,76,12,0.062000003,0.035,0.051000003,0.014,2.7751052,0,nan,0.0,3,0,1,15,0
559700618,1683118873999786,423585873,-710872905,5149,-28004,0.47200003,0.49042177,1.8000001,2.091,0.71,1.15,76,12,0.09,0.057000004,0.069000006,0.072000004,2.7751052,0,nan,0.0,3,0,1,15,0
560295613,1683118874599785,423585871,-710872899,5124,-28029,0.48600003,0.49050245,1.8030001,2.094,0.71,1.15,81,13,0.052,0.015000001,-0.05,0.042000003,2.7751052,0,nan,0.0,3,0,1,15,0
560692621,1683118874999786,423585872,-710872897,5194,-27959,0.48400003,0.4905569,1.8090001,2.092,0.71,1.15,81,13,0.16000001,0.156,0.032,0.023000002,2.7751052,0,nan,0.0,3,0,1,15,0
561291615,1683118875599786,423585864,-710872893,5280,-27874,0.559,0.49064276,1.8160001,2.088,0.71,1.15,82,12,0.10700001,-0.060000002,0.08800001,0.026,2.7751052,0,nan,0.0,3,0,1,15,0
561695614,1683118875999787,423585865,-710872892,5222,-27931,0.42200002,0.49069354,1.8160001,2.0800002,0.71,1.15,82,12,0.082,0.008,0.081,0.108,2.7751052,0,nan,0.0,3,0,1,15,0
562294634,1683118876599786,423585861,-710872879,5225,-27929,0.60400003,0.4907721,1.8220001,2.078,0.71,1.15,82,14,0.186,-0.012,0.185,-0.016,2.7751052,0,nan,0.0,3,0,1,15,0
562695880,1683118876999788,423585859,-710872868,5207,-27947,0.441,0.49082443,1.8280001,2.085,0.71,1.15,82,14,0.023000002,0.014,-0.018000001,0.054,2.7751052,0,nan,0.0,3,0,1,15,0
563311619,1683118877599787,423585845,-710872855,5154,-27999,0.44900003,0.49090436,1.825,2.088,0.71,1.15,87,10,0.15200001,0.123,0.09,0.112,2.7751052,0,nan,0.0,3,0,1,15,0
563705786,1683118877999789,423585837,-710872849,5158,-27995,0.57600003,0.49096304,1.825,2.075,0.71,1.15,87,10,0.116000004,0.083000004,-0.081,0.009000001,2.7751052,0,nan,0.0,3,0,1,15,0
564304612,1683118878599788,423585828,-710872846,5169,-27984,0.59900004,0.4910447,1.8320001,2.061,0.71,1.15,87,12,0.23600002,0.07300001,-0.224,0.0050000004,2.7751052,0,nan,0.0,3,0,1,15,0
564700614,1683118878999789,423585825,-710872852,5217,-27937,0.573,0.49110386,1.84,2.059,0.71,1.15,87,12,0.31800002,0.17400001,-0.26500002,0.059000004,2.7751052,0,nan,0.0,3,0,1,15,0
565297612,1683118879599789,423585813,-710872851,5278,-27875,0.55600005,0.49119762,1.8590001,2.0570002,0.71,1.15,88,11,0.14400001,-0.061000004,-0.13100001,0.07700001,2.7751052,0,nan,0.0,3,0,1,15,0
565697614,1683118879999790,423585807,-710872848,5347,-27806,0.39000002,0.49124768,1.8670001,2.056,0.71,1.15,88,11,0.072000004,-0.07,-0.016,0.117000006,2.7751052,0,nan,0.0,3,0,1,15,0
566305614,1683118880599789,423585804,-710872840,5299,-27854,0.588,0.4913334,1.8820001,2.056,0.71,1.15,88,12,0.12100001,-0.024,0.11800001,0.069000006,2.7751052,0,nan,0.0,3,0,1,15,0
566700614,1683118880999791,423585804,-710872830,5243,-27910,0.56,0.49139324,1.8930001,2.058,0.71,1.15,88,12,0.36800003,0.194,0.31300002,0.049000002,2.7751052,0,nan,0.0,3,0,1,15,0
567293614,1683118881599790,423585805,-710872812,5145,-28008,0.555,0.49148244,1.9130001,2.0730002,0.71,1.15,88,12,0.15200001,0.078,0.13100001,0.109000005,2.7751052,0,nan,0.0,3,0,1,15,0
567697616,1683118881999791,423585806,-710872795,5130,-28024,0.61,0.4915517,1.9280001,2.085,0.71,1.15,88,12,0.67300004,0.33400002,0.58400005,0.11800001,2.7751052,0,nan,0.0,3,0,1,15,0
568284612,1683118882599791,423585800,-710872779,5097,-28057,0.531,0.49164143,1.9540001,2.1060002,0.75,1.1899999,88,13,0.078,-0.062000003,0.047000002,0.108,2.7751052,0,nan,0.0,3,0,1,14,0
568690789,1683118882999792,423585797,-710872781,4938,-28215,0.614,0.7284824,1.9740001,2.121,0.75,1.1899999,88,13,0.933,-0.21000001,-0.90900004,0.13100001,3.3105078,0,nan,0.0,3,0,1,14,0
569302838,1683118883599792,423585793,-710872777,4875,-28279,0.565,0.7285458,1.991,2.138,0.75,1.1899999,88,9,0.18,0.15100001,-0.098000005,0.223,3.3105078,0,nan,0.0,3,0,1,14,0
569699613,1683118883999793,423585796,-710872781,4808,-28345,0.45900002,0.72858715,2.0040002,2.151,0.75,1.1899999,88,9,0.059000004,-0.039,-0.044000003,0.18200001,3.3105078,0,nan,0.0,3,0,1,14,0
570300614,1683118884599792,423585789,-710872774,4872,-28282,0.62200004,0.72865605,2.0270002,2.1690001,0.75,1.1899999,94,11,0.286,0.008,-0.286,0.10700001,3.3105078,0,nan,0.0,3,0,1,14,0
570696614,1683118884999794,423585793,-710872778,4771,-28382,0.79800004,0.72871506,2.052,2.197,0.75,1.1899999,94,11,0.15300001,0.14600001,-0.045,0.106000006,3.3105078,0,nan,0.0,3,0,1,14,0
571296619,1683118885599793,423585800,-710872779,4755,-28399,0.75000006,0.72879297,2.078,2.237,0.75,1.1899999,94,12,0.384,0.347,-0.162,0.19100001,3.3105078,0,nan,0.0,3,0,1,14,0
571701798,1683118885999794,423585805,-710872785,4716,-28437,0.64000005,0.7288453,2.0900002,2.2610002,0.75,1.1899999,94,12,0.066,0.064,-0.017,0.135,3.3105078,0,nan,0.0,3,0,1,14,0
572297613,1683118886599794,423585800,-710872780,4641,-28512,0.69600004,0.7289177,2.112,2.3000002,0.75,1.1899999,94,12,0.165,0.165,-0.009000001,0.108,3.3105078,0,nan,0.0,3,0,1,14,0
572699620,1683118886999795,423585798,-710872779,4562,-28591,0.508,0.72895855,2.125,2.3160002,0.75,1.1899999,94,12,0.13800001,-0.136,-0.022000002,0.093,3.3105078,0,nan,0.0,3,0,1,14,0
573304807,1683118887599795,423585788,-710872765,4531,-28622,0.407,0.7290258,2.135,2.3360002,0.71,1.15,94,12,0.09900001,-0.096,-0.021000002,0.14500001,3.3105078,0,nan,0.0,3,0,1,15,0
573712709,1683118887999796,423585782,-710872753,4592,-28561,0.652,0.7290704,2.1260002,2.329,0.71,1.15,94,12,0.058000002,0.055000003,-0.020000001,0.052,3.3105078,0,nan,0.0,3,0,1,15,0
574305298,1683118888599795,423585775,-710872737,4516,-28637,0.52900004,0.7291331,2.121,2.3200002,0.71,1.15,94,10,0.059000004,-0.055000003,-0.022000002,-0.071,3.3105078,0,nan,0.0,3,0,1,15,0
574694638,1683118888999797,423585774,-710872738,4527,-28626,0.56,0.729175,2.118,2.309,0.74,1.16,94,10,0.054,0.054,0.002,0.002,3.3105078,0,nan,0.0,3,0,1,14,0
575290701,1683118889599796,423585774,-710872733,4368,-28785,0.45700002,0.72923225,2.112,2.2930002,0.74,1.16,94,11,0.089,0.046000004,0.07700001,0.126,3.3105078,0,nan,0.0,3,0,1,14,0
575701624,1683118889999797,423585772,-710872726,4293,-28861,0.555,0.72927046,2.111,2.2910001,0.74,1.16,94,11,0.22700001,-0.013,0.22600001,0.081,3.3105078,0,nan,0.0,3,0,1,14,0
576297633,1683118890599797,423585768,-710872717,4364,-28789,0.58400005,0.7293352,2.115,2.298,0.74,1.16,94,9,0.13100001,-0.13100001,0.0,-0.013,3.3105078,0,nan,0.0,3,0,1,14,0
576699614,1683118890999798,423585764,-710872717,4436,-28717,0.629,0.7293811,2.124,2.3130002,0.74,1.16,94,9,0.19100001,-0.16800001,-0.091000006,-0.006,3.3105078,0,nan,0.0,3,0,1,14,0
577305613,1683118891599798,423585767,-710872716,4438,-28715,0.64100003,0.72945005,2.144,2.345,0.74,1.16,93,11,0.064,0.061000004,-0.021000002,0.003,3.3105078,0,nan,0.0,3,0,1,14,0
577701659,1683118891999799,423585771,-710872714,4383,-28770,0.65900004,0.7295,2.154,2.367,0.74,1.16,93,11,0.14500001,-0.136,0.052,0.026,3.3105078,0,nan,0.0,3,0,1,14,0
578297615,1683118892599798,423585777,-710872705,4398,-28755,0.614,0.7295679,2.17,2.3930001,0.74,1.16,87,10,0.119,0.080000006,-0.08800001,-0.042000003,3.3105078,0,nan,0.0,3,0,1,14,0
578691615,1683118892999800,423585775,-710872705,4365,-28788,0.54800004,0.7296126,2.177,2.404,0.74,1.16,87,10,0.093,-0.069000006,-0.062000003,-0.071,3.3105078,0,nan,0.0,3,0,1,14,0
579302614,1683118893599799,423585766,-710872702,4386,-28767,0.652,0.72967863,2.1920002,2.424,0.74,1.15,87,13,0.097,-0.096,0.014,-0.098000005,3.3105078,0,nan,0.0,3,0,1,14,0
579697627,1683118893999800,423585760,-710872699,4360,-28793,0.652,0.72973055,2.216,2.444,0.74,1.15,87,13,0.25,-0.058000002,-0.24300002,-0.025,3.3105078,0,nan,0.0,3,0,1,14,0
580293614,1683118894599800,423585753,-710872693,4177,-28976,0.61300004,0.72980535,2.2510002,2.469,0.74,1.15,81,10,0.082,-0.063,0.052,0.094000004,3.3105078,0,nan,0.0,3,0,1,14,0
580697613,1683118894999801,423585752,-710872694,4103,-29050,0.514,0.7298515,2.273,2.4780002,0.74,1.15,81,10,0.021000002,-0.014,0.015000001,0.047000002,3.3105078,0,nan,0.0,3,0,1,14,0
581283965,1683118895599801,423585764,-710872670,3547,-29606,0.754,0.72993153,2.3000002,2.489,0.74,1.15,81,12,0.596,-0.51900005,0.29200003,0.29500002,3.3105078,0,nan,0.0,3,0,1,14,0
581697620,1683118895999802,423585750,-710872650,3268,-29885,0.514,0.6453453,2.3040001,2.482,0.74,1.15,81,12,0.22800002,-0.112,0.19900002,0.238,2.9659169,0,nan,0.0,3,0,1,14,0
582300682,1683118896599801,423585743,-710872662,3378,-29775,0.423,0.6454079,2.311,2.4870002,0.74,1.15,82,5,0.026,0.026,-0.003,0.24000001,2.9659169,0,nan,0.0,3,0,1,14,0
582693908,1683118896999803,423585729,-710872689,3497,-29657,0.66300005,0.64548,2.3270001,2.509,0.71,1.15,82,5,0.05,-0.046000004,0.020000001,0.015000001,2.9659169,0,nan,0.0,3,0,1,15,0
583306614,1683118897599802,423585729,-710872693,3531,-29622,0.536,0.64555854,2.3240001,2.515,0.71,1.15,82,3,0.041,0.001,-0.041,-0.061000004,2.9659169,0,nan,0.0,4,0,1,15,0
583702613,1683118897999803,423585726,-710872701,3623,-29530,0.523,0.6456065,2.318,2.515,0.74,1.15,82,3,0.128,-0.049000002,0.119,-0.042000003,2.9659169,0,nan,0.0,4,0,1,14,0
584304614,1683118898599803,423585724,-710872719,3741,-29413,0.54800004,0.64568245,2.318,2.525,0.74,1.15,87,4,0.098000005,0.036000002,-0.091000006,-0.112,2.9659169,0,nan,0.0,4,0,1,14,0
584696615,1683118898999804,423585726,-710872721,3720,-29433,0.68100005,0.64572835,2.315,2.522,0.71,1.15,87,4,0.30600002,-0.30200002,-0.051000003,0.047000002,2.9659169,0,nan,0.0,4,0,1,15,0
585293614,1683118899599804,423585719,-710872727,3823,-29330,0.58900005,0.6458093,2.308,2.509,0.71,1.15,87,4,0.125,-0.125,0.010000001,-0.051000003,2.9659169,0,nan,0.0,4,0,1,15,0
585697613,1683118899999805,423585708,-710872721,3792,-29361,0.73,0.6458694,2.3040001,2.503,0.71,1.15,87,4,0.172,-0.172,0.002,-0.007,2.9659169,0,nan,0.0,4,0,1,15,0
586299628,1683118900599804,423585703,-710872718,3781,-29373,0.58500004,0.64595085,2.3070002,2.506,0.78,1.31,88,2,0.15400001,-0.127,-0.08800001,0.024,2.9659169,0,nan,0.0,4,0,1,14,0
586690680,1683118900999806,423585708,-710872709,3684,-29469,0.522,0.6459987,2.3040001,2.513,0.78,1.31,88,2,0.136,0.135,-0.016,0.13800001,2.9659169,0,nan,0.0,4,0,1,14,0
587287612,1683118901599805,423585710,-710872695,3640,-29514,0.58900005,0.6460812,2.3170002,2.5240002,0.78,1.31,88,4,0.09,0.081,0.039,0.098000005,2.9659169,0,nan,0.0,4,0,1,14,0
587694613,1683118901999806,423585715,-710872696,3631,-29523,0.418,0.64611685,2.3230002,2.5300002,0.78,1.31,88,4,0.041,0.035,-0.021000002,0.120000005,2.9659169,0,nan,0.0,4,0,1,14,0
588284614,1683118902599806,423585708,-710872693,3603,-29550,0.679,0.6461877,2.3230002,2.539,0.78,1.31,88,7,0.132,0.119,0.055000003,0.104,2.9659169,0,nan,0.0,4,0,1,14,0
588686620,1683118902999807,423585703,-710872684,3568,-29585,0.71000004,0.64623606,2.331,2.542,0.78,1.31,88,7,0.282,0.134,0.24800001,0.163,2.9659169,0,nan,0.0,4,0,1,14,0
589287615,1683118903599807,423585695,-710872677,3464,-29689,0.59900004,0.6463052,2.3400002,2.545,0.78,1.31,88,3,0.172,0.13000001,0.113000005,0.19900002,2.9659169,0,nan,0.0,4,0,1,14,0
589691614,1683118903999808,423585691,-710872675,3405,-29748,0.62600005,0.64635354,2.348,2.548,0.78,1.31,88,3,0.179,-0.158,-0.085,0.102000006,2.9659169,0,nan,0.0,4,0,1,14,0
590290614,1683118904599807,423585686,-710872666,3243,-29910,0.70100003,0.64643675,2.3560002,2.562,0.78,1.31,99,5,0.23700002,0.22800002,0.064,0.074,2.9659169,0,nan,0.0,4,0,1,14,0
590690614,1683118904999809,423585690,-710872654,3150,-30003,0.81500006,0.6465085,2.375,2.5770001,0.78,1.31,99,5,0.231,0.18100001,0.14400001,0.13700001,2.9659169,0,nan,0.0,4,0,1,14,0
591297836,1683118905599808,423585680,-710872641,2857,-30296,0.601,0.6465963,2.3720002,2.562,0.78,1.31,99,5,0.091000006,0.060000002,0.069000006,-0.032,2.9659169,0,nan,0.0,4,0,1,14,0
591694614,1683118905999809,423585678,-710872626,2653,-30500,0.619,0.6466443,2.3660002,2.548,0.78,1.31,99,5,0.091000006,0.064,0.065000005,0.053000003,2.9659169,0,nan,0.0,4,0,1,14,0
592296611,1683118906599809,423585671,-710872636,2576,-30577,0.469,0.646731,2.3790002,2.555,0.78,1.31,98,8,0.021000002,0.008,0.020000001,-0.029000001,2.9659169,0,nan,0.0,4,0,1,14,0
592696615,1683118906999810,423585668,-710872649,2626,-30528,0.786,0.64679456,2.39,2.5540001,0.71,1.14,98,8,0.286,-0.001,-0.286,-0.147,2.9659169,0,nan,0.0,4,0,1,15,0
593295614,1683118907599810,423585660,-710872670,2778,-30375,0.79300004,0.64689595,2.4190001,2.5740001,0.71,1.14,98,7,0.136,-0.124000005,0.055000003,-0.057000004,2.9659169,0,nan,0.0,4,0,1,15,0
593693615,1683118907999811,423585663,-710872669,2666,-30487,0.558,0.6469487,2.444,2.5900002,0.71,1.14,98,7,0.12100001,-0.080000006,-0.091000006,0.12100001,2.9659169,0,nan,0.0,4,0,1,15,0
594284620,1683118908599810,423585650,-710872685,2710,-30443,0.823,0.6470527,2.4750001,2.627,0.71,1.14,98,9,0.544,-0.35000002,-0.41700003,-0.015000001,2.9659169,0,nan,0.0,4,0,1,15,0
594686613,1683118908999812,423585635,-710872696,2516,-30638,0.80500007,0.6471227,2.49,2.65,0.71,1.14,98,9,0.41700003,-0.381,-0.171,0.041,2.9659169,0,nan,0.0,4,0,1,15,0
595291612,1683118909599811,423585625,-710872697,2546,-30608,0.583,0.64720035,2.515,2.683,0.71,1.14,98,3,0.064,0.061000004,-0.018000001,0.14600001,2.9659169,0,nan,0.0,4,0,1,15,0
595690613,1683118909999812,423585630,-710872705,2500,-30653,0.73700005,0.64726007,2.5300002,2.697,0.71,1.14,98,3,0.448,0.388,-0.223,0.202,2.9659169,0,nan,0.0,4,0,1,15,0
596298613,1683118910599812,423585639,-710872709,2533,-30620,0.61700004,0.64734346,2.548,2.709,0.71,1.14,98,3,0.07300001,0.067,0.031000001,0.18200001,2.9659169,0,nan,0.0,4,0,1,15,0
596700620,1683118910999813,423585638,-710872711,2566,-30587,0.708,0.6473995,2.5600002,2.726,0.71,1.14,98,3,0.157,-0.051000003,-0.148,-0.008,2.9659169,0,nan,0.0,4,0,1,15,0
597295614,1683118911599812,423585637,-710872712,2632,-30521,0.523,0.64747614,2.575,2.749,0.71,1.14,98,2,0.028,-0.009000001,-0.026,0.05,2.9659169,0,nan,0.0,4,0,1,15,0
597696635,1683118911999814,423585637,-710872709,2651,-30503,0.592,0.6475328,2.585,2.766,0.71,1.14,98,2,0.07300001,-0.071,-0.019000001,0.082,2.9659169,0,nan,0.0,4,0,1,15,0
598290626,1683118912599813,423585634,-710872704,2590,-30563,0.785,0.6476278,2.607,2.8000002,0.71,1.14,98,3,0.17,0.15,-0.080000006,0.036000002,2.9659169,0,nan,0.0,4,0,1,15,0
598694613,1683118912999815,423585635,-710872701,2650,-30503,0.564,0.6476833,2.624,2.8230002,0.71,1.14,98,3,0.016,-0.006,0.015000001,0.10700001,2.9659169,0,nan,0.0,4,0,1,15,0
599295613,1683118913599814,423585624,-710872694,2818,-30335,0.758,0.6477702,2.644,2.851,0.71,1.14,91,3,0.19600001,0.079,-0.18,-0.07700001,2.9659169,0,nan,0.0,4,0,1,15,0
599697613,1683118913999815,423585618,-710872679,2894,-30259,0.60800004,0.6478283,2.6490002,2.874,0.71,1.14,91,3,0.09,0.08800001,-0.018000001,-0.061000004,2.9659169,0,nan,0.0,4,0,1,15,0
600299640,1683118914599815,423585608,-710872664,3033,-30120,0.68,0.6479126,2.647,2.9,0.71,1.14,91,5,0.16600001,0.086,-0.142,-0.069000006,2.9659169,0,nan,0.0,3,0,1,15,0
600692613,1683118914999816,423585601,-710872655,3048,-30105,0.71900004,0.647973,2.637,2.901,0.71,1.14,91,5,0.11400001,-0.09,0.07,-0.014,2.9659169,0,nan,0.0,3,0,1,15,0
601285613,1683118915599815,423585580,-710872628,3244,-29909,0.80200005,0.648065,2.63,2.913,0.78,1.31,91,8,0.72700006,-0.68200004,0.252,-0.42200002,2.9659169,0,nan,0.0,3,0,1,14,0
601684613,1683118915999817,423585565,-710872608,3318,-29836,0.76400006,0.64813113,2.6450002,2.936,0.78,1.31,91,8,0.17500001,-0.16600001,0.055000003,-0.157,2.9659169,0,nan,0.0,3,0,1,14,0
602290613,1683118916599816,423585563,-710872594,3282,-29872,0.86300004,0.64823186,2.674,2.969,0.78,1.31,91,5,0.13700001,-0.057000004,0.124000005,-0.014,2.9659169,0,nan,0.0,3,0,1,14,0
602690615,1683118916999817,423585560,-710872580,3232,-29921,0.804,0.64829975,2.6950002,2.9950001,0.78,1.31,91,5,0.23200001,-0.21700001,0.08400001,0.006,2.9659169,0,nan,0.0,3,0,1,14,0
603294614,1683118917599817,423585552,-710872569,3377,-29777,0.693,0.6483938,2.7220001,3.0260003,0.82,1.3199999,91,4,0.109000005,0.101,0.041,-0.064,2.9659169,0,nan,0.0,3,0,1,13,0
603695961,1683118917999818,423585550,-710872569,3396,-29757,0.703,0.64845663,2.7400002,3.038,0.82,1.3199999,91,4,0.15100001,-0.12900001,-0.078,-0.15400001,2.9659169,0,nan,0.0,3,0,1,13,0
604285619,1683118918599818,423585558,-710872565,3153,-30000,0.772,0.6485467,2.7600002,3.0600002,0.82,1.3199999,91,5,0.26500002,0.177,0.19700001,-0.027,2.9659169,0,nan,0.0,3,0,1,13,0
604683612,1683118918999819,423585561,-710872558,2985,-30168,0.462,0.64859414,2.752,3.0410001,0.82,1.3199999,91,5,0.086,0.013,-0.086,0.15,2.9659169,0,nan,0.0,3,0,1,13,0
605284624,1683118919599818,423585556,-710872553,3006,-30147,0.64000005,0.64867884,2.7310002,3.015,0.74,1.14,91,10,0.36900002,-0.23700002,0.28300002,0.098000005,2.9659169,0,nan,0.0,3,0,1,14,0
605687613,1683118919999820,423585551,-710872554,2885,-30269,0.66200006,0.6487254,2.7150002,3.0000002,0.74,1.14,91,10,0.33600003,-0.24700001,0.22900002,0.113000005,2.9659169,0,nan,0.0,3,0,1,14,0
606289613,1683118920599819,423585554,-710872560,2760,-30394,0.521,0.64880395,2.7050002,2.97,0.74,1.14,91,11,0.080000006,-0.026,0.076000005,0.158,2.9659169,0,nan,0.0,3,0,1,14,0
606697613,1683118920999820,423585552,-710872566,2857,-30296,0.75200003,0.64886117,2.693,2.937,0.74,1.14,91,11,0.47000003,-0.36800003,0.29200003,0.079,2.9659169,0,nan,0.0,3,0,1,14,0
607289615,1683118921599820,423585543,-710872581,3039,-30114,0.564,0.6489387,2.6720002,2.891,0.74,1.14,91,8,0.035,0.019000001,-0.029000001,0.032,2.9659169,0,nan,0.0,3,0,1,14,0
607690854,1683118921999821,423585541,-710872592,3195,-29958,0.58400005,0.6489904,2.6560001,2.864,0.74,1.14,91,8,0.132,0.045,-0.124000005,-0.108,2.9659169,0,nan,0.0,3,0,1,14,0
608290769,1683118922599821,423585540,-710872600,3359,-29794,0.72200006,0.6490675,2.637,2.8240001,0.74,1.14,92,8,0.25500003,-0.030000001,0.254,0.043,2.9659169,0,nan,0.0,3,0,1,14,0
608685614,1683118922999822,423585546,-710872603,3436,-29717,0.53400004,0.6491162,2.627,2.811,0.74,1.14,92,8,0.055000003,0.038000003,0.041,0.060000002,2.9659169,0,nan,0.0,3,0,1,14,0
609290779,1683118923599821,423585548,-710872620,3532,-29621,0.61200005,0.6491806,2.6000001,2.7730002,0.74,1.14,92,8,0.104,-0.032,0.098000005,-0.008,2.9659169,0,nan,0.0,3,0,1,14,0
609690614,1683118923999823,423585547,-710872632,3598,-29555,0.665,0.6492413,2.5870001,2.739,0.74,1.14,92,8,0.21700001,-0.171,0.133,0.11000001,2.9659169,0,nan,0.0,3,0,1,14,0
610283613,1683118924599822,423585541,-710872640,3776,-29378,0.47200003,0.649312,2.5730002,2.6910002,0.74,1.14,92,9,0.041,0.039,0.014,-0.020000001,2.9659169,0,nan,0.0,3,0,1,14,0
610682615,1683118924999823,423585542,-710872647,3818,-29336,0.36400002,0.64935446,2.5640001,2.664,0.71999997,1.14,92,9,0.055000003,-0.048,-0.026,0.106000006,2.9659169,0,nan,0.0,3,0,1,15,0
611283613,1683118925599823,423585542,-710872657,3869,-29284,0.51100004,0.6494314,2.545,2.6230001,0.71999997,1.14,92,6,0.11000001,0.05,0.09900001,0.001,2.9659169,0,nan,0.0,3,0,1,15,0
611686656,1683118925999824,423585539,-710872663,3901,-29252,0.505,0.6494744,2.5340002,2.605,0.71999997,1.14,92,6,0.034,0.027,0.021000002,0.13700001,2.9659169,0,nan,0.0,3,0,1,15,0
612292614,1683118926599824,423585540,-710872670,3928,-29226,0.50100005,0.64953804,2.5180001,2.5870001,0.71999997,1.14,92,5,0.15400001,0.133,0.078,0.09,2.9659169,0,nan,0.0,3,0,1,15,0
612692614,1683118926999825,423585544,-710872673,3891,-29262,0.59900004,0.6495843,2.5070002,2.578,0.71999997,1.14,92,5,0.044000003,0.040000003,-0.017,-0.09200001,2.9659169,0,nan,0.0,3,0,1,15,0
613285615,1683118927599824,423585555,-710872693,3997,-29156,0.637,0.64967227,2.496,2.585,0.71999997,1.14,92,5,0.172,0.053000003,-0.163,-0.071,2.9659169,0,nan,0.0,3,0,1,15,0
613690614,1683118927999826,423585554,-710872701,4078,-29075,0.73,0.6497293,2.49,2.595,0.71999997,1.14,92,5,0.266,-0.18,0.19600001,-0.11100001,2.9659169,0,nan,0.0,3,0,1,15,0
614290613,1683118928599825,423585550,-710872703,4027,-29126,0.69500005,0.64982414,2.4940002,2.6320002,0.71999997,1.14,92,11,0.093,-0.057000004,-0.074,-0.115,2.9659169,0,nan,0.0,3,0,1,15,0
614689628,1683118928999826,423585553,-710872710,3977,-29176,0.628,0.6498812,2.4880002,2.653,0.71999997,1.14,92,11,0.165,0.004,-0.165,-0.012,2.9659169,0,nan,0.0,3,0,1,15,0
615290613,1683118929599826,423585549,-710872716,3951,-29202,0.55,0.6499478,2.4650002,2.6520002,0.71999997,1.14,92,4,0.047000002,-0.011000001,0.046000004,0.071,2.9659169,0,nan,0.0,3,0,1,15,0
615680614,1683118929999827,423585550,-710872725,4018,-29136,0.544,0.64999497,2.456,2.6430001,0.71999997,1.14,92,4,0.19700001,0.133,0.14500001,0.149,2.9659169,0,nan,0.0,3,0,1,15,0
616287614,1683118930599827,423585551,-710872732,4089,-29064,0.57000005,0.65006477,2.4380002,2.638,0.71999997,1.14,92,5,0.177,0.171,-0.044000003,0.307,2.9659169,0,nan,0.0,3,0,1,15,0
616692614,1683118930999828,423585550,-710872733,4104,-29049,0.694,0.6501201,2.4350002,2.6490002,0.71999997,1.14,92,5,0.067,-0.039,0.054,0.026,2.9659169,0,nan,0.0,3,0,1,15,0
617285614,1683118931599827,423585542,-710872734,4177,-28976,0.70000005,0.65020686,2.434,2.674,0.71999997,1.14,92,3,0.18,-0.179,0.022000002,0.058000002,2.9659169,0,nan,0.0,3,0,1,15,0
617692614,1683118931999829,423585539,-710872731,4205,-28948,0.72700006,0.6502695,2.4420002,2.696,0.71999997,1.14,92,3,0.106000006,-0.046000004,0.095000006,0.062000003,2.9659169,0,nan,0.0,3,0,1,15,0
618290614,1683118932599828,423585531,-710872727,4277,-28876,0.518,0.65033376,2.433,2.673,0.71999997,1.14,92,4,0.33600003,0.031000001,0.335,0.051000003,2.9659169,0,nan,0.0,3,0,1,15,0
618691636,1683118932999829,423585534,-710872725,4272,-28881,0.56200004,0.6503828,2.413,2.6590002,0.71999997,1.14,92,4,0.11100001,0.071,-0.086,-0.11100001,2.9659169,0,nan,0.0,3,0,1,15,0
619288614,1683118933599829,423585545,-710872718,4204,-28949,0.63600004,0.6504498,2.3730001,2.6430001,0.71999997,1.14,91,3,0.039,0.026,-0.029000001,-0.019000001,2.9659169,0,nan,0.0,3,0,1,15,0
619693613,1683118933999830,423585549,-710872713,4257,-28897,0.53400004,0.6504971,2.357,2.647,0.71999997,1.14,91,3,0.021000002,0.018000001,-0.011000001,0.08400001,2.9659169,0,nan,0.0,3,0,1,15,0
620285613,1683118934599830,423585550,-710872701,4208,-28946,0.688,0.6505779,2.358,2.6680002,0.71999997,1.14,91,3,0.21400002,-0.178,0.119,0.120000005,2.9659169,0,nan,0.0,3,0,1,15,0
620693751,1683118934999831,423585547,-710872694,4092,-29061,0.75000006,0.6506275,2.358,2.6780002,0.71999997,1.14,91,3,0.143,-0.09900001,0.104,0.079,2.9659169,0,nan,0.0,3,0,1,15,0
621289635,1683118935599830,423585526,-710872673,4302,-28851,0.67600006,0.6186813,2.3530002,2.687,0.71999997,1.14,91,4,0.16600001,-0.141,0.087000005,-0.049000002,2.7326655,0,nan,0.0,3,0,1,15,0
621685612,1683118935999832,423585525,-710872672,4333,-28821,0.68100005,0.6187375,2.352,2.7040002,0.71999997,1.14,91,4,0.18800001,0.14600001,-0.119,-0.17,2.7326655,0,nan,0.0,3,0,1,15,0
622286614,1683118936599831,423585523,-710872671,4541,-28612,0.63600004,0.61882144,2.354,2.746,0.71999997,1.14,91,8,0.133,-0.09,-0.098000005,-0.16900001,2.7326655,0,nan,0.0,3,0,1,15,0
622686614,1683118936999832,423585528,-710872673,4566,-28587,0.781,0.6188803,2.3630002,2.766,0.71999997,1.14,91,8,0.314,0.21700001,-0.22800002,-0.09,2.7326655,0,nan,0.0,3,0,1,15,0
623289629,1683118937599832,423585526,-710872690,4883,-28270,0.684,0.61896443,2.3790002,2.792,0.71999997,1.14,91,5,0.35000002,0.041,-0.34800002,-0.091000006,2.7326655,0,nan,0.0,3,0,1,15,0
623693626,1683118937999833,423585523,-710872702,5018,-28135,0.551,0.6190124,2.3830001,2.8100002,0.71999997,1.14,91,5,0.119,0.0050000004,0.119,-0.147,2.7326655,0,nan,0.0,3,0,1,15,0
624289613,1683118938599832,423585523,-710872705,5095,-28058,0.634,0.61908764,2.377,2.838,0.71999997,1.14,91,7,0.09,-0.081,0.038000003,-0.14600001,2.7326655,0,nan,0.0,3,0,1,15,0
624690612,1683118938999834,423585521,-710872708,5179,-27975,0.65900004,0.61914486,2.3730001,2.8650002,0.71999997,1.14,91,7,0.11100001,-0.075,0.082,-0.15300001,2.7326655,0,nan,0.0,3,0,1,15,0
625292710,1683118939599833,423585523,-710872701,4980,-28173,0.67800003,0.6192217,2.3660002,2.904,0.71999997,1.14,92,4,0.148,-0.079,0.125,0.018000001,2.7326655,0,nan,0.0,3,0,1,15,0
625693613,1683118939999835,423585519,-710872700,4963,-28191,0.67200005,0.61927944,2.368,2.9380002,0.71999997,1.14,92,4,0.044000003,0.040000003,0.018000001,0.044000003,2.7326655,0,nan,0.0,3,0,1,15,0
626289632,1683118940599834,423585515,-710872695,5028,-28126,0.83400005,0.61937773,2.374,2.9970002,0.71999997,1.14,92,3,0.27100003,0.096,-0.25300002,-0.23,2.7326655,0,nan,0.0,3,0,1,15,0
626692614,1683118940999835,423585517,-710872699,5009,-28144,0.73800004,0.6194362,2.3790002,3.0340002,0.75,1.1899999,92,3,0.101,0.040000003,0.093,0.12900001,2.7326655,0,nan,0.0,3,0,1,14,0
627285613,1683118941599835,423585529,-710872702,4910,-28243,0.753,0.6195356,2.3950002,3.1000001,0.71999997,1.14,92,3,0.24400002,-0.058000002,0.23700002,0.042000003,2.7326655,0,nan,0.0,3,0,1,15,0
627698614,1683118941999836,423585531,-710872705,4919,-28234,0.80300003,0.6196074,2.4090002,3.1460001,0.71999997,1.14,92,3,0.10300001,-0.076000005,0.069000006,0.062000003,2.7326655,0,nan,0.0,3,0,1,15,0
628290678,1683118942599835,423585532,-710872713,4951,-28202,0.70900005,0.6197037,2.426,3.1920002,0.71999997,1.14,92,6,0.052,0.021000002,-0.048,0.011000001,2.7326655,0,nan,0.0,3,0,1,15,0
628685619,1683118942999837,423585535,-710872719,4880,-28273,0.643,0.6197615,2.426,3.2050002,0.71999997,1.14,92,6,0.101,0.061000004,-0.080000006,0.030000001,2.7326655,0,nan,0.0,3,0,1,15,0
629282614,1683118943599836,423585535,-710872727,4954,-28199,0.734,0.61984915,2.426,3.223,0.71999997,1.14,92,2,0.156,-0.093,0.124000005,-0.025,2.7326655,0,nan,0.0,3,0,1,15,0
629692614,1683118943999837,423585524,-710872724,5131,-28022,0.62600005,0.61990726,2.4290001,3.2400002,0.71999997,1.14,92,2,0.072000004,0.040000003,-0.060000002,0.071,2.7326655,0,nan,0.0,3,0,1,15,0
630282613,1683118944599837,423585505,-710872719,5324,-27829,0.74300003,0.619995,2.4290001,3.2630002,0.71999997,1.14,92,6,0.201,-0.156,0.126,-0.046000004,2.7326655,0,nan,0.0,3,0,1,15,0
630676614,1683118944999838,423585497,-710872719,5514,-27639,0.78000003,0.6200605,2.4420002,3.285,0.71999997,1.14,92,6,0.202,-0.12900001,0.155,-0.101,2.7326655,0,nan,0.0,3,0,1,15,0
631276614,1683118945599838,423585482,-710872709,5656,-27497,0.80100006,0.6201636,2.4650002,3.318,0.71999997,1.14,92,3,0.377,-0.33400002,0.17400001,-0.148,2.7326655,0,nan,0.0,3,0,1,15,0
631681613,1683118945999839,423585467,-710872706,5807,-27346,0.83500004,0.62023765,2.482,3.3450003,0.71999997,1.14,92,3,0.256,-0.22100002,0.12900001,-0.135,2.7326655,0,nan,0.0,3,0,1,15,0
632284613,1683118946599838,423585466,-710872716,5727,-27426,0.717,0.620331,2.499,3.3750002,0.71999997,1.14,92,5,0.141,-0.14,0.013,-0.126,2.7326655,0,nan,0.0,3,0,1,15,0
632681620,1683118946999840,423585461,-710872727,5798,-27355,0.70900005,0.62039423,2.5100002,3.404,0.71999997,1.14,92,5,0.136,-0.116000004,-0.07,-0.112,2.7326655,0,nan,0.0,3,0,1,15,0
633279611,1683118947599839,423585465,-710872727,5679,-27474,0.76100004,0.62048215,2.529,3.4420002,0.71999997,1.14,92,4,0.185,-0.16800001,0.076000005,-0.104,2.7326655,0,nan,0.0,3,0,1,15,0
633689613,1683118947999840,423585460,-710872740,5791,-27362,0.74200004,0.6205494,2.529,3.45,0.71999997,1.14,92,4,0.08800001,0.071,-0.053000003,-0.023000002,2.7326655,0,nan,0.0,3,0,1,15,0
634287614,1683118948599840,423585452,-710872749,5882,-27271,0.77900004,0.62064934,2.542,3.479,0.75,1.16,92,4,0.08400001,-0.068,0.05,-0.034,2.7326655,0,nan,0.0,3,0,1,14,0
634676614,1683118948999841,423585447,-710872751,5897,-27256,0.82000005,0.6207195,2.549,3.496,0.75,1.16,92,4,0.083000004,-0.065000005,0.051000003,0.07,2.7326655,0,nan,0.0,3,0,1,14,0
635281614,1683118949599841,423585433,-710872753,6208,-26945,0.71800005,0.62080675,2.5560002,3.519,0.71999997,1.14,92,3,0.069000006,-0.053000003,0.044000003,-0.05,2.7326655,0,nan,0.0,3,0,1,15,0
635688614,1683118949999842,423585423,-710872747,6312,-26842,0.77500004,0.62087524,2.5670002,3.545,0.71999997,1.14,92,3,0.074,-0.065000005,-0.036000002,-0.208,2.7326655,0,nan,0.0,3,0,1,15,0
636282385,1683118950599841,423585412,-710872735,6488,-26665,0.84400004,0.6209822,2.588,3.588,0.71999997,1.14,92,3,0.282,-0.24300002,0.142,-0.273,2.7326655,0,nan,0.0,3,0,1,15,0
636695063,1683118950999843,423585411,-710872734,6571,-26582,0.91200006,0.62106246,2.6030002,3.6180003,0.71999997,1.14,92,3,0.215,0.192,-0.098000005,-0.245,2.7326655,0,nan,0.0,3,0,1,15,0
637284614,1683118951599842,423585414,-710872743,6735,-26418,0.74200004,0.6211777,2.621,3.6510003,0.71999997,1.14,92,3,0.17300001,0.172,0.021000002,-0.022000002,2.7326655,0,nan,0.0,3,0,1,15,0
637694666,1683118951999843,423585416,-710872742,6763,-26390,0.93700004,0.621245,2.63,3.67,0.71999997,1.14,92,3,0.266,0.215,-0.156,-0.020000001,2.7326655,0,nan,0.0,3,0,1,15,0
638290620,1683118952599843,423585414,-710872743,6770,-26383,0.78700006,0.62135166,2.641,3.6870003,0.71999997,1.14,92,4,0.021000002,0.0050000004,-0.020000001,0.148,2.7326655,0,nan,0.0,3,0,1,15,0
638684613,1683118952999844,423585406,-710872735,6882,-26271,0.80700004,0.62142426,2.644,3.6910002,0.71999997,1.14,92,4,0.093,0.052,-0.07700001,0.075,2.7326655,0,nan,0.0,3,0,1,15,0
639289622,1683118953599844,423585410,-710872732,6755,-26398,0.75600004,0.6215262,2.6390002,3.6970003,0.71999997,1.31,92,5,0.058000002,0.058000002,0.002,0.11800001,2.7326655,0,nan,0.0,3,0,1,14,0
639682614,1683118953999845,423585409,-710872727,6776,-26377,0.57900006,0.62158036,2.6360002,3.6940002,0.71999997,1.14,92,5,0.185,0.163,0.089,0.105000004,2.7326655,0,nan,0.0,3,0,1,15,0
640287613,1683118954599844,423585406,-710872735,6658,-26495,0.712,0.62165904,2.6190002,3.6820002,0.71999997,1.31,92,6,0.13000001,-0.07700001,0.105000004,0.24800001,2.7326655,0,nan,0.0,3,0,1,14,0
640682180,1683118954999846,423585402,-710872738,6823,-26330,0.68,0.6217198,2.6100001,3.683,0.76,1.14,92,6,0.15300001,-0.025,0.15100001,0.076000005,2.7326655,0,nan,0.0,3,0,1,14,0
641289613,1683118955599845,423585399,-710872722,6999,-26154,0.574,0.6218048,2.5990002,3.6810002,0.71999997,1.14,92,3,0.149,0.149,-0.003,0.21800001,2.7326655,0,nan,0.0,3,0,1,15,0
641695614,1683118955999846,423585398,-710872718,7207,-25946,0.43,0.6218467,2.5730002,3.634,0.71999997,1.14,92,3,0.055000003,-0.030000001,-0.046000004,-0.022000002,2.7326655,0,nan,0.0,3,0,1,15,0
642294615,1683118956599846,423585401,-710872716,7186,-25968,0.619,0.6219299,2.562,3.627,0.71999997,1.14,92,5,0.026,0.003,-0.026,0.049000002,2.7326655,0,nan,0.0,3,0,1,15,0
642694647,1683118956999847,423585402,-710872710,7070,-26083,0.558,0.62198246,2.546,3.604,0.71999997,1.14,92,5,0.13000001,0.042000003,-0.123,0.020000001,2.7326655,0,nan,0.0,3,0,1,15,0
643291613,1683118957599847,423585405,-710872708,7012,-26142,0.63000005,0.6220613,2.529,3.5850003,0.71999997,1.14,92,8,0.069000006,-0.068,-0.008,-0.026,2.7326655,0,nan,0.0,3,0,1,15,0
643684614,1683118957999848,423585407,-710872714,7032,-26121,0.62700003,0.6221151,2.526,3.5800002,0.71999997,1.14,92,8,0.083000004,-0.006,-0.082,-0.060000002,2.7326655,0,nan,0.0,3,0,1,15,0
644294613,1683118958599847,423585411,-710872727,7210,-25944,0.642,0.6221998,2.5170002,3.5890002,0.71999997,1.14,92,10,0.055000003,-0.034,-0.043,-0.109000005,2.7326655,0,nan,0.0,3,0,1,15,0
644692614,1683118958999849,423585423,-710872730,7144,-26010,0.66,0.622258,2.513,3.6020002,0.71999997,1.14,92,10,0.036000002,-0.029000001,0.023000002,-0.057000004,2.7326655,0,nan,0.0,3,0,1,15,0
645292615,1683118959599848,423585444,-710872722,7013,-26140,0.568,0.62233746,2.4970002,3.6100001,0.71999997,1.14,91,6,0.026,0.026,-0.003,-0.054,2.7326655,0,nan,0.0,3,0,1,15,0
645697613,1683118959999849,423585454,-710872723,6961,-26193,0.56100005,0.6223915,2.4880002,3.6160002,0.71999997,1.14,91,6,0.042000003,-0.028,-0.032,0.087000005,2.7326655,0,nan,0.0,3,0,1,15,0
646288614,1683118960599849,423585466,-710872714,6879,-26274,0.62200004,0.62247306,2.4640002,3.6030002,0.71999997,1.14,91,4,0.057000004,0.042000003,-0.039,0.101,2.7326655,0,nan,0.0,3,0,1,15,0
646705886,1683118960999850,423585473,-710872716,6789,-26364,0.48200002,0.6225169,2.45,3.5930002,0.71999997,1.14,91,4,0.078,0.003,0.078,0.048,2.7326655,0,nan,0.0,3,0,1,15,0
647281688,1683118961599850,423585480,-710872707,6702,-26451,0.582,0.62258756,2.4320002,3.5740001,0.71999997,1.14,88,6,0.064,-0.036000002,0.053000003,0.030000001,2.7326655,0,nan,0.0,3,0,1,15,0
647694614,1683118961999851,423585484,-710872702,6683,-26471,0.51100004,0.6226348,2.417,3.5520003,0.71999997,1.14,88,6,0.016,0.006,0.015000001,0.020000001,2.7326655,0,nan,0.0,3,0,1,15,0
648290613,1683118962599850,423585481,-710872692,6581,-26572,0.57100004,0.6227078,2.398,3.509,0.71999997,1.14,88,4,0.020000001,-0.006,0.019000001,-0.023000002,2.7326655,0,nan,0.0,3,0,1,15,0
648689936,1683118962999852,423585482,-710872688,6525,-26629,0.503,0.62275285,2.3830001,3.4770002,0.71999997,1.14,88,4,0.057000004,-0.008,-0.057000004,0.032,2.7326655,0,nan,0.0,3,0,1,15,0
649286614,1683118963599851,423585486,-710872680,6317,-26837,0.49100003,0.6228167,2.355,3.4250002,0.71999997,1.14,88,6,0.052,-0.018000001,0.049000002,0.087000005,2.7326655,0,nan,0.0,3,0,1,15,0
649687615,1683118963999852,423585499,-710872672,6004,-27149,0.59800005,0.62286556,2.329,3.384,0.71999997,1.14,88,6,0.109000005,0.093,-0.058000002,0.002,2.7326655,0,nan,0.0,3,0,1,15,0
650295620,1683118964599852,423585513,-710872668,5789,-27364,0.505,0.6229408,2.3140001,3.3320003,0.84,1.22,88,3,0.062000003,0.051000003,0.035,0.13800001,2.7326655,0,nan,0.0,3,0,1,14,0
650694665,1683118964999853,423585521,-710872670,5700,-27453,0.67200005,0.62299,2.3000002,3.2480001,0.84,1.22,88,3,0.128,0.102000006,-0.078,0.032,2.7326655,0,nan,0.0,3,0,1,14,0
651294613,1683118965599852,423585526,-710872667,5581,-27572,0.70100003,0.6230696,2.283,3.177,0.84,1.22,88,4,0.17,-0.094000004,0.141,-0.031000001,2.7326655,0,nan,0.0,3,0,1,14,0
651703615,1683118965999854,423585529,-710872668,5527,-27627,0.49400002,0.62312025,2.2770002,3.1430001,0.84,1.22,88,4,0.10300001,-0.003,-0.10300001,-0.074,2.7326655,0,nan,0.0,3,0,1,14,0
652296613,1683118966599853,423585534,-710872663,5416,-27737,0.48200002,0.6231754,2.243,3.081,0.84,1.22,88,2,0.104,-0.09900001,0.033,-0.055000003,2.7326655,0,nan,0.0,3,0,1,14,0
652699613,1683118966999855,423585526,-710872654,5370,-27783,0.50200003,0.62321675,2.2240002,3.042,0.84,1.22,88,2,0.08400001,-0.067,0.051000003,0.086,2.7326655,0,nan,0.0,3,0,1,14,0
653294614,1683118967599854,423585528,-710872642,5131,-28022,0.48100004,0.6232867,2.207,2.992,0.84,1.22,88,4,0.044000003,0.037,0.024,0.066,2.7326655,0,nan,0.0,3,0,1,14,0
653704871,1683118967999855,423585529,-710872641,5068,-28085,0.54800004,0.62333316,2.196,2.9650002,0.84,1.22,88,4,0.14,0.14,0.012,0.004,2.7326655,0,nan,0.0,3,0,1,14,0
654295613,1683118968599855,423585525,-710872635,5072,-28081,0.60800004,0.6234091,2.183,2.926,0.84,1.22,88,4,0.246,-0.23,0.086,-0.22700001,2.7326655,0,nan,0.0,3,0,1,14,0
654694858,1683118968999856,423585517,-710872627,5182,-27971,0.49800003,0.62345916,2.177,2.907,0.71999997,1.14,88,4,0.047000002,-0.015000001,-0.045,-0.112,2.7326655,0,nan,0.0,3,0,1,15,0
655296613,1683118969599855,423585510,-710872626,5303,-27851,0.771,0.6235628,2.186,2.9020002,0.71999997,1.14,88,3,0.26000002,-0.13700001,0.22100002,-0.080000006,2.7326655,0,nan,0.0,3,0,1,15,0
655701613,1683118969999857,423585514,-710872633,5318,-27835,0.78300005,0.6728071,2.193,2.9120002,0.71999997,1.14,88,3,0.53900003,0.35500002,-0.40600002,0.05,3.9798942,0,nan,0.0,3,0,1,15,0
656300614,1683118970599856,423585519,-710872636,5322,-27831,0.59800005,0.67287534,2.2020001,2.926,0.71999997,1.14,88,3,0.024,-0.001,-0.024,0.08400001,3.9798942,0,nan,0.0,3,0,1,15,0
656700615,1683118970999857,423585522,-710872636,5263,-27891,0.437,0.6729197,2.206,2.9340003,0.71999997,1.14,88,3,0.041,-0.012,-0.039,-0.013,3.9798942,0,nan,0.0,3,0,1,15,0
657299613,1683118971599857,423585525,-710872627,5169,-27985,0.688,0.6729909,2.206,2.9340003,0.71999997,1.14,88,6,0.16600001,-0.068,0.15200001,-0.042000003,3.9798942,0,nan,0.0,3,0,1,15,0
657710675,1683118971999858,423585522,-710872620,5195,-27958,0.75100005,0.67304087,2.209,2.9390001,0.71999997,1.14,88,6,0.28500003,-0.19000001,0.21200001,-0.044000003,3.9798942,0,nan,0.0,3,0,1,15,0
658293613,1683118972599858,423585518,-710872608,5129,-28024,0.75900006,0.67312497,2.21,2.94,0.71999997,1.14,88,2,0.19800001,-0.136,0.14400001,-0.069000006,3.9798942,0,nan,0.0,3,0,1,15,0
658691613,1683118972999859,423585519,-710872600,5132,-28021,0.58900005,0.6731749,2.2080002,2.9350002,0.71999997,1.14,88,2,0.26700002,-0.125,0.23500001,-0.040000003,3.9798942,0,nan,0.0,3,0,1,15,0
659284621,1683118973599858,423585520,-710872594,5141,-28012,0.596,0.6732403,2.2010002,2.9390001,0.71999997,1.14,89,5,0.045,0.032,0.031000001,0.119,3.9798942,0,nan,0.0,3,0,1,15,0
659700615,1683118973999860,423585524,-710872588,5081,-28073,0.646,0.67328763,2.193,2.937,0.71999997,1.14,89,5,0.13000001,0.115,-0.062000003,0.071,3.9798942,0,nan,0.0,3,0,1,15,0
660292064,1683118974599859,423585527,-710872582,5044,-28109,0.38000003,0.673352,2.1820002,2.936,0.71999997,1.14,89,5,0.056,-0.022000002,-0.051000003,-0.024,3.9798942,0,nan,0.0,3,0,1,15,0
660692613,1683118974999860,423585534,-710872578,4964,-28189,0.62700003,0.67340195,2.177,2.937,0.71999997,1.14,89,5,0.115,0.108,-0.038000003,0.105000004,3.9798942,0,nan,0.0,3,0,1,15,0
661295613,1683118975599860,423585523,-710872564,5069,-28085,0.86800003,0.50852996,2.184,2.946,0.71999997,1.14,89,5,0.82500005,-0.684,0.46100003,-0.060000002,3.0686212,0,nan,0.0,3,0,1,15,0
661701614,1683118975999861,423585512,-710872552,5021,-28132,0.99500006,0.5086315,2.1990001,2.9540002,0.71999997,1.14,89,5,0.22000001,-0.177,0.13100001,-0.016,3.0686212,0,nan,0.0,3,0,1,15,0
662295620,1683118976599861,423585511,-710872546,4988,-28166,1.0320001,0.50875837,2.2310002,2.9670002,0.71999997,1.14,89,5,0.30900002,-0.287,0.11400001,-0.067,3.0686212,0,nan,0.0,3,0,1,15,0
662693689,1683118976999862,423585505,-710872537,5005,-28149,0.989,0.50885594,2.255,2.979,0.71999997,1.14,89,5,0.25100002,-0.18900001,0.164,-0.13900001,3.0686212,0,nan,0.0,3,0,1,15,0
663288181,1683118977599861,423585493,-710872519,5056,-28097,1.125,0.5090193,2.292,3.0010002,0.71999997,1.14,88,7,0.437,-0.31,0.30800003,-0.004,3.0686212,0,nan,0.0,3,0,1,15,0
663696615,1683118977999863,423585496,-710872516,5015,-28139,1.1140001,0.68164074,2.3070002,3.0110002,0.71999997,1.14,88,7,0.513,0.40800002,-0.31,0.15400001,3.9871018,0,nan,0.0,3,0,1,15,0
664293826,1683118978599862,423585486,-710872496,4921,-28233,1.182,0.4120293,2.3470001,3.0330002,0.71999997,1.14,88,6,1.11,-0.94500005,0.583,-0.186,2.9626844,0,nan,0.0,3,0,1,15,0
664693615,1683118978999863,423585474,-710872485,4954,-28199,1.024,0.41217992,2.381,3.0500002,0.71999997,1.14,88,6,0.101,-0.036000002,0.094000004,-0.012,2.9626844,0,nan,0.0,3,0,1,15,0
665296614,1683118979599863,423585488,-710872488,4916,-28237,0.91700006,0.58026224,2.411,3.0660002,0.71999997,1.14,88,4,0.52000004,0.453,-0.25500003,-0.05,3.9050884,0,nan,0.0,3,0,1,15,0
665702614,1683118979999864,423585502,-710872496,4952,-28201,0.81600004,0.5803426,2.4190001,3.0730002,0.71999997,1.14,88,4,0.22500001,0.16100001,-0.158,0.09200001,3.9050884,0,nan,0.0,3,0,1,15,0
666295615,1683118980599864,423585507,-710872503,5055,-28099,0.597,0.58043575,2.42,3.068,0.71999997,1.14,88,5,0.11800001,-0.020000001,0.116000004,0.031000001,3.9050884,0,nan,0.0,4,0,1,15,0
666698615,1683118980999865,423585505,-710872504,5117,-28037,0.77300006,0.5805023,2.4190001,3.061,0.71999997,1.14,88,5,0.2,-0.18400002,0.080000006,-0.12100001,3.9050884,0,nan,0.0,4,0,1,15,0
667301620,1683118981599864,423585498,-710872503,5210,-27943,0.62200004,0.5806103,2.421,3.061,0.71999997,1.14,89,2,0.032,-0.003,0.032,-0.017,3.9050884,0,nan,0.0,4,0,1,15,0
667708614,1683118981999866,423585503,-710872507,5135,-28018,0.85,0.5806872,2.421,3.0630002,0.71999997,1.14,89,2,0.186,0.117000006,-0.14400001,-0.0050000004,3.9050884,0,nan,0.0,4,0,1,15,0
668292776,1683118982599865,423585506,-710872506,5040,-28113,0.65300006,0.5807703,2.4280002,3.0640001,0.76,1.14,89,3,0.108,-0.10300001,-0.030000001,-0.11400001,3.9050884,0,nan,0.0,4,0,1,14,0
668693613,1683118982999866,423585512,-710872512,5037,-28116,0.58000004,0.5808389,2.433,3.0640001,0.76,1.14,89,3,0.051000003,0.051000003,0.0050000004,-0.063,3.9050884,0,nan,0.0,4,0,1,14,0
669295614,1683118983599866,423585516,-710872516,5108,-28046,0.71900004,0.5809417,2.4410002,3.068,0.76,1.14,89,3,0.027,0.018000001,-0.019000001,0.052,3.9050884,0,nan,0.0,4,0,1,14,0
669688780,1683118983999867,423585518,-710872516,5135,-28018,0.85300004,0.5810232,2.4450002,3.065,0.76,1.14,89,3,0.065000005,-0.058000002,0.027,0.006,3.9050884,0,nan,0.0,4,0,1,14,0
670292653,1683118984599867,423585523,-710872517,5184,-27969,0.60400003,0.5811225,2.4480002,3.061,0.76,1.14,89,1,0.076000005,-0.013,0.075,0.133,3.9050884,0,nan,0.0,4,0,1,14,0
670695614,1683118984999868,423585523,-710872516,5282,-27871,0.76500005,0.58119655,2.4450002,3.061,0.76,1.14,89,1,0.098000005,0.093,-0.031000001,0.013,3.9050884,0,nan,0.0,4,0,1,14,0
671298614,1683118985599867,423585531,-710872521,5425,-27728,0.67,0.581273,2.426,3.0530002,0.76,1.14,89,5,0.208,0.171,-0.11800001,0.022000002,3.9050884,0,nan,0.0,4,0,1,14,0
671708614,1683118985999869,423585528,-710872526,5513,-27640,0.48000002,0.58132327,2.4060001,3.0340002,0.76,1.14,89,5,0.013,0.013,0.0,-0.027,3.9050884,0,nan,0.0,4,0,1,14,0
672293645,1683118986599868,423585520,-710872528,5680,-27473,0.60300004,0.581402,2.375,2.9970002,0.76,1.14,89,4,0.1,-0.098000005,0.019000001,-0.05,3.9050884,0,nan,0.0,4,0,1,14,0
672696683,1683118986999869,423585515,-710872532,5839,-27314,0.67200005,0.58146703,2.365,2.979,0.76,1.14,89,4,0.032,-0.029000001,0.015000001,-0.041,3.9050884,0,nan,0.0,4,0,1,14,0
673300613,1683118987599869,423585521,-710872538,5851,-27302,0.52400005,0.58154035,2.341,2.953,0.71999997,1.14,89,3,0.047000002,-0.031000001,-0.036000002,-0.102000006,3.9050884,0,nan,0.0,4,0,1,15,0
673693612,1683118987999870,423585519,-710872539,5869,-27284,0.739,0.5816039,2.329,2.9380002,0.71999997,1.14,89,3,0.104,0.060000002,-0.086,-0.024,3.9050884,0,nan,0.0,4,0,1,15,0
674146613,1683118988399869,423585524,-710872548,5941,-27212,0.564,0.5816665,2.3260002,2.93,0.71999997,1.14,89,3,0.029000001,0.015000001,-0.025,-0.056,3.9050884,0,nan,0.0,4,0,1,15,0
674750613,1683118988999871,423585530,-710872552,5989,-27164,0.46400002,0.58174986,2.312,2.9220002,0.71999997,1.14,89,4,0.019000001,0.017,0.009000001,-0.039,3.9050884,0,nan,0.0,4,0,1,15,0
675341729,1683118989599870,423585543,-710872562,5819,-27334,0.62600005,0.5818308,2.299,2.927,0.71999997,1.14,89,4,0.15200001,0.1,-0.11400001,-0.052,3.9050884,0,nan,0.0,4,0,1,15,0
675740810,1683118989999872,423585555,-710872573,5772,-27381,0.47400004,0.5818824,2.2910001,2.9280002,0.71999997,1.14,89,4,0.095000006,-0.09200001,-0.020000001,0.043,3.9050884,0,nan,0.0,4,0,1,15,0
676333613,1683118990599871,423585576,-710872591,5720,-27433,0.568,0.58195317,2.2770002,2.93,0.71999997,1.14,89,4,0.040000003,0.023000002,0.032,0.072000004,3.9050884,0,nan,0.0,4,0,1,15,0
676739614,1683118990999872,423585587,-710872595,5631,-27522,0.66300005,0.58201176,2.269,2.9290001,0.71999997,1.14,89,4,0.164,0.14400001,-0.079,0.035,3.9050884,0,nan,0.0,4,0,1,15,0
677346620,1683118991599872,423585600,-710872608,5620,-27533,0.69200003,0.58210415,2.255,2.9120002,0.71999997,1.14,89,5,0.289,0.252,-0.142,0.085,3.9050884,0,nan,0.0,4,0,1,15,0
677773611,1683118991999873,423585608,-710872618,5598,-27555,0.71400005,0.5821713,2.2470002,2.8950002,0.71999997,1.14,89,5,0.164,0.11400001,-0.119,0.007,3.9050884,0,nan,0.0,4,0,1,15,0
678343613,1683118992599872,423585625,-710872635,5660,-27494,0.74600005,0.58225334,2.2250001,2.8700001,0.74,1.23,89,4,0.22000001,-0.124000005,0.18200001,-0.063,3.9050884,0,nan,0.0,4,0,1,14,0
678735614,1683118992999874,423585627,-710872635,5683,-27470,0.62100005,0.5823101,2.2210002,2.861,0.74,1.23,89,4,0.096,-0.083000004,0.048,-0.116000004,3.9050884,0,nan,0.0,4,0,1,14,0
679340614,1683118993599873,423585634,-710872632,5612,-27542,0.38300002,0.58237255,2.2110002,2.8430002,0.74,1.23,89,4,0.072000004,-0.056,-0.045,-0.013,3.9050884,0,nan,0.0,4,0,1,14,0
679741620,1683118993999875,423585643,-710872636,5613,-27540,0.70100003,0.5824387,2.209,2.8360002,0.71999997,1.14,89,4,0.030000001,-0.020000001,0.022000002,-0.006,3.9050884,0,nan,0.0,4,0,1,15,0
680337614,1683118994599874,423585658,-710872641,5554,-27600,0.59900004,0.5825244,2.197,2.822,0.74,1.23,89,2,0.134,-0.106000006,0.082,0.062000003,3.9050884,0,nan,0.0,4,0,1,14,0
680737677,1683118994999875,423585665,-710872641,5630,-27524,0.47100002,0.5825733,2.1910002,2.8190002,0.74,1.23,89,2,0.17,0.008,0.17,0.081,3.9050884,0,nan,0.0,4,0,1,14,0
681344976,1683118995599875,423585671,-710872642,5649,-27504,0.555,0.5826577,2.183,2.811,0.71999997,1.14,89,4,0.116000004,-0.115,0.0050000004,0.022000002,3.9050884,0,nan,0.0,4,0,1,15,0
681746612,1683118995999876,423585675,-710872648,5659,-27495,0.59800005,0.58271724,2.1780002,2.809,0.71999997,1.14,89,4,0.041,0.009000001,-0.040000003,0.072000004,3.9050884,0,nan,0.0,4,0,1,15,0
682343613,1683118996599875,423585682,-710872653,5778,-27375,0.48900002,0.5828038,2.173,2.8040001,0.71999997,1.14,89,4,0.104,0.1,0.028,0.003,3.9050884,0,nan,0.0,4,0,1,15,0
682723620,1683118996999877,423585680,-710872649,5888,-27265,0.54200006,0.58286107,2.1690001,2.8030002,0.71999997,1.14,89,4,0.039,0.036000002,-0.015000001,-0.14500001,3.9050884,0,nan,0.0,4,0,1,15,0
683329614,1683118997599876,423585678,-710872649,5919,-27234,0.697,0.58295655,2.1650002,2.801,0.71999997,1.14,89,3,0.16100001,-0.149,0.060000002,-0.006,3.9050884,0,nan,0.0,4,0,1,15,0
683743877,1683118997999877,423585682,-710872656,5950,-27203,0.597,0.58301115,2.161,2.7940001,0.71999997,1.14,89,3,0.07300001,0.040000003,-0.061000004,-0.010000001,3.9050884,0,nan,0.0,4,0,1,15,0
684331614,1683118998599877,423585694,-710872655,5759,-27394,0.321,0.58308285,2.1590002,2.7930002,0.71999997,1.14,89,5,0.040000003,0.016,0.036000002,-0.018000001,3.9050884,0,nan,0.0,4,0,1,15,0
684729614,1683118998999878,423585700,-710872657,5790,-27363,0.54700005,0.5831302,2.16,2.795,0.71999997,1.14,89,5,0.025,-0.025,0.0,0.034,3.9050884,0,nan,0.0,4,0,1,15,0
685327614,1683118999599878,423585703,-710872659,5728,-27426,0.67300004,0.58320695,2.1620002,2.7830002,0.7,1.12,89,4,0.046000004,-0.046000004,0.0,-0.010000001,3.9050884,0,nan,0.0,4,0,1,16,0
685736614,1683118999999879,423585705,-710872661,5723,-27430,0.68500006,0.5832728,2.161,2.778,0.7,1.12,89,4,0.15300001,-0.136,0.07,0.024,3.9050884,0,nan,0.0,4,0,1,16,0
686335620,1683119000599878,423585715,-710872663,5901,-27252,0.80500007,0.5782359,2.163,2.7810001,0.7,1.12,89,6,0.44300002,0.377,-0.23300001,0.053000003,4.8250747,0,nan,0.0,4,0,1,16,0
686730387,1683119000999880,423585714,-710872662,6043,-27110,0.75900006,0.5783066,2.167,2.7910001,0.7,1.12,89,6,0.28,-0.23400001,0.155,-0.223,4.8250747,0,nan,0.0,4,0,1,16,0
687345613,1683119001599879,423585715,-710872657,6057,-27096,0.68700004,0.57840437,2.1780002,2.821,0.7,1.12,89,4,0.08800001,0.085,0.020000001,0.038000003,4.8250747,0,nan,0.0,4,0,1,16,0
687761614,1683119001999880,423585721,-710872660,6104,-27049,0.70500004,0.6302483,2.1820002,2.815,0.7,1.12,89,4,0.155,-0.15200001,0.032,0.036000002,5.294804,0,nan,0.0,4,0,1,16,0
688345615,1683119002599880,423585702,-710872652,6260,-26893,0.70100003,0.63033277,2.173,2.7930002,0.7,1.12,89,4,0.18,-0.17,0.059000004,0.142,5.294804,0,nan,0.0,4,0,1,16,0
688740878,1683119002999881,423585703,-710872653,6268,-26886,0.674,0.6303944,2.174,2.7930002,0.7,1.12,89,4,0.143,0.097,-0.106000006,0.09900001,5.294804,0,nan,0.0,4,0,1,16,0
689332791,1683119003599881,423585706,-710872655,6278,-26876,0.545,0.6304576,2.176,2.8030002,0.7,1.12,89,4,0.051000003,0.033,0.039,0.18,5.294804,0,nan,0.0,4,0,1,16,0
689740894,1683119003999882,423585707,-710872658,6305,-26848,0.527,0.6305077,2.1680002,2.7930002,0.7,1.12,89,4,0.037,0.035,-0.013,0.14500001,5.294804,0,nan,0.0,4,0,1,16,0
690337614,1683119004599881,423585716,-710872665,6279,-26874,0.61,0.6305808,2.1590002,2.7870002,0.7,1.12,89,4,0.223,0.21400002,-0.061000004,0.231,5.294804,0,nan,0.0,4,0,1,16,0
690739614,1683119004999883,423585729,-710872677,6263,-26890,0.66200006,0.6306375,2.1550002,2.7810001,0.7,1.12,89,4,0.257,0.19800001,-0.164,0.015000001,5.294804,0,nan,0.0,4,0,1,16,0
691340641,1683119005599882,423585764,-710872698,5918,-27235,0.58500004,0.6307037,2.121,2.7500002,0.7,1.12,89,6,0.072000004,-0.047000002,0.055000003,0.11400001,5.294804,0,nan,0.0,4,0,1,16,0
691744614,1683119005999883,423585763,-710872700,5971,-27182,0.63000005,0.63075763,2.115,2.7440002,0.7,1.12,89,6,0.042000003,0.030000001,-0.029000001,-0.053000003,5.294804,0,nan,0.0,4,0,1,16,0
692334382,1683119006599883,423585775,-710872716,6132,-27022,0.684,0.63084346,2.1160002,2.739,0.7,1.12,89,7,0.19500001,0.155,-0.11800001,0.014,5.294804,0,nan,0.0,4,0,1,16,0
692740614,1683119006999884,423585782,-710872724,6139,-27014,0.73800004,0.63089776,2.1190002,2.7380002,0.75,1.13,89,7,0.19600001,0.147,-0.13000001,-0.027,5.294804,0,nan,0.0,4,0,1,15,0
693345614,1683119007599884,423585785,-710872733,6254,-26899,0.72200006,0.6309843,2.125,2.729,0.75,1.13,89,6,0.155,0.11100001,-0.108,-0.051000003,5.294804,0,nan,0.0,4,0,1,15,0
693742619,1683119007999885,423585789,-710872743,6384,-26770,0.58400005,0.6310407,2.13,2.7240002,0.75,1.13,89,6,0.079,-0.07700001,0.016,-0.127,5.294804,0,nan,0.0,4,0,1,15,0
694332613,1683119008599884,423585818,-710872766,6254,-26899,0.514,0.6311142,2.127,2.7170002,0.75,1.13,89,6,0.030000001,0.021000002,-0.021000002,-0.11400001,5.294804,0,nan,0.0,4,0,1,15,0
694733145,1683119008999886,423585835,-710872778,6258,-26895,0.68200004,0.6311702,2.1260002,2.7110002,0.75,1.13,89,6,0.108,0.065000005,-0.086,-0.043,5.294804,0,nan,0.0,4,0,1,15,0
695334848,1683119009599885,423585835,-710872784,6325,-26828,0.583,0.63126063,2.135,2.7020001,0.75,1.13,89,4,0.039,-0.039,-0.007,0.002,5.294804,0,nan,0.0,4,0,1,15,0
695732630,1683119009999886,423585846,-710872792,6293,-26860,0.66700006,0.63131577,2.1330001,2.6920002,0.75,1.13,89,4,0.11000001,-0.105000004,0.033,0.019000001,5.294804,0,nan,0.0,4,0,1,15,0
696335729,1683119010599886,423585858,-710872803,6398,-26755,0.59300005,0.7735336,2.15,2.6880002,0.75,1.13,88,3,0.12900001,0.07300001,-0.106000006,-0.120000005,5.460299,0,nan,0.0,4,0,1,15,0
696734615,1683119010999887,423585869,-710872810,6322,-26832,0.61800003,0.77356726,2.147,2.6810002,0.75,1.13,88,3,0.07700001,-0.068,0.035,0.034,5.460299,0,nan,0.0,4,0,1,15,0
697134614,1683119011399886,423585873,-710872815,6339,-26815,0.509,0.77360445,2.147,2.6720002,0.75,1.13,88,3,0.039,-0.030000001,-0.025,-0.07300001,5.460299,0,nan,0.0,4,0,1,15,0
697749199,1683119011999888,423585878,-710872828,6538,-26615,0.558,0.77366954,2.151,2.6520002,0.75,1.13,88,3,0.044000003,-0.041,0.015000001,-0.089,5.460299,0,nan,0.0,4,0,1,15,0
698334613,1683119012599887,423585885,-710872837,6686,-26467,0.43100002,0.77373517,2.1490002,2.631,0.75,1.13,88,3,0.037,0.013,0.034,-0.125,5.460299,0,nan,0.0,4,0,1,15,0
698742614,1683119012999889,423585890,-710872846,6783,-26370,0.58500004,0.77377725,2.1490002,2.618,0.75,1.13,88,3,0.097,0.054,-0.081,-0.09200001,5.460299,0,nan,0.0,4,0,1,15,0
699146614,1683119013399888,423585890,-710872851,6874,-26279,0.69100004,0.77382433,2.148,2.611,0.75,1.13,88,3,0.30600002,-0.29500002,0.085,-0.057000004,5.460299,0,nan,0.0,4,0,1,15,0
699742615,1683119013999889,423585889,-710872861,7048,-26105,0.54,0.77388126,2.144,2.5960002,0.75,1.13,88,4,0.033,0.032,-0.010000001,-0.105000004,5.460299,0,nan,0.0,4,0,1,15,0
700347151,1683119014599889,423585879,-710872863,7301,-25852,0.67,0.69047105,2.1520002,2.5860002,0.75,1.13,88,4,0.097,-0.043,0.087000005,0.004,3.859279,0,nan,0.0,4,0,1,15,0
700759881,1683119014999890,423585874,-710872864,7372,-25781,0.804,0.6905318,2.1590002,2.5830002,0.75,1.12,88,4,0.081,-0.076000005,0.027,0.026,3.859279,0,nan,0.0,4,0,1,15,0
701346620,1683119015599889,423585868,-710872866,7416,-25738,0.846,0.45713487,2.173,2.5830002,0.7,1.12,88,4,0.20600002,0.17400001,-0.11100001,0.0050000004,3.0707662,0,nan,0.0,4,0,1,16,0
701766615,1683119015999891,423585869,-710872870,7492,-25662,0.71000004,0.4572101,2.1790001,2.5860002,0.7,1.12,88,4,0.063,0.062000003,-0.014,-0.032,3.0707662,0,nan,0.0,4,0,1,16,0
702155615,1683119016399890,423585873,-710872875,7525,-25629,0.75500005,0.45730346,2.184,2.591,0.7,1.12,88,4,0.264,0.22000001,-0.14600001,-0.057000004,3.0707662,0,nan,0.0,4,0,1,16,0
702749613,1683119016999892,423585876,-710872880,7541,-25612,0.64400005,0.457426,2.1850002,2.5900002,0.7,1.12,88,4,0.172,0.136,-0.105000004,-0.147,3.0707662,0,nan,0.0,4,0,1,16,0
703149615,1683119017399891,423585874,-710872879,7585,-25568,0.785,0.4575115,2.19,2.592,0.7,1.12,88,4,0.048,-0.033,0.035,-0.061000004,3.0707662,0,nan,0.0,4,0,1,16,0
703761620,1683119017999892,423585869,-710872876,7516,-25637,0.67800003,0.457637,2.1990001,2.585,0.7,1.12,88,4,0.102000006,-0.101,0.016,-0.081,3.0707662,0,nan,0.0,4,0,1,16,0
704152614,1683119018399892,423585863,-710872875,7554,-25599,0.84000003,0.45773843,2.203,2.5790002,0.71999997,1.12,88,4,0.18900001,-0.177,0.066,-0.035,3.0707662,0,nan,0.0,4,0,1,15,0
