timestamp,timestamp_sample,gps_hvel[0],gps_hvel[1],gps_vvel,gps_hpos[0],gps_hpos[1],gps_vpos,ev_hvel[0],ev_hvel[1],ev_vvel,ev_hpos[0],ev_hpos[1],ev_vpos,rng_vpos,baro_vpos,aux_hvel[0],aux_hvel[1],aux_vvel,flow[0],flow[1],heading,mag_field[0],mag_field[1],mag_field[2],drag[0],drag[1],airspeed,beta,hagl,hagl_rate
539758360,539658143,0.09055224,-0.10450064,-0.21210285,-0.1931181,0.24804282,0.0,0.0,0.0,0.0,0.0,0.0,0.0,0.0,0.27001953,0.0,0.0,nan,0.0,0.0,0.052805185,0.0,0.0,0.0,0.0,0.0,0.0,0.0,0.0,0.0
540258271,540158085,-0.00010612607,0.009864672,-0.08816646,-0.23626924,0.30091166,0.0,0.0,0.0,0.0,0.0,0.0,0.0,0.0,0.12432861,0.0,0.0,nan,0.0,0.0,0.06072569,0.0,0.0,0.0,0.0,0.0,0.0,0.0,0.0,0.0
540758220,540658028,0.06887313,0.052506406,-0.02302811,-0.2784834,0.33914733,0.0,0.0,0.0,0.0,0.0,0.0,0.0,0.0,0.055160522,0.0,0.0,nan,0.0,0.0,0.07287192,0.0,0.0,0.0,0.0,0.0,0.0,0.0,0.0,0.0
541258154,541157970,0.03076604,0.042013086,0.022544613,-0.2803018,0.31219053,0.0,0.0,0.0,0.0,0.0,0.0,0.0,0.0,0.035850525,0.0,0.0,nan,0.0,0.0,0.04800868,0.0,0.0,0.0,0.0,0.0,0.0,0.0,0.0,0.0
541758124,541657913,0.011517733,0.019245308,0.005403402,-0.20806432,0.25775504,0.0,0.0,0.0,0.0,0.0,0.0,0.0,0.0,-0.044532776,0.0,0.0,nan,0.0,0.0,0.024867773,0.0,0.0,0.0,0.0,0.0,0.0,0.0,0.0,0.0
542258056,542157858,0.05858432,0.10472284,0.07852331,-0.18982339,0.25008464,0.0,0.0,0.0,0.0,0.0,0.0,0.0,0.0,0.020469666,0.0,0.0,nan,0.0,0.0,0.027428627,0.0,0.0,0.0,0.0,0.0,0.0,0.0,0.0,0.0
542757986,542657798,0.019652259,-0.09707928,0.020780193,-0.16507006,0.21445966,0.0,0.0,0.0,0.0,0.0,0.0,0.0,0.0,0.027404785,0.0,0.0,nan,0.0,0.0,0.033658266,0.0,0.0,0.0,0.0,0.0,0.0,0.0,0.0,0.0
543257927,543157741,0.19036078,0.025840856,-0.018650081,-0.11814904,0.20661664,0.0,0.0,0.0,0.0,0.0,0.0,0.0,0.0,0.041015625,0.0,0.0,nan,0.0,0.0,0.031531096,0.0,0.0,0.0,0.0,0.0,0.0,0.0,0.0,0.0
543757866,543657683,-0.009818689,-0.067668065,-0.028046198,-0.1027329,0.14733338,0.0,0.0,0.0,0.0,0.0,0.0,0.0,0.0,0.12110138,0.0,0.0,nan,0.0,0.0,0.034338474,0.0,0.0,0.0,0.0,0.0,0.0,0.0,0.0,0.0
544257885,544157626,-0.010515021,-0.17320132,-0.005073677,-0.00083851814,0.1083796,0.0,0.0,0.0,0.0,0.0,0.0,0.0,0.0,0.026046753,0.0,0.0,nan,0.0,0.0,0.021214485,0.0,0.0,0.0,0.0,0.0,0.0,0.0,0.0,0.0
544757772,544657569,-0.122135386,-0.07242774,-0.015800808,0.050156593,0.085350275,0.0,0.0,0.0,0.0,0.0,0.0,0.0,0.0,0.1125412,0.0,0.0,nan,0.0,0.0,0.026560307,0.0,0.0,0.0,0.0,0.0,0.0,0.0,0.0,0.0
545257764,545157512,-0.11723659,-0.10764537,-0.03974845,0.07259154,0.09237528,0.0,0.0,0.0,0.0,0.0,0.0,0.0,0.0,0.1836853,0.0,0.0,nan,0.0,0.0,0.024280071,0.0,0.0,0.0,0.0,0.0,0.0,0.0,0.0,0.0
545757693,545657454,-0.0073147975,0.03911886,-0.0057685785,0.086502075,0.1008873,0.0,0.0,0.0,0.0,0.0,0.0,0.0,0.0,0.09629059,0.0,0.0,nan,0.0,0.0,0.022521734,0.0,0.0,0.0,0.0,0.0,0.0,0.0,0.0,0.0
546257600,546157397,-0.01611766,-0.04933457,-0.0028074188,0.044490576,0.087014675,0.0,0.0,0.0,0.0,0.0,0.0,0.0,0.0,0.23500824,0.0,0.0,nan,0.0,0.0,0.03540373,0.0,0.0,0.0,0.0,0.0,0.0,0.0,0.0,0.0
546757542,546657340,-0.06823655,-0.11342317,-0.09822449,-0.03412795,0.033745766,0.0,0.0,0.0,0.0,0.0,0.0,0.0,0.0,0.20539856,0.0,0.0,nan,0.0,0.0,0.017366648,0.0,0.0,0.0,0.0,0.0,0.0,0.0,0.0,0.0
547257501,547157283,0.00021964312,-0.1464521,-0.15731272,-0.058624744,0.0242455,0.0,0.0,0.0,0.0,0.0,0.0,0.0,0.0,-0.10102844,0.0,0.0,nan,0.0,0.0,0.021415472,0.0,0.0,0.0,0.0,0.0,0.0,0.0,0.0,0.0
547757416,547657226,-0.18974312,-0.0040860195,-0.11926985,-0.09080601,0.0026819706,0.0,0.0,0.0,0.0,0.0,0.0,0.0,0.0,0.06700134,0.0,0.0,nan,0.0,0.0,0.026228905,0.0,0.0,0.0,0.0,0.0,0.0,0.0,0.0,0.0
548257352,548157169,-0.12053107,-0.0623501,-0.15960684,-0.10296345,0.010665655,0.0,0.0,0.0,0.0,0.0,0.0,0.0,0.0,0.08911133,0.0,0.0,nan,0.0,0.0,0.02524209,0.0,0.0,0.0,0.0,0.0,0.0,0.0,0.0,0.0
548757296,548657112,0.070250325,0.008701537,-0.14703873,-0.09232831,0.016447783,0.0,0.0,0.0,0.0,0.0,0.0,0.0,0.0,0.36224365,0.0,0.0,nan,0.0,0.0,0.021020412,0.0,0.0,0.0,0.0,0.0,0.0,0.0,0.0,0.0
549257289,549157055,0.15416855,0.058343373,-0.15956439,-0.07934475,0.0670414,0.0,0.0,0.0,0.0,0.0,0.0,0.0,0.0,0.17770386,0.0,0.0,nan,0.0,0.0,0.024562836,0.0,0.0,0.0,0.0,0.0,0.0,0.0,0.0,0.0
549757187,549656998,-0.034769367,0.088202015,-0.052034263,-0.14704871,0.08595443,0.0,0.0,0.0,0.0,0.0,0.0,0.0,0.0,0.2507248,0.0,0.0,nan,0.0,0.0,0.042852163,0.0,0.0,0.0,0.0,0.0,0.0,0.0,0.0,0.0
550257176,550156941,-0.085755214,0.010264114,-0.08583979,-0.12745428,0.04764223,0.0,0.0,0.0,0.0,0.0,0.0,0.0,0.0,0.1929779,0.0,0.0,nan,0.0,0.0,0.041490078,0.0,0.0,0.0,0.0,0.0,0.0,0.0,0.0,0.0
550757184,550656885,0.045874853,0.06351075,-0.08116435,-0.092763424,0.0925107,0.0,0.0,0.0,0.0,0.0,0.0,0.0,0.0,0.40616608,0.0,0.0,nan,0.0,0.0,0.04178953,0.0,0.0,0.0,0.0,0.0,0.0,0.0,0.0,0.0
551257123,551156831,0.054258868,-0.033435747,-0.011259152,-0.09261656,0.11683726,0.0,0.0,0.0,0.0,0.0,0.0,0.0,0.0,0.040977478,0.0,0.0,nan,0.0,0.0,0.04319215,0.0,0.0,0.0,0.0,0.0,0.0,0.0,0.0,0.0
551757031,551656771,0.015547689,0.00873903,-0.07369526,-0.12196922,0.16034794,0.0,0.0,0.0,0.0,0.0,0.0,0.0,0.0,0.05644226,0.0,0.0,nan,0.0,0.0,0.025822163,0.0,0.0,0.0,0.0,0.0,0.0,0.0,0.0,0.0
552256953,552156715,-0.06728999,0.027078088,0.004796151,-0.12909794,0.19507647,0.0,0.0,0.0,0.0,0.0,0.0,0.0,0.0,0.043525696,0.0,0.0,nan,0.0,0.0,0.019851208,0.0,0.0,0.0,0.0,0.0,0.0,0.0,0.0,0.0
552756844,552656658,0.10962692,0.07625507,-0.08658843,-0.04147911,0.23741579,0.0,0.0,0.0,0.0,0.0,0.0,0.0,0.0,0.27044678,0.0,0.0,nan,0.0,0.0,0.033845186,0.0,0.0,0.0,0.0,0.0,0.0,0.0,0.0,0.0
553256817,553156602,-0.02965226,-0.059167333,-0.050341345,-0.037214756,0.2141571,0.0,0.0,0.0,0.0,0.0,0.0,0.0,0.0,0.04991913,0.0,0.0,nan,0.0,0.0,0.023482084,0.0,0.0,0.0,0.0,0.0,0.0,0.0,0.0,0.0
553756735,553656545,-0.011225764,0.115381904,0.043281227,0.00687027,0.20155597,0.0,0.0,0.0,0.0,0.0,0.0,0.0,0.0,0.27352142,0.0,0.0,nan,0.0,0.0,0.0218544,0.0,0.0,0.0,0.0,0.0,0.0,0.0,0.0,0.0
554256685,554156489,0.18849184,0.0073870197,-0.014557594,0.054555416,0.17198014,0.0,0.0,0.0,0.0,0.0,0.0,0.0,0.0,0.17893219,0.0,0.0,nan,0.0,0.0,0.021745682,0.0,0.0,0.0,0.0,0.0,0.0,0.0,0.0,0.0
554756627,554656432,-0.0020359904,-0.071420886,0.048194423,0.1150918,0.11577296,0.0,0.0,0.0,0.0,0.0,0.0,0.0,0.0,0.20258331,0.0,0.0,nan,0.0,0.0,0.020959616,0.0,0.0,0.0,0.0,0.0,0.0,0.0,0.0,0.0
555256607,555156376,-0.19864246,0.12155473,-0.113630444,0.13096952,0.06785488,0.0,0.0,0.0,0.0,0.0,0.0,0.0,0.0,0.3358841,0.0,0.0,nan,0.0,0.0,0.025726795,0.0,0.0,0.0,0.0,0.0,0.0,0.0,0.0,0.0
555756520,555656320,-0.015465762,0.02573746,0.033537302,0.0695703,0.072372675,0.0,0.0,0.0,0.0,0.0,0.0,0.0,0.0,0.17139435,0.0,0.0,nan,0.0,0.0,0.026704311,0.0,0.0,0.0,0.0,0.0,0.0,0.0,0.0,0.0
556256452,556156264,-0.07085624,0.1374537,0.04310913,0.024001598,0.09854555,0.0,0.0,0.0,0.0,0.0,0.0,0.0,0.0,0.25026703,0.0,0.0,nan,0.0,0.0,0.021685839,0.0,0.0,0.0,0.0,0.0,0.0,0.0,0.0,0.0
556756391,556656207,-0.057228237,-0.00655951,-0.026373835,-0.060107708,0.09863067,0.0,0.0,0.0,0.0,0.0,0.0,0.0,0.0,0.03929901,0.0,0.0,nan,0.0,0.0,0.0113732815,0.0,0.0,0.0,0.0,0.0,0.0,0.0,0.0,0.0
557256473,557156151,0.0666421,-0.20391476,-0.054462,-0.094750404,0.104515314,0.0,0.0,0.0,0.0,0.0,0.0,0.0,0.0,0.02658081,0.0,0.0,nan,0.0,0.0,0.018720388,0.0,0.0,0.0,0.0,0.0,0.0,0.0,0.0,0.0
557756315,557656095,-0.08340836,0.10388626,0.015617836,-0.14315176,0.098958254,0.0,0.0,0.0,0.0,0.0,0.0,0.0,0.0,0.069869995,0.0,0.0,nan,0.0,0.0,0.017344475,0.0,0.0,0.0,0.0,0.0,0.0,0.0,0.0,0.0
558256254,558156039,-0.05073537,-0.06942103,-0.11142337,-0.16185427,0.046139956,0.0,0.0,0.0,0.0,0.0,0.0,0.0,0.0,-0.0413208,0.0,0.0,nan,0.0,0.0,0.016080618,0.0,0.0,0.0,0.0,0.0,0.0,0.0,0.0,0.0
558756223,558655983,0.0247746,0.18803804,0.018580422,-0.06283569,0.07635498,0.0,0.0,0.0,0.0,0.0,0.0,0.0,0.0,0.06034851,0.0,0.0,nan,0.0,0.0,0.009099722,0.0,0.0,0.0,0.0,0.0,0.0,0.0,0.0,0.0
559256128,559155927,-0.011784085,0.14437224,0.057040818,-0.016683578,0.08354139,0.0,0.0,0.0,0.0,0.0,0.0,0.0,0.0,0.10913086,0.0,0.0,nan,0.0,0.0,0.026391506,0.0,0.0,0.0,0.0,0.0,0.0,0.0,0.0,0.0
559756203,559655871,-0.05344817,-0.052188635,-0.06925405,0.012516975,0.031255722,0.0,0.0,0.0,0.0,0.0,0.0,0.0,0.0,-0.027793884,0.0,0.0,nan,0.0,0.0,0.020102262,0.0,0.0,0.0,0.0,0.0,0.0,0.0,0.0,0.0
560256015,560155816,-0.11380651,0.14555795,0.0050435956,0.051407814,0.000541687,0.0,0.0,0.0,0.0,0.0,0.0,0.0,0.0,0.02594757,0.0,0.0,nan,0.0,0.0,0.013548136,0.0,0.0,0.0,0.0,0.0,0.0,0.0,0.0,0.0
560755973,560655760,-0.13970768,-0.018559938,-0.0099924635,0.052979946,-0.02169609,0.0,0.0,0.0,0.0,0.0,0.0,0.0,0.0,0.16460419,0.0,0.0,nan,0.0,0.0,0.024607658,0.0,0.0,0.0,0.0,0.0,0.0,0.0,0.0,0.0
561255940,561155704,0.10317683,0.16866502,0.020042624,0.14012337,-0.025271177,0.0,0.0,0.0,0.0,0.0,0.0,0.0,0.0,-0.008460999,0.0,0.0,nan,0.0,0.0,0.019590616,0.0,0.0,0.0,0.0,0.0,0.0,0.0,0.0,0.0
561755832,561655648,0.008770968,-0.081680514,-0.09672787,0.12863398,-0.06692815,0.0,0.0,0.0,0.0,0.0,0.0,0.0,0.0,-0.09275055,0.0,0.0,nan,0.0,0.0,0.0159266,0.0,0.0,0.0,0.0,0.0,0.0,0.0,0.0,0.0
562255779,562155592,0.027557496,0.0112778,0.004114257,0.15285969,-0.09107733,0.0,0.0,0.0,0.0,0.0,0.0,0.0,0.0,0.08078766,0.0,0.0,nan,0.0,0.0,0.02390623,0.0,0.0,0.0,0.0,0.0,0.0,0.0,0.0,0.0
562755756,562655536,0.0053401645,0.03915931,-0.03675774,0.18959284,-0.18406391,0.0,0.0,0.0,0.0,0.0,0.0,0.0,0.0,0.28638458,0.0,0.0,nan,0.0,0.0,0.013164043,0.0,0.0,0.0,0.0,0.0,0.0,0.0,0.0,0.0
563255672,563155484,0.055617556,0.14820486,-0.065150835,0.26051426,-0.23949456,0.0,0.0,0.0,0.0,0.0,0.0,0.0,0.0,0.106933594,0.0,0.0,nan,0.0,0.0,0.02183485,0.0,0.0,0.0,0.0,0.0,0.0,0.0,0.0,0.0
563755663,563655425,-0.081142366,0.0876282,-0.0006647436,0.38559794,-0.29438472,0.0,0.0,0.0,0.0,0.0,0.0,0.0,0.0,-0.24494171,0.0,0.0,nan,0.0,0.0,0.022446632,0.0,0.0,0.0,0.0,0.0,0.0,0.0,0.0,0.0
564255582,564155370,-0.11982529,0.048485518,-0.07713824,0.41104913,-0.2997632,0.0,0.0,0.0,0.0,0.0,0.0,0.0,0.0,0.15042877,0.0,0.0,nan,0.0,0.0,0.032597065,0.0,0.0,0.0,0.0,0.0,0.0,0.0,0.0,0.0
564755635,564655314,-0.16561739,0.25719386,-0.04816652,0.4596839,-0.23954105,0.0,0.0,0.0,0.0,0.0,0.0,0.0,0.0,-0.013252258,0.0,0.0,nan,0.0,0.0,0.022479296,0.0,0.0,0.0,0.0,0.0,0.0,0.0,0.0,0.0
565255494,565155258,-0.009715334,-0.10383774,-0.047670614,0.5127294,-0.24402976,0.0,0.0,0.0,0.0,0.0,0.0,0.0,0.0,0.29232025,0.0,0.0,nan,0.0,0.0,0.034273863,0.0,0.0,0.0,0.0,0.0,0.0,0.0,0.0,0.0
565755392,565655203,0.05051445,0.0076249763,-0.09645697,0.5398264,-0.24227333,0.0,0.0,0.0,0.0,0.0,0.0,0.0,0.0,0.1314621,0.0,0.0,nan,0.0,0.0,0.031612396,0.0,0.0,0.0,0.0,0.0,0.0,0.0,0.0,0.0
566255364,566155147,0.04081081,0.0026817964,-0.114644624,0.5023596,-0.26416278,0.0,0.0,0.0,0.0,0.0,0.0,0.0,0.0,0.23705292,0.0,0.0,nan,0.0,0.0,0.020061731,0.0,0.0,0.0,0.0,0.0,0.0,0.0,0.0,0.0
566755309,566655092,-0.24419793,-0.30832526,-0.032013267,0.40931082,-0.31735063,0.0,0.0,0.0,0.0,0.0,0.0,0.0,0.0,0.091552734,0.0,0.0,nan,0.0,0.0,0.022156954,0.0,0.0,0.0,0.0,0.0,0.0,0.0,0.0,0.0
567255222,567155036,-0.08875683,-0.045953188,-0.10267837,0.37723398,-0.33261776,0.0,0.0,0.0,0.0,0.0,0.0,0.0,0.0,0.16012573,0.0,0.0,nan,0.0,0.0,0.027915955,0.0,0.0,0.0,0.0,0.0,0.0,0.0,0.0,0.0
567755169,567654981,-0.36042216,-0.5245704,-0.08995392,0.3582313,-0.41325927,0.0,0.0,0.0,0.0,0.0,0.0,0.0,0.0,0.029472351,0.0,0.0,nan,0.0,0.0,0.014507771,0.0,0.0,0.0,0.0,0.0,0.0,0.0,0.0,0.0
568255110,568154925,0.10659777,0.12704341,-0.086790666,0.38069868,-0.3926196,0.0,0.0,0.0,0.0,0.0,0.0,0.0,0.0,0.23675537,0.0,0.0,nan,0.0,0.0,0.010873079,0.0,0.0,0.0,0.0,0.0,0.0,0.0,0.0,0.0
568755102,568654870,0.1633067,1.0095797,-0.09049619,0.35463285,-0.31257677,0.0,0.0,0.0,0.0,0.0,0.0,0.0,0.0,0.09158325,0.0,0.0,nan,0.0,0.0,0.02537632,0.0,0.0,0.0,0.0,0.0,0.0,0.0,0.0,0.0
569255016,569154815,-0.1677623,0.041373484,-0.20890047,0.31467223,-0.38064623,0.0,0.0,0.0,0.0,0.0,0.0,0.0,0.0,0.16027069,0.0,0.0,nan,0.0,0.0,0.020559072,0.0,0.0,0.0,0.0,0.0,0.0,0.0,0.0,0.0
569754945,569654761,-0.006246146,0.08403187,-0.12794486,0.279696,-0.3390932,0.0,0.0,0.0,0.0,0.0,0.0,0.0,0.0,0.108177185,0.0,0.0,nan,0.0,0.0,0.020828009,0.0,0.0,0.0,0.0,0.0,0.0,0.0,0.0,0.0
570254960,570154704,0.007331576,-0.20356728,-0.054877523,0.31001782,-0.3511486,0.0,0.0,0.0,0.0,0.0,0.0,0.0,0.0,0.4206009,0.0,0.0,nan,0.0,0.0,0.019185781,0.0,0.0,0.0,0.0,0.0,0.0,0.0,0.0,0.0
570754871,570654649,-0.2050088,0.086729966,-0.06087859,0.22023845,-0.26911783,0.0,0.0,0.0,0.0,0.0,0.0,0.0,0.0,0.1833725,0.0,0.0,nan,0.0,0.0,0.022716045,0.0,0.0,0.0,0.0,0.0,0.0,0.0,0.0,0.0
571254777,571154593,-0.13175094,0.010247175,-0.18941313,0.18489146,-0.24183321,0.0,0.0,0.0,0.0,0.0,0.0,0.0,0.0,0.1741333,0.0,0.0,nan,0.0,0.0,0.014478445,0.0,0.0,0.0,0.0,0.0,0.0,0.0,0.0,0.0
571754777,571654538,-0.06397725,0.051116977,-0.08511689,0.14602399,-0.146765,0.0,0.0,0.0,0.0,0.0,0.0,0.0,0.0,0.108551025,0.0,0.0,nan,0.0,0.0,0.011746407,0.0,0.0,0.0,0.0,0.0,0.0,0.0,0.0,0.0
572254703,572154482,0.16033949,-0.09407914,-0.10293463,0.19380188,-0.16330576,0.0,0.0,0.0,0.0,0.0,0.0,0.0,0.0,0.16332245,0.0,0.0,nan,0.0,0.0,0.020545483,0.0,0.0,0.0,0.0,0.0,0.0,0.0,0.0,0.0
572754620,572654427,0.14274853,0.049246423,-0.046494592,0.19899511,-0.14546847,0.0,0.0,0.0,0.0,0.0,0.0,0.0,0.0,0.3031845,0.0,0.0,nan,0.0,0.0,0.01971674,0.0,0.0,0.0,0.0,0.0,0.0,0.0,0.0,0.0
573254586,573154372,-0.052813444,0.16528031,-0.02463232,0.21757722,-0.18068218,0.0,0.0,0.0,0.0,0.0,0.0,0.0,0.0,0.09946442,0.0,0.0,nan,0.0,0.0,0.008068562,0.0,0.0,0.0,0.0,0.0,0.0,0.0,0.0,0.0
573754522,573654316,-0.080971986,0.026082354,-0.013915423,0.24743819,-0.33039856,0.0,0.0,0.0,0.0,0.0,0.0,0.0,0.0,0.06983948,0.0,0.0,nan,0.0,0.0,0.010735512,0.0,0.0,0.0,0.0,0.0,0.0,0.0,0.0,0.0
574254445,574154261,0.011973178,0.16359009,-0.019128893,0.28641224,-0.413684,0.0,0.0,0.0,0.0,0.0,0.0,0.0,0.0,0.16783905,0.0,0.0,nan,0.0,0.0,0.008723259,0.0,0.0,0.0,0.0,0.0,0.0,0.0,0.0,0.0
574754428,574654206,-0.08798519,-0.04477703,0.014399102,0.2791083,-0.41793835,0.0,0.0,0.0,0.0,0.0,0.0,0.0,0.0,0.25919342,0.0,0.0,nan,0.0,0.0,-0.026004553,0.0,0.0,0.0,0.0,0.0,0.0,0.0,0.0,0.0
575254335,575154150,0.031536207,-0.047768526,0.04951131,0.26173997,-0.4176755,0.0,0.0,0.0,0.0,0.0,0.0,0.0,0.0,0.2322464,0.0,0.0,nan,0.0,0.0,-0.01833272,0.0,0.0,0.0,0.0,0.0,0.0,0.0,0.0,0.0
575754282,575654095,-0.02478474,-0.31272566,-0.071690165,0.2552526,-0.42971516,0.0,0.0,0.0,0.0,0.0,0.0,0.0,0.0,0.17897797,0.0,0.0,nan,0.0,0.0,-0.0028324127,0.0,0.0,0.0,0.0,0.0,0.0,0.0,0.0,0.0
576254236,576154039,-0.13100165,-0.08734169,-0.090864144,0.24463677,-0.388456,0.0,0.0,0.0,0.0,0.0,0.0,0.0,0.0,-0.30541992,0.0,0.0,nan,0.0,0.0,-0.03453493,0.0,0.0,0.0,0.0,0.0,0.0,0.0,0.0,0.0
576754176,576653984,0.11785084,-0.020930767,0.0046238275,0.2737484,-0.4052242,0.0,0.0,0.0,0.0,0.0,0.0,0.0,0.0,0.051765442,0.0,0.0,nan,0.0,0.0,-0.024354458,0.0,0.0,0.0,0.0,0.0,0.0,0.0,0.0,0.0
577254112,577153929,-0.07622508,-0.10781609,0.090107225,0.21468472,-0.39141798,0.0,0.0,0.0,0.0,0.0,0.0,0.0,0.0,0.0849762,0.0,0.0,nan,0.0,0.0,-0.009477377,0.0,0.0,0.0,0.0,0.0,0.0,0.0,0.0,0.0
577754082,577653873,0.068108656,-0.20363073,-0.053941227,0.11104298,-0.41649425,0.0,0.0,0.0,0.0,0.0,0.0,0.0,0.0,0.35806274,0.0,0.0,nan,0.0,0.0,-0.015084982,0.0,0.0,0.0,0.0,0.0,0.0,0.0,0.0,0.0
578254210,578153818,-0.08693594,-0.0021978468,0.009647142,0.08127427,-0.37910867,0.0,0.0,0.0,0.0,0.0,0.0,0.0,0.0,0.20546722,0.0,0.0,nan,0.0,0.0,-0.025797844,0.0,0.0,0.0,0.0,0.0,0.0,0.0,0.0,0.0
578754022,578653762,0.02246013,-0.0454303,0.017476596,0.05805278,-0.36157918,0.0,0.0,0.0,0.0,0.0,0.0,0.0,0.0,0.054244995,0.0,0.0,nan,0.0,0.0,-0.025943995,0.0,0.0,0.0,0.0,0.0,0.0,0.0,0.0,0.0
579253893,579153707,-0.019832391,-0.10741856,-0.10688765,0.07697797,-0.3638004,0.0,0.0,0.0,0.0,0.0,0.0,0.0,0.0,-0.069885254,0.0,0.0,nan,0.0,0.0,-0.022788286,0.0,0.0,0.0,0.0,0.0,0.0,0.0,0.0,0.0
579753888,579653651,-0.007232044,0.15966873,-0.029022468,0.13604426,-0.34485745,0.0,0.0,0.0,0.0,0.0,0.0,0.0,0.0,-0.04953003,0.0,0.0,nan,0.0,0.0,-0.03224373,0.0,0.0,0.0,0.0,0.0,0.0,0.0,0.0,0.0
580253812,580153596,0.010368094,-0.23249799,-0.09935374,0.12184262,-0.41198182,0.0,0.0,0.0,0.0,0.0,0.0,0.0,0.0,-0.14290619,0.0,0.0,nan,0.0,0.0,-0.03415799,0.0,0.0,0.0,0.0,0.0,0.0,0.0,0.0,0.0
580753775,580653540,-0.059801675,-0.102790125,-0.07920878,0.13561392,-0.37326336,0.0,0.0,0.0,0.0,0.0,0.0,0.0,0.0,-0.07379913,0.0,0.0,nan,0.0,0.0,-0.03383231,0.0,0.0,0.0,0.0,0.0,0.0,0.0,0.0,0.0
581253680,581153485,-0.32799947,-0.022870954,-0.16664848,0.005461931,-0.46841896,0.0,0.0,0.0,0.0,0.0,0.0,0.0,0.0,-0.16446686,0.0,0.0,nan,0.0,0.0,-0.048401356,0.0,0.0,0.0,0.0,0.0,0.0,0.0,0.0,0.0
581753633,581653430,0.021110453,-0.21563508,-0.25632665,0.06456232,-0.547932,0.0,0.0,0.0,0.0,0.0,0.0,0.0,0.0,-0.023414612,0.0,0.0,nan,0.0,0.0,-0.013503075,0.0,0.0,0.0,0.0,0.0,0.0,0.0,0.0,0.0
582253654,582153373,0.027296849,-0.087238826,-0.13797359,0.12736273,-0.40090084,0.0,0.0,0.0,0.0,0.0,0.0,0.0,0.0,0.011268616,0.0,0.0,nan,0.0,0.0,-0.0020976067,0.0,0.0,0.0,0.0,0.0,0.0,0.0,0.0,0.0
582763524,582663316,-0.04857456,-0.02634511,-0.013913517,0.22859406,-0.1261847,0.0,0.0,0.0,0.0,0.0,0.0,0.0,0.0,-0.045799255,0.0,0.0,nan,0.0,0.0,-0.014965057,0.0,0.0,0.0,0.0,0.0,0.0,0.0,0.0,0.0
583253454,583153262,-0.01987277,0.14500204,0.08981947,0.18849921,-0.08954108,0.0,0.0,0.0,0.0,0.0,0.0,0.0,0.0,0.04662323,0.0,0.0,nan,0.0,0.0,-0.010707855,0.0,0.0,0.0,0.0,0.0,0.0,0.0,0.0,0.0
583753392,583653206,-0.03648722,-0.1326904,0.021851266,0.18556976,-0.05511689,0.0,0.0,0.0,0.0,0.0,0.0,0.0,0.0,-0.15364838,0.0,0.0,nan,0.0,0.0,-0.006498575,0.0,0.0,0.0,0.0,0.0,0.0,0.0,0.0,0.0
584253364,584153150,0.3532446,0.12785995,0.12451412,0.17527318,0.025380969,0.0,0.0,0.0,0.0,0.0,0.0,0.0,0.0,-0.1725769,0.0,0.0,nan,0.0,0.0,-0.023081541,0.0,0.0,0.0,0.0,0.0,0.0,0.0,0.0,0.0
584753336,584653094,0.22332847,0.044954617,-0.058153264,0.09322381,0.08193636,0.0,0.0,0.0,0.0,0.0,0.0,0.0,0.0,0.07997131,0.0,0.0,nan,0.0,0.0,-0.02020669,0.0,0.0,0.0,0.0,0.0,0.0,0.0,0.0,0.0
585253229,585153038,0.30791593,0.18099013,-0.03058672,0.0889492,0.11622357,0.0,0.0,0.0,0.0,0.0,0.0,0.0,0.0,0.011299133,0.0,0.0,nan,0.0,0.0,-0.037209034,0.0,0.0,0.0,0.0,0.0,0.0,0.0,0.0,0.0
585763213,585662981,0.058136508,-0.00012831693,0.005310204,0.088732004,0.024351597,0.0,0.0,0.0,0.0,0.0,0.0,0.0,0.0,-0.38134766,0.0,0.0,nan,0.0,0.0,-0.03660679,0.0,0.0,0.0,0.0,0.0,0.0,0.0,0.0,0.0
586263109,586162925,0.047478594,-0.04062481,-0.06990237,0.06684065,0.01294899,0.0,0.0,0.0,0.0,0.0,0.0,0.0,0.0,-0.290123,0.0,0.0,nan,0.0,0.0,-0.025134087,0.0,0.0,0.0,0.0,0.0,0.0,0.0,0.0,0.0
586753115,586652870,-0.23791298,0.06730803,-0.14296027,-0.023424149,-0.029251099,0.0,0.0,0.0,0.0,0.0,0.0,0.0,0.0,0.087402344,0.0,0.0,nan,0.0,0.0,-0.042559624,0.0,0.0,0.0,0.0,0.0,0.0,0.0,0.0,0.0
587253023,587152814,-0.25558436,0.012365885,-0.123591855,-0.0075001717,-0.08584249,0.0,0.0,0.0,0.0,0.0,0.0,0.0,0.0,-0.041107178,0.0,0.0,nan,0.0,0.0,-0.05235696,0.0,0.0,0.0,0.0,0.0,0.0,0.0,0.0,0.0
587752944,587652758,-0.08087525,0.09979597,-0.1356857,-0.056063175,-0.07121146,0.0,0.0,0.0,0.0,0.0,0.0,0.0,0.0,-0.08594513,0.0,0.0,nan,0.0,0.0,-0.03558922,0.0,0.0,0.0,0.0,0.0,0.0,0.0,0.0,0.0
588252943,588152701,0.08742483,0.0645252,-0.18619628,-0.009847641,-0.08587706,0.0,0.0,0.0,0.0,0.0,0.0,0.0,0.0,-0.049591064,0.0,0.0,nan,0.0,0.0,-0.03849578,0.0,0.0,0.0,0.0,0.0,0.0,0.0,0.0,0.0
588752835,588652645,-0.16216272,-0.18971518,-0.16866638,0.058713436,-0.16679704,0.0,0.0,0.0,0.0,0.0,0.0,0.0,0.0,-0.02027893,0.0,0.0,nan,0.0,0.0,-0.051126957,0.0,0.0,0.0,0.0,0.0,0.0,0.0,0.0,0.0
589262771,589162587,-0.067238286,0.28796667,-0.0973316,0.11989617,-0.17044139,0.0,0.0,0.0,0.0,0.0,0.0,0.0,0.0,0.23978424,0.0,0.0,nan,0.0,0.0,-0.027170658,0.0,0.0,0.0,0.0,0.0,0.0,0.0,0.0,0.0
589762768,589662531,0.16310674,0.15039197,-0.074420325,0.20700812,-0.16725051,0.0,0.0,0.0,0.0,0.0,0.0,0.0,0.0,0.08242035,0.0,0.0,nan,0.0,0.0,-0.025360584,0.0,0.0,0.0,0.0,0.0,0.0,0.0,0.0,0.0
590252669,590152475,0.042541884,-0.061205365,-0.2602422,0.2215488,-0.19089627,0.0,0.0,0.0,0.0,0.0,0.0,0.0,0.0,-0.002380371,0.0,0.0,nan,0.0,0.0,-0.014268875,0.0,0.0,0.0,0.0,0.0,0.0,0.0,0.0,0.0
590752642,590652418,-0.14841743,-0.042004533,-0.08374137,0.19751525,-0.20039988,0.0,0.0,0.0,0.0,0.0,0.0,0.0,0.0,-0.10095215,0.0,0.0,nan,0.0,0.0,0.0039010048,0.0,0.0,0.0,0.0,0.0,0.0,0.0,0.0,0.0
591252622,591152362,-0.023303237,-0.03222028,-0.14341834,0.32358456,-0.18275523,0.0,0.0,0.0,0.0,0.0,0.0,0.0,0.0,0.022018433,0.0,0.0,nan,0.0,0.0,0.008784533,0.0,0.0,0.0,0.0,0.0,0.0,0.0,0.0,0.0
591752654,591652305,-0.019166809,0.04330951,-0.012050301,0.3264979,-0.3233961,0.0,0.0,0.0,0.0,0.0,0.0,0.0,0.0,0.13858795,0.0,0.0,nan,0.0,0.0,0.0021047592,0.0,0.0,0.0,0.0,0.0,0.0,0.0,0.0,0.0
592262438,592162247,0.27315503,0.25586194,0.053479753,0.37048256,-0.22065759,0.0,0.0,0.0,0.0,0.0,0.0,0.0,0.0,0.043060303,0.0,0.0,nan,0.0,0.0,-0.0036518574,0.0,0.0,0.0,0.0,0.0,0.0,0.0,0.0,0.0
592762373,592662190,0.01031721,0.2815078,0.16904427,0.33020222,-0.115706444,0.0,0.0,0.0,0.0,0.0,0.0,0.0,0.0,0.25037384,0.0,0.0,nan,0.0,0.0,0.032564163,0.0,0.0,0.0,0.0,0.0,0.0,0.0,0.0,0.0
593262316,593162136,0.06132988,0.21247575,0.026634876,0.35388398,-0.022545338,0.0,0.0,0.0,0.0,0.0,0.0,0.0,0.0,-0.06111145,0.0,0.0,nan,0.0,0.0,0.079669,0.0,0.0,0.0,0.0,0.0,0.0,0.0,0.0,0.0
593752279,593652077,0.057527646,-0.08042763,-0.11926131,0.27520442,-0.05061114,0.0,0.0,0.0,0.0,0.0,0.0,0.0,0.0,-0.091560364,0.0,0.0,nan,0.0,0.0,0.021269321,0.0,0.0,0.0,0.0,0.0,0.0,0.0,0.0,0.0
594252237,594152020,0.17686859,-0.0056423843,-0.07118399,0.30449045,-0.039843798,0.0,0.0,0.0,0.0,0.0,0.0,0.0,0.0,-0.013092041,0.0,0.0,nan,0.0,0.0,0.014260054,0.0,0.0,0.0,0.0,0.0,0.0,0.0,0.0,0.0
594762200,594661962,0.2846263,-0.14088717,-0.031687282,0.34678686,-0.060483456,0.0,0.0,0.0,0.0,0.0,0.0,0.0,0.0,0.0691452,0.0,0.0,nan,0.0,0.0,0.0201056,0.0,0.0,0.0,0.0,0.0,0.0,0.0,0.0,0.0
595262090,595161904,0.034106866,-0.17245634,-0.16112809,0.34882617,-0.086296916,0.0,0.0,0.0,0.0,0.0,0.0,0.0,0.0,0.13777924,0.0,0.0,nan,0.0,0.0,-0.006458521,0.0,0.0,0.0,0.0,0.0,0.0,0.0,0.0,0.0
595762031,595661847,-0.48730516,-0.1135446,-0.18893951,0.2506472,-0.09829521,0.0,0.0,0.0,0.0,0.0,0.0,0.0,0.0,0.20558167,0.0,0.0,nan,0.0,0.0,-0.0075900555,0.0,0.0,0.0,0.0,0.0,0.0,0.0,0.0,0.0
596262128,596161789,-0.12201269,-0.4068001,-0.12247519,0.18383229,-0.14711487,0.0,0.0,0.0,0.0,0.0,0.0,0.0,0.0,0.22114563,0.0,0.0,nan,0.0,0.0,-0.0013926029,0.0,0.0,0.0,0.0,0.0,0.0,0.0,0.0,0.0
596761915,596661732,0.011595912,-0.17325363,0.020232353,0.20753503,-0.14832056,0.0,0.0,0.0,0.0,0.0,0.0,0.0,0.0,-0.032463074,0.0,0.0,nan,0.0,0.0,-0.013826847,0.0,0.0,0.0,0.0,0.0,0.0,0.0,0.0,0.0
597251864,597151675,-0.078733355,-0.30056134,0.012057984,0.18238175,-0.16016316,0.0,0.0,0.0,0.0,0.0,0.0,0.0,0.0,0.0050735474,0.0,0.0,nan,0.0,0.0,-0.022070646,0.0,0.0,0.0,0.0,0.0,0.0,0.0,0.0,0.0
597751857,597651618,0.05338066,-0.2457954,-0.08358036,0.1929431,-0.2026496,0.0,0.0,0.0,0.0,0.0,0.0,0.0,0.0,0.07991791,0.0,0.0,nan,0.0,0.0,-0.018160105,0.0,0.0,0.0,0.0,0.0,0.0,0.0,0.0,0.0
598251776,598151560,-0.11711426,-0.25718835,-0.06444102,0.19366634,-0.24258673,0.0,0.0,0.0,0.0,0.0,0.0,0.0,0.0,0.036514282,0.0,0.0,nan,0.0,0.0,-0.0019311905,0.0,0.0,0.0,0.0,0.0,0.0,0.0,0.0,0.0
598761688,598661501,0.017113455,-0.22421883,-0.11455794,0.18971193,-0.3013556,0.0,0.0,0.0,0.0,0.0,0.0,0.0,0.0,0.014152527,0.0,0.0,nan,0.0,0.0,-0.023091078,0.0,0.0,0.0,0.0,0.0,0.0,0.0,0.0,0.0
599261681,599161443,0.17844473,-0.16086715,0.01995912,0.2770121,-0.30109572,0.0,0.0,0.0,0.0,0.0,0.0,0.0,0.0,0.013404846,0.0,0.0,nan,0.0,0.0,-0.020837307,0.0,0.0,0.0,0.0,0.0,0.0,0.0,0.0,0.0
599761568,599661384,-0.07703027,-0.10364013,0.052943725,0.28870094,-0.41767442,0.0,0.0,0.0,0.0,0.0,0.0,0.0,0.0,0.064186096,0.0,0.0,nan,0.0,0.0,-0.004197836,0.0,0.0,0.0,0.0,0.0,0.0,0.0,0.0,0.0
600261575,600161327,0.02219199,-0.07917619,0.033462767,0.35504675,-0.47262192,0.0,0.0,0.0,0.0,0.0,0.0,0.0,0.0,0.11755371,0.0,0.0,nan,0.0,0.0,0.007823706,0.0,0.0,0.0,0.0,0.0,0.0,0.0,0.0,0.0
600751466,600651270,0.109834075,-0.1211676,-0.0128053315,0.4043703,-0.5395943,0.0,0.0,0.0,0.0,0.0,0.0,0.0,0.0,-0.0020141602,0.0,0.0,nan,0.0,0.0,0.009441614,0.0,0.0,0.0,0.0,0.0,0.0,0.0,0.0,0.0
601251396,601151211,0.51264817,-0.21378429,0.32586983,0.46191657,-0.59624195,0.0,0.0,0.0,0.0,0.0,0.0,0.0,0.0,0.03929901,0.0,0.0,nan,0.0,0.0,0.020418882,0.0,0.0,0.0,0.0,0.0,0.0,0.0,0.0,0.0
601761337,601661151,0.078986235,0.0071496926,0.112495184,0.4637853,-0.63947815,0.0,0.0,0.0,0.0,0.0,0.0,0.0,0.0,0.015792847,0.0,0.0,nan,0.0,0.0,0.032773733,0.0,0.0,0.0,0.0,0.0,0.0,0.0,0.0,0.0
602261275,602161093,-0.11581207,-0.11657343,0.05642051,0.38793856,-0.6294212,0.0,0.0,0.0,0.0,0.0,0.0,0.0,0.0,-0.09157562,0.0,0.0,nan,0.0,0.0,0.010404825,0.0,0.0,0.0,0.0,0.0,0.0,0.0,0.0,0.0
602761270,602661034,0.1107062,0.04035926,-0.052759282,0.33049518,-0.60862094,0.0,0.0,0.0,0.0,0.0,0.0,0.0,0.0,0.084472656,0.0,0.0,nan,0.0,0.0,0.026171684,0.0,0.0,0.0,0.0,0.0,0.0,0.0,0.0,0.0
603261207,603160976,-0.02423904,0.2622649,0.06101517,0.34325683,-0.59024775,0.0,0.0,0.0,0.0,0.0,0.0,0.0,0.0,0.0283432,0.0,0.0,nan,0.0,0.0,0.017938375,0.0,0.0,0.0,0.0,0.0,0.0,0.0,0.0,0.0
603761105,603660917,0.00037513673,0.22572121,0.11546002,0.24286282,-0.5200182,0.0,0.0,0.0,0.0,0.0,0.0,0.0,0.0,-0.15279388,0.0,0.0,nan,0.0,0.0,0.03564453,0.0,0.0,0.0,0.0,0.0,0.0,0.0,0.0,0.0
604251096,604150859,-0.14704512,0.30397278,-0.17154783,0.13949704,-0.4814431,0.0,0.0,0.0,0.0,0.0,0.0,0.0,0.0,-0.13178253,0.0,0.0,nan,0.0,0.0,0.032874346,0.0,0.0,0.0,0.0,0.0,0.0,0.0,0.0,0.0
604761048,604660799,-0.10489659,0.22725204,-0.17396523,0.071413815,-0.45245677,0.0,0.0,0.0,0.0,0.0,0.0,0.0,0.0,0.028137207,0.0,0.0,nan,0.0,0.0,0.0113761425,0.0,0.0,0.0,0.0,0.0,0.0,0.0,0.0,0.0
605261028,605160740,-0.6782067,0.2647159,0.12231971,0.036171377,-0.46820664,0.0,0.0,0.0,0.0,0.0,0.0,0.0,0.0,0.13974762,0.0,0.0,nan,0.0,0.0,0.025900126,0.0,0.0,0.0,0.0,0.0,0.0,0.0,0.0,0.0
605760882,605660680,0.17741778,-0.12199278,-0.12131855,0.15590584,-0.3502474,0.0,0.0,0.0,0.0,0.0,0.0,0.0,0.0,-0.28972626,0.0,0.0,nan,0.0,0.0,0.006226063,0.0,0.0,0.0,0.0,0.0,0.0,0.0,0.0,0.0
606260813,606160621,0.030715175,0.123192094,-0.008678859,0.096842766,-0.24252859,0.0,0.0,0.0,0.0,0.0,0.0,0.0,0.0,-0.17918396,0.0,0.0,nan,0.0,0.0,0.0006556511,0.0,0.0,0.0,0.0,0.0,0.0,0.0,0.0,0.0
606760751,606660562,0.31276104,-0.15446845,-0.07394624,0.102262795,-0.055962563,0.0,0.0,0.0,0.0,0.0,0.0,0.0,0.0,0.14381409,0.0,0.0,nan,0.0,0.0,0.017416,0.0,0.0,0.0,0.0,0.0,0.0,0.0,0.0,0.0
607260704,607160503,-0.07172489,0.13956118,-0.048986033,0.13072178,0.105165124,0.0,0.0,0.0,0.0,0.0,0.0,0.0,0.0,-0.044548035,0.0,0.0,nan,0.0,0.0,-0.011259079,0.0,0.0,0.0,0.0,0.0,0.0,0.0,0.0,0.0
607750648,607650444,-0.08142186,0.25544763,0.12292151,0.1596657,0.19495946,0.0,0.0,0.0,0.0,0.0,0.0,0.0,0.0,0.053977966,0.0,0.0,nan,0.0,0.0,-0.004869938,0.0,0.0,0.0,0.0,0.0,0.0,0.0,0.0,0.0
608260570,608160383,0.057008356,0.025160179,0.043948017,0.17408115,0.21611089,0.0,0.0,0.0,0.0,0.0,0.0,0.0,0.0,0.010406494,0.0,0.0,nan,0.0,0.0,0.0023312569,0.0,0.0,0.0,0.0,0.0,0.0,0.0,0.0,0.0
608760536,608660327,-0.048737492,0.0943182,-0.047485884,0.068941355,0.28926277,0.0,0.0,0.0,0.0,0.0,0.0,0.0,0.0,0.27163696,0.0,0.0,nan,0.0,0.0,-0.0066184998,0.0,0.0,0.0,0.0,0.0,0.0,0.0,0.0,0.0
609260582,609160264,-0.00156755,0.08322059,0.016452327,0.071538806,0.3894279,0.0,0.0,0.0,0.0,0.0,0.0,0.0,0.0,0.3128128,0.0,0.0,nan,0.0,0.0,-0.026005745,0.0,0.0,0.0,0.0,0.0,0.0,0.0,0.0,0.0
609760401,609660204,0.19386137,-0.010579035,-0.10488935,0.08140963,0.46860456,0.0,0.0,0.0,0.0,0.0,0.0,0.0,0.0,-0.032546997,0.0,0.0,nan,0.0,0.0,-0.012488127,0.0,0.0,0.0,0.0,0.0,0.0,0.0,0.0,0.0
610260326,610160144,0.06277308,0.116477266,-0.004330164,0.12785137,0.4987288,0.0,0.0,0.0,0.0,0.0,0.0,0.0,0.0,0.013504028,0.0,0.0,nan,0.0,0.0,0.0009396076,0.0,0.0,0.0,0.0,0.0,0.0,0.0,0.0,0.0
610760352,610660084,0.072207764,0.12486257,-0.09622264,0.10563591,0.48708755,0.0,0.0,0.0,0.0,0.0,0.0,0.0,0.0,0.025001526,0.0,0.0,nan,0.0,0.0,0.002699852,0.0,0.0,0.0,0.0,0.0,0.0,0.0,0.0,0.0
611260223,611160023,0.08002628,-0.015640214,-0.042691354,0.09922549,0.4912181,0.0,0.0,0.0,0.0,0.0,0.0,0.0,0.0,0.08304596,0.0,0.0,nan,0.0,0.0,0.010545254,0.0,0.0,0.0,0.0,0.0,0.0,0.0,0.0,0.0
611760186,611659963,0.0002106484,0.048085924,-0.124037676,0.10893372,0.52038425,0.0,0.0,0.0,0.0,0.0,0.0,0.0,0.0,0.16295624,0.0,0.0,nan,0.0,0.0,0.02620864,0.0,0.0,0.0,0.0,0.0,0.0,0.0,0.0,0.0
612260087,612159902,-0.02458715,-0.060065676,0.08651152,0.13539192,0.5201265,0.0,0.0,0.0,0.0,0.0,0.0,0.0,0.0,-0.1581726,0.0,0.0,nan,0.0,0.0,0.026838064,0.0,0.0,0.0,0.0,0.0,0.0,0.0,0.0,0.0
612760080,612659845,-0.008500252,0.038441353,0.1077839,0.061689556,0.4879455,0.0,0.0,0.0,0.0,0.0,0.0,0.0,0.0,0.07518768,0.0,0.0,nan,0.0,0.0,0.036383867,0.0,0.0,0.0,0.0,0.0,0.0,0.0,0.0,0.0
613259965,613159781,-0.22740969,0.2732225,0.20712885,-0.0063476562,0.5174298,0.0,0.0,0.0,0.0,0.0,0.0,0.0,0.0,0.04891205,0.0,0.0,nan,0.0,0.0,0.031182766,0.0,0.0,0.0,0.0,0.0,0.0,0.0,0.0,0.0
613759929,613659721,0.25145537,-0.23956954,0.13269095,0.052408934,0.51148665,0.0,0.0,0.0,0.0,0.0,0.0,0.0,0.0,-0.14963531,0.0,0.0,nan,0.0,0.0,0.010713816,0.0,0.0,0.0,0.0,0.0,0.0,0.0,0.0,0.0
614260039,614159660,0.23023145,-0.12045257,0.058281004,0.063637376,0.48713112,0.0,0.0,0.0,0.0,0.0,0.0,0.0,0.0,0.028518677,0.0,0.0,nan,0.0,0.0,0.021731138,0.0,0.0,0.0,0.0,0.0,0.0,0.0,0.0,0.0
614759826,614659599,0.043351844,0.13679352,0.025232766,0.01962626,0.4871676,0.0,0.0,0.0,0.0,0.0,0.0,0.0,0.0,-0.1459732,0.0,0.0,nan,0.0,0.0,0.023506641,0.0,0.0,0.0,0.0,0.0,0.0,0.0,0.0,0.0
615259721,615159538,0.050549835,-0.10389879,-0.14909004,0.053355753,0.44200838,0.0,0.0,0.0,0.0,0.0,0.0,0.0,0.0,0.15220642,0.0,0.0,nan,0.0,0.0,0.046172857,0.0,0.0,0.0,0.0,0.0,0.0,0.0,0.0,0.0
615759714,615659477,-0.10429556,-0.207899,-0.12997623,0.06626856,0.4624499,0.0,0.0,0.0,0.0,0.0,0.0,0.0,0.0,0.17521667,0.0,0.0,nan,0.0,0.0,0.02701044,0.0,0.0,0.0,0.0,0.0,0.0,0.0,0.0,0.0
616259606,616159415,-0.0055046715,-0.09857607,-0.07634127,0.10872477,0.4843328,0.0,0.0,0.0,0.0,0.0,0.0,0.0,0.0,0.20828247,0.0,0.0,nan,0.0,0.0,0.045964956,0.0,0.0,0.0,0.0,0.0,0.0,0.0,0.0,0.0
616759569,616659354,0.085506335,-0.1344588,0.014456637,0.14470357,0.42972708,0.0,0.0,0.0,0.0,0.0,0.0,0.0,0.0,0.13665771,0.0,0.0,nan,0.0,0.0,0.04721427,0.0,0.0,0.0,0.0,0.0,0.0,0.0,0.0,0.0
617259533,617159293,-0.012934659,-0.06355798,0.015633842,0.18523347,0.39807153,0.0,0.0,0.0,0.0,0.0,0.0,0.0,0.0,0.19417572,0.0,0.0,nan,0.0,0.0,0.01273489,0.0,0.0,0.0,0.0,0.0,0.0,0.0,0.0,0.0
617759419,617659231,0.062042363,-0.17515421,0.0022390299,0.22283897,0.29505002,0.0,0.0,0.0,0.0,0.0,0.0,0.0,0.0,0.04647827,0.0,0.0,nan,0.0,0.0,0.021274567,0.0,0.0,0.0,0.0,0.0,0.0,0.0,0.0,0.0
618259359,618159169,0.05469484,-0.084913045,0.00043706596,0.23617119,0.23736405,0.0,0.0,0.0,0.0,0.0,0.0,0.0,0.0,0.10864258,0.0,0.0,nan,0.0,0.0,0.009883165,0.0,0.0,0.0,0.0,0.0,0.0,0.0,0.0,0.0
618759490,618659108,-0.071621366,0.053028077,0.16177996,0.22747916,0.22153723,0.0,0.0,0.0,0.0,0.0,0.0,0.0,0.0,0.10076141,0.0,0.0,nan,0.0,0.0,0.0052671432,0.0,0.0,0.0,0.0,0.0,0.0,0.0,0.0,0.0
619259230,619159046,-0.056783944,0.007279258,0.23684415,0.13297132,0.14796543,0.0,0.0,0.0,0.0,0.0,0.0,0.0,0.0,0.23152924,0.0,0.0,nan,0.0,0.0,0.014752626,0.0,0.0,0.0,0.0,0.0,0.0,0.0,0.0,0.0
619759168,619658984,-0.023626838,-0.04444204,-0.06022866,0.02958262,0.033841252,0.0,0.0,0.0,0.0,0.0,0.0,0.0,0.0,-0.06326294,0.0,0.0,nan,0.0,0.0,0.04246211,0.0,0.0,0.0,0.0,0.0,0.0,0.0,0.0,0.0
620259107,620158922,0.02525871,-0.18447588,-0.058112584,0.004377842,-0.032355785,0.0,0.0,0.0,0.0,0.0,0.0,0.0,0.0,-0.03843689,0.0,0.0,nan,0.0,0.0,0.029391289,0.0,0.0,0.0,0.0,0.0,0.0,0.0,0.0,0.0
620759074,620658860,0.09380885,-0.13464145,-0.030997075,0.034289837,-0.11957049,0.0,0.0,0.0,0.0,0.0,0.0,0.0,0.0,0.07575989,0.0,0.0,nan,0.0,0.0,0.030246735,0.0,0.0,0.0,0.0,0.0,0.0,0.0,0.0,0.0
621258996,621158797,0.008094978,-0.07914901,0.10970023,0.14985034,-0.183393,0.0,0.0,0.0,0.0,0.0,0.0,0.0,0.0,-0.080574036,0.0,0.0,nan,0.0,0.0,0.041266203,0.0,0.0,0.0,0.0,0.0,0.0,0.0,0.0,0.0
621758977,621658735,-0.19617774,0.17989111,0.19268273,0.12733153,-0.14882922,0.0,0.0,0.0,0.0,0.0,0.0,0.0,0.0,0.15112305,0.0,0.0,nan,0.0,0.0,0.048776627,0.0,0.0,0.0,0.0,0.0,0.0,0.0,0.0,0.0
622258906,622158672,-0.026510423,-0.07080769,0.017230634,0.1055226,-0.13396728,0.0,0.0,0.0,0.0,0.0,0.0,0.0,0.0,0.032096863,0.0,0.0,nan,0.0,0.0,0.033908844,0.0,0.0,0.0,0.0,0.0,0.0,0.0,0.0,0.0
622758848,622658610,-0.26171705,0.3209511,0.10284909,0.053331316,-0.07107663,0.0,0.0,0.0,0.0,0.0,0.0,0.0,0.0,0.14526367,0.0,0.0,nan,0.0,0.0,0.026909351,0.0,0.0,0.0,0.0,0.0,0.0,0.0,0.0,0.0
623258878,623158547,-0.15638724,0.10282026,0.06559177,0.068878114,0.0034549236,0.0,0.0,0.0,0.0,0.0,0.0,0.0,0.0,0.061080933,0.0,0.0,nan,0.0,0.0,-0.015247583,0.0,0.0,0.0,0.0,0.0,0.0,0.0,0.0,0.0
623758741,623658484,-0.044030435,-0.025714733,0.17111832,0.099763155,0.09302473,0.0,0.0,0.0,0.0,0.0,0.0,0.0,0.0,0.022605896,0.0,0.0,nan,0.0,0.0,-0.0041840076,0.0,0.0,0.0,0.0,0.0,0.0,0.0,0.0,0.0
624258609,624158421,-0.112651445,0.008494064,0.013649241,0.06702176,0.13445246,0.0,0.0,0.0,0.0,0.0,0.0,0.0,0.0,-0.025413513,0.0,0.0,nan,0.0,0.0,0.020592213,0.0,0.0,0.0,0.0,0.0,0.0,0.0,0.0,0.0
624763592,624658358,0.017834257,0.027062163,0.16404122,0.07449585,0.17225552,0.0,0.0,0.0,0.0,0.0,0.0,0.0,0.0,0.1883316,0.0,0.0,nan,0.0,0.0,0.006057024,0.0,0.0,0.0,0.0,0.0,0.0,0.0,0.0,0.0
625258477,625158295,-0.11929226,-0.18007989,-0.061808456,-0.009776533,0.14947355,0.0,0.0,0.0,0.0,0.0,0.0,0.0,0.0,0.16356659,0.0,0.0,nan,0.0,0.0,0.006939411,0.0,0.0,0.0,0.0,0.0,0.0,0.0,0.0,0.0
625758417,625658232,-0.092069045,0.12466773,-0.04017669,0.053352952,0.1738857,0.0,0.0,0.0,0.0,0.0,0.0,0.0,0.0,-0.11595917,0.0,0.0,nan,0.0,0.0,0.018789768,0.0,0.0,0.0,0.0,0.0,0.0,0.0,0.0,0.0
626258404,626158169,0.18210185,-0.088571295,-0.04932117,0.09650606,0.12739456,0.0,0.0,0.0,0.0,0.0,0.0,0.0,0.0,0.052825928,0.0,0.0,nan,0.0,0.0,0.015865088,0.0,0.0,0.0,0.0,0.0,0.0,0.0,0.0,0.0
626758288,626658107,-0.0766418,0.049687825,-0.12283446,0.051086113,0.17020845,0.0,0.0,0.0,0.0,0.0,0.0,0.0,0.0,-0.024177551,0.0,0.0,nan,0.0,0.0,0.010645628,0.0,0.0,0.0,0.0,0.0,0.0,0.0,0.0,0.0
627258261,627158041,-0.14865544,0.17558049,0.08597642,-0.040053338,0.22587061,0.0,0.0,0.0,0.0,0.0,0.0,0.0,0.0,0.15509796,0.0,0.0,nan,0.0,0.0,0.016843796,0.0,0.0,0.0,0.0,0.0,0.0,0.0,0.0,0.0
627758275,627657978,0.07978583,0.081532404,-0.052105717,-0.048470825,0.24056685,0.0,0.0,0.0,0.0,0.0,0.0,0.0,0.0,0.1515503,0.0,0.0,nan,0.0,0.0,0.027373314,0.0,0.0,0.0,0.0,0.0,0.0,0.0,0.0,0.0
628258180,628157914,-0.15206297,0.23777075,-0.073756084,-0.058221757,0.2885269,0.0,0.0,0.0,0.0,0.0,0.0,0.0,0.0,-0.091934204,0.0,0.0,nan,0.0,0.0,0.008449554,0.0,0.0,0.0,0.0,0.0,0.0,0.0,0.0,0.0
628758036,628657850,-0.02796593,0.23146203,-0.010729374,-0.046384633,0.3449726,0.0,0.0,0.0,0.0,0.0,0.0,0.0,0.0,-0.05092621,0.0,0.0,nan,0.0,0.0,0.013324976,0.0,0.0,0.0,0.0,0.0,0.0,0.0,0.0,0.0
629257969,629157786,0.08487333,0.22102349,-0.110895,-0.032391846,0.3485899,0.0,0.0,0.0,0.0,0.0,0.0,0.0,0.0,0.12721252,0.0,0.0,nan,0.0,0.0,0.025019407,0.0,0.0,0.0,0.0,0.0,0.0,0.0,0.0,0.0
629757907,629657722,0.004465729,0.18158604,-0.06054397,0.10487816,0.30852866,0.0,0.0,0.0,0.0,0.0,0.0,0.0,0.0,0.23473358,0.0,0.0,nan,0.0,0.0,0.0060863495,0.0,0.0,0.0,0.0,0.0,0.0,0.0,0.0,0.0
630257918,630157658,0.17514698,0.019074224,0.057434246,0.23493724,0.24131274,0.0,0.0,0.0,0.0,0.0,0.0,0.0,0.0,0.01889038,0.0,0.0,nan,0.0,0.0,0.015141964,0.0,0.0,0.0,0.0,0.0,0.0,0.0,0.0,0.0
630757782,630657593,0.14941882,-0.04756783,0.112479426,0.3305143,0.2251612,0.0,0.0,0.0,0.0,0.0,0.0,0.0,0.0,0.08695221,0.0,0.0,nan,0.0,0.0,0.015665531,0.0,0.0,0.0,0.0,0.0,0.0,0.0,0.0,0.0
631257715,631157529,0.22698487,-0.27171403,0.16746505,0.3512611,0.18853486,0.0,0.0,0.0,0.0,0.0,0.0,0.0,0.0,0.10946655,0.0,0.0,nan,0.0,0.0,0.0119867325,0.0,0.0,0.0,0.0,0.0,0.0,0.0,0.0,0.0
631757668,631657465,0.18306835,0.03142923,0.15702422,0.45933145,0.22851837,0.0,0.0,0.0,0.0,0.0,0.0,0.0,0.0,-0.019744873,0.0,0.0,nan,0.0,0.0,0.021710873,0.0,0.0,0.0,0.0,0.0,0.0,0.0,0.0,0.0
632257699,632157400,-0.13776453,0.26893044,0.25385776,0.40341985,0.27010286,0.0,0.0,0.0,0.0,0.0,0.0,0.0,0.0,0.017356873,0.0,0.0,nan,0.0,0.0,0.017550468,0.0,0.0,0.0,0.0,0.0,0.0,0.0,0.0,0.0
632757540,632657337,0.0593949,0.1996952,0.10989172,0.37575182,0.35993218,0.0,0.0,0.0,0.0,0.0,0.0,0.0,0.0,0.0287323,0.0,0.0,nan,0.0,0.0,0.018675327,0.0,0.0,0.0,0.0,0.0,0.0,0.0,0.0,0.0
633257457,633157270,-0.12585929,-0.050973065,0.092607126,0.30756134,0.34538722,0.0,0.0,0.0,0.0,0.0,0.0,0.0,0.0,-0.043823242,0.0,0.0,nan,0.0,0.0,0.0186584,0.0,0.0,0.0,0.0,0.0,0.0,0.0,0.0,0.0
633757402,633657205,-0.11394043,0.15282911,0.011802188,0.31389958,0.43393815,0.0,0.0,0.0,0.0,0.0,0.0,0.0,0.0,-0.1324234,0.0,0.0,nan,0.0,0.0,0.033331394,0.0,0.0,0.0,0.0,0.0,0.0,0.0,0.0,0.0
634257325,634157140,-0.07305563,0.16133878,0.1568976,0.3264147,0.4497527,0.0,0.0,0.0,0.0,0.0,0.0,0.0,0.0,-0.28035736,0.0,0.0,nan,0.0,0.0,0.027879477,0.0,0.0,0.0,0.0,0.0,0.0,0.0,0.0,0.0
634757257,634657075,0.019922137,0.02261338,-0.07006081,0.3580013,0.4242407,0.0,0.0,0.0,0.0,0.0,0.0,0.0,0.0,0.17613983,0.0,0.0,nan,0.0,0.0,0.02579379,0.0,0.0,0.0,0.0,0.0,0.0,0.0,0.0,0.0
635257197,635157010,-0.119897865,0.12332773,0.09745329,0.41224965,0.41123295,0.0,0.0,0.0,0.0,0.0,0.0,0.0,0.0,0.12989807,0.0,0.0,nan,0.0,0.0,0.025379896,0.0,0.0,0.0,0.0,0.0,0.0,0.0,0.0,0.0
635757133,635656944,0.008900162,0.09531176,0.18920472,0.49107856,0.35342002,0.0,0.0,0.0,0.0,0.0,0.0,0.0,0.0,-0.079185486,0.0,0.0,nan,0.0,0.0,0.019560337,0.0,0.0,0.0,0.0,0.0,0.0,0.0,0.0,0.0
636257107,636156879,0.030500568,-0.28671014,-0.04293877,0.49548936,0.2800591,0.0,0.0,0.0,0.0,0.0,0.0,0.0,0.0,0.060432434,0.0,0.0,nan,0.0,0.0,-0.00915575,0.0,0.0,0.0,0.0,0.0,0.0,0.0,0.0,0.0
636757113,636656813,-0.2632029,0.15444915,0.20965613,0.44947177,0.23669982,0.0,0.0,0.0,0.0,0.0,0.0,0.0,0.0,-0.027565002,0.0,0.0,nan,0.0,0.0,0.0047597885,0.0,0.0,0.0,0.0,0.0,0.0,0.0,0.0,0.0
637256944,637156747,-0.29094866,0.18149328,0.0942916,0.39923698,0.24771976,0.0,0.0,0.0,0.0,0.0,0.0,0.0,0.0,-0.033180237,0.0,0.0,nan,0.0,0.0,0.018110514,0.0,0.0,0.0,0.0,0.0,0.0,0.0,0.0,0.0
637756865,637656681,-0.2375281,0.20874554,0.0040051267,0.3797664,0.24924672,0.0,0.0,0.0,0.0,0.0,0.0,0.0,0.0,0.03668976,0.0,0.0,nan,0.0,0.0,-0.0008318424,0.0,0.0,0.0,0.0,0.0,0.0,0.0,0.0,0.0
638256895,638156615,0.07193148,-0.007258989,-0.02183881,0.33729082,0.21446371,0.0,0.0,0.0,0.0,0.0,0.0,0.0,0.0,-0.22247314,0.0,0.0,nan,0.0,0.0,0.0047593117,0.0,0.0,0.0,0.0,0.0,0.0,0.0,0.0,0.0
638756767,638656549,-0.08139922,0.13386072,-0.08863072,0.367657,0.18173826,0.0,0.0,0.0,0.0,0.0,0.0,0.0,0.0,-0.16532898,0.0,0.0,nan,0.0,0.0,0.019629478,0.0,0.0,0.0,0.0,0.0,0.0,0.0,0.0,0.0
639256675,639156483,-0.036284603,-0.03693785,-0.16678873,0.30584502,0.14712489,0.0,0.0,0.0,0.0,0.0,0.0,0.0,0.0,0.013420105,0.0,0.0,nan,0.0,0.0,0.0035483837,0.0,0.0,0.0,0.0,0.0,0.0,0.0,0.0,0.0
639756603,639656417,-0.16673589,-0.05059318,-0.114146665,0.29716694,0.085001945,0.0,0.0,0.0,0.0,0.0,0.0,0.0,0.0,0.019111633,0.0,0.0,nan,0.0,0.0,0.002496004,0.0,0.0,0.0,0.0,0.0,0.0,0.0,0.0,0.0
640256559,640156350,0.047522925,0.15536097,0.014349205,0.32651317,0.11251414,0.0,0.0,0.0,0.0,0.0,0.0,0.0,0.0,-0.057281494,0.0,0.0,nan,0.0,0.0,0.023147821,0.0,0.0,0.0,0.0,0.0,0.0,0.0,0.0,0.0
640756484,640656285,0.040712744,-0.10414995,-0.05666077,0.31961024,0.10363901,0.0,0.0,0.0,0.0,0.0,0.0,0.0,0.0,-0.13967133,0.0,0.0,nan,0.0,0.0,0.030205011,0.0,0.0,0.0,0.0,0.0,0.0,0.0,0.0,0.0
641256412,641156217,0.072251484,0.0963718,-0.044334024,0.31780732,0.054801583,0.0,0.0,0.0,0.0,0.0,0.0,0.0,0.0,0.034324646,0.0,0.0,nan,0.0,0.0,0.017802,0.0,0.0,0.0,0.0,0.0,0.0,0.0,0.0,0.0
641756439,641656150,0.04301105,0.1475013,0.03134941,0.25576258,0.001816392,0.0,0.0,0.0,0.0,0.0,0.0,0.0,0.0,0.05016327,0.0,0.0,nan,0.0,0.0,0.026954412,0.0,0.0,0.0,0.0,0.0,0.0,0.0,0.0,0.0
642256267,642156083,0.062797464,-0.044005215,0.022515632,0.19160795,-0.024154782,0.0,0.0,0.0,0.0,0.0,0.0,0.0,0.0,-0.24804688,0.0,0.0,nan,0.0,0.0,0.028931618,0.0,0.0,0.0,0.0,0.0,0.0,0.0,0.0,0.0
642756200,642656016,-0.040828653,0.23413709,-0.020695586,0.10574472,-0.03294635,0.0,0.0,0.0,0.0,0.0,0.0,0.0,0.0,0.021507263,0.0,0.0,nan,0.0,0.0,0.019613266,0.0,0.0,0.0,0.0,0.0,0.0,0.0,0.0,0.0
643256182,643155949,0.053008515,0.14975789,0.058842793,0.04615283,-0.06164539,0.0,0.0,0.0,0.0,0.0,0.0,0.0,0.0,0.15940094,0.0,0.0,nan,0.0,0.0,0.030023336,0.0,0.0,0.0,0.0,0.0,0.0,0.0,0.0,0.0
643756112,643655883,0.021073155,0.18885484,0.06777712,0.008449316,0.005313635,0.0,0.0,0.0,0.0,0.0,0.0,0.0,0.0,-0.01712799,0.0,0.0,nan,0.0,0.0,0.033030987,0.0,0.0,0.0,0.0,0.0,0.0,0.0,0.0,0.0
644256000,644155815,-0.0135835335,0.22511593,0.05104937,-0.020988882,0.0736711,0.0,0.0,0.0,0.0,0.0,0.0,0.0,0.0,0.046157837,0.0,0.0,nan,0.0,0.0,0.013128519,0.0,0.0,0.0,0.0,0.0,0.0,0.0,0.0,0.0
644755982,644655747,0.080332644,0.0487903,0.045823853,-0.12617594,0.09863448,0.0,0.0,0.0,0.0,0.0,0.0,0.0,0.0,-0.027107239,0.0,0.0,nan,0.0,0.0,0.020090103,0.0,0.0,0.0,0.0,0.0,0.0,0.0,0.0,0.0
645255865,645155680,-0.042826362,0.1395619,-0.0017610213,-0.26305282,0.051733613,0.0,0.0,0.0,0.0,0.0,0.0,0.0,0.0,-0.112579346,0.0,0.0,nan,0.0,0.0,0.03467393,0.0,0.0,0.0,0.0,0.0,0.0,0.0,0.0,0.0
645755842,645655612,0.094233826,0.06730805,-0.09600225,-0.39057636,0.03127706,0.0,0.0,0.0,0.0,0.0,0.0,0.0,0.0,0.10430908,0.0,0.0,nan,0.0,0.0,0.020678759,0.0,0.0,0.0,0.0,0.0,0.0,0.0,0.0,0.0
646255738,646155544,0.16593313,-0.012142811,0.12176281,-0.42642942,-0.00832355,0.0,0.0,0.0,0.0,0.0,0.0,0.0,0.0,0.0051956177,0.0,0.0,nan,0.0,0.0,0.029059649,0.0,0.0,0.0,0.0,0.0,0.0,0.0,0.0,0.0
646755663,646655476,0.077302225,-0.05596462,-0.04932279,-0.5055311,-0.03872609,0.0,0.0,0.0,0.0,0.0,0.0,0.0,0.0,-0.25064087,0.0,0.0,nan,0.0,0.0,0.04497385,0.0,0.0,0.0,0.0,0.0,0.0,0.0,0.0,0.0
647255599,647155408,0.066739574,-0.010931168,0.030287867,-0.49116993,-0.06388712,0.0,0.0,0.0,0.0,0.0,0.0,0.0,0.0,-0.015220642,0.0,0.0,nan,0.0,0.0,0.039690495,0.0,0.0,0.0,0.0,0.0,0.0,0.0,0.0,0.0
647755559,647655340,0.07689435,0.016700316,-0.030061424,-0.5137272,-0.09344518,0.0,0.0,0.0,0.0,0.0,0.0,0.0,0.0,0.15655518,0.0,0.0,nan,0.0,0.0,0.0884645,0.0,0.0,0.0,0.0,0.0,0.0,0.0,0.0,0.0
648255475,648155272,0.074298814,-0.05632866,0.011179909,-0.43668133,-0.12017059,0.0,0.0,0.0,0.0,0.0,0.0,0.0,0.0,0.09485626,0.0,0.0,nan,0.0,0.0,0.09268808,0.0,0.0,0.0,0.0,0.0,0.0,0.0,0.0,0.0
648755405,648655204,0.088668,0.08567746,-0.0450669,-0.3853686,-0.1478107,0.0,0.0,0.0,0.0,0.0,0.0,0.0,0.0,-0.07967377,0.0,0.0,nan,0.0,0.0,0.108566046,0.0,0.0,0.0,0.0,0.0,0.0,0.0,0.0,0.0
649255348,649155135,0.07120814,-0.053524084,0.031336762,-0.39923877,-0.1900711,0.0,0.0,0.0,0.0,0.0,0.0,0.0,0.0,0.091674805,0.0,0.0,nan,0.0,0.0,0.11434722,0.0,0.0,0.0,0.0,0.0,0.0,0.0,0.0,0.0
649755406,649655066,-0.014387615,0.07617906,-0.009185557,-0.47144902,-0.2379111,0.0,0.0,0.0,0.0,0.0,0.0,0.0,0.0,-0.030555725,0.0,0.0,nan,0.0,0.0,0.12434602,0.0,0.0,0.0,0.0,0.0,0.0,0.0,0.0,0.0
650255179,650154998,0.12848255,-0.06662994,0.12343601,-0.48907882,-0.2534722,0.0,0.0,0.0,0.0,0.0,0.0,0.0,0.0,-0.18738556,0.0,0.0,nan,0.0,0.0,0.11827397,0.0,0.0,0.0,0.0,0.0,0.0,0.0,0.0,0.0
650755122,650654929,-0.004860282,0.07973386,-0.035044782,-0.5462005,-0.20666409,0.0,0.0,0.0,0.0,0.0,0.0,0.0,0.0,0.059181213,0.0,0.0,nan,0.0,0.0,0.11260414,0.0,0.0,0.0,0.0,0.0,0.0,0.0,0.0,0.0
651255096,651154862,0.06599276,0.008749663,0.004273572,-0.51061934,-0.21259367,0.0,0.0,0.0,0.0,0.0,0.0,0.0,0.0,0.16044617,0.0,0.0,nan,0.0,0.0,0.114914656,0.0,0.0,0.0,0.0,0.0,0.0,0.0,0.0,0.0
651754972,651654791,0.10312467,0.09875664,0.074776895,-0.45549458,-0.18368542,0.0,0.0,0.0,0.0,0.0,0.0,0.0,0.0,-0.0515213,0.0,0.0,nan,0.0,0.0,0.12623024,0.0,0.0,0.0,0.0,0.0,0.0,0.0,0.0,0.0
652254920,652154722,-0.0008659214,0.00283576,0.0288514,-0.4991797,-0.20634437,0.0,0.0,0.0,0.0,0.0,0.0,0.0,0.0,0.1750412,0.0,0.0,nan,0.0,0.0,0.16018009,0.0,0.0,0.0,0.0,0.0,0.0,0.0,0.0,0.0
652754834,652654652,0.12002944,-0.062871374,-0.09805757,-0.38725322,-0.25522053,0.0,0.0,0.0,0.0,0.0,0.0,0.0,0.0,0.05265045,0.0,0.0,nan,0.0,0.0,0.18321466,0.0,0.0,0.0,0.0,0.0,0.0,0.0,0.0,0.0
653254830,653154583,-0.06524043,0.048150204,-0.09384669,-0.36531135,-0.27937722,0.0,0.0,0.0,0.0,0.0,0.0,0.0,0.0,0.08179474,0.0,0.0,nan,0.0,0.0,0.20563865,0.0,0.0,0.0,0.0,0.0,0.0,0.0,0.0,0.0
653754699,653654513,-0.08856882,-0.017485183,0.00077137304,-0.321259,-0.27739406,0.0,0.0,0.0,0.0,0.0,0.0,0.0,0.0,0.17293549,0.0,0.0,nan,0.0,0.0,0.20898485,0.0,0.0,0.0,0.0,0.0,0.0,0.0,0.0,0.0
654254648,654154444,-0.02812181,0.0058410773,-0.021844655,-0.25231904,-0.2641605,0.0,0.0,0.0,0.0,0.0,0.0,0.0,0.0,0.11882019,0.0,0.0,nan,0.0,0.0,0.19983959,0.0,0.0,0.0,0.0,0.0,0.0,0.0,0.0,0.0
654754554,654654374,0.046091236,0.042521216,0.09549676,-0.13486952,-0.30314267,0.0,0.0,0.0,0.0,0.0,0.0,0.0,0.0,-0.15071869,0.0,0.0,nan,0.0,0.0,0.20312643,0.0,0.0,0.0,0.0,0.0,0.0,0.0,0.0,0.0
655254647,655154304,0.094490565,-0.052283276,0.012717044,-0.0724401,-0.27598596,0.0,0.0,0.0,0.0,0.0,0.0,0.0,0.0,-0.045921326,0.0,0.0,nan,0.0,0.0,0.1964519,0.0,0.0,0.0,0.0,0.0,0.0,0.0,0.0,0.0
655754476,655654234,-0.32877874,0.39226806,-0.063078895,-0.06268323,-0.20481622,0.0,0.0,0.0,0.0,0.0,0.0,0.0,0.0,0.004470825,0.0,0.0,nan,0.0,0.0,0.18295789,0.0,0.0,0.0,0.0,0.0,0.0,0.0,0.0,0.0
656254417,656154164,0.024249585,-0.058725424,0.01436034,-0.05374226,-0.1930666,0.0,0.0,0.0,0.0,0.0,0.0,0.0,0.0,-0.15842438,0.0,0.0,nan,0.0,0.0,0.17587638,0.0,0.0,0.0,0.0,0.0,0.0,0.0,0.0,0.0
656754318,656654094,0.05217064,0.0066590644,-0.0025932873,-0.06555204,-0.17408383,0.0,0.0,0.0,0.0,0.0,0.0,0.0,0.0,0.15268707,0.0,0.0,nan,0.0,0.0,0.16777897,0.0,0.0,0.0,0.0,0.0,0.0,0.0,0.0,0.0
657254205,657154023,0.091565505,-0.12196412,0.03306392,-0.07543963,-0.19298637,0.0,0.0,0.0,0.0,0.0,0.0,0.0,0.0,0.005432129,0.0,0.0,nan,0.0,0.0,0.16536903,0.0,0.0,0.0,0.0,0.0,0.0,0.0,0.0,0.0
657754185,657653953,0.21783523,-0.2224825,0.027382052,-0.034806937,-0.20767784,0.0,0.0,0.0,0.0,0.0,0.0,0.0,0.0,-0.12452698,0.0,0.0,nan,0.0,0.0,0.16450667,0.0,0.0,0.0,0.0,0.0,0.0,0.0,0.0,0.0
658254069,658153882,0.15138179,-0.069314785,-0.08809222,-0.036926255,-0.24067312,0.0,0.0,0.0,0.0,0.0,0.0,0.0,0.0,-0.007019043,0.0,0.0,nan,0.0,0.0,0.1605022,0.0,0.0,0.0,0.0,0.0,0.0,0.0,0.0,0.0
658753994,658653812,0.121296465,-0.22575997,0.025910974,-0.038804606,-0.27515477,0.0,0.0,0.0,0.0,0.0,0.0,0.0,0.0,0.033187866,0.0,0.0,nan,0.0,0.0,0.14113665,0.0,0.0,0.0,0.0,0.0,0.0,0.0,0.0,0.0
659253998,659153741,-0.002120722,0.053037055,-0.03804257,-0.05866681,-0.24022591,0.0,0.0,0.0,0.0,0.0,0.0,0.0,0.0,-0.024414062,0.0,0.0,nan,0.0,0.0,0.13069701,0.0,0.0,0.0,0.0,0.0,0.0,0.0,0.0,0.0
659753955,659653670,-0.13375859,0.07727478,-0.08147969,-0.11022073,-0.25245816,0.0,0.0,0.0,0.0,0.0,0.0,0.0,0.0,0.054145813,0.0,0.0,nan,0.0,0.0,0.13257861,0.0,0.0,0.0,0.0,0.0,0.0,0.0,0.0,0.0
660253800,660153599,0.055145692,-0.017124183,0.020734057,-0.1176523,-0.25247014,0.0,0.0,0.0,0.0,0.0,0.0,0.0,0.0,0.16900635,0.0,0.0,nan,0.0,0.0,0.1230638,0.0,0.0,0.0,0.0,0.0,0.0,0.0,0.0,0.0
660753712,660653528,-0.1325452,0.029233009,-0.10307546,-0.21147339,-0.2615893,0.0,0.0,0.0,0.0,0.0,0.0,0.0,0.0,-0.01525116,0.0,0.0,nan,0.0,0.0,0.11947942,0.0,0.0,0.0,0.0,0.0,0.0,0.0,0.0,0.0
661253675,661153458,0.21978879,-0.3206795,0.053485356,-0.1727769,-0.26448256,0.0,0.0,0.0,0.0,0.0,0.0,0.0,0.0,0.12062836,0.0,0.0,nan,0.0,0.0,0.1141057,0.0,0.0,0.0,0.0,0.0,0.0,0.0,0.0,0.0
661753569,661653385,0.11538937,-0.12007428,0.012377182,-0.034831874,-0.3322361,0.0,0.0,0.0,0.0,0.0,0.0,0.0,0.0,-0.0552063,0.0,0.0,nan,0.0,0.0,0.1043601,0.0,0.0,0.0,0.0,0.0,0.0,0.0,0.0,0.0
662253503,662153314,-0.05214862,0.020972086,-0.0058791814,-0.06611745,-0.32255313,0.0,0.0,0.0,0.0,0.0,0.0,0.0,0.0,0.09018707,0.0,0.0,nan,0.0,0.0,0.101546526,0.0,0.0,0.0,0.0,0.0,0.0,0.0,0.0,0.0
662753506,662653242,0.12660259,-0.1702719,0.14089713,0.005754672,-0.36202422,0.0,0.0,0.0,0.0,0.0,0.0,0.0,0.0,-0.05696869,0.0,0.0,nan,0.0,0.0,0.10479498,0.0,0.0,0.0,0.0,0.0,0.0,0.0,0.0,0.0
663263358,663163169,0.12715212,-0.11101354,0.27830893,0.042605788,-0.39072475,0.0,0.0,0.0,0.0,0.0,0.0,0.0,0.0,0.10482025,0.0,0.0,nan,0.0,0.0,0.09487033,0.0,0.0,0.0,0.0,0.0,0.0,0.0,0.0,0.0
663753280,663653098,-0.4987736,0.32052368,-0.15220644,0.0004267767,-0.3929587,0.0,0.0,0.0,0.0,0.0,0.0,0.0,0.0,0.100234985,0.0,0.0,nan,0.0,0.0,0.08583164,0.0,0.0,0.0,0.0,0.0,0.0,0.0,0.0,0.0
664253302,664153026,-0.059340082,-0.012104552,-0.001675183,-0.011100952,-0.41133392,0.0,0.0,0.0,0.0,0.0,0.0,0.0,0.0,0.109436035,0.0,0.0,nan,0.0,0.0,0.08243561,0.0,0.0,0.0,0.0,0.0,0.0,0.0,0.0,0.0
664753149,664652954,-0.08978912,-0.06736699,0.0044916905,0.10707347,-0.4754605,0.0,0.0,0.0,0.0,0.0,0.0,0.0,0.0,-0.11148834,0.0,0.0,nan,0.0,0.0,0.07865667,0.0,0.0,0.0,0.0,0.0,0.0,0.0,0.0,0.0
665253110,665152882,-0.13427725,-0.006674597,0.025076263,0.0120238215,-0.40326673,0.0,0.0,0.0,0.0,0.0,0.0,0.0,0.0,-0.3101349,0.0,0.0,nan,0.0,0.0,-0.01029706,0.0,0.0,0.0,0.0,0.0,0.0,0.0,0.0,0.0
665752996,665652809,-0.20299637,0.16930895,-0.084014624,-0.091358155,-0.28054026,0.0,0.0,0.0,0.0,0.0,0.0,0.0,0.0,-0.05882263,0.0,0.0,nan,0.0,0.0,-0.03676033,0.0,0.0,0.0,0.0,0.0,0.0,0.0,0.0,0.0
666262918,666162735,0.0047275014,-9.5834956e-05,0.095478214,-0.10402815,-0.21840526,0.0,0.0,0.0,0.0,0.0,0.0,0.0,0.0,-0.07445526,0.0,0.0,nan,0.0,0.0,-0.045826197,0.0,0.0,0.0,0.0,0.0,0.0,0.0,0.0,0.0
666762876,666662663,0.15865073,-0.09415387,0.11643537,-0.08862988,-0.17468497,0.0,0.0,0.0,0.0,0.0,0.0,0.0,0.0,0.15371704,0.0,0.0,nan,0.0,0.0,-0.08158469,0.0,0.0,0.0,0.0,0.0,0.0,0.0,0.0,0.0
667252801,667152592,0.12159878,-0.10964979,-0.065978825,-0.05778875,-0.15881972,0.0,0.0,0.0,0.0,0.0,0.0,0.0,0.0,0.024246216,0.0,0.0,nan,0.0,0.0,-0.06401348,0.0,0.0,0.0,0.0,0.0,0.0,0.0,0.0,0.0
667752721,667652520,-0.14105889,0.115962684,-0.00041586347,-0.09583098,-0.09736456,0.0,0.0,0.0,0.0,0.0,0.0,0.0,0.0,-0.0022659302,0.0,0.0,nan,0.0,0.0,-0.09285569,0.0,0.0,0.0,0.0,0.0,0.0,0.0,0.0,0.0
668252634,668152445,0.07565261,-0.001729127,0.03716294,-0.09242839,-0.095847525,0.0,0.0,0.0,0.0,0.0,0.0,0.0,0.0,0.03224945,0.0,0.0,nan,0.0,0.0,-0.12047744,0.0,0.0,0.0,0.0,0.0,0.0,0.0,0.0,0.0
668752555,668652372,-0.056900192,-0.045128427,0.066567585,-0.16155827,-0.060262933,0.0,0.0,0.0,0.0,0.0,0.0,0.0,0.0,-0.06388855,0.0,0.0,nan,0.0,0.0,-0.12247586,0.0,0.0,0.0,0.0,0.0,0.0,0.0,0.0,0.0
669262646,669162297,-0.08054742,-0.020163761,-0.030797213,-0.15727796,-0.04440853,0.0,0.0,0.0,0.0,0.0,0.0,0.0,0.0,0.06023407,0.0,0.0,nan,0.0,0.0,-0.116399765,0.0,0.0,0.0,0.0,0.0,0.0,0.0,0.0,0.0
669762422,669662224,0.0695131,-0.09069515,-0.013738757,-0.15532438,-0.048811212,0.0,0.0,0.0,0.0,0.0,0.0,0.0,0.0,-0.044937134,0.0,0.0,nan,0.0,0.0,-0.12257433,0.0,0.0,0.0,0.0,0.0,0.0,0.0,0.0,0.0
670262338,670162150,0.07753107,-0.11156352,0.122996874,-0.16432634,-0.044813335,0.0,0.0,0.0,0.0,0.0,0.0,0.0,0.0,-0.109703064,0.0,0.0,nan,0.0,0.0,-0.12265396,0.0,0.0,0.0,0.0,0.0,0.0,0.0,0.0,0.0
670752340,670652078,-0.064495444,-0.015842395,-0.007051321,-0.1665338,-0.030685306,0.0,0.0,0.0,0.0,0.0,0.0,0.0,0.0,0.044692993,0.0,0.0,nan,0.0,0.0,-0.101380825,0.0,0.0,0.0,0.0,0.0,0.0,0.0,0.0,0.0
671252205,671152004,0.004443856,0.002247136,-0.037873402,-0.19737804,0.04062009,0.0,0.0,0.0,0.0,0.0,0.0,0.0,0.0,0.0320282,0.0,0.0,nan,0.0,0.0,-0.112093925,0.0,0.0,0.0,0.0,0.0,0.0,0.0,0.0,0.0
671752118,671651932,0.032979377,-0.037879698,0.030736113,-0.1411829,0.07905929,0.0,0.0,0.0,0.0,0.0,0.0,0.0,0.0,-0.08530426,0.0,0.0,nan,0.0,0.0,-0.11765957,0.0,0.0,0.0,0.0,0.0,0.0,0.0,0.0,0.0
672262073,672161855,0.15750912,-0.009596128,-0.04014957,-0.11374721,0.10007653,0.0,0.0,0.0,0.0,0.0,0.0,0.0,0.0,0.06878662,0.0,0.0,nan,0.0,0.0,-0.09784484,0.0,0.0,0.0,0.0,0.0,0.0,0.0,0.0,0.0
672762015,672661780,0.038247067,-0.039658554,0.047104184,-0.06453719,0.13730206,0.0,0.0,0.0,0.0,0.0,0.0,0.0,0.0,-0.023910522,0.0,0.0,nan,0.0,0.0,-0.0981729,0.0,0.0,0.0,0.0,0.0,0.0,0.0,0.0,0.0
673261892,673161706,-0.03033617,0.040265553,0.074449524,-0.09066284,0.14907233,0.0,0.0,0.0,0.0,0.0,0.0,0.0,0.0,0.084609985,0.0,0.0,nan,0.0,0.0,-0.10330176,0.0,0.0,0.0,0.0,0.0,0.0,0.0,0.0,0.0
673761974,673661631,-0.051982608,0.04471165,0.01700889,-0.08539103,0.13494189,0.0,0.0,0.0,0.0,0.0,0.0,0.0,0.0,-0.043922424,0.0,0.0,nan,0.0,0.0,-0.10249066,0.0,0.0,0.0,0.0,0.0,0.0,0.0,0.0,0.0
674251773,674151558,0.0032745376,-0.034975216,0.04281876,-0.1118056,0.16174018,0.0,0.0,0.0,0.0,0.0,0.0,0.0,0.0,-0.107170105,0.0,0.0,nan,0.0,0.0,-0.09885621,0.0,0.0,0.0,0.0,0.0,0.0,0.0,0.0,0.0
674751672,674651484,0.119848005,-0.076504715,0.10544519,-0.14976262,0.16486749,0.0,0.0,0.0,0.0,0.0,0.0,0.0,0.0,-0.062080383,0.0,0.0,nan,0.0,0.0,-0.10409236,0.0,0.0,0.0,0.0,0.0,0.0,0.0,0.0,0.0
675261588,675161407,-0.021726103,0.020993859,0.034801178,-0.23799144,0.20162424,0.0,0.0,0.0,0.0,0.0,0.0,0.0,0.0,-0.19458008,0.0,0.0,nan,0.0,0.0,-0.08119416,0.0,0.0,0.0,0.0,0.0,0.0,0.0,0.0,0.0
675761572,675661332,0.1199759,-0.04331904,-0.050263513,-0.36778656,0.25483093,0.0,0.0,0.0,0.0,0.0,0.0,0.0,0.0,0.013046265,0.0,0.0,nan,0.0,0.0,-0.057817936,0.0,0.0,0.0,0.0,0.0,0.0,0.0,0.0,0.0
676261437,676161257,-0.20973484,0.09338854,-0.07766795,-0.5042019,0.36420286,0.0,0.0,0.0,0.0,0.0,0.0,0.0,0.0,-0.048919678,0.0,0.0,nan,0.0,0.0,-0.067867994,0.0,0.0,0.0,0.0,0.0,0.0,0.0,0.0,0.0
676761366,676661182,-0.11091901,0.040627107,-0.032546047,-0.61447096,0.3981308,0.0,0.0,0.0,0.0,0.0,0.0,0.0,0.0,0.17210388,0.0,0.0,nan,0.0,0.0,-0.06752896,0.0,0.0,0.0,0.0,0.0,0.0,0.0,0.0,0.0
677261289,677161106,0.14293182,-0.13274844,0.116600625,-0.6565884,0.41871744,0.0,0.0,0.0,0.0,0.0,0.0,0.0,0.0,0.11618805,0.0,0.0,nan,0.0,0.0,-0.07897234,0.0,0.0,0.0,0.0,0.0,0.0,0.0,0.0,0.0
677751271,677651032,0.12847304,-0.06612258,0.029667126,-0.66941553,0.4409979,0.0,0.0,0.0,0.0,0.0,0.0,0.0,0.0,0.10157013,0.0,0.0,nan,0.0,0.0,-0.10233903,0.0,0.0,0.0,0.0,0.0,0.0,0.0,0.0,0.0
678251251,678150956,-0.14636044,0.07136124,0.00047721865,-0.7426529,0.5146735,0.0,0.0,0.0,0.0,0.0,0.0,0.0,0.0,-0.013114929,0.0,0.0,nan,0.0,0.0,-0.098833084,0.0,0.0,0.0,0.0,0.0,0.0,0.0,0.0,0.0
678761074,678660879,0.18722197,-0.11250664,0.11090065,-0.61745006,0.44044417,0.0,0.0,0.0,0.0,0.0,0.0,0.0,0.0,0.1751709,0.0,0.0,nan,0.0,0.0,-0.07619238,0.0,0.0,0.0,0.0,0.0,0.0,0.0,0.0,0.0
679260998,679160803,0.038275048,-0.1136136,-0.005707181,-0.6030018,0.387738,0.0,0.0,0.0,0.0,0.0,0.0,0.0,0.0,-0.031333923,0.0,0.0,nan,0.0,0.0,-0.082107544,0.0,0.0,0.0,0.0,0.0,0.0,0.0,0.0,0.0
679760907,679660727,0.10626355,-0.060381033,0.002111025,-0.66233575,0.37879884,0.0,0.0,0.0,0.0,0.0,0.0,0.0,0.0,0.16143799,0.0,0.0,nan,0.0,0.0,-0.08921647,0.0,0.0,0.0,0.0,0.0,0.0,0.0,0.0,0.0
680260863,680160651,0.07986388,-0.008473422,-0.09385837,-0.687217,0.36828387,0.0,0.0,0.0,0.0,0.0,0.0,0.0,0.0,-9.1552734e-05,0.0,0.0,nan,0.0,0.0,-0.07937741,0.0,0.0,0.0,0.0,0.0,0.0,0.0,0.0,0.0
680760822,680660574,0.09406736,-0.1946483,-0.07735307,-0.69932115,0.3285188,0.0,0.0,0.0,0.0,0.0,0.0,0.0,0.0,0.085884094,0.0,0.0,nan,0.0,0.0,-0.077539206,0.0,0.0,0.0,0.0,0.0,0.0,0.0,0.0,0.0
681250685,681150499,0.13581853,-0.06262039,-0.06967601,-0.67992485,0.33720994,0.0,0.0,0.0,0.0,0.0,0.0,0.0,0.0,0.2562256,0.0,0.0,nan,0.0,0.0,-0.077302694,0.0,0.0,0.0,0.0,0.0,0.0,0.0,0.0,0.0
681760759,681660421,0.08988208,0.043206368,-0.06461844,-0.61848545,0.33778483,0.0,0.0,0.0,0.0,0.0,0.0,0.0,0.0,-0.004928589,0.0,0.0,nan,0.0,0.0,-0.06887746,0.0,0.0,0.0,0.0,0.0,0.0,0.0,0.0,0.0
682260643,682160345,-0.018094093,0.11879085,-0.019808855,-0.573655,0.32630062,0.0,0.0,0.0,0.0,0.0,0.0,0.0,0.0,-0.066345215,0.0,0.0,nan,0.0,0.0,-0.075134516,0.0,0.0,0.0,0.0,0.0,0.0,0.0,0.0,0.0
682760452,682660267,0.09418601,0.019738868,0.16264647,-0.4572059,0.25652218,0.0,0.0,0.0,0.0,0.0,0.0,0.0,0.0,0.08898926,0.0,0.0,nan,0.0,0.0,-0.07737589,0.0,0.0,0.0,0.0,0.0,0.0,0.0,0.0,0.0
683260379,683160190,0.146307,-0.046395518,0.011991256,-0.4094932,0.23831713,0.0,0.0,0.0,0.0,0.0,0.0,0.0,0.0,0.120643616,0.0,0.0,nan,0.0,0.0,-0.070843935,0.0,0.0,0.0,0.0,0.0,0.0,0.0,0.0,0.0
683760494,683660113,0.06869693,0.07485419,0.0046227314,-0.3593316,0.26575637,0.0,0.0,0.0,0.0,0.0,0.0,0.0,0.0,0.1861496,0.0,0.0,nan,0.0,0.0,-0.06669521,0.0,0.0,0.0,0.0,0.0,0.0,0.0,0.0,0.0
684260246,684160036,0.20674142,-0.047898903,0.07072724,-0.3939768,0.26101446,0.0,0.0,0.0,0.0,0.0,0.0,0.0,0.0,0.13744354,0.0,0.0,nan,0.0,0.0,-0.07816291,0.0,0.0,0.0,0.0,0.0,0.0,0.0,0.0,0.0
684760169,684659958,0.11106588,0.037756756,-0.032332994,-0.45659542,0.26228285,0.0,0.0,0.0,0.0,0.0,0.0,0.0,0.0,0.03528595,0.0,0.0,nan,0.0,0.0,-0.073058605,0.0,0.0,0.0,0.0,0.0,0.0,0.0,0.0,0.0
685260120,685159881,0.10696785,0.073305026,-0.06034395,-0.42786038,0.2528324,0.0,0.0,0.0,0.0,0.0,0.0,0.0,0.0,-0.27603912,0.0,0.0,nan,0.0,0.0,-0.057228565,0.0,0.0,0.0,0.0,0.0,0.0,0.0,0.0,0.0
685759985,685659803,0.20830792,-0.054453377,-0.031459507,-0.39236128,0.21412587,0.0,0.0,0.0,0.0,0.0,0.0,0.0,0.0,0.08242798,0.0,0.0,nan,0.0,0.0,-0.064269304,0.0,0.0,0.0,0.0,0.0,0.0,0.0,0.0,0.0
686259934,686159726,0.07818063,-0.09071711,0.06912582,-0.38818562,0.20406401,0.0,0.0,0.0,0.0,0.0,0.0,0.0,0.0,0.04523468,0.0,0.0,nan,0.0,0.0,-0.061992407,0.0,0.0,0.0,0.0,0.0,0.0,0.0,0.0,0.0
686759903,686659648,0.3140629,-0.13916789,0.20970069,-0.34320426,0.18892956,0.0,0.0,0.0,0.0,0.0,0.0,0.0,0.0,-0.122673035,0.0,0.0,nan,0.0,0.0,-0.05072236,0.0,0.0,0.0,0.0,0.0,0.0,0.0,0.0,0.0
687259808,687159570,0.12191322,-0.11197437,-0.09624116,-0.31139565,0.16121554,0.0,0.0,0.0,0.0,0.0,0.0,0.0,0.0,-0.06326294,0.0,0.0,nan,0.0,0.0,-0.061417103,0.0,0.0,0.0,0.0,0.0,0.0,0.0,0.0,0.0
687759869,687659492,-0.28750658,0.20158322,-0.16674505,-0.3445406,0.17319715,0.0,0.0,0.0,0.0,0.0,0.0,0.0,0.0,0.13114929,0.0,0.0,nan,0.0,0.0,-0.059831858,0.0,0.0,0.0,0.0,0.0,0.0,0.0,0.0,0.0
688259595,688159413,0.20229454,-0.03795614,0.09693734,-0.15220523,0.12374866,0.0,0.0,0.0,0.0,0.0,0.0,0.0,0.0,0.0019378662,0.0,0.0,nan,0.0,0.0,-0.026083231,0.0,0.0,0.0,0.0,0.0,0.0,0.0,0.0,0.0
688759759,688659335,-0.054131377,0.12050281,-0.10978976,-0.09125209,0.088820696,0.0,0.0,0.0,0.0,0.0,0.0,0.0,0.0,0.0025863647,0.0,0.0,nan,0.0,0.0,-0.03722143,0.0,0.0,0.0,0.0,0.0,0.0,0.0,0.0,0.0
689259439,689159257,-0.009447094,-0.069712184,-0.017804429,-0.06362438,0.08343792,0.0,0.0,0.0,0.0,0.0,0.0,0.0,0.0,-0.06565857,0.0,0.0,nan,0.0,0.0,-0.04659581,0.0,0.0,0.0,0.0,0.0,0.0,0.0,0.0,0.0
689759538,689659178,0.0032989755,0.039565977,-0.14631987,-0.082635164,0.15896463,0.0,0.0,0.0,0.0,0.0,0.0,0.0,0.0,0.33110046,0.0,0.0,nan,0.0,0.0,-0.036524057,0.0,0.0,0.0,0.0,0.0,0.0,0.0,0.0,0.0
690259282,690159099,-0.027786348,0.028069958,-0.2979124,-0.115366936,0.15146542,0.0,0.0,0.0,0.0,0.0,0.0,0.0,0.0,0.06087494,0.0,0.0,nan,0.0,0.0,-0.04281783,0.0,0.0,0.0,0.0,0.0,0.0,0.0,0.0,0.0
690759202,690659020,-0.14843604,0.16899012,0.004811084,-0.22316933,0.25560987,0.0,0.0,0.0,0.0,0.0,0.0,0.0,0.0,0.0568161,0.0,0.0,nan,0.0,0.0,-0.029901505,0.0,0.0,0.0,0.0,0.0,0.0,0.0,0.0,0.0
691259139,691158941,0.08692327,-0.037108116,0.0665081,-0.45166612,0.34055626,0.0,0.0,0.0,0.0,0.0,0.0,0.0,0.0,0.12957,0.0,0.0,nan,0.0,0.0,-0.017555237,0.0,0.0,0.0,0.0,0.0,0.0,0.0,0.0,0.0
691759181,691658862,0.015280418,0.0058097523,0.065056674,-0.48740363,0.35313702,0.0,0.0,0.0,0.0,0.0,0.0,0.0,0.0,0.27604675,0.0,0.0,nan,0.0,0.0,-0.008928537,0.0,0.0,0.0,0.0,0.0,0.0,0.0,0.0,0.0
692259081,692158783,-0.16962269,0.07454712,0.07086348,-0.49660826,0.38768613,0.0,0.0,0.0,0.0,0.0,0.0,0.0,0.0,-0.09566498,0.0,0.0,nan,0.0,0.0,-0.016348839,0.0,0.0,0.0,0.0,0.0,0.0,0.0,0.0,0.0
692759103,692658703,-0.078735456,0.08075769,0.03168804,-0.50746584,0.40873027,0.0,0.0,0.0,0.0,0.0,0.0,0.0,0.0,0.20613861,0.0,0.0,nan,0.0,0.0,-0.011876106,0.0,0.0,0.0,0.0,0.0,0.0,0.0,0.0,0.0
693258807,693158624,0.2673263,-0.13298905,0.07537823,-0.45410323,0.38534772,0.0,0.0,0.0,0.0,0.0,0.0,0.0,0.0,0.20233154,0.0,0.0,nan,0.0,0.0,-0.00491786,0.0,0.0,0.0,0.0,0.0,0.0,0.0,0.0,0.0
693758884,693658544,0.14167747,-0.08951346,0.13571672,-0.44607663,0.41729224,0.0,0.0,0.0,0.0,0.0,0.0,0.0,0.0,0.14580536,0.0,0.0,nan,0.0,0.0,-0.003655672,0.0,0.0,0.0,0.0,0.0,0.0,0.0,0.0,0.0
694258648,694158465,0.14435495,-0.039439954,0.12960286,-0.58670163,0.49357903,0.0,0.0,0.0,0.0,0.0,0.0,0.0,0.0,-0.07585907,0.0,0.0,nan,0.0,0.0,-0.0099413395,0.0,0.0,0.0,0.0,0.0,0.0,0.0,0.0,0.0
694758603,694658385,0.012702055,-0.0071574077,0.031694796,-0.79097724,0.53815806,0.0,0.0,0.0,0.0,0.0,0.0,0.0,0.0,-0.0471344,0.0,0.0,nan,0.0,0.0,-0.01710844,0.0,0.0,0.0,0.0,0.0,0.0,0.0,0.0,0.0
695258536,695158305,0.13412097,-0.12420534,0.017665,-0.6779692,0.48004365,0.0,0.0,0.0,0.0,0.0,0.0,0.0,0.0,-0.08724213,0.0,0.0,nan,0.0,0.0,-0.033658266,0.0,0.0,0.0,0.0,0.0,0.0,0.0,0.0,0.0
695758453,695658225,0.1709311,-0.13213843,-0.0395972,-0.73430204,0.48670304,0.0,0.0,0.0,0.0,0.0,0.0,0.0,0.0,0.02457428,0.0,0.0,nan,0.0,0.0,-0.02946496,0.0,0.0,0.0,0.0,0.0,0.0,0.0,0.0,0.0
