timestamp,timestamp_sample,gps_hvel[0],gps_hvel[1],gps_vvel,gps_hpos[0],gps_hpos[1],gps_vpos,ev_hvel[0],ev_hvel[1],ev_vvel,ev_hpos[0],ev_hpos[1],ev_vpos,rng_vpos,baro_vpos,aux_hvel[0],aux_hvel[1],aux_vvel,flow[0],flow[1],heading,mag_field[0],mag_field[1],mag_field[2],drag[0],drag[1],airspeed,beta,hagl,hagl_rate
539768339,539668142,0.0012705846,0.0,0.0024323522,0.0005957627,0.0,0.0,0.0,0.0,0.0,0.0,0.0,0.0,0.0,0.00023398777,0.0,0.0,nan,0.0,0.0,0.0045651877,0.0,0.0,0.0,0.0,0.0,0.0,0.0,0.0,0.0
540268273,540168084,2.6511045e-05,0.0,0.0010471933,0.0008893343,0.0,0.0,0.0,0.0,0.0,0.0,0.0,0.0,0.0,4.9616105e-05,0.0,0.0,nan,0.0,0.0,0.0060373954,0.0,0.0,0.0,0.0,0.0,0.0,0.0,0.0,0.0
540768235,540668027,0.0012496194,0.0,6.697644e-05,0.0011612922,0.0,0.0,0.0,0.0,0.0,0.0,0.0,0.0,0.0,9.774198e-06,0.0,0.0,nan,0.0,0.0,0.008694115,0.0,0.0,0.0,0.0,0.0,0.0,0.0,0.0,0.0
541258157,541157970,0.00034460085,0.0,4.635208e-05,0.0010018204,0.0,0.0,0.0,0.0,0.0,0.0,0.0,0.0,0.0,4.128923e-06,0.0,0.0,nan,0.0,0.0,0.0037734995,0.0,0.0,0.0,0.0,0.0,0.0,0.0,0.0,0.0
541768135,541667912,4.5329478e-05,0.0,1.6385958e-06,0.0006940112,0.0,0.0,0.0,0.0,0.0,0.0,0.0,0.0,0.0,6.371649e-06,0.0,0.0,nan,0.0,0.0,0.001012462,0.0,0.0,0.0,0.0,0.0,0.0,0.0,0.0,0.0
542268058,542167855,0.0014857181,0.0,0.00038544287,0.0006571795,0.0,0.0,0.0,0.0,0.0,0.0,0.0,0.0,0.0,1.3458717e-06,0.0,0.0,nan,0.0,0.0,0.0012317233,0.0,0.0,0.0,0.0,0.0,0.0,0.0,0.0,0.0
542768042,542667797,0.0021269023,0.0,4.64558e-05,0.00048677105,0.0,0.0,0.0,0.0,0.0,0.0,0.0,0.0,0.0,2.4125325e-06,0.0,0.0,nan,0.0,0.0,0.0019899656,0.0,0.0,0.0,0.0,0.0,0.0,0.0,0.0,0.0
543267979,543167740,0.0061298935,0.0,2.7501357e-05,0.00045368788,0.0,0.0,0.0,0.0,0.0,0.0,0.0,0.0,0.0,2.1164448e-07,0.0,0.0,nan,0.0,0.0,0.0016277293,0.0,0.0,0.0,0.0,0.0,0.0,0.0,0.0,0.0
543767872,543667682,0.0010823802,0.0,8.887316e-05,0.0002324931,0.0,0.0,0.0,0.0,0.0,0.0,0.0,0.0,0.0,4.711376e-05,0.0,0.0,nan,0.0,0.0,0.0019304844,0.0,0.0,0.0,0.0,0.0,0.0,0.0,0.0,0.0
544267818,544167625,0.0049590515,0.0,1.9854474e-06,0.00012695964,0.0,0.0,0.0,0.0,0.0,0.0,0.0,0.0,0.0,2.1791113e-06,0.0,0.0,nan,0.0,0.0,0.00073683367,0.0,0.0,0.0,0.0,0.0,0.0,0.0,0.0,0.0
544757775,544657569,0.00211914,0.0,1.6440736e-05,7.8979036e-05,0.0,0.0,0.0,0.0,0.0,0.0,0.0,0.0,0.0,4.0684383e-05,0.0,0.0,nan,0.0,0.0,0.0011549692,0.0,0.0,0.0,0.0,0.0,0.0,0.0,0.0,0.0
545267705,545167510,0.002016917,0.0,0.00010805543,9.1413065e-05,0.0,0.0,0.0,0.0,0.0,0.0,0.0,0.0,0.0,0.00010834636,0.0,0.0,nan,0.0,0.0,0.0009651712,0.0,0.0,0.0,0.0,0.0,0.0,0.0,0.0,0.0
545767660,545667453,0.00015273629,0.0,1.5258214e-06,0.00010750681,0.0,0.0,0.0,0.0,0.0,0.0,0.0,0.0,0.0,2.977231e-05,0.0,0.0,nan,0.0,0.0,0.00083043834,0.0,0.0,0.0,0.0,0.0,0.0,0.0,0.0,0.0
546267583,546167396,0.00041409672,0.0,6.325597e-07,7.941585e-05,0.0,0.0,0.0,0.0,0.0,0.0,0.0,0.0,0.0,0.00017730785,0.0,0.0,nan,0.0,0.0,0.0020521185,0.0,0.0,0.0,0.0,0.0,0.0,0.0,0.0,0.0
546767637,546667339,0.0017388,0.0,0.00060858653,1.2114296e-05,0.0,0.0,0.0,0.0,0.0,0.0,0.0,0.0,0.0,1.8055856e-05,0.0,0.0,nan,0.0,0.0,0.00049378275,0.0,0.0,0.0,0.0,0.0,0.0,0.0,0.0,0.0
547267470,547167282,0.0025692284,0.0,0.0013760752,3.5483004e-05,0.0,0.0,0.0,0.0,0.0,0.0,0.0,0.0,0.0,3.27569e-05,0.0,0.0,nan,0.0,0.0,0.0007508607,0.0,0.0,0.0,0.0,0.0,0.0,0.0,0.0,0.0
547767484,547667225,0.0045459755,0.0,0.00083691214,8.437609e-05,0.0,0.0,0.0,0.0,0.0,0.0,0.0,0.0,0.0,1.44073e-05,0.0,0.0,nan,0.0,0.0,0.0008951793,0.0,0.0,0.0,0.0,0.0,0.0,0.0,0.0,0.0
548267360,548167168,0.0021727984,0.0,0.0017878215,0.000107570566,0.0,0.0,0.0,0.0,0.0,0.0,0.0,0.0,0.0,2.5483849e-05,0.0,0.0,nan,0.0,0.0,0.0010431691,0.0,0.0,0.0,0.0,0.0,0.0,0.0,0.0,0.0
548767326,548667111,0.00061062456,0.0,0.0012448457,8.488671e-05,0.0,0.0,0.0,0.0,0.0,0.0,0.0,0.0,0.0,2.167356e-05,0.0,0.0,nan,0.0,0.0,0.00072341383,0.0,0.0,0.0,0.0,0.0,0.0,0.0,0.0,0.0
549267314,549167054,0.0030702204,0.0,0.0015360517,6.221977e-05,0.0,0.0,0.0,0.0,0.0,0.0,0.0,0.0,0.0,0.0001013076,0.0,0.0,nan,0.0,0.0,0.0016359843,0.0,0.0,0.0,0.0,0.0,0.0,0.0,0.0,0.0
549767190,549666997,0.0014879424,0.0,0.00024708753,0.0002159507,0.0,0.0,0.0,0.0,0.0,0.0,0.0,0.0,0.0,0.0002017321,0.0,0.0,nan,0.0,0.0,0.0030064152,0.0,0.0,0.0,0.0,0.0,0.0,0.0,0.0,0.0
550267127,550166940,0.0013301016,0.0,0.00063014904,0.00016318084,0.0,0.0,0.0,0.0,0.0,0.0,0.0,0.0,0.0,0.000119512544,0.0,0.0,nan,0.0,0.0,0.0028183297,0.0,0.0,0.0,0.0,0.0,0.0,0.0,0.0,0.0
550767112,550666884,0.0009949589,0.0,0.00078466756,8.788808e-05,0.0,0.0,0.0,0.0,0.0,0.0,0.0,0.0,0.0,0.000529605,0.0,0.0,nan,0.0,0.0,0.0028591629,0.0,0.0,0.0,0.0,0.0,0.0,0.0,0.0,0.0
551267026,551166827,0.00045214334,0.0,9.054108e-06,0.00014133178,0.0,0.0,0.0,0.0,0.0,0.0,0.0,0.0,0.0,5.390386e-06,0.0,0.0,nan,0.0,0.0,0.0030543117,0.0,0.0,0.0,0.0,0.0,0.0,0.0,0.0,0.0
551766958,551666770,4.75328e-05,0.0,0.0005035242,0.0002687604,0.0,0.0,0.0,0.0,0.0,0.0,0.0,0.0,0.0,1.0230132e-05,0.0,0.0,nan,0.0,0.0,0.0010916645,0.0,0.0,0.0,0.0,0.0,0.0,0.0,0.0,0.0
552266902,552166714,0.0007282198,0.0,1.7238917e-06,0.00039909803,0.0,0.0,0.0,0.0,0.0,0.0,0.0,0.0,0.0,6.0829134e-06,0.0,0.0,nan,0.0,0.0,0.00064517383,0.0,0.0,0.0,0.0,0.0,0.0,0.0,0.0,0.0
552766876,552666657,0.0032489493,0.0,0.0009770871,0.00060089736,0.0,0.0,0.0,0.0,0.0,0.0,0.0,0.0,0.0,0.00011657727,0.0,0.0,nan,0.0,0.0,0.001875411,0.0,0.0,0.0,0.0,0.0,0.0,0.0,0.0,0.0
553266812,553166601,0.0007024462,0.0,0.00023850329,0.00049587287,0.0,0.0,0.0,0.0,0.0,0.0,0.0,0.0,0.0,8.004684e-06,0.0,0.0,nan,0.0,0.0,0.00090276886,0.0,0.0,0.0,0.0,0.0,0.0,0.0,0.0,0.0
553766735,553666544,0.0019146724,0.0,0.00012401755,0.00044934545,0.0,0.0,0.0,0.0,0.0,0.0,0.0,0.0,0.0,0.00024040772,0.0,0.0,nan,0.0,0.0,0.0007819535,0.0,0.0,0.0,0.0,0.0,0.0,0.0,0.0,0.0
554266757,554166488,0.0081580905,0.0,2.2960166e-05,0.00033075892,0.0,0.0,0.0,0.0,0.0,0.0,0.0,0.0,0.0,0.000102876875,0.0,0.0,nan,0.0,0.0,0.0016549414,0.0,0.0,0.0,0.0,0.0,0.0,0.0,0.0,0.0
554766652,554666431,0.0010819378,0.0,0.00023202263,0.00015146103,0.0,0.0,0.0,0.0,0.0,0.0,0.0,0.0,0.0,6.024638e-05,0.0,0.0,nan,0.0,0.0,0.00071923336,0.0,0.0,0.0,0.0,0.0,0.0,0.0,0.0,0.0
555266562,555166375,0.008285384,0.0,0.0012778236,0.00019651011,0.0,0.0,0.0,0.0,0.0,0.0,0.0,0.0,0.0,0.00036247884,0.0,0.0,nan,0.0,0.0,0.0010836134,0.0,0.0,0.0,0.0,0.0,0.0,0.0,0.0,0.0
555766634,555666319,0.00023010871,0.0,0.00019128779,6.112252e-05,0.0,0.0,0.0,0.0,0.0,0.0,0.0,0.0,0.0,9.4425595e-05,0.0,0.0,nan,0.0,0.0,0.0014396241,0.0,0.0,0.0,0.0,0.0,0.0,0.0,0.0,0.0
556266460,556166263,0.0027425168,0.0,0.0001244326,0.00011436221,0.0,0.0,0.0,0.0,0.0,0.0,0.0,0.0,0.0,0.00020128989,0.0,0.0,nan,0.0,0.0,0.00076993654,0.0,0.0,0.0,0.0,0.0,0.0,0.0,0.0,0.0
556766428,556666206,0.0006465621,0.0,6.4320004e-05,0.00011487896,0.0,0.0,0.0,0.0,0.0,0.0,0.0,0.0,0.0,1.46331395e-05,0.0,0.0,nan,0.0,0.0,0.00021177487,0.0,0.0,0.0,0.0,0.0,0.0,0.0,0.0,0.0
557266342,557166150,0.004308347,0.0,0.0001405848,0.00012818379,0.0,0.0,0.0,0.0,0.0,0.0,0.0,0.0,0.0,2.269991e-06,0.0,0.0,nan,0.0,0.0,0.0005737632,0.0,0.0,0.0,0.0,0.0,0.0,0.0,0.0,0.0
557766311,557666094,0.0011467717,0.0,1.1898143e-05,0.00023792883,0.0,0.0,0.0,0.0,0.0,0.0,0.0,0.0,0.0,1.5684014e-05,0.0,0.0,nan,0.0,0.0,0.00049252197,0.0,0.0,0.0,0.0,0.0,0.0,0.0,0.0,0.0
558266237,558166038,0.0008955408,0.0,0.0010905385,0.0003047245,0.0,0.0,0.0,0.0,0.0,0.0,0.0,0.0,0.0,5.48441e-06,0.0,0.0,nan,0.0,0.0,0.0004233592,0.0,0.0,0.0,0.0,0.0,0.0,0.0,0.0,0.0
558766228,558665982,0.0054729544,0.0,2.4943554e-05,6.831481e-05,0.0,0.0,0.0,0.0,0.0,0.0,0.0,0.0,0.0,2.0315472e-05,0.0,0.0,nan,0.0,0.0,0.00013556857,0.0,0.0,0.0,0.0,0.0,0.0,0.0,0.0,0.0
559266113,559165926,0.0040142206,0.0,0.0002961373,8.214926e-05,0.0,0.0,0.0,0.0,0.0,0.0,0.0,0.0,0.0,3.824997e-05,0.0,0.0,nan,0.0,0.0,0.001140331,0.0,0.0,0.0,0.0,0.0,0.0,0.0,0.0,0.0
559766159,559665870,0.0004725189,0.0,0.0003711284,1.148382e-05,0.0,0.0,0.0,0.0,0.0,0.0,0.0,0.0,0.0,2.4814265e-06,0.0,0.0,nan,0.0,0.0,0.0006615957,0.0,0.0,0.0,0.0,0.0,0.0,0.0,0.0,0.0
560266131,560165814,0.0028891035,0.0,1.6063905e-06,3.10002e-05,0.0,0.0,0.0,0.0,0.0,0.0,0.0,0.0,0.0,2.1622657e-06,0.0,0.0,nan,0.0,0.0,0.00030051224,0.0,0.0,0.0,0.0,0.0,0.0,0.0,0.0,0.0
560766002,560665758,0.0030785147,0.0,7.3566835e-06,3.266617e-05,0.0,0.0,0.0,0.0,0.0,0.0,0.0,0.0,0.0,8.7013315e-05,0.0,0.0,nan,0.0,0.0,0.0012844765,0.0,0.0,0.0,0.0,0.0,0.0,0.0,0.0,0.0
561265892,561165703,0.0043178536,0.0,2.8445336e-05,0.00022722333,0.0,0.0,0.0,0.0,0.0,0.0,0.0,0.0,0.0,2.2985381e-07,0.0,0.0,nan,0.0,0.0,0.00062834675,0.0,0.0,0.0,0.0,0.0,0.0,0.0,0.0,0.0
561765836,561665647,0.0013470291,0.0,0.0008981729,0.00019103027,0.0,0.0,0.0,0.0,0.0,0.0,0.0,0.0,0.0,2.7623264e-05,0.0,0.0,nan,0.0,0.0,0.00041528727,0.0,0.0,0.0,0.0,0.0,0.0,0.0,0.0,0.0
562265831,562165591,0.00018661373,0.0,1.9974254e-06,0.00026975415,0.0,0.0,0.0,0.0,0.0,0.0,0.0,0.0,0.0,2.0958021e-05,0.0,0.0,nan,0.0,0.0,0.0005599191,0.0,0.0,0.0,0.0,0.0,0.0,0.0,0.0,0.0
562765728,562665535,0.00028704302,0.0,0.00011920625,0.00040993677,0.0,0.0,0.0,0.0,0.0,0.0,0.0,0.0,0.0,0.00026337279,0.0,0.0,nan,0.0,0.0,0.00028371427,0.0,0.0,0.0,0.0,0.0,0.0,0.0,0.0,0.0
563265674,563165480,0.0034404232,0.0,0.0003103172,0.0007745149,0.0,0.0,0.0,0.0,0.0,0.0,0.0,0.0,0.0,3.6712332e-05,0.0,0.0,nan,0.0,0.0,0.0007805545,0.0,0.0,0.0,0.0,0.0,0.0,0.0,0.0,0.0
563765640,563665424,0.0008750279,0.0,2.318898e-08,0.0016992233,0.0,0.0,0.0,0.0,0.0,0.0,0.0,0.0,0.0,0.00019263336,0.0,0.0,nan,0.0,0.0,0.0008249072,0.0,0.0,0.0,0.0,0.0,0.0,0.0,0.0,0.0
564265584,564165368,0.002882306,0.0,0.0005664005,0.0019239249,0.0,0.0,0.0,0.0,0.0,0.0,0.0,0.0,0.0,2.2559669e-05,0.0,0.0,nan,0.0,0.0,0.0017396407,0.0,0.0,0.0,0.0,0.0,0.0,0.0,0.0,0.0
564765508,564665313,0.007601776,0.0,0.00012298755,0.0023758723,0.0,0.0,0.0,0.0,0.0,0.0,0.0,0.0,0.0,5.638207e-07,0.0,0.0,nan,0.0,0.0,0.0008273083,0.0,0.0,0.0,0.0,0.0,0.0,0.0,0.0,0.0
565265449,565165257,0.001236275,0.0,0.00012042048,0.002916698,0.0,0.0,0.0,0.0,0.0,0.0,0.0,0.0,0.0,0.00027425212,0.0,0.0,nan,0.0,0.0,0.001923217,0.0,0.0,0.0,0.0,0.0,0.0,0.0,0.0,0.0
565765414,565665202,0.00058870134,0.0,0.0010378789,0.0031844727,0.0,0.0,0.0,0.0,0.0,0.0,0.0,0.0,0.0,5.5480774e-05,0.0,0.0,nan,0.0,0.0,0.0016361263,0.0,0.0,0.0,0.0,0.0,0.0,0.0,0.0,0.0
566265389,566165146,0.0003838018,0.0,0.0014599069,0.002730083,0.0,0.0,0.0,0.0,0.0,0.0,0.0,0.0,0.0,7.750434e-05,0.0,0.0,nan,0.0,0.0,0.00065893,0.0,0.0,0.0,0.0,0.0,0.0,0.0,0.0,0.0
566765280,566665091,0.011386223,0.0,5.6808236e-05,0.0017813632,0.0,0.0,0.0,0.0,0.0,0.0,0.0,0.0,0.0,2.690358e-05,0.0,0.0,nan,0.0,0.0,0.0008037532,0.0,0.0,0.0,0.0,0.0,0.0,0.0,0.0,0.0
567265244,567165035,0.0011422035,0.0,0.0007147597,0.0014914456,0.0,0.0,0.0,0.0,0.0,0.0,0.0,0.0,0.0,8.2280836e-05,0.0,0.0,nan,0.0,0.0,0.0012758728,0.0,0.0,0.0,0.0,0.0,0.0,0.0,0.0,0.0
567765189,567664980,0.027958058,0.0,0.000379151,0.0017498407,0.0,0.0,0.0,0.0,0.0,0.0,0.0,0.0,0.0,2.7874132e-06,0.0,0.0,nan,0.0,0.0,0.00034459133,0.0,0.0,0.0,0.0,0.0,0.0,0.0,0.0,0.0
568265141,568164924,0.0024602984,0.0,0.00054103386,0.0015526516,0.0,0.0,0.0,0.0,0.0,0.0,0.0,0.0,0.0,0.00028548046,0.0,0.0,nan,0.0,0.0,0.00019355626,0.0,0.0,0.0,0.0,0.0,0.0,0.0,0.0,0.0
568765106,568664869,0.102010086,0.0,0.0003786894,0.0012294534,0.0,0.0,0.0,0.0,0.0,0.0,0.0,0.0,0.0,2.6906824e-05,0.0,0.0,nan,0.0,0.0,0.0011039106,0.0,0.0,0.0,0.0,0.0,0.0,0.0,0.0,0.0
569265107,569164814,0.0043182126,0.0,0.003170525,0.0013992962,0.0,0.0,0.0,0.0,0.0,0.0,0.0,0.0,0.0,8.239152e-05,0.0,0.0,nan,0.0,0.0,0.0006920048,0.0,0.0,0.0,0.0,0.0,0.0,0.0,0.0,0.0
569764950,569664758,0.0012052408,0.0,0.001333477,0.001090759,0.0,0.0,0.0,0.0,0.0,0.0,0.0,0.0,0.0,3.7538295e-05,0.0,0.0,nan,0.0,0.0,0.0007102282,0.0,0.0,0.0,0.0,0.0,0.0,0.0,0.0,0.0
570264937,570164703,0.003634209,0.0,0.000121557365,0.0011517435,0.0,0.0,0.0,0.0,0.0,0.0,0.0,0.0,0.0,4.612123e-05,0.0,0.0,nan,0.0,0.0,0.00060264516,0.0,0.0,0.0,0.0,0.0,0.0,0.0,0.0,0.0
570764864,570664648,0.0025408578,0.0,0.00010223727,0.00065416197,0.0,0.0,0.0,0.0,0.0,0.0,0.0,0.0,0.0,0.00010781376,0.0,0.0,nan,0.0,0.0,0.0008448274,0.0,0.0,0.0,0.0,0.0,0.0,0.0,0.0,0.0
571264780,571164592,0.0016313641,0.0,0.0015661684,0.00051787,0.0,0.0,0.0,0.0,0.0,0.0,0.0,0.0,0.0,9.719423e-05,0.0,0.0,nan,0.0,0.0,0.0003431988,0.0,0.0,0.0,0.0,0.0,0.0,0.0,0.0,0.0
571764730,571664537,0.0003744981,0.0,0.00030844586,0.00018717967,0.0,0.0,0.0,0.0,0.0,0.0,0.0,0.0,0.0,3.776382e-05,0.0,0.0,nan,0.0,0.0,0.00022589798,0.0,0.0,0.0,0.0,0.0,0.0,0.0,0.0,0.0
572264678,572164481,0.0029156045,0.0,0.0005659179,0.00032150728,0.0,0.0,0.0,0.0,0.0,0.0,0.0,0.0,0.0,8.5474436e-05,0.0,0.0,nan,0.0,0.0,0.0006910903,0.0,0.0,0.0,0.0,0.0,0.0,0.0,0.0,0.0
572764614,572664426,0.002855426,0.0,0.00014448097,0.00033315297,0.0,0.0,0.0,0.0,0.0,0.0,0.0,0.0,0.0,0.00029458557,0.0,0.0,nan,0.0,0.0,0.0006364621,0.0,0.0,0.0,0.0,0.0,0.0,0.0,0.0,0.0
573264605,573164371,0.002102844,0.0,2.1542508e-05,0.00039426325,0.0,0.0,0.0,0.0,0.0,0.0,0.0,0.0,0.0,3.169718e-05,0.0,0.0,nan,0.0,0.0,0.000106584695,0.0,0.0,0.0,0.0,0.0,0.0,0.0,0.0,0.0
573764515,573664315,0.00058284175,0.0,7.953215e-06,0.0009175819,0.0,0.0,0.0,0.0,0.0,0.0,0.0,0.0,0.0,1.5633026e-05,0.0,0.0,nan,0.0,0.0,0.00018868959,0.0,0.0,0.0,0.0,0.0,0.0,0.0,0.0,0.0
574264481,574164260,0.0034364138,0.0,2.2130665e-05,0.0014449835,0.0,0.0,0.0,0.0,0.0,0.0,0.0,0.0,0.0,0.0005304509,0.0,0.0,nan,0.0,0.0,0.00012458317,0.0,0.0,0.0,0.0,0.0,0.0,0.0,0.0,0.0
574764397,574664205,0.0009164991,0.0,1.14761915e-05,0.0014799999,0.0,0.0,0.0,0.0,0.0,0.0,0.0,0.0,0.0,0.00021533754,0.0,0.0,nan,0.0,0.0,0.0011071358,0.0,0.0,0.0,0.0,0.0,0.0,0.0,0.0,0.0
575264394,575164149,0.00031212997,0.0,0.00015795461,0.001484068,0.0,0.0,0.0,0.0,0.0,0.0,0.0,0.0,0.0,0.00017289682,0.0,0.0,nan,0.0,0.0,0.0005366058,0.0,0.0,0.0,0.0,0.0,0.0,0.0,0.0,0.0
575764285,575664094,0.011832705,0.0,0.00028965969,0.001576898,0.0,0.0,0.0,0.0,0.0,0.0,0.0,0.0,0.0,0.00010272395,0.0,0.0,nan,0.0,0.0,1.313456e-05,0.0,0.0,0.0,0.0,0.0,0.0,0.0,0.0,0.0
576264263,576164038,0.0019240235,0.0,0.00042988226,0.0012852307,0.0,0.0,0.0,0.0,0.0,0.0,0.0,0.0,0.0,1.5368993e-05,0.0,0.0,nan,0.0,0.0,0.0019526302,0.0,0.0,0.0,0.0,0.0,0.0,0.0,0.0,0.0
576764229,576663983,0.0013252062,0.0,9.429337e-07,0.0013850091,0.0,0.0,0.0,0.0,0.0,0.0,0.0,0.0,0.0,8.592006e-06,0.0,0.0,nan,0.0,0.0,0.00063530804,0.0,0.0,0.0,0.0,0.0,0.0,0.0,0.0,0.0
577264117,577163927,0.0013707792,0.0,0.00044788592,0.0012746122,0.0,0.0,0.0,0.0,0.0,0.0,0.0,0.0,0.0,2.3151013e-05,0.0,0.0,nan,0.0,0.0,0.00014705486,0.0,0.0,0.0,0.0,0.0,0.0,0.0,0.0,0.0
577764060,577663872,0.003607995,0.0,0.0001170472,0.0014223264,0.0,0.0,0.0,0.0,0.0,0.0,0.0,0.0,0.0,0.0004110231,0.0,0.0,nan,0.0,0.0,0.00037255645,0.0,0.0,0.0,0.0,0.0,0.0,0.0,0.0,0.0
578264015,578163817,0.00069677073,0.0,3.9776714e-06,0.0011677555,0.0,0.0,0.0,0.0,0.0,0.0,0.0,0.0,0.0,0.00013531733,0.0,0.0,nan,0.0,0.0,0.0010896066,0.0,0.0,0.0,0.0,0.0,0.0,0.0,0.0,0.0
578763953,578663761,0.00025275964,0.0,1.7629362e-05,0.0010498828,0.0,0.0,0.0,0.0,0.0,0.0,0.0,0.0,0.0,9.432885e-06,0.0,0.0,nan,0.0,0.0,0.001101987,0.0,0.0,0.0,0.0,0.0,0.0,0.0,0.0,0.0
579263900,579163706,0.0018671277,0.0,0.0008883592,0.0010576177,0.0,0.0,0.0,0.0,0.0,0.0,0.0,0.0,0.0,1.5655753e-05,0.0,0.0,nan,0.0,0.0,0.0008502105,0.0,0.0,0.0,0.0,0.0,0.0,0.0,0.0,0.0
579763873,579663650,0.0022584016,0.0,3.4592522e-05,0.0009220744,0.0,0.0,0.0,0.0,0.0,0.0,0.0,0.0,0.0,0.00010161614,0.0,0.0,nan,0.0,0.0,0.0017021311,0.0,0.0,0.0,0.0,0.0,0.0,0.0,0.0,0.0
580263809,580163595,0.00373524,0.0,0.0003134813,0.0012881468,0.0,0.0,0.0,0.0,0.0,0.0,0.0,0.0,0.0,6.544066e-05,0.0,0.0,nan,0.0,0.0,0.00191024,0.0,0.0,0.0,0.0,0.0,0.0,0.0,0.0,0.0
580763776,580663539,0.0014460773,0.0,0.00040994486,0.0010276745,0.0,0.0,0.0,0.0,0.0,0.0,0.0,0.0,0.0,1.7453709e-05,0.0,0.0,nan,0.0,0.0,0.0018739848,0.0,0.0,0.0,0.0,0.0,0.0,0.0,0.0,0.0
581263696,581163484,0.008182262,0.0,0.00097512064,0.0015912685,0.0,0.0,0.0,0.0,0.0,0.0,0.0,0.0,0.0,8.6663655e-05,0.0,0.0,nan,0.0,0.0,0.0038354658,0.0,0.0,0.0,0.0,0.0,0.0,0.0,0.0,0.0
581763739,581663428,0.0063400124,0.0,0.0042909104,0.0021537933,0.0,0.0,0.0,0.0,0.0,0.0,0.0,0.0,0.0,8.080652e-05,0.0,0.0,nan,0.0,0.0,0.00010994944,0.0,0.0,0.0,0.0,0.0,0.0,0.0,0.0,0.0
582263610,582163372,0.0010436364,0.0,0.0012440598,0.0011499864,0.0,0.0,0.0,0.0,0.0,0.0,0.0,0.0,0.0,4.068754e-07,0.0,0.0,nan,0.0,0.0,7.2036282e-06,0.0,0.0,0.0,0.0,0.0,0.0,0.0,0.0,0.0
582763593,582663316,0.00020274118,0.0,7.694653e-06,0.0003681309,0.0,0.0,0.0,0.0,0.0,0.0,0.0,0.0,0.0,6.722042e-06,0.0,0.0,nan,0.0,0.0,0.00036665736,0.0,0.0,0.0,0.0,0.0,0.0,0.0,0.0,0.0
583263543,583163261,0.0022849997,0.0,0.0004110941,0.00025012487,0.0,0.0,0.0,0.0,0.0,0.0,0.0,0.0,0.0,6.965363e-06,0.0,0.0,nan,0.0,0.0,0.00010607522,0.0,0.0,0.0,0.0,0.0,0.0,0.0,0.0,0.0
583763454,583663205,0.002347915,0.0,3.0184097e-05,0.00024432613,0.0,0.0,0.0,0.0,0.0,0.0,0.0,0.0,0.0,5.438403e-05,0.0,0.0,nan,0.0,0.0,6.914159e-05,0.0,0.0,0.0,0.0,0.0,0.0,0.0,0.0,0.0
584263339,584163149,0.011227965,0.0,0.0006465666,0.00021807055,0.0,0.0,0.0,0.0,0.0,0.0,0.0,0.0,0.0,9.543765e-05,0.0,0.0,nan,0.0,0.0,0.00087223394,0.0,0.0,0.0,0.0,0.0,0.0,0.0,0.0,0.0
584763302,584663093,0.0040899445,0.0,0.00012757597,6.1871375e-05,0.0,0.0,0.0,0.0,0.0,0.0,0.0,0.0,0.0,2.0502386e-05,0.0,0.0,nan,0.0,0.0,0.00066848897,0.0,0.0,0.0,0.0,0.0,0.0,0.0,0.0,0.0
585263271,585163037,0.0072476515,0.0,3.2867498e-05,9.6268064e-05,0.0,0.0,0.0,0.0,0.0,0.0,0.0,0.0,0.0,4.0920116e-07,0.0,0.0,nan,0.0,0.0,0.002266734,0.0,0.0,0.0,0.0,0.0,0.0,0.0,0.0,0.0
585763217,585662981,0.00024186414,0.0,9.2729726e-07,5.6479697e-05,0.0,0.0,0.0,0.0,0.0,0.0,0.0,0.0,0.0,0.00046608105,0.0,0.0,nan,0.0,0.0,0.0021939536,0.0,0.0,0.0,0.0,0.0,0.0,0.0,0.0,0.0
586263113,586162925,0.00017588928,0.0,0.00017601704,3.198354e-05,0.0,0.0,0.0,0.0,0.0,0.0,0.0,0.0,0.0,0.00026970572,0.0,0.0,nan,0.0,0.0,0.0010342601,0.0,0.0,0.0,0.0,0.0,0.0,0.0,0.0,0.0
586763056,586662869,0.0075546997,0.0,0.0012965298,6.1382802e-06,0.0,0.0,0.0,0.0,0.0,0.0,0.0,0.0,0.0,2.4483836e-05,0.0,0.0,nan,0.0,0.0,0.0029655145,0.0,0.0,0.0,0.0,0.0,0.0,0.0,0.0,0.0
587263009,587162813,0.005339028,0.0,0.00057756895,5.2527066e-05,0.0,0.0,0.0,0.0,0.0,0.0,0.0,0.0,0.0,5.4146717e-06,0.0,0.0,nan,0.0,0.0,0.004488002,0.0,0.0,0.0,0.0,0.0,0.0,0.0,0.0,0.0
587762975,587662756,0.0019888985,0.0,0.0017945193,3.5876306e-05,0.0,0.0,0.0,0.0,0.0,0.0,0.0,0.0,0.0,1.8994726e-05,0.0,0.0,nan,0.0,0.0,0.0020736807,0.0,0.0,0.0,0.0,0.0,0.0,0.0,0.0,0.0
588262941,588162700,0.0011471277,0.0,0.0024611352,5.23588e-05,0.0,0.0,0.0,0.0,0.0,0.0,0.0,0.0,0.0,7.885138e-06,0.0,0.0,nan,0.0,0.0,0.0028048204,0.0,0.0,0.0,0.0,0.0,0.0,0.0,0.0,0.0
588762837,588662645,0.0027319796,0.0,0.0009889179,0.0001957103,0.0,0.0,0.0,0.0,0.0,0.0,0.0,0.0,0.0,1.3186936e-06,0.0,0.0,nan,0.0,0.0,0.0042796205,0.0,0.0,0.0,0.0,0.0,0.0,0.0,0.0,0.0
589262774,589162587,0.009380136,0.0,0.00049831724,0.00020344135,0.0,0.0,0.0,0.0,0.0,0.0,0.0,0.0,0.0,0.00018436831,0.0,0.0,nan,0.0,0.0,0.001208663,0.0,0.0,0.0,0.0,0.0,0.0,0.0,0.0,0.0
589762772,589662531,0.0025623073,0.0,0.0002466044,0.000297326,0.0,0.0,0.0,0.0,0.0,0.0,0.0,0.0,0.0,2.1785196e-05,0.0,0.0,nan,0.0,0.0,0.0010529889,0.0,0.0,0.0,0.0,0.0,0.0,0.0,0.0,0.0
590262688,590162474,0.00045495166,0.0,0.0038569986,0.00033928524,0.0,0.0,0.0,0.0,0.0,0.0,0.0,0.0,0.0,1.8167396e-08,0.0,0.0,nan,0.0,0.0,0.0003333378,0.0,0.0,0.0,0.0,0.0,0.0,0.0,0.0,0.0
590762607,590662417,0.0012757127,0.0,0.00018555784,0.0002719286,0.0,0.0,0.0,0.0,0.0,0.0,0.0,0.0,0.0,3.2668857e-05,0.0,0.0,nan,0.0,0.0,2.4914854e-05,0.0,0.0,0.0,0.0,0.0,0.0,0.0,0.0,0.0
591262577,591162361,9.0773014e-05,0.0,0.00083700364,0.00070748007,0.0,0.0,0.0,0.0,0.0,0.0,0.0,0.0,0.0,8.814384e-06,0.0,0.0,nan,0.0,0.0,0.00012634062,0.0,0.0,0.0,0.0,0.0,0.0,0.0,0.0,0.0
591762500,591662304,0.00018261098,0.0,6.6039215e-06,0.00072621414,0.0,0.0,0.0,0.0,0.0,0.0,0.0,0.0,0.0,6.156032e-05,0.0,0.0,nan,0.0,0.0,7.2528787e-06,0.0,0.0,0.0,0.0,0.0,0.0,0.0,0.0,0.0
592262442,592162247,0.0053144526,0.0,9.4026094e-05,0.0009278517,0.0,0.0,0.0,0.0,0.0,0.0,0.0,0.0,0.0,5.9410263e-06,0.0,0.0,nan,0.0,0.0,2.1834008e-05,0.0,0.0,0.0,0.0,0.0,0.0,0.0,0.0,0.0
592762377,592662190,0.004907095,0.0,0.00081199495,0.0007275166,0.0,0.0,0.0,0.0,0.0,0.0,0.0,0.0,0.0,0.00020087005,0.0,0.0,nan,0.0,0.0,0.0017361403,0.0,0.0,0.0,0.0,0.0,0.0,0.0,0.0,0.0
593262319,593162136,0.002468252,0.0,1.7758006e-05,0.00082343136,0.0,0.0,0.0,0.0,0.0,0.0,0.0,0.0,0.0,1.1964e-05,0.0,0.0,nan,0.0,0.0,0.01039162,0.0,0.0,0.0,0.0,0.0,0.0,0.0,0.0,0.0
593762310,593662076,0.0007555782,0.0,0.00079168833,0.00048329963,0.0,0.0,0.0,0.0,0.0,0.0,0.0,0.0,0.0,9.319891e-06,0.0,0.0,nan,0.0,0.0,0.00074064854,0.0,0.0,0.0,0.0,0.0,0.0,0.0,0.0,0.0
594262274,594162019,0.001976503,0.0,0.00014762442,0.0005808842,0.0,0.0,0.0,0.0,0.0,0.0,0.0,0.0,0.0,5.4892e-07,0.0,0.0,nan,0.0,0.0,0.0003329258,0.0,0.0,0.0,0.0,0.0,0.0,0.0,0.0,0.0
594762203,594661962,0.004760105,0.0,2.720268e-05,0.00073804933,0.0,0.0,0.0,0.0,0.0,0.0,0.0,0.0,0.0,1.531026e-05,0.0,0.0,nan,0.0,0.0,0.0006618191,0.0,0.0,0.0,0.0,0.0,0.0,0.0,0.0,0.0
595262093,595161904,0.002373195,0.0,0.0009668142,0.00073789246,0.0,0.0,0.0,0.0,0.0,0.0,0.0,0.0,0.0,6.078512e-05,0.0,0.0,nan,0.0,0.0,6.8292225e-05,0.0,0.0,0.0,0.0,0.0,0.0,0.0,0.0,0.0
595762034,595661847,0.016537264,0.0,0.0011511924,0.00037398617,0.0,0.0,0.0,0.0,0.0,0.0,0.0,0.0,0.0,0.0001353402,0.0,0.0,nan,0.0,0.0,9.4318e-05,0.0,0.0,0.0,0.0,0.0,0.0,0.0,0.0,0.0
596262132,596161789,0.017909223,0.0,0.0007714242,0.00019914245,0.0,0.0,0.0,0.0,0.0,0.0,0.0,0.0,0.0,0.00015660404,0.0,0.0,nan,0.0,0.0,3.175116e-06,0.0,0.0,0.0,0.0,0.0,0.0,0.0,0.0,0.0
596761918,596661732,0.0022582393,0.0,1.4289433e-05,0.0002505758,0.0,0.0,0.0,0.0,0.0,0.0,0.0,0.0,0.0,3.37504e-06,0.0,0.0,nan,0.0,0.0,0.00031300494,0.0,0.0,0.0,0.0,0.0,0.0,0.0,0.0,0.0
597261938,597161674,0.006454806,0.0,4.8054126e-06,0.00019209174,0.0,0.0,0.0,0.0,0.0,0.0,0.0,0.0,0.0,6.787892e-05,0.0,0.0,nan,0.0,0.0,0.0007975084,0.0,0.0,0.0,0.0,0.0,0.0,0.0,0.0,0.0
597761808,597661618,0.0063582133,0.0,0.00034656064,0.00023462914,0.0,0.0,0.0,0.0,0.0,0.0,0.0,0.0,0.0,2.0458401e-05,0.0,0.0,nan,0.0,0.0,0.0005399357,0.0,0.0,0.0,0.0,0.0,0.0,0.0,0.0,0.0
598261763,598161559,0.0044018887,0.0,0.00012740718,0.00033253172,0.0,0.0,0.0,0.0,0.0,0.0,0.0,0.0,0.0,4.2700294e-06,0.0,0.0,nan,0.0,0.0,6.1059795e-06,0.0,0.0,0.0,0.0,0.0,0.0,0.0,0.0,0.0
598761691,598661501,0.005759321,0.0,0.0007154303,0.0005036074,0.0,0.0,0.0,0.0,0.0,0.0,0.0,0.0,0.0,6.415063e-07,0.0,0.0,nan,0.0,0.0,0.000872957,0.0,0.0,0.0,0.0,0.0,0.0,0.0,0.0,0.0
599261685,599161443,0.0021089513,0.0,1.2160115e-05,0.00049695844,0.0,0.0,0.0,0.0,0.0,0.0,0.0,0.0,0.0,5.754667e-07,0.0,0.0,nan,0.0,0.0,0.00071086595,0.0,0.0,0.0,0.0,0.0,0.0,0.0,0.0,0.0
599761572,599661384,0.0010722334,0.0,0.0001319647,0.00094934914,0.0,0.0,0.0,0.0,0.0,0.0,0.0,0.0,0.0,1.3194387e-05,0.0,0.0,nan,0.0,0.0,2.8850629e-05,0.0,0.0,0.0,0.0,0.0,0.0,0.0,0.0,0.0
600261578,600161327,0.0005897797,0.0,4.9476264e-05,0.0012145214,0.0,0.0,0.0,0.0,0.0,0.0,0.0,0.0,0.0,4.42524e-05,0.0,0.0,nan,0.0,0.0,0.00010021428,0.0,0.0,0.0,0.0,0.0,0.0,0.0,0.0,0.0
600761475,600661268,0.0010718012,0.0,5.5532146e-06,0.0015969595,0.0,0.0,0.0,0.0,0.0,0.0,0.0,0.0,0.0,1.2992605e-08,0.0,0.0,nan,0.0,0.0,0.00014594772,0.0,0.0,0.0,0.0,0.0,0.0,0.0,0.0,0.0
601261426,601161210,0.019543998,0.0,0.0036665925,0.0019638892,0.0,0.0,0.0,0.0,0.0,0.0,0.0,0.0,0.0,1.0579929e-05,0.0,0.0,nan,0.0,0.0,0.0006826036,0.0,0.0,0.0,0.0,0.0,0.0,0.0,0.0,0.0
601761340,601661151,0.00040514005,0.0,0.00038021986,0.0022274982,0.0,0.0,0.0,0.0,0.0,0.0,0.0,0.0,0.0,7.9861576e-07,0.0,0.0,nan,0.0,0.0,0.0017585544,0.0,0.0,0.0,0.0,0.0,0.0,0.0,0.0,0.0
602261279,602161093,0.0010169788,0.0,0.000111099034,0.0021274472,0.0,0.0,0.0,0.0,0.0,0.0,0.0,0.0,0.0,2.6849199e-05,0.0,0.0,nan,0.0,0.0,0.0001772449,0.0,0.0,0.0,0.0,0.0,0.0,0.0,0.0,0.0
602761273,602661034,0.000720053,0.0,7.559405e-05,0.0019429305,0.0,0.0,0.0,0.0,0.0,0.0,0.0,0.0,0.0,2.2845428e-05,0.0,0.0,nan,0.0,0.0,0.0011214187,0.0,0.0,0.0,0.0,0.0,0.0,0.0,0.0,0.0
603261210,603160976,0.0047815423,0.0,0.00012066097,0.0018045168,0.0,0.0,0.0,0.0,0.0,0.0,0.0,0.0,0.0,2.5712627e-06,0.0,0.0,nan,0.0,0.0,0.0005268299,0.0,0.0,0.0,0.0,0.0,0.0,0.0,0.0,0.0
603761108,603660917,0.0038485401,0.0,0.00047169134,0.0013726052,0.0,0.0,0.0,0.0,0.0,0.0,0.0,0.0,0.0,7.473408e-05,0.0,0.0,nan,0.0,0.0,0.0020801297,0.0,0.0,0.0,0.0,0.0,0.0,0.0,0.0,0.0
604261099,604160858,0.008058567,0.0,0.0012109826,0.0011654416,0.0,0.0,0.0,0.0,0.0,0.0,0.0,0.0,0.0,5.558904e-05,0.0,0.0,nan,0.0,0.0,0.0004198519,0.0,0.0,0.0,0.0,0.0,0.0,0.0,0.0,0.0
604761051,604660799,0.008344867,0.0,0.002427543,0.0010321669,0.0,0.0,0.0,0.0,0.0,0.0,0.0,0.0,0.0,2.5349727e-06,0.0,0.0,nan,0.0,0.0,0.00021188198,0.0,0.0,0.0,0.0,0.0,0.0,0.0,0.0,0.0
605261032,605160740,0.040061366,0.0,0.0006105149,0.0011144571,0.0,0.0,0.0,0.0,0.0,0.0,0.0,0.0,0.0,6.252483e-05,0.0,0.0,nan,0.0,0.0,0.0010982672,0.0,0.0,0.0,0.0,0.0,0.0,0.0,0.0,0.0
605760885,605660680,0.002696064,0.0,0.00058665004,0.0006357211,0.0,0.0,0.0,0.0,0.0,0.0,0.0,0.0,0.0,0.0002688653,0.0,0.0,nan,0.0,0.0,6.346459e-05,0.0,0.0,0.0,0.0,0.0,0.0,0.0,0.0,0.0
606260816,606160621,0.001317325,0.0,3.0469594e-06,0.00030609907,0.0,0.0,0.0,0.0,0.0,0.0,0.0,0.0,0.0,0.00010282784,0.0,0.0,nan,0.0,0.0,7.0380105e-07,0.0,0.0,0.0,0.0,0.0,0.0,0.0,0.0,0.0
606760754,606660562,0.0065889717,0.0,0.00016956752,5.5067827e-05,0.0,0.0,0.0,0.0,0.0,0.0,0.0,0.0,0.0,6.625197e-05,0.0,0.0,nan,0.0,0.0,0.0004965939,0.0,0.0,0.0,0.0,0.0,0.0,0.0,0.0,0.0
607260708,607160503,0.0033156816,0.0,0.00020025072,9.09633e-05,0.0,0.0,0.0,0.0,0.0,0.0,0.0,0.0,0.0,6.357576e-06,0.0,0.0,nan,0.0,0.0,0.00020754372,0.0,0.0,0.0,0.0,0.0,0.0,0.0,0.0,0.0
607760668,607660443,0.00707894,0.0,0.0007703078,0.00020586414,0.0,0.0,0.0,0.0,0.0,0.0,0.0,0.0,0.0,9.335698e-06,0.0,0.0,nan,0.0,0.0,3.8828577e-05,0.0,0.0,0.0,0.0,0.0,0.0,0.0,0.0,0.0
608260573,608160383,0.00026927172,0.0,7.3920455e-05,0.00025601021,0.0,0.0,0.0,0.0,0.0,0.0,0.0,0.0,0.0,3.4702433e-07,0.0,0.0,nan,0.0,0.0,8.897832e-06,0.0,0.0,0.0,0.0,0.0,0.0,0.0,0.0,0.0
608760539,608660327,0.0011395521,0.0,0.00013691145,0.0004635157,0.0,0.0,0.0,0.0,0.0,0.0,0.0,0.0,0.0,0.00023648217,0.0,0.0,nan,0.0,0.0,7.171721e-05,0.0,0.0,0.0,0.0,0.0,0.0,0.0,0.0,0.0
609260585,609160264,0.0010038665,0.0,1.8621093e-05,0.0008526633,0.0,0.0,0.0,0.0,0.0,0.0,0.0,0.0,0.0,0.00031367864,0.0,0.0,nan,0.0,0.0,0.0011072432,0.0,0.0,0.0,0.0,0.0,0.0,0.0,0.0,0.0
609760405,609660204,0.0032128082,0.0,0.0004349326,0.0012545811,0.0,0.0,0.0,0.0,0.0,0.0,0.0,0.0,0.0,3.3956146e-06,0.0,0.0,nan,0.0,0.0,0.00025532828,0.0,0.0,0.0,0.0,0.0,0.0,0.0,0.0,0.0
610260329,610160144,0.0015543515,0.0,1.0095092e-06,0.001430897,0.0,0.0,0.0,0.0,0.0,0.0,0.0,0.0,0.0,5.8452497e-07,0.0,0.0,nan,0.0,0.0,1.4454317e-06,0.0,0.0,0.0,0.0,0.0,0.0,0.0,0.0,0.0
610770268,610670082,0.003935094,0.0,0.0011754157,0.0013823427,0.0,0.0,0.0,0.0,0.0,0.0,0.0,0.0,0.0,2.0045504e-06,0.0,0.0,nan,0.0,0.0,1.1933939e-05,0.0,0.0,0.0,0.0,0.0,0.0,0.0,0.0,0.0
611260226,611160023,0.00061014394,0.0,8.0403704e-05,0.0014182653,0.0,0.0,0.0,0.0,0.0,0.0,0.0,0.0,0.0,2.2111828e-05,0.0,0.0,nan,0.0,0.0,0.00018206137,0.0,0.0,0.0,0.0,0.0,0.0,0.0,0.0,0.0
611760189,611659963,0.00033128803,0.0,0.0010425181,0.0016151657,0.0,0.0,0.0,0.0,0.0,0.0,0.0,0.0,0.0,8.516118e-05,0.0,0.0,nan,0.0,0.0,0.0011245867,0.0,0.0,0.0,0.0,0.0,0.0,0.0,0.0,0.0
612260090,612159902,0.00060788787,0.0,0.0006026207,0.0016258013,0.0,0.0,0.0,0.0,0.0,0.0,0.0,0.0,0.0,8.02395e-05,0.0,0.0,nan,0.0,0.0,0.001179252,0.0,0.0,0.0,0.0,0.0,0.0,0.0,0.0,0.0
612760083,612659845,0.0001547799,0.0,0.00056417024,0.0014512872,0.0,0.0,0.0,0.0,0.0,0.0,0.0,0.0,0.0,1.8133711e-05,0.0,0.0,nan,0.0,0.0,0.0021673136,0.0,0.0,0.0,0.0,0.0,0.0,0.0,0.0,0.0
613259968,613159781,0.005836063,0.0,0.0015421598,0.0016384603,0.0,0.0,0.0,0.0,0.0,0.0,0.0,0.0,0.0,7.671369e-06,0.0,0.0,nan,0.0,0.0,0.0015919651,0.0,0.0,0.0,0.0,0.0,0.0,0.0,0.0,0.0
613769940,613669719,0.0045259194,0.0,0.000579212,0.0016137757,0.0,0.0,0.0,0.0,0.0,0.0,0.0,0.0,0.0,7.1795526e-05,0.0,0.0,nan,0.0,0.0,0.00018792818,0.0,0.0,0.0,0.0,0.0,0.0,0.0,0.0,0.0
614270042,614169658,0.0034770411,0.0,0.00010237189,0.0014600615,0.0,0.0,0.0,0.0,0.0,0.0,0.0,0.0,0.0,2.6069586e-06,0.0,0.0,nan,0.0,0.0,0.0011866371,0.0,0.0,0.0,0.0,0.0,0.0,0.0,0.0,0.0
614759830,614659599,0.0017659626,0.0,2.8138691e-05,0.0014635223,0.0,0.0,0.0,0.0,0.0,0.0,0.0,0.0,0.0,6.829131e-05,0.0,0.0,nan,0.0,0.0,0.0009046584,0.0,0.0,0.0,0.0,0.0,0.0,0.0,0.0,0.0
615259724,615159538,0.0015829743,0.0,0.001569184,0.0012209102,0.0,0.0,0.0,0.0,0.0,0.0,0.0,0.0,0.0,7.4253396e-05,0.0,0.0,nan,0.0,0.0,0.003490415,0.0,0.0,0.0,0.0,0.0,0.0,0.0,0.0,0.0
615759717,615659477,0.005351589,0.0,0.0009891784,0.0013539805,0.0,0.0,0.0,0.0,0.0,0.0,0.0,0.0,0.0,9.841689e-05,0.0,0.0,nan,0.0,0.0,0.0011944481,0.0,0.0,0.0,0.0,0.0,0.0,0.0,0.0,0.0
616259609,616159415,0.0011437614,0.0,0.00032252423,0.0015022672,0.0,0.0,0.0,0.0,0.0,0.0,0.0,0.0,0.0,0.00013905788,0.0,0.0,nan,0.0,0.0,0.0034590545,0.0,0.0,0.0,0.0,0.0,0.0,0.0,0.0,0.0
616769546,616669353,0.0014236969,0.0,7.5944604e-06,0.0011886077,0.0,0.0,0.0,0.0,0.0,0.0,0.0,0.0,0.0,5.986119e-05,0.0,0.0,nan,0.0,0.0,0.0036496443,0.0,0.0,0.0,0.0,0.0,0.0,0.0,0.0,0.0
617269479,617169292,0.0003074959,0.0,8.585387e-06,0.0010211886,0.0,0.0,0.0,0.0,0.0,0.0,0.0,0.0,0.0,0.00012083488,0.0,0.0,nan,0.0,0.0,0.00026551785,0.0,0.0,0.0,0.0,0.0,0.0,0.0,0.0,0.0
617769415,617669230,0.0022018068,0.0,1.6615981e-07,0.0005563229,0.0,0.0,0.0,0.0,0.0,0.0,0.0,0.0,0.0,6.9222287e-06,0.0,0.0,nan,0.0,0.0,0.0007410108,0.0,0.0,0.0,0.0,0.0,0.0,0.0,0.0,0.0
618259363,618159169,0.00092798786,0.0,1.1677499e-08,0.00036199245,0.0,0.0,0.0,0.0,0.0,0.0,0.0,0.0,0.0,3.782437e-05,0.0,0.0,nan,0.0,0.0,0.00015991733,0.0,0.0,0.0,0.0,0.0,0.0,0.0,0.0,0.0
618759493,618659108,0.0005990499,0.0,0.0014383754,0.00033897554,0.0,0.0,0.0,0.0,0.0,0.0,0.0,0.0,0.0,3.2540767e-05,0.0,0.0,nan,0.0,0.0,4.5420715e-05,0.0,0.0,0.0,0.0,0.0,0.0,0.0,0.0,0.0
619259234,619159046,0.00034797096,0.0,0.0028146352,0.00014731185,0.0,0.0,0.0,0.0,0.0,0.0,0.0,0.0,0.0,0.00017184664,0.0,0.0,nan,0.0,0.0,0.00035632166,0.0,0.0,0.0,0.0,0.0,0.0,0.0,0.0,0.0
619759172,619658984,0.00025499373,0.0,0.0002203719,7.862993e-06,0.0,0.0,0.0,0.0,0.0,0.0,0.0,0.0,0.0,1.2832086e-05,0.0,0.0,nan,0.0,0.0,0.0029519354,0.0,0.0,0.0,0.0,0.0,0.0,0.0,0.0,0.0
620269158,620168921,0.0031540245,0.0,0.00014483262,7.1944564e-06,0.0,0.0,0.0,0.0,0.0,0.0,0.0,0.0,0.0,5.0922387e-07,0.0,0.0,nan,0.0,0.0,0.001414296,0.0,0.0,0.0,0.0,0.0,0.0,0.0,0.0,0.0
620769097,620668861,0.0012356635,0.0,2.997227e-05,9.811327e-05,0.0,0.0,0.0,0.0,0.0,0.0,0.0,0.0,0.0,1.840088e-05,0.0,0.0,nan,0.0,0.0,0.0011677122,0.0,0.0,0.0,0.0,0.0,0.0,0.0,0.0,0.0
621268983,621168796,0.0006478907,0.0,0.00058020925,0.0002311538,0.0,0.0,0.0,0.0,0.0,0.0,0.0,0.0,0.0,2.0811096e-05,0.0,0.0,nan,0.0,0.0,0.0027879954,0.0,0.0,0.0,0.0,0.0,0.0,0.0,0.0,0.0
621758981,621658735,0.0031414232,0.0,0.0014002519,0.00015264397,0.0,0.0,0.0,0.0,0.0,0.0,0.0,0.0,0.0,7.321263e-05,0.0,0.0,nan,0.0,0.0,0.0038951733,0.0,0.0,0.0,0.0,0.0,0.0,0.0,0.0,0.0
622258909,622158672,0.00046617218,0.0,1.2844539e-05,0.00012374847,0.0,0.0,0.0,0.0,0.0,0.0,0.0,0.0,0.0,3.3019317e-06,0.0,0.0,nan,0.0,0.0,0.0018824763,0.0,0.0,0.0,0.0,0.0,0.0,0.0,0.0,0.0
622768814,622668609,0.006468662,0.0,0.00030444728,3.4480996e-05,0.0,0.0,0.0,0.0,0.0,0.0,0.0,0.0,0.0,6.763075e-05,0.0,0.0,nan,0.0,0.0,0.0011855226,0.0,0.0,0.0,0.0,0.0,0.0,0.0,0.0,0.0
623268846,623168546,0.0023518056,0.0,0.00019319625,3.208621e-05,0.0,0.0,0.0,0.0,0.0,0.0,0.0,0.0,0.0,1.1955711e-05,0.0,0.0,nan,0.0,0.0,0.00038063162,0.0,0.0,0.0,0.0,0.0,0.0,0.0,0.0,0.0
623768690,623668483,0.00023410752,0.0,0.0016718449,6.684581e-05,0.0,0.0,0.0,0.0,0.0,0.0,0.0,0.0,0.0,1.6378223e-06,0.0,0.0,nan,0.0,0.0,2.866078e-05,0.0,0.0,0.0,0.0,0.0,0.0,0.0,0.0,0.0
624268642,624168420,0.0022090198,0.0,1.5756948e-05,0.00012181159,0.0,0.0,0.0,0.0,0.0,0.0,0.0,0.0,0.0,7.1756845e-06,0.0,0.0,nan,0.0,0.0,0.00069423905,0.0,0.0,0.0,0.0,0.0,0.0,0.0,0.0,0.0
624763595,624658358,6.358635e-05,0.0,0.0010825513,0.00020093597,0.0,0.0,0.0,0.0,0.0,0.0,0.0,0.0,0.0,0.00011368297,0.0,0.0,nan,0.0,0.0,6.0065053e-05,0.0,0.0,0.0,0.0,0.0,0.0,0.0,0.0,0.0
625258481,625158295,0.004403655,0.0,0.00024611008,0.00015240807,0.0,0.0,0.0,0.0,0.0,0.0,0.0,0.0,0.0,8.574952e-05,0.0,0.0,nan,0.0,0.0,7.88404e-05,0.0,0.0,0.0,0.0,0.0,0.0,0.0,0.0,0.0
625758420,625658232,0.0013000822,0.0,6.248282e-05,0.000205562,0.0,0.0,0.0,0.0,0.0,0.0,0.0,0.0,0.0,4.309596e-05,0.0,0.0,nan,0.0,0.0,0.00057802466,0.0,0.0,0.0,0.0,0.0,0.0,0.0,0.0,0.0
626268357,626168168,0.0023556245,0.0,7.95663e-05,0.000109994995,0.0,0.0,0.0,0.0,0.0,0.0,0.0,0.0,0.0,8.942044e-06,0.0,0.0,nan,0.0,0.0,0.000412086,0.0,0.0,0.0,0.0,0.0,0.0,0.0,0.0,0.0
626768295,626668104,0.00040997806,0.0,0.00048554086,0.0001948959,0.0,0.0,0.0,0.0,0.0,0.0,0.0,0.0,0.0,1.8730045e-06,0.0,0.0,nan,0.0,0.0,0.00018554348,0.0,0.0,0.0,0.0,0.0,0.0,0.0,0.0,0.0
627268301,627168040,0.0021589673,0.0,0.00023910387,0.00034020733,0.0,0.0,0.0,0.0,0.0,0.0,0.0,0.0,0.0,7.70563e-05,0.0,0.0,nan,0.0,0.0,0.00053989084,0.0,0.0,0.0,0.0,0.0,0.0,0.0,0.0,0.0
627768263,627667977,0.0003933185,0.0,7.392932e-05,0.00037908365,0.0,0.0,0.0,0.0,0.0,0.0,0.0,0.0,0.0,8.444999e-05,0.0,0.0,nan,0.0,0.0,0.0012267557,0.0,0.0,0.0,0.0,0.0,0.0,0.0,0.0,0.0
628268130,628167913,0.003281102,0.0,0.00014524578,0.0005398937,0.0,0.0,0.0,0.0,0.0,0.0,0.0,0.0,0.0,2.706529e-05,0.0,0.0,nan,0.0,0.0,0.00011688834,0.0,0.0,0.0,0.0,0.0,0.0,0.0,0.0,0.0
628758040,628657850,0.0048108785,0.0,4.8550914e-06,0.00076847867,0.0,0.0,0.0,0.0,0.0,0.0,0.0,0.0,0.0,8.305434e-06,0.0,0.0,nan,0.0,0.0,0.00029069418,0.0,0.0,0.0,0.0,0.0,0.0,0.0,0.0,0.0
629267978,629167785,0.006082729,0.0,0.00073474576,0.0007856319,0.0,0.0,0.0,0.0,0.0,0.0,0.0,0.0,0.0,5.182626e-05,0.0,0.0,nan,0.0,0.0,0.0010248439,0.0,0.0,0.0,0.0,0.0,0.0,0.0,0.0,0.0
629767938,629667721,0.0031181846,0.0,0.00016293059,0.00061311235,0.0,0.0,0.0,0.0,0.0,0.0,0.0,0.0,0.0,7.2052035e-07,0.0,0.0,nan,0.0,0.0,6.064805e-05,0.0,0.0,0.0,0.0,0.0,0.0,0.0,0.0,0.0
630267865,630167656,0.0027269518,0.0,0.00013703795,0.00037614067,0.0,0.0,0.0,0.0,0.0,0.0,0.0,0.0,0.0,1.1427516e-06,0.0,0.0,nan,0.0,0.0,0.00037537704,0.0,0.0,0.0,0.0,0.0,0.0,0.0,0.0,0.0
630767784,630667592,0.0013980467,0.0,0.00036486343,0.00069628755,0.0,0.0,0.0,0.0,0.0,0.0,0.0,0.0,0.0,2.4211162e-05,0.0,0.0,nan,0.0,0.0,0.00040178464,0.0,0.0,0.0,0.0,0.0,0.0,0.0,0.0,0.0
631267728,631167528,0.0042472286,0.0,0.00074163085,0.0007767115,0.0,0.0,0.0,0.0,0.0,0.0,0.0,0.0,0.0,3.8367336e-05,0.0,0.0,nan,0.0,0.0,0.00023523666,0.0,0.0,0.0,0.0,0.0,0.0,0.0,0.0,0.0
631767678,631667463,0.0018359636,0.0,0.0006214027,0.0013003411,0.0,0.0,0.0,0.0,0.0,0.0,0.0,0.0,0.0,1.2481303e-06,0.0,0.0,nan,0.0,0.0,0.00077171705,0.0,0.0,0.0,0.0,0.0,0.0,0.0,0.0,0.0
632257702,632157400,0.0058201146,0.0,0.0024273347,0.0009931518,0.0,0.0,0.0,0.0,0.0,0.0,0.0,0.0,0.0,9.643486e-07,0.0,0.0,nan,0.0,0.0,0.00050429057,0.0,0.0,0.0,0.0,0.0,0.0,0.0,0.0,0.0
632767533,632667334,0.0029762965,0.0,0.00042027133,0.0008512167,0.0,0.0,0.0,0.0,0.0,0.0,0.0,0.0,0.0,2.6429439e-06,0.0,0.0,nan,0.0,0.0,0.00057100406,0.0,0.0,0.0,0.0,0.0,0.0,0.0,0.0,0.0
633267457,633167269,0.0022445493,0.0,0.0005928087,0.0007118531,0.0,0.0,0.0,0.0,0.0,0.0,0.0,0.0,0.0,6.1486166e-06,0.0,0.0,nan,0.0,0.0,0.00056996976,0.0,0.0,0.0,0.0,0.0,0.0,0.0,0.0,0.0
633767494,633667204,0.0016031095,0.0,4.432236e-06,0.0011188675,0.0,0.0,0.0,0.0,0.0,0.0,0.0,0.0,0.0,3.8787028e-05,0.0,0.0,nan,0.0,0.0,0.0014354851,0.0,0.0,0.0,0.0,0.0,0.0,0.0,0.0,0.0
634267323,634167139,0.0017588845,0.0,0.00077104516,0.0011952557,0.0,0.0,0.0,0.0,0.0,0.0,0.0,0.0,0.0,0.00025162176,0.0,0.0,nan,0.0,0.0,0.0012725426,0.0,0.0,0.0,0.0,0.0,0.0,0.0,0.0,0.0
634767260,634667073,2.8990502e-05,0.0,0.00012821238,0.001052216,0.0,0.0,0.0,0.0,0.0,0.0,0.0,0.0,0.0,9.931721e-05,0.0,0.0,nan,0.0,0.0,0.0010892652,0.0,0.0,0.0,0.0,0.0,0.0,0.0,0.0,0.0
635267268,635167008,0.0009694802,0.0,0.00027951144,0.0009915236,0.0,0.0,0.0,0.0,0.0,0.0,0.0,0.0,0.0,5.4018226e-05,0.0,0.0,nan,0.0,0.0,0.0009724218,0.0,0.0,0.0,0.0,0.0,0.0,0.0,0.0,0.0
635767158,635666943,0.0005738127,0.0,0.0010454073,0.001390997,0.0,0.0,0.0,0.0,0.0,0.0,0.0,0.0,0.0,1.0039237e-05,0.0,0.0,nan,0.0,0.0,0.000626405,0.0,0.0,0.0,0.0,0.0,0.0,0.0,0.0,0.0
636267085,636166877,0.004737145,0.0,4.8982416e-05,0.0014018429,0.0,0.0,0.0,0.0,0.0,0.0,0.0,0.0,0.0,1.1689372e-05,0.0,0.0,nan,0.0,0.0,0.00013724314,0.0,0.0,0.0,0.0,0.0,0.0,0.0,0.0,0.0
636767021,636666812,0.0031969096,0.0,0.0009302919,0.0011319671,0.0,0.0,0.0,0.0,0.0,0.0,0.0,0.0,0.0,2.4319424e-06,0.0,0.0,nan,0.0,0.0,3.709184e-05,0.0,0.0,0.0,0.0,0.0,0.0,0.0,0.0,0.0
637266948,637166746,0.003811387,0.0,0.0001837281,0.0008834716,0.0,0.0,0.0,0.0,0.0,0.0,0.0,0.0,0.0,3.5228188e-06,0.0,0.0,nan,0.0,0.0,0.00053698785,0.0,0.0,0.0,0.0,0.0,0.0,0.0,0.0,0.0
637766895,637666680,0.0024707739,0.0,3.217594e-07,0.0007914002,0.0,0.0,0.0,0.0,0.0,0.0,0.0,0.0,0.0,6.220382e-05,0.0,0.0,nan,0.0,0.0,1.1328835e-06,0.0,0.0,0.0,0.0,0.0,0.0,0.0,0.0,0.0
638266803,638166614,0.0002575899,0.0,1.0930789e-05,0.0006198396,0.0,0.0,0.0,0.0,0.0,0.0,0.0,0.0,0.0,0.00015836353,0.0,0.0,nan,0.0,0.0,3.7084363e-05,0.0,0.0,0.0,0.0,0.0,0.0,0.0,0.0,0.0
638766738,638666548,0.0010416599,0.0,0.00021172548,0.00073335384,0.0,0.0,0.0,0.0,0.0,0.0,0.0,0.0,0.0,8.746467e-05,0.0,0.0,nan,0.0,0.0,0.00063084235,0.0,0.0,0.0,0.0,0.0,0.0,0.0,0.0,0.0
639266673,639166482,8.3542065e-05,0.0,0.0007917489,0.0005079798,0.0,0.0,0.0,0.0,0.0,0.0,0.0,0.0,0.0,5.7627756e-07,0.0,0.0,nan,0.0,0.0,2.0614072e-05,0.0,0.0,0.0,0.0,0.0,0.0,0.0,0.0,0.0
639766657,639666416,0.0029969441,0.0,0.0006741847,0.0004824332,0.0,0.0,0.0,0.0,0.0,0.0,0.0,0.0,0.0,1.6316386e-05,0.0,0.0,nan,0.0,0.0,1.0199842e-05,0.0,0.0,0.0,0.0,0.0,0.0,0.0,0.0,0.0
640266625,640166349,0.0057668616,0.0,2.5885885e-05,0.00058884174,0.0,0.0,0.0,0.0,0.0,0.0,0.0,0.0,0.0,1.0505909e-05,0.0,0.0,nan,0.0,0.0,0.0013312296,0.0,0.0,0.0,0.0,0.0,0.0,0.0,0.0,0.0
640766489,640666282,0.00088200666,0.0,0.000121364494,0.0005708257,0.0,0.0,0.0,0.0,0.0,0.0,0.0,0.0,0.0,6.247285e-05,0.0,0.0,nan,0.0,0.0,0.0014936919,0.0,0.0,0.0,0.0,0.0,0.0,0.0,0.0,0.0
641266402,641166216,0.0014556882,0.0,0.00015019611,0.0005657417,0.0,0.0,0.0,0.0,0.0,0.0,0.0,0.0,0.0,3.773168e-06,0.0,0.0,nan,0.0,0.0,0.0005188489,0.0,0.0,0.0,0.0,0.0,0.0,0.0,0.0,0.0
641766464,641666149,0.0040942635,0.0,9.068698e-05,0.00037692374,0.0,0.0,0.0,0.0,0.0,0.0,0.0,0.0,0.0,8.062804e-06,0.0,0.0,nan,0.0,0.0,0.0012467727,0.0,0.0,0.0,0.0,0.0,0.0,0.0,0.0,0.0
642266275,642166082,0.00032397718,0.0,1.9233174e-05,0.000213186,0.0,0.0,0.0,0.0,0.0,0.0,0.0,0.0,0.0,0.00019712752,0.0,0.0,nan,0.0,0.0,0.0013704016,0.0,0.0,0.0,0.0,0.0,0.0,0.0,0.0,0.0
642766202,642666015,0.0064850603,0.0,2.3870653e-05,6.5805936e-05,0.0,0.0,0.0,0.0,0.0,0.0,0.0,0.0,0.0,1.4822472e-06,0.0,0.0,nan,0.0,0.0,0.00062979973,0.0,0.0,0.0,0.0,0.0,0.0,0.0,0.0,0.0
643266151,643165948,0.002987395,0.0,0.00021891767,2.2650078e-05,0.0,0.0,0.0,0.0,0.0,0.0,0.0,0.0,0.0,8.141821e-05,0.0,0.0,nan,0.0,0.0,0.0014757776,0.0,0.0,0.0,0.0,0.0,0.0,0.0,0.0,0.0
643766067,643665881,0.003399904,0.0,0.00020378559,4.270296e-07,0.0,0.0,0.0,0.0,0.0,0.0,0.0,0.0,0.0,9.4019407e-07,0.0,0.0,nan,0.0,0.0,0.0017862652,0.0,0.0,0.0,0.0,0.0,0.0,0.0,0.0,0.0
644266001,644165814,0.00404125,0.0,9.605183e-05,3.263401e-05,0.0,0.0,0.0,0.0,0.0,0.0,0.0,0.0,0.0,6.8270715e-06,0.0,0.0,nan,0.0,0.0,0.0002821854,0.0,0.0,0.0,0.0,0.0,0.0,0.0,0.0,0.0
644765932,644665746,0.00055678736,0.0,8.420513e-05,9.6152246e-05,0.0,0.0,0.0,0.0,0.0,0.0,0.0,0.0,0.0,2.3546268e-06,0.0,0.0,nan,0.0,0.0,0.000660795,0.0,0.0,0.0,0.0,0.0,0.0,0.0,0.0,0.0
645265895,645165678,0.0019635118,0.0,1.4654016e-07,0.00042124305,0.0,0.0,0.0,0.0,0.0,0.0,0.0,0.0,0.0,2.2418456e-06,0.0,0.0,nan,0.0,0.0,0.0019683817,0.0,0.0,0.0,0.0,0.0,0.0,0.0,0.0,0.0
645765801,645665611,0.0010347774,0.0,0.0005080817,0.0009395827,0.0,0.0,0.0,0.0,0.0,0.0,0.0,0.0,0.0,3.4867422e-05,0.0,0.0,nan,0.0,0.0,0.0007000862,0.0,0.0,0.0,0.0,0.0,0.0,0.0,0.0,0.0
646265743,646165543,0.0025249147,0.0,0.00063350634,0.0011342742,0.0,0.0,0.0,0.0,0.0,0.0,0.0,0.0,0.0,8.64957e-08,0.0,0.0,nan,0.0,0.0,0.0013825586,0.0,0.0,0.0,0.0,0.0,0.0,0.0,0.0,0.0
646765761,646665475,0.00092001236,0.0,0.00018015568,0.001623657,0.0,0.0,0.0,0.0,0.0,0.0,0.0,0.0,0.0,0.00020136376,0.0,0.0,nan,0.0,0.0,0.003444496,0.0,0.0,0.0,0.0,0.0,0.0,0.0,0.0,0.0
647265660,647165407,0.0010050746,0.0,0.000103103615,0.0015496789,0.0,0.0,0.0,0.0,0.0,0.0,0.0,0.0,0.0,1.3279399e-05,0.0,0.0,nan,0.0,0.0,0.002579146,0.0,0.0,0.0,0.0,0.0,0.0,0.0,0.0,0.0
647765541,647665339,0.0008277105,0.0,5.9822192e-05,0.0017250587,0.0,0.0,0.0,0.0,0.0,0.0,0.0,0.0,0.0,7.8584e-05,0.0,0.0,nan,0.0,0.0,0.012812692,0.0,0.0,0.0,0.0,0.0,0.0,0.0,0.0,0.0
648265507,648165271,0.0007815479,0.0,8.369005e-06,0.0012600332,0.0,0.0,0.0,0.0,0.0,0.0,0.0,0.0,0.0,2.8849261e-05,0.0,0.0,nan,0.0,0.0,0.01388244,0.0,0.0,0.0,0.0,0.0,0.0,0.0,0.0,0.0
648765390,648665203,0.0011348872,0.0,0.00013864865,0.0009987863,0.0,0.0,0.0,0.0,0.0,0.0,0.0,0.0,0.0,2.0357293e-05,0.0,0.0,nan,0.0,0.0,0.01929703,0.0,0.0,0.0,0.0,0.0,0.0,0.0,0.0,0.0
649265369,649165134,0.00078763446,0.0,7.225527e-05,0.0010887752,0.0,0.0,0.0,0.0,0.0,0.0,0.0,0.0,0.0,1.8793766e-06,0.0,0.0,nan,0.0,0.0,0.02140691,0.0,0.0,0.0,0.0,0.0,0.0,0.0,0.0,0.0
649755409,649655066,0.0006105039,0.0,4.110792e-06,0.001564512,0.0,0.0,0.0,0.0,0.0,0.0,0.0,0.0,0.0,2.994654e-06,0.0,0.0,nan,0.0,0.0,0.025314353,0.0,0.0,0.0,0.0,0.0,0.0,0.0,0.0,0.0
650265189,650164996,0.002198677,0.0,0.0009537285,0.0017007809,0.0,0.0,0.0,0.0,0.0,0.0,0.0,0.0,0.0,0.000112611975,0.0,0.0,nan,0.0,0.0,0.022902416,0.0,0.0,0.0,0.0,0.0,0.0,0.0,0.0,0.0
650765277,650664928,0.0005361167,0.0,4.7582995e-05,0.0021527726,0.0,0.0,0.0,0.0,0.0,0.0,0.0,0.0,0.0,1.1234552e-05,0.0,0.0,nan,0.0,0.0,0.020759266,0.0,0.0,0.0,0.0,0.0,0.0,0.0,0.0,0.0
651265089,651164859,0.00049042003,0.0,9.57555e-07,0.0019007811,0.0,0.0,0.0,0.0,0.0,0.0,0.0,0.0,0.0,1.1456628e-05,0.0,0.0,nan,0.0,0.0,0.021619895,0.0,0.0,0.0,0.0,0.0,0.0,0.0,0.0,0.0
651764974,651664790,0.001580408,0.0,0.00039521448,0.0015260954,0.0,0.0,0.0,0.0,0.0,0.0,0.0,0.0,0.0,8.513556e-06,0.0,0.0,nan,0.0,0.0,0.02608732,0.0,0.0,0.0,0.0,0.0,0.0,0.0,0.0,0.0
652264904,652164720,1.7608016e-06,0.0,8.846039e-05,0.001870172,0.0,0.0,0.0,0.0,0.0,0.0,0.0,0.0,0.0,9.829926e-05,0.0,0.0,nan,0.0,0.0,0.042006843,0.0,0.0,0.0,0.0,0.0,0.0,0.0,0.0,0.0
652764838,652664651,0.0021116477,0.0,0.0006597614,0.0011581093,0.0,0.0,0.0,0.0,0.0,0.0,0.0,0.0,0.0,8.895919e-06,0.0,0.0,nan,0.0,0.0,0.054957107,0.0,0.0,0.0,0.0,0.0,0.0,0.0,0.0,0.0
653264772,653164582,0.00046270725,0.0,0.0004422536,0.0010406463,0.0,0.0,0.0,0.0,0.0,0.0,0.0,0.0,0.0,2.1466947e-05,0.0,0.0,nan,0.0,0.0,0.06923293,0.0,0.0,0.0,0.0,0.0,0.0,0.0,0.0,0.0
653764706,653664512,0.0009749496,0.0,3.4409073e-08,0.00081709196,0.0,0.0,0.0,0.0,0.0,0.0,0.0,0.0,0.0,9.5971875e-05,0.0,0.0,nan,0.0,0.0,0.0715045,0.0,0.0,0.0,0.0,0.0,0.0,0.0,0.0,0.0
654264633,654164444,8.659454e-05,0.0,2.4198696e-05,0.00055638695,0.0,0.0,0.0,0.0,0.0,0.0,0.0,0.0,0.0,4.5296765e-05,0.0,0.0,nan,0.0,0.0,0.065383226,0.0,0.0,0.0,0.0,0.0,0.0,0.0,0.0,0.0
654764613,654664373,0.00031305346,0.0,0.0006349016,0.0007396454,0.0,0.0,0.0,0.0,0.0,0.0,0.0,0.0,0.0,7.288083e-05,0.0,0.0,nan,0.0,0.0,0.07179455,0.0,0.0,0.0,0.0,0.0,0.0,0.0,0.0,0.0
655264629,655164303,0.00055211835,0.0,4.564036e-06,0.00060949085,0.0,0.0,0.0,0.0,0.0,0.0,0.0,0.0,0.0,3.645551e-05,0.0,0.0,nan,0.0,0.0,0.06318532,0.0,0.0,0.0,0.0,0.0,0.0,0.0,0.0,0.0
655764478,655664233,0.009614801,0.0,0.00011394604,0.00033177025,0.0,0.0,0.0,0.0,0.0,0.0,0.0,0.0,0.0,6.408108e-08,0.0,0.0,nan,0.0,0.0,0.05480327,0.0,0.0,0.0,0.0,0.0,0.0,0.0,0.0,0.0
656264350,656164163,0.0007713081,0.0,2.3144023e-05,0.0002933996,0.0,0.0,0.0,0.0,0.0,0.0,0.0,0.0,0.0,8.047145e-05,0.0,0.0,nan,0.0,0.0,0.050643034,0.0,0.0,0.0,0.0,0.0,0.0,0.0,0.0,0.0
656764277,656664092,0.0005014037,0.0,6.017563e-07,0.00023739188,0.0,0.0,0.0,0.0,0.0,0.0,0.0,0.0,0.0,7.4764386e-05,0.0,0.0,nan,0.0,0.0,0.046087135,0.0,0.0,0.0,0.0,0.0,0.0,0.0,0.0,0.0
657264257,657164022,0.0014066889,0.0,4.776978e-05,0.0002919087,0.0,0.0,0.0,0.0,0.0,0.0,0.0,0.0,0.0,8.220598e-05,0.0,0.0,nan,0.0,0.0,0.04477263,0.0,0.0,0.0,0.0,0.0,0.0,0.0,0.0,0.0
657764138,657663952,0.003367199,0.0,2.3324032e-05,0.00033689756,0.0,0.0,0.0,0.0,0.0,0.0,0.0,0.0,0.0,4.9725346e-05,0.0,0.0,nan,0.0,0.0,0.044306934,0.0,0.0,0.0,0.0,0.0,0.0,0.0,0.0,0.0
658264069,658163881,0.0021087618,0.0,0.00033068284,0.00045225845,0.0,0.0,0.0,0.0,0.0,0.0,0.0,0.0,0.0,1.5795052e-07,0.0,0.0,nan,0.0,0.0,0.042176113,0.0,0.0,0.0,0.0,0.0,0.0,0.0,0.0,0.0
658763998,658663810,0.005459553,0.0,3.3654072e-05,0.000590992,0.0,0.0,0.0,0.0,0.0,0.0,0.0,0.0,0.0,3.5309554e-06,0.0,0.0,nan,0.0,0.0,0.032612536,0.0,0.0,0.0,0.0,0.0,0.0,0.0,0.0,0.0
659263930,659163739,0.0005905858,0.0,0.00014983049,0.00045260752,0.0,0.0,0.0,0.0,0.0,0.0,0.0,0.0,0.0,1.9108566e-06,0.0,0.0,nan,0.0,0.0,0.027966408,0.0,0.0,0.0,0.0,0.0,0.0,0.0,0.0,0.0
659763920,659663668,0.0016197865,0.0,0.0002778095,0.000504455,0.0,0.0,0.0,0.0,0.0,0.0,0.0,0.0,0.0,9.4002235e-06,0.0,0.0,nan,0.0,0.0,0.028777445,0.0,0.0,0.0,0.0,0.0,0.0,0.0,0.0,0.0
660263799,660163597,0.0002712461,0.0,1.7717628e-05,0.0005080068,0.0,0.0,0.0,0.0,0.0,0.0,0.0,0.0,0.0,9.1567104e-05,0.0,0.0,nan,0.0,0.0,0.024795128,0.0,0.0,0.0,0.0,0.0,0.0,0.0,0.0,0.0
660763743,660663526,0.001687155,0.0,0.0004715426,0.0005498695,0.0,0.0,0.0,0.0,0.0,0.0,0.0,0.0,0.0,5.2862124e-05,0.0,0.0,nan,0.0,0.0,0.023371756,0.0,0.0,0.0,0.0,0.0,0.0,0.0,0.0,0.0
661263706,661163457,0.005687089,0.0,7.1995404e-05,0.00056140445,0.0,0.0,0.0,0.0,0.0,0.0,0.0,0.0,0.0,4.6645604e-05,0.0,0.0,nan,0.0,0.0,0.023638835,0.0,0.0,0.0,0.0,0.0,0.0,0.0,0.0,0.0
661763576,661663384,0.0005668222,0.0,2.7294693e-06,0.0008667074,0.0,0.0,0.0,0.0,0.0,0.0,0.0,0.0,0.0,9.766755e-06,0.0,0.0,nan,0.0,0.0,0.017830946,0.0,0.0,0.0,0.0,0.0,0.0,0.0,0.0,0.0
662263506,662163312,0.00042644897,0.0,2.6304515e-06,0.00080310344,0.0,0.0,0.0,0.0,0.0,0.0,0.0,0.0,0.0,2.6062113e-05,0.0,0.0,nan,0.0,0.0,0.016882462,0.0,0.0,0.0,0.0,0.0,0.0,0.0,0.0,0.0
662763480,662663240,0.0011505891,0.0,0.00035788637,0.0009783768,0.0,0.0,0.0,0.0,0.0,0.0,0.0,0.0,0.0,9.199527e-05,0.0,0.0,nan,0.0,0.0,0.017979885,0.0,0.0,0.0,0.0,0.0,0.0,0.0,0.0,0.0
663263361,663163169,0.0007533971,0.0,0.0016502193,0.0011160912,0.0,0.0,0.0,0.0,0.0,0.0,0.0,0.0,0.0,3.5182937e-05,0.0,0.0,nan,0.0,0.0,0.01473556,0.0,0.0,0.0,0.0,0.0,0.0,0.0,0.0,0.0
663763283,663663097,0.007802249,0.0,0.00032966255,0.0010974257,0.0,0.0,0.0,0.0,0.0,0.0,0.0,0.0,0.0,3.216342e-05,0.0,0.0,nan,0.0,0.0,0.012061466,0.0,0.0,0.0,0.0,0.0,0.0,0.0,0.0,0.0
664263215,664163025,0.00010191474,0.0,3.68433e-08,0.0011761676,0.0,0.0,0.0,0.0,0.0,0.0,0.0,0.0,0.0,3.832724e-05,0.0,0.0,nan,0.0,0.0,0.011125902,0.0,0.0,0.0,0.0,0.0,0.0,0.0,0.0,0.0
664763259,664662953,0.00029631436,0.0,3.3924894e-07,0.001503482,0.0,0.0,0.0,0.0,0.0,0.0,0.0,0.0,0.0,4.8324724e-05,0.0,0.0,nan,0.0,0.0,0.01012923,0.0,0.0,0.0,0.0,0.0,0.0,0.0,0.0,0.0
665263067,665162880,0.0049423375,0.0,9.835959e-05,0.0010670089,0.0,0.0,0.0,0.0,0.0,0.0,0.0,0.0,0.0,0.00030788302,0.0,0.0,nan,0.0,0.0,0.00017359293,0.0,0.0,0.0,0.0,0.0,0.0,0.0,0.0,0.0
665762995,665662808,0.0023592548,0.0,0.00018614906,0.00050982035,0.0,0.0,0.0,0.0,0.0,0.0,0.0,0.0,0.0,1.1075363e-05,0.0,0.0,nan,0.0,0.0,0.002212404,0.0,0.0,0.0,0.0,0.0,0.0,0.0,0.0,0.0
666262922,666162735,2.1222181e-06,0.0,0.00040883027,0.0003085733,0.0,0.0,0.0,0.0,0.0,0.0,0.0,0.0,0.0,1.774307e-05,0.0,0.0,nan,0.0,0.0,0.003438214,0.0,0.0,0.0,0.0,0.0,0.0,0.0,0.0,0.0
666762880,666662663,0.0016012731,0.0,0.00039792297,0.00019772192,0.0,0.0,0.0,0.0,0.0,0.0,0.0,0.0,0.0,7.5639735e-05,0.0,0.0,nan,0.0,0.0,0.010897372,0.0,0.0,0.0,0.0,0.0,0.0,0.0,0.0,0.0
667262776,667162590,0.0008241214,0.0,0.0001115566,0.0001631349,0.0,0.0,0.0,0.0,0.0,0.0,0.0,0.0,0.0,1.8815094e-06,0.0,0.0,nan,0.0,0.0,0.006708836,0.0,0.0,0.0,0.0,0.0,0.0,0.0,0.0,0.0
667762761,667662517,0.0010544013,0.0,4.207799e-09,6.122158e-05,0.0,0.0,0.0,0.0,0.0,0.0,0.0,0.0,0.0,1.6435123e-08,0.0,0.0,nan,0.0,0.0,0.020410918,0.0,0.0,0.0,0.0,0.0,0.0,0.0,0.0,0.0
668262701,668162444,0.0005583309,0.0,6.335931e-05,5.9236998e-05,0.0,0.0,0.0,0.0,0.0,0.0,0.0,0.0,0.0,3.329585e-06,0.0,0.0,nan,0.0,0.0,0.023763772,0.0,0.0,0.0,0.0,0.0,0.0,0.0,0.0,0.0
668762585,668662371,0.00035257172,0.0,0.00022868138,0.00016736399,0.0,0.0,0.0,0.0,0.0,0.0,0.0,0.0,0.0,2.4647393e-09,0.0,0.0,nan,0.0,0.0,0.024558675,0.0,0.0,0.0,0.0,0.0,0.0,0.0,0.0,0.0
669262649,669162297,0.00033807242,0.0,2.2608174e-05,0.0001579715,0.0,0.0,0.0,0.0,0.0,0.0,0.0,0.0,0.0,1.1616355e-05,0.0,0.0,nan,0.0,0.0,0.022182334,0.0,0.0,0.0,0.0,0.0,0.0,0.0,0.0,0.0
669762426,669662224,0.00043350187,0.0,4.5614493e-06,0.00015307462,0.0,0.0,0.0,0.0,0.0,0.0,0.0,0.0,0.0,6.465054e-06,0.0,0.0,nan,0.0,0.0,0.02459816,0.0,0.0,0.0,0.0,0.0,0.0,0.0,0.0,0.0
670262341,670162150,0.0009449389,0.0,0.0005354426,0.00017095738,0.0,0.0,0.0,0.0,0.0,0.0,0.0,0.0,0.0,3.852452e-05,0.0,0.0,nan,0.0,0.0,0.024630085,0.0,0.0,0.0,0.0,0.0,0.0,0.0,0.0,0.0
670762261,670662077,0.00026939088,0.0,1.4898544e-06,0.00017582392,0.0,0.0,0.0,0.0,0.0,0.0,0.0,0.0,0.0,6.3949774e-06,0.0,0.0,nan,0.0,0.0,0.016827298,0.0,0.0,0.0,0.0,0.0,0.0,0.0,0.0,0.0
671262190,671162003,1.8815488e-06,0.0,6.3620275e-05,0.00025047016,0.0,0.0,0.0,0.0,0.0,0.0,0.0,0.0,0.0,3.2859878e-06,0.0,0.0,nan,0.0,0.0,0.020571534,0.0,0.0,0.0,0.0,0.0,0.0,0.0,0.0,0.0
671762114,671661929,0.0002229125,0.0,7.0528775e-05,0.00013103933,0.0,0.0,0.0,0.0,0.0,0.0,0.0,0.0,0.0,2.331661e-05,0.0,0.0,nan,0.0,0.0,0.022665072,0.0,0.0,0.0,0.0,0.0,0.0,0.0,0.0,0.0
672262076,672161855,0.0046830596,0.0,0.00014816261,8.662839e-05,0.0,0.0,0.0,0.0,0.0,0.0,0.0,0.0,0.0,1.516377e-05,0.0,0.0,nan,0.0,0.0,0.015673952,0.0,0.0,0.0,0.0,0.0,0.0,0.0,0.0,0.0
672762018,672661780,0.00013186356,0.0,8.5918655e-05,0.0001282521,0.0,0.0,0.0,0.0,0.0,0.0,0.0,0.0,0.0,1.8322678e-06,0.0,0.0,nan,0.0,0.0,0.015779227,0.0,0.0,0.0,0.0,0.0,0.0,0.0,0.0,0.0
673261895,673161706,0.00021692156,0.0,0.0003505826,0.00015320633,0.0,0.0,0.0,0.0,0.0,0.0,0.0,0.0,0.0,2.2944505e-05,0.0,0.0,nan,0.0,0.0,0.017470978,0.0,0.0,0.0,0.0,0.0,0.0,0.0,0.0,0.0
673761977,673661631,0.00018924043,0.0,9.289922e-06,0.00012774614,0.0,0.0,0.0,0.0,0.0,0.0,0.0,0.0,0.0,6.183652e-06,0.0,0.0,nan,0.0,0.0,0.017197708,0.0,0.0,0.0,0.0,0.0,0.0,0.0,0.0,0.0
674261829,674161557,0.00014171218,0.0,0.00010004286,0.00018381882,0.0,0.0,0.0,0.0,0.0,0.0,0.0,0.0,0.0,3.6811372e-05,0.0,0.0,nan,0.0,0.0,0.015490461,0.0,0.0,0.0,0.0,0.0,0.0,0.0,0.0,0.0
674761882,674661482,0.0008069955,0.0,5.6068948e-05,0.00021872701,0.0,0.0,0.0,0.0,0.0,0.0,0.0,0.0,0.0,0.00010134956,0.0,0.0,nan,0.0,0.0,0.01773943,0.0,0.0,0.0,0.0,0.0,0.0,0.0,0.0,0.0
675261591,675161407,5.471391e-05,0.0,6.588185e-05,0.0004066581,0.0,0.0,0.0,0.0,0.0,0.0,0.0,0.0,0.0,0.00012136106,0.0,0.0,nan,0.0,0.0,0.010793242,0.0,0.0,0.0,0.0,0.0,0.0,0.0,0.0,0.0
675761576,675661332,0.0022952433,0.0,0.00019335096,0.0009810803,0.0,0.0,0.0,0.0,0.0,0.0,0.0,0.0,0.0,5.455251e-07,0.0,0.0,nan,0.0,0.0,0.0054730168,0.0,0.0,0.0,0.0,0.0,0.0,0.0,0.0,0.0
676261440,676161257,0.0037736574,0.0,0.00023722928,0.0018645644,0.0,0.0,0.0,0.0,0.0,0.0,0.0,0.0,0.0,7.675715e-06,0.0,0.0,nan,0.0,0.0,0.0075410455,0.0,0.0,0.0,0.0,0.0,0.0,0.0,0.0,0.0
676761369,676661182,0.0010645112,0.0,4.2139392e-05,0.0027971307,0.0,0.0,0.0,0.0,0.0,0.0,0.0,0.0,0.0,9.4999974e-05,0.0,0.0,nan,0.0,0.0,0.0074658957,0.0,0.0,0.0,0.0,0.0,0.0,0.0,0.0,0.0
677261293,677161106,0.0019241773,0.0,0.0005922739,0.0032166126,0.0,0.0,0.0,0.0,0.0,0.0,0.0,0.0,0.0,4.329109e-05,0.0,0.0,nan,0.0,0.0,0.0102106165,0.0,0.0,0.0,0.0,0.0,0.0,0.0,0.0,0.0
677761248,677661030,0.0012410918,0.0,3.0413887e-05,0.0033702455,0.0,0.0,0.0,0.0,0.0,0.0,0.0,0.0,0.0,3.307352e-05,0.0,0.0,nan,0.0,0.0,0.017146852,0.0,0.0,0.0,0.0,0.0,0.0,0.0,0.0,0.0
678261255,678160955,0.0038662918,0.0,1.9947995e-08,0.0042256843,0.0,0.0,0.0,0.0,0.0,0.0,0.0,0.0,0.0,3.7759823e-06,0.0,0.0,nan,0.0,0.0,0.01599215,0.0,0.0,0.0,0.0,0.0,0.0,0.0,0.0,0.0
678761077,678660879,0.0034085459,0.0,0.000555963,0.002940115,0.0,0.0,0.0,0.0,0.0,0.0,0.0,0.0,0.0,9.8381104e-05,0.0,0.0,nan,0.0,0.0,0.009504397,0.0,0.0,0.0,0.0,0.0,0.0,0.0,0.0,0.0
679261001,679160803,0.003644079,0.0,4.698868e-06,0.0028325377,0.0,0.0,0.0,0.0,0.0,0.0,0.0,0.0,0.0,3.14864e-06,0.0,0.0,nan,0.0,0.0,0.011037439,0.0,0.0,0.0,0.0,0.0,0.0,0.0,0.0,0.0
679760911,679660727,0.0008792092,0.0,1.588738e-07,0.0034281397,0.0,0.0,0.0,0.0,0.0,0.0,0.0,0.0,0.0,8.3587685e-05,0.0,0.0,nan,0.0,0.0,0.013031419,0.0,0.0,0.0,0.0,0.0,0.0,0.0,0.0,0.0
680260867,680160651,0.0007345516,0.0,0.00047290488,0.0037125705,0.0,0.0,0.0,0.0,0.0,0.0,0.0,0.0,0.0,2.6879911e-11,0.0,0.0,nan,0.0,0.0,0.010315632,0.0,0.0,0.0,0.0,0.0,0.0,0.0,0.0,0.0
680760826,680660574,0.0061577614,0.0,0.00046382038,0.0038823914,0.0,0.0,0.0,0.0,0.0,0.0,0.0,0.0,0.0,2.3657522e-05,0.0,0.0,nan,0.0,0.0,0.009843396,0.0,0.0,0.0,0.0,0.0,0.0,0.0,0.0,0.0
681260691,681160498,0.002092184,0.0,0.00025701243,0.0036872844,0.0,0.0,0.0,0.0,0.0,0.0,0.0,0.0,0.0,0.00021051893,0.0,0.0,nan,0.0,0.0,0.009783436,0.0,0.0,0.0,0.0,0.0,0.0,0.0,0.0,0.0
681760762,681660421,0.000844606,0.0,0.0002032854,0.0030685326,0.0,0.0,0.0,0.0,0.0,0.0,0.0,0.0,0.0,7.788099e-08,0.0,0.0,nan,0.0,0.0,0.007767044,0.0,0.0,0.0,0.0,0.0,0.0,0.0,0.0,0.0
682260646,682160345,0.001097675,0.0,1.4059154e-05,0.002644769,0.0,0.0,0.0,0.0,0.0,0.0,0.0,0.0,0.0,1.4110956e-05,0.0,0.0,nan,0.0,0.0,0.009242317,0.0,0.0,0.0,0.0,0.0,0.0,0.0,0.0,0.0
682760455,682660267,0.0011107986,0.0,0.0015602397,0.0016901768,0.0,0.0,0.0,0.0,0.0,0.0,0.0,0.0,0.0,2.5390233e-05,0.0,0.0,nan,0.0,0.0,0.009801962,0.0,0.0,0.0,0.0,0.0,0.0,0.0,0.0,0.0
683260382,683160190,0.0017436636,0.0,5.4069465e-06,0.0013593673,0.0,0.0,0.0,0.0,0.0,0.0,0.0,0.0,0.0,4.665714e-05,0.0,0.0,nan,0.0,0.0,0.008216887,0.0,0.0,0.0,0.0,0.0,0.0,0.0,0.0,0.0
683760498,683660113,0.00058491103,0.0,1.0432103e-06,0.0010498249,0.0,0.0,0.0,0.0,0.0,0.0,0.0,0.0,0.0,0.00011106516,0.0,0.0,nan,0.0,0.0,0.007282687,0.0,0.0,0.0,0.0,0.0,0.0,0.0,0.0,0.0
684270217,684170034,0.003078066,0.0,0.00016540848,0.0012651201,0.0,0.0,0.0,0.0,0.0,0.0,0.0,0.0,0.0,6.0548275e-05,0.0,0.0,nan,0.0,0.0,0.010002387,0.0,0.0,0.0,0.0,0.0,0.0,0.0,0.0,0.0
684760172,684659958,0.0015366048,0.0,6.063652e-05,0.001703792,0.0,0.0,0.0,0.0,0.0,0.0,0.0,0.0,0.0,3.9938236e-06,0.0,0.0,nan,0.0,0.0,0.008738668,0.0,0.0,0.0,0.0,0.0,0.0,0.0,0.0,0.0
685260123,685159881,0.0022189687,0.0,0.00033836364,0.0014944499,0.0,0.0,0.0,0.0,0.0,0.0,0.0,0.0,0.0,0.00024442218,0.0,0.0,nan,0.0,0.0,0.0053620106,0.0,0.0,0.0,0.0,0.0,0.0,0.0,0.0,0.0
685759988,685659803,0.003526475,0.0,3.6919373e-05,0.0012561351,0.0,0.0,0.0,0.0,0.0,0.0,0.0,0.0,0.0,2.1787955e-05,0.0,0.0,nan,0.0,0.0,0.0067625265,0.0,0.0,0.0,0.0,0.0,0.0,0.0,0.0,0.0
686259938,686159726,0.0013956287,0.0,0.0003877123,0.0012297576,0.0,0.0,0.0,0.0,0.0,0.0,0.0,0.0,0.0,6.561689e-06,0.0,0.0,nan,0.0,0.0,0.0062918602,0.0,0.0,0.0,0.0,0.0,0.0,0.0,0.0,0.0
686769879,686669646,0.006562655,0.0,0.0013394093,0.0009544962,0.0,0.0,0.0,0.0,0.0,0.0,0.0,0.0,0.0,4.825069e-05,0.0,0.0,nan,0.0,0.0,0.0042121257,0.0,0.0,0.0,0.0,0.0,0.0,0.0,0.0,0.0
687269756,687169568,0.001551252,0.0,0.00045222076,0.00078015425,0.0,0.0,0.0,0.0,0.0,0.0,0.0,0.0,0.0,1.2828841e-05,0.0,0.0,nan,0.0,0.0,0.0061756307,0.0,0.0,0.0,0.0,0.0,0.0,0.0,0.0,0.0
687769877,687669490,0.0047919876,0.0,0.00073737977,0.0009478252,0.0,0.0,0.0,0.0,0.0,0.0,0.0,0.0,0.0,4.1482153e-06,0.0,0.0,nan,0.0,0.0,0.005860943,0.0,0.0,0.0,0.0,0.0,0.0,0.0,0.0,0.0
688259598,688159413,0.0025210609,0.0,0.00026503642,0.00018516224,0.0,0.0,0.0,0.0,0.0,0.0,0.0,0.0,0.0,1.2035111e-08,0.0,0.0,nan,0.0,0.0,0.0011138448,0.0,0.0,0.0,0.0,0.0,0.0,0.0,0.0,0.0
688759762,688659335,0.001202819,0.0,0.0004636611,6.679434e-05,0.0,0.0,0.0,0.0,0.0,0.0,0.0,0.0,0.0,2.1431738e-08,0.0,0.0,nan,0.0,0.0,0.0022682364,0.0,0.0,0.0,0.0,0.0,0.0,0.0,0.0,0.0
689259442,689159257,0.0016403425,0.0,5.7555477e-05,5.58975e-05,0.0,0.0,0.0,0.0,0.0,0.0,0.0,0.0,0.0,1.3821537e-05,0.0,0.0,nan,0.0,0.0,0.003554642,0.0,0.0,0.0,0.0,0.0,0.0,0.0,0.0,0.0
689759541,689659178,0.00020768096,0.0,0.0013344281,0.00020465214,0.0,0.0,0.0,0.0,0.0,0.0,0.0,0.0,0.0,0.0003515314,0.0,0.0,nan,0.0,0.0,0.002184039,0.0,0.0,0.0,0.0,0.0,0.0,0.0,0.0,0.0
690269285,690169097,0.00010179687,0.0,0.0053737434,0.00018704322,0.0,0.0,0.0,0.0,0.0,0.0,0.0,0.0,0.0,1.1882095e-05,0.0,0.0,nan,0.0,0.0,0.003001594,0.0,0.0,0.0,0.0,0.0,0.0,0.0,0.0,0.0
690769202,690669021,0.0024705268,0.0,9.232539e-07,0.000535068,0.0,0.0,0.0,0.0,0.0,0.0,0.0,0.0,0.0,1.0348292e-05,0.0,0.0,nan,0.0,0.0,0.0014638235,0.0,0.0,0.0,0.0,0.0,0.0,0.0,0.0,0.0
691269148,691168940,0.0015061531,0.0,0.00042761184,0.0017091274,0.0,0.0,0.0,0.0,0.0,0.0,0.0,0.0,0.0,5.3837633e-05,0.0,0.0,nan,0.0,0.0,0.00050456397,0.0,0.0,0.0,0.0,0.0,0.0,0.0,0.0,0.0
691759184,691658862,2.2203752e-05,0.0,0.00018607947,0.002017894,0.0,0.0,0.0,0.0,0.0,0.0,0.0,0.0,0.0,0.0002443234,0.0,0.0,nan,0.0,0.0,0.00013051573,0.0,0.0,0.0,0.0,0.0,0.0,0.0,0.0,0.0
692259084,692158783,0.0023580384,0.0,0.00018945275,0.002092335,0.0,0.0,0.0,0.0,0.0,0.0,0.0,0.0,0.0,2.934071e-05,0.0,0.0,nan,0.0,0.0,0.00043759862,0.0,0.0,0.0,0.0,0.0,0.0,0.0,0.0,0.0
692759107,692658703,0.00045787182,0.0,3.232753e-05,0.0021773893,0.0,0.0,0.0,0.0,0.0,0.0,0.0,0.0,0.0,0.00013621346,0.0,0.0,nan,0.0,0.0,0.00023091414,0.0,0.0,0.0,0.0,0.0,0.0,0.0,0.0,0.0
693268806,693168623,0.005042333,0.0,0.00018389824,0.0017375658,0.0,0.0,0.0,0.0,0.0,0.0,0.0,0.0,0.0,0.00013123197,0.0,0.0,nan,0.0,0.0,3.959633e-05,0.0,0.0,0.0,0.0,0.0,0.0,0.0,0.0,0.0
693768823,693668543,0.0021799356,0.0,0.0009386165,0.0016639123,0.0,0.0,0.0,0.0,0.0,0.0,0.0,0.0,0.0,4.8905777e-06,0.0,0.0,nan,0.0,0.0,0.000109680586,0.0,0.0,0.0,0.0,0.0,0.0,0.0,0.0,0.0
694268689,694168463,0.003666389,0.0,0.0014384808,0.002880825,0.0,0.0,0.0,0.0,0.0,0.0,0.0,0.0,0.0,1.8444513e-05,0.0,0.0,nan,0.0,0.0,0.00016180523,0.0,0.0,0.0,0.0,0.0,0.0,0.0,0.0,0.0
694768605,694668383,1.3151196e-05,0.0,3.777646e-05,0.0052542165,0.0,0.0,0.0,0.0,0.0,0.0,0.0,0.0,0.0,7.120698e-06,0.0,0.0,nan,0.0,0.0,0.00047920682,0.0,0.0,0.0,0.0,0.0,0.0,0.0,0.0,0.0
695258540,695158305,0.0010978122,0.0,8.714481e-06,0.0038350385,0.0,0.0,0.0,0.0,0.0,0.0,0.0,0.0,0.0,2.4391611e-05,0.0,0.0,nan,0.0,0.0,0.0018547521,0.0,0.0,0.0,0.0,0.0,0.0,0.0,0.0,0.0
695768417,695668223,0.0024762226,0.0,6.157451e-05,0.0044935234,0.0,0.0,0.0,0.0,0.0,0.0,0.0,0.0,0.0,1.93535e-06,0.0,0.0,nan,0.0,0.0,0.0014213923,0.0,0.0,0.0,0.0,0.0,0.0,0.0,0.0,0.0
696268326,696168143,0.0016116961,0.0,1.2147033e-05,0.004014318,0.0,0.0,0.0,0.0,0.0,0.0,0.0,0.0,0.0,5.4384942e-05,0.0,0.0,nan,0.0,0.0,0.00047435795,0.0,0.0,0.0,0.0,0.0,0.0,0.0,0.0,0.0
696768244,696668063,0.0019384152,0.0,0.00015251899,0.0052220915,0.0,0.0,0.0,0.0,0.0,0.0,0.0,0.0,0.0,0.00011580952,0.0,0.0,nan,0.0,0.0,0.0008940082,0.0,0.0,0.0,0.0,0.0,0.0,0.0,0.0,0.0
697268268,697167982,0.0011687477,0.0,0.0001904202,0.004933193,0.0,0.0,0.0,0.0,0.0,0.0,0.0,0.0,0.0,3.1378768e-05,0.0,0.0,nan,0.0,0.0,0.0010082676,0.0,0.0,0.0,0.0,0.0,0.0,0.0,0.0,0.0
697768086,697667901,0.0016573155,0.0,0.00023014532,0.004140886,0.0,0.0,0.0,0.0,0.0,0.0,0.0,0.0,0.0,1.0838698e-06,0.0,0.0,nan,0.0,0.0,0.0011096137,0.0,0.0,0.0,0.0,0.0,0.0,0.0,0.0,0.0
698268004,698167821,0.0007908128,0.0,1.3133041e-06,0.0038705599,0.0,0.0,0.0,0.0,0.0,0.0,0.0,0.0,0.0,2.21656e-07,0.0,0.0,nan,0.0,0.0,0.00017713857,0.0,0.0,0.0,0.0,0.0,0.0,0.0,0.0,0.0
698758108,698657741,5.773669e-05,0.0,0.00015337807,0.0033427465,0.0,0.0,0.0,0.0,0.0,0.0,0.0,0.0,0.0,0.00082280976,0.0,0.0,nan,0.0,0.0,0.0017614652,0.0,0.0,0.0,0.0,0.0,0.0,0.0,0.0,0.0
699267916,699167659,0.011136559,0.0,2.206386e-05,0.00256696,0.0,0.0,0.0,0.0,0.0,0.0,0.0,0.0,0.0,4.92318e-05,0.0,0.0,nan,0.0,0.0,0.0018154951,0.0,0.0,0.0,0.0,0.0,0.0,0.0,0.0,0.0
699767805,699667578,0.00076950766,0.0,0.00033416259,0.0020272755,0.0,0.0,0.0,0.0,0.0,0.0,0.0,0.0,0.0,1.13218985e-05,0.0,0.0,nan,0.0,0.0,0.008237763,0.0,0.0,0.0,0.0,0.0,0.0,0.0,0.0,0.0
700267737,700167496,0.008795087,0.0,0.00045110018,0.0013820585,0.0,0.0,0.0,0.0,0.0,0.0,0.0,0.0,0.0,1.3777212e-05,0.0,0.0,nan,0.0,0.0,0.015684087,0.0,0.0,0.0,0.0,0.0,0.0,0.0,0.0,0.0
700767598,700667415,0.001174173,0.0,6.895843e-06,0.0010830639,0.0,0.0,0.0,0.0,0.0,0.0,0.0,0.0,0.0,3.4814203e-08,0.0,0.0,nan,0.0,0.0,0.020467404,0.0,0.0,0.0,0.0,0.0,0.0,0.0,0.0,0.0
701267583,701167334,0.018056024,0.0,0.0043789195,0.0008143471,0.0,0.0,0.0,0.0,0.0,0.0,0.0,0.0,0.0,5.3773016e-07,0.0,0.0,nan,0.0,0.0,0.026765877,0.0,0.0,0.0,0.0,0.0,0.0,0.0,0.0,0.0
701767585,701667252,0.00011257939,0.0,0.00013338884,0.0007364225,0.0,0.0,0.0,0.0,0.0,0.0,0.0,0.0,0.0,0.00032863487,0.0,0.0,nan,0.0,0.0,0.022282356,0.0,0.0,0.0,0.0,0.0,0.0,0.0,0.0,0.0
702267352,702167170,0.0029998184,0.0,3.3152122e-05,0.0006391316,0.0,0.0,0.0,0.0,0.0,0.0,0.0,0.0,0.0,2.90366e-05,0.0,0.0,nan,0.0,0.0,0.020807933,0.0,0.0,0.0,0.0,0.0,0.0,0.0,0.0,0.0
702767419,702667088,0.0013311447,0.0,0.00055403676,0.0004907873,0.0,0.0,0.0,0.0,0.0,0.0,0.0,0.0,0.0,3.0048743e-05,0.0,0.0,nan,0.0,0.0,0.017506577,0.0,0.0,0.0,0.0,0.0,0.0,0.0,0.0,0.0
