timestamp,timestamp_sample,gyro_device_id,gyro_bias[0],gyro_bias[1],gyro_bias[2],gyro_bias_limit,gyro_bias_variance[0],gyro_bias_variance[1],gyro_bias_variance[2],accel_device_id,accel_bias[0],accel_bias[1],accel_bias[2],accel_bias_limit,accel_bias_variance[0],accel_bias_variance[1],accel_bias_variance[2],mag_device_id,mag_bias[0],mag_bias[1],mag_bias[2],mag_bias_limit,mag_bias_variance[0],mag_bias_variance[1],mag_bias_variance[2],gyro_bias_valid,gyro_bias_stable,accel_bias_valid,accel_bias_stable,mag_bias_valid,mag_bias_stable
538438709,538338296,4325386,0.0032306472,-0.0067345314,0.0010357227,0.34906584,2.0722506e-07,2.078125e-07,4.8568563e-07,4259850,-0.34792465,0.35227352,-0.09889328,0.4,0.0005020799,0.00050141406,0.0005007128,396321,0.0,0.0,0.0,0.5,0.0025000002,0.0025000002,0.0025000002,1,1,1,1,1,0
539448614,539348179,4325386,0.0032335331,-0.0067402134,0.0010405642,0.34906584,2.0735803e-07,2.079234e-07,4.8145915e-07,4259850,-0.3477791,0.35212728,-0.09915626,0.4,0.00050173403,0.0005010502,0.00050027826,396321,0.0,0.0,0.0,0.5,0.0025000002,0.0025000002,0.0025000002,1,1,1,1,1,0
539708819,539608149,4325386,0.0032342018,-0.006724011,0.0010374071,0.34906584,2.0597028e-07,2.0653154e-07,4.805598e-07,4259850,-0.3476594,0.35200328,-0.10018552,0.4,0.00050141773,0.00050073024,0.00049993827,396321,0.0,0.0,0.0,0.5,0.0025000002,0.0025000002,0.0025000002,1,1,1,1,1,0
540718432,540618032,4325386,0.00321643,-0.0067329537,0.0010339199,0.34906584,2.009191e-07,2.0146172e-07,4.7673592e-07,4259850,-0.34790897,0.3522595,-0.100320764,0.4,0.00050223095,0.00050152437,0.0005006609,396321,0.0,0.0,0.0,0.5,0.0025000002,0.0025000002,0.0025000002,1,1,1,1,1,0
541458361,541357948,4325386,0.0031842757,-0.006715887,0.0010301262,0.34906584,2.0186971e-07,2.023912e-07,4.7277484e-07,4259850,-0.34748945,0.35184664,-0.09924378,0.4,0.0005011026,0.00050038623,0.00049947394,396321,0.0,0.0,0.0,0.5,0.0025000002,0.0025000002,0.0025000002,1,1,1,1,1,0
542448311,542347834,4325386,0.003167809,-0.0067156167,0.0010309087,0.34906584,2.0479895e-07,2.0529748e-07,4.7027117e-07,4259850,-0.34773567,0.35210493,-0.09826128,0.4,0.0005019109,0.00050117925,0.0005001897,396321,0.0,0.0,0.0,0.5,0.0025000002,0.0025000002,0.0025000002,1,1,1,1,1,0
543458034,543357718,4325386,0.00317462,-0.006693154,0.0010264894,0.34906584,2.045644e-07,2.050417e-07,4.6703613e-07,4259850,-0.34755534,0.35192433,-0.09740124,0.4,0.0005014958,0.0005007515,0.00049968966,396321,0.0,0.0,0.0,0.5,0.0025000002,0.0025000002,0.0025000002,1,1,1,1,1,0
544467933,544367602,4325386,0.0032247074,-0.0066873697,0.0010312733,0.34906584,2.046959e-07,2.051536e-07,4.6520967e-07,4259850,-0.3478262,0.35219112,-0.09803953,0.4,0.0005023579,0.0005016004,0.0005004586,396321,0.0,0.0,0.0,0.5,0.0025000002,0.0025000002,0.0025000002,1,1,1,1,1,0
545477867,545377486,4325386,0.0032455598,-0.0066946363,0.0010254354,0.34906584,2.0558402e-07,2.0602133e-07,4.6151584e-07,4259850,-0.3476731,0.3520264,-0.098700285,0.4,0.00050200045,0.0005012315,0.00050001126,396321,0.0,0.0,0.0,0.5,0.0025000002,0.0025000002,0.0025000002,1,1,1,1,1,0
546487697,546387371,4325386,0.003261979,-0.006686265,0.0010213897,0.34906584,2.066856e-07,2.071066e-07,4.5887012e-07,4259850,-0.3474786,0.35182542,-0.09863609,0.4,0.0005015316,0.0005007533,0.00049945776,396321,0.0,0.0,0.0,0.5,0.0025000002,0.0025000002,0.0025000002,1,1,1,1,1,0
547107957,547007300,4325386,0.003306731,-0.0066905525,0.0010252255,0.34906584,2.0568214e-07,2.0609832e-07,4.585105e-07,4259850,-0.34781727,0.3521624,-0.0997859,0.4,0.00050255447,0.0005017686,0.0005004188,396321,0.0,0.0,0.0,0.5,0.0025000002,0.0025000002,0.0025000002,1,1,1,1,1,0
548107806,548007186,4325386,0.003314649,-0.0066908896,0.0010114531,0.34906584,2.0472544e-07,2.0513392e-07,4.560984e-07,4259850,-0.3476468,0.35197827,-0.10098042,0.4,0.0005021495,0.0005013553,0.0004999272,396321,0.0,0.0,0.0,0.5,0.0025000002,0.0025000002,0.0025000002,1,1,1,1,1,0
548707800,548607118,4325386,0.0033397223,-0.0066977595,0.0010072323,0.34906584,2.0557805e-07,2.0598183e-07,4.5507494e-07,4259850,-0.34774765,0.35207316,-0.10216386,0.4,0.00050248695,0.00050168706,0.0005002101,396321,0.0,0.0,0.0,0.5,0.0025000002,0.0025000002,0.0025000002,1,1,1,1,1,0
549717709,549617003,4325386,0.003310128,-0.00669395,0.0009907308,0.34906584,2.0424221e-07,2.0464304e-07,4.5239682e-07,4259850,-0.34768048,0.35199976,-0.103008695,0.4,0.00050239067,0.00050158263,0.00050002517,396321,0.0,0.0,0.0,0.5,0.0025000002,0.0025000002,0.0025000002,1,1,1,1,1,0
550727360,550626888,4325386,0.0032952463,-0.0066917487,0.0009858474,0.34906584,2.0262048e-07,2.0302106e-07,4.5044695e-07,4259850,-0.34749594,0.35181147,-0.103014626,0.4,0.00050194835,0.00050113414,0.0004994967,396321,0.0,0.0,0.0,0.5,0.0025000002,0.0025000002,0.0025000002,1,1,1,1,1,0
551417198,551316810,4325386,0.0032894851,-0.006700211,0.000972675,0.34906584,2.039633e-07,2.0436055e-07,4.5026033e-07,4259850,-0.3478146,0.3521274,-0.10203259,0.4,0.0005029459,0.0005021255,0.0005004272,396321,0.0,0.0,0.0,0.5,0.0025000002,0.0025000002,0.0025000002,1,1,1,1,1,0
552427145,552326695,4325386,0.0032821668,-0.0066943294,0.0009624542,0.34906584,2.0418831e-07,2.0457783e-07,4.4773216e-07,4259850,-0.3476516,0.35195857,-0.10185126,0.4,0.00050257315,0.0005017468,0.0004999702,396321,0.0,0.0,0.0,0.5,0.0025000002,0.0025000002,0.0025000002,1,1,1,1,1,0
552917411,552816640,4325386,0.0032668551,-0.006704357,0.00095099205,0.34906584,2.0161987e-07,2.0201307e-07,4.478425e-07,4259850,-0.34781295,0.3521156,-0.10286413,0.4,0.0005030844,0.0005022545,0.0005004317,396321,0.0,0.0,0.0,0.5,0.0025000002,0.0025000002,0.0025000002,1,1,1,1,1,0
553926887,553826526,4325386,0.0032493155,-0.006720646,0.00094280497,0.34906584,2.0168405e-07,2.0207337e-07,4.4640575e-07,4259850,-0.3476712,0.3519666,-0.10319197,0.4,0.0005027649,0.0005019303,0.00050002587,396321,0.0,0.0,0.0,0.5,0.0025000002,0.0025000002,0.0025000002,1,1,1,1,1,0
554907046,554806415,4325386,0.0032570595,-0.0066488036,0.0009207919,0.34906584,2.0271314e-07,2.030985e-07,4.4571198e-07,4259850,-0.34788418,0.3521829,-0.102068335,0.4,0.00050349673,0.0005026561,0.0005006646,396321,0.0,0.0,0.0,0.5,0.0025000002,0.0025000002,0.0025000002,1,1,1,1,1,0
555726744,555626327,4325386,0.0032358814,-0.0066668247,0.0009163939,0.34906584,2.0047912e-07,2.0086335e-07,4.4363463e-07,4259850,-0.34749871,0.3517883,-0.10115765,0.4,0.0005024533,0.0005016106,0.0004995551,396321,0.0,0.0,0.0,0.5,0.0025000002,0.0025000002,0.0025000002,1,1,1,1,1,0
556736637,556636210,4325386,0.0032558064,-0.0066968924,0.0009073174,0.34906584,2.0209619e-07,2.0247376e-07,4.4290582e-07,4259850,-0.34784368,0.35212982,-0.10092053,0.4,0.00050354924,0.0005027004,0.00050055573,396321,0.0,0.0,0.0,0.5,0.0025000002,0.0025000002,0.0025000002,1,1,1,1,1,0
557506804,557406123,4325386,0.0032483046,-0.006704753,0.00090287114,0.34906584,2.0361551e-07,2.0398639e-07,4.422688e-07,4259850,-0.3478319,0.35211495,-0.09983986,0.4,0.00050358346,0.0005027318,0.0005005194,396321,0.0,0.0,0.0,0.5,0.0025000002,0.0025000002,0.0025000002,1,1,1,1,1,0
558516759,558416010,4325386,0.00326081,-0.0067136236,0.00088788586,0.34906584,2.0352468e-07,2.0389051e-07,4.4124636e-07,4259850,-0.34767509,0.35194805,-0.10038629,0.4,0.00050322904,0.0005023744,0.0005000773,396321,0.0,0.0,0.0,0.5,0.0025000002,0.0025000002,0.0025000002,1,1,1,1,1,0
559526312,559425897,4325386,0.003228851,-0.0067296564,0.000875575,0.34906584,2.0294105e-07,2.0330107e-07,4.394616e-07,4259850,-0.34751454,0.35177752,-0.099984735,0.4,0.0005028512,0.0005019938,0.00049961323,396321,0.0,0.0,0.0,0.5,0.0025000002,0.0025000002,0.0025000002,1,1,1,1,1,0
560536170,560435784,4325386,0.0032364924,-0.0067492584,0.00088131265,0.34906584,2.0383574e-07,2.0419104e-07,4.3967458e-07,4259850,-0.34779182,0.352057,-0.10080315,0.4,0.0005037386,0.00050287705,0.0005004069,396321,0.0,0.0,0.0,0.5,0.0025000002,0.0025000002,0.0025000002,1,1,1,1,1,0
561546014,561445673,4325386,0.0032243098,-0.0067532775,0.00088301074,0.34906584,2.0456181e-07,2.0490911e-07,4.3910023e-07,4259850,-0.34773105,0.3519948,-0.100894086,0.4,0.00050364796,0.00050278415,0.00050022715,396321,0.0,0.0,0.0,0.5,0.0025000002,0.0025000002,0.0025000002,1,1,1,1,1,0
561906324,561805631,4325386,0.0032375911,-0.006738616,0.0008892662,0.34906584,2.030164e-07,2.0336144e-07,4.3843878e-07,4259850,-0.34764305,0.3519076,-0.10192011,0.4,0.00050342036,0.00050255615,0.0004999665,396321,0.0,0.0,0.0,0.5,0.0025000002,0.0025000002,0.0025000002,1,1,1,1,1,0
562916177,562815519,4325386,0.0032463835,-0.0067360057,0.0008379398,0.34906584,2.031494e-07,2.0348429e-07,4.376696e-07,4259850,-0.34746352,0.3517092,-0.10165258,0.4,0.0005030161,0.0005021507,0.0004994755,396321,0.0,0.0,0.0,0.5,0.0025000002,0.0025000002,0.0025000002,1,1,1,1,1,0
563925772,563825406,4325386,0.00323868,-0.006751291,0.00075577747,0.34906584,2.038302e-07,2.0415251e-07,4.3732277e-07,4259850,-0.34774017,0.3519616,-0.10223849,0.4,0.0005039412,0.00050307246,0.0005003053,396321,0.0,0.0,0.0,0.5,0.0025000002,0.0025000002,0.0025000002,1,1,1,1,1,0
564935628,564835294,4325386,0.003225298,-0.0067794914,0.0006888134,0.34906584,2.0504221e-07,2.053542e-07,4.3696002e-07,4259850,-0.34767702,0.35187373,-0.10241893,0.4,0.0005038712,0.0005030012,0.00050014706,396321,0.0,0.0,0.0,0.5,0.0025000002,0.0025000002,0.0025000002,1,1,1,1,1,0
565945558,565845182,4325386,0.0032222606,-0.0067761857,0.00061614846,0.34906584,2.0463463e-07,2.0493982e-07,4.363369e-07,4259850,-0.34748977,0.35166624,-0.10247852,0.4,0.0005034546,0.00050258404,0.0004996422,396321,0.0,0.0,0.0,0.5,0.0025000002,0.0025000002,0.0025000002,1,1,1,1,1,0
566955403,566855070,4325386,0.003259772,-0.0067710355,0.0005479788,0.34906584,2.0544113e-07,2.0573876e-07,4.3614497e-07,4259850,-0.3477622,0.35193217,-0.10285037,0.4,0.0005043879,0.00050351414,0.0005004821,396321,0.0,0.0,0.0,0.5,0.0025000002,0.0025000002,0.0025000002,1,1,1,1,1,0
567905591,567804964,4325386,0.0033274824,-0.006774147,0.00048286974,0.34906584,2.0600724e-07,2.0630156e-07,4.3567542e-07,4259850,-0.3475129,0.35167792,-0.1038321,0.4,0.0005038282,0.00050295435,0.00049983885,396321,0.0,0.0,0.0,0.5,0.0025000002,0.0025000002,0.0025000002,1,1,1,1,1,0
568915315,568814852,4325386,0.0032498008,-0.0067794356,0.0004145736,0.34906584,2.0725508e-07,2.0754719e-07,4.353432e-07,4259850,-0.34772843,0.35186055,-0.104104355,0.4,0.0005045065,0.00050363014,0.00050042226,396321,0.0,0.0,0.0,0.5,0.0025000002,0.0025000002,0.0025000002,1,1,1,0,1,0
569915445,569814742,4325386,0.003244104,-0.0068313023,0.00036019323,0.34906584,2.0616895e-07,2.0646503e-07,4.347828e-07,4259850,-0.3475495,0.35164896,-0.10511946,0.4,0.00050410064,0.00050322386,0.0004999316,396321,0.0,0.0,0.0,0.5,0.0025000002,0.0025000002,0.0025000002,1,1,1,0,1,0
570695063,570594655,4325386,0.0032390908,-0.0068448135,0.00031679298,0.34906584,2.0968113e-07,2.0997385e-07,4.350218e-07,4259850,-0.34762633,0.35171217,-0.10405575,0.4,0.0005044042,0.00050352624,0.0005001634,396321,0.0,0.0,0.0,0.5,0.0025000002,0.0025000002,0.0025000002,1,1,1,0,1,0
571704927,571604543,4325386,0.003257014,-0.00689991,0.00025995428,0.34906584,2.117176e-07,2.1200769e-07,4.3390915e-07,4259850,-0.34746605,0.3515216,-0.10379962,0.4,0.00050406664,0.00050318846,0.00049974327,396321,0.0,0.0,0.0,0.5,0.0025000002,0.0025000002,0.0025000002,1,1,1,0,1,0
572715041,572614432,4325386,0.0032403364,-0.0069025955,0.00020514225,0.34906584,2.0847096e-07,2.0876979e-07,4.346499e-07,4259850,-0.3477486,0.3517917,-0.1036554,0.4,0.0005049756,0.00050409493,0.0005005524,396321,0.0,0.0,0.0,0.5,0.0025000002,0.0025000002,0.0025000002,1,1,1,0,1,0
573725115,573624320,4325386,0.003220057,-0.0068965666,0.00015798584,0.34906584,2.0719868e-07,2.0749881e-07,4.3436705e-07,4259850,-0.34760997,0.35163847,-0.10301998,0.4,0.00050465815,0.0005037772,0.0005001491,396321,0.0,0.0,0.0,0.5,0.0025000002,0.0025000002,0.0025000002,1,1,1,0,1,0
574315005,574214255,4325386,0.0032109122,-0.0069045974,0.00012251687,0.34906584,2.0657771e-07,2.06877e-07,4.336928e-07,4259850,-0.34744558,0.35146305,-0.10184301,0.4,0.00050423376,0.0005033527,0.00049967674,396321,0.0,0.0,0.0,0.5,0.0025000002,0.0025000002,0.0025000002,1,1,1,0,1,0
574854663,574754195,4325386,0.0032117874,-0.006917198,7.740209e-05,0.34906584,2.081821e-07,2.0847706e-07,4.340764e-07,4259850,-0.34758577,0.3515995,-0.100847356,0.4,0.0005047007,0.00050381717,0.0005000918,396321,0.0,0.0,0.0,0.5,0.0025000002,0.0025000002,0.0025000002,1,1,1,0,1,0
575864528,575764083,4325386,0.0032570756,-0.006913288,-1.0894668e-05,0.34906584,2.069453e-07,2.0722652e-07,4.3297246e-07,4259850,-0.34737417,0.35138723,-0.10035584,0.4,0.00050425157,0.00050335226,0.0004995609,396321,0.0,0.0,0.0,0.5,0.0025000002,0.0025000002,0.0025000002,1,1,1,0,1,0
576874324,576773973,4325386,0.0032840893,-0.0069231684,-9.101365e-05,0.34906584,2.0901858e-07,2.0928981e-07,4.3381957e-07,4259850,-0.34763452,0.3516494,-0.10041425,0.4,0.0005051481,0.0005042166,0.000500359,396321,0.0,0.0,0.0,0.5,0.0025000002,0.0025000002,0.0025000002,1,1,1,0,1,0
577344319,577243919,4325386,0.0033058184,-0.0069247102,-0.0001234194,0.34906584,2.0806955e-07,2.0834214e-07,4.3314873e-07,4259850,-0.3473122,0.35134965,-0.09950569,0.4,0.00050428265,0.00050332607,0.0004994588,396321,0.0,0.0,0.0,0.5,0.0025000002,0.0025000002,0.0025000002,1,1,1,0,1,0
578354210,578253807,4325386,0.0033961257,-0.0069483914,-0.0001925465,0.34906584,2.0927564e-07,2.0956404e-07,4.3324903e-07,4259850,-0.34755787,0.35161602,-0.09928262,0.4,0.00050519203,0.0005041709,0.00050027436,396321,0.0,0.0,0.0,0.5,0.0025000002,0.0025000002,0.0025000002,1,1,1,0,1,0
579364102,579263695,4325386,0.0034299174,-0.0069354125,-0.00030189927,0.34906584,2.0846372e-07,2.0880202e-07,4.329129e-07,4259850,-0.34734812,0.35141352,-0.098992735,0.4,0.000504746,0.00050363067,0.0004997435,396321,0.0,0.0,0.0,0.5,0.0025000002,0.0025000002,0.0025000002,1,1,1,0,1,0
580373954,580273582,4325386,0.0034407647,-0.006941416,-0.0004038666,0.34906584,2.102092e-07,2.1060885e-07,4.3345617e-07,4259850,-0.34750235,0.3515336,-0.099833064,0.4,0.00050533214,0.0005041195,0.00050023344,396321,0.0,0.0,0.0,0.5,0.0025000002,0.0025000002,0.0025000002,1,1,1,0,1,0
580914122,580813522,4325386,0.0034806235,-0.006966138,-0.00047060318,0.34906584,2.0908136e-07,2.0954043e-07,4.32893e-07,4259850,-0.3472541,0.35123727,-0.10089595,0.4,0.00050474034,0.00050346093,0.00049959996,396321,0.0,0.0,0.0,0.5,0.0025000002,0.0025000002,0.0025000002,1,1,1,0,1,0
581443876,581343466,4325386,0.003496305,-0.006961024,-0.00053861947,0.34906584,2.1154005e-07,2.1202699e-07,4.3337886e-07,4259850,-0.34745452,0.3514084,-0.10187216,0.4,0.00050542236,0.0005040929,0.00050022855,396321,0.0,0.0,0.0,0.5,0.0025000002,0.0025000002,0.0025000002,1,1,1,0,1,0
581714100,581613433,4325386,0.003512924,-0.0069123763,-0.0005764061,0.34906584,2.0934915e-07,2.0989113e-07,4.324248e-07,4259850,-0.34722507,0.35113883,-0.10319522,0.4,0.0005048355,0.0005034622,0.000499625,396321,0.0,0.0,0.0,0.5,0.0025000002,0.0025000002,0.0025000002,1,1,1,0,1,0
581923828,581823410,4325386,0.0035283363,-0.006940173,-0.00059063546,0.34906584,2.0913889e-07,2.0971386e-07,4.328399e-07,4259850,-0.34747165,0.35134152,-0.1041461,0.4,0.0005056066,0.00050420105,0.00050037017,396321,0.0,0.0,0.0,0.5,0.0025000002,0.0025000002,0.0025000002,1,1,1,0,1,0
582314059,582213367,4325386,0.0035392449,-0.006953109,-0.00061682385,0.34906584,2.0680288e-07,2.074626e-07,4.328887e-07,4259850,-0.34748864,0.35128832,-0.105608076,0.4,0.00050573586,0.0005042629,0.0005004653,396321,0.0,0.0,0.0,0.5,0.0025000002,0.0025000002,0.0025000002,1,1,1,0,1,0
583323934,583223254,4325386,0.0035050248,-0.006986583,-0.00067778723,0.34906584,2.082675e-07,2.0903755e-07,4.3253172e-07,4259850,-0.34733447,0.35111335,-0.10515396,0.4,0.0005053368,0.0005037569,0.00049998367,396321,0.0,0.0,0.0,0.5,0.0025000002,0.0025000002,0.0025000002,1,1,1,0,1,0
584333472,584233141,4325386,0.0034874238,-0.0070037865,-0.00074484874,0.34906584,2.084767e-07,2.0940135e-07,4.3236483e-07,4259850,-0.34758422,0.3513893,-0.104298085,0.4,0.00050612364,0.00050442474,0.00050067744,396321,0.0,0.0,0.0,0.5,0.0025000002,0.0025000002,0.0025000002,1,1,1,0,1,0
585343377,585243028,4325386,0.0034642678,-0.0070010806,-0.00081484707,0.34906584,2.0847173e-07,2.0955525e-07,4.3196593e-07,4259850,-0.3474341,0.35123494,-0.103962384,0.4,0.00050575344,0.0005039513,0.00050022546,396321,0.0,0.0,0.0,0.5,0.0025000002,0.0025000002,0.0025000002,1,1,1,0,1,0
586353316,586252915,4325386,0.0034412665,-0.0069799596,-0.0008864764,0.34906584,2.0986195e-07,2.110794e-07,4.3155785e-07,4259850,-0.34725872,0.35103226,-0.10444955,0.4,0.0005053197,0.0005034387,0.0004997089,396321,0.0,0.0,0.0,0.5,0.0025000002,0.0025000002,0.0025000002,1,1,1,0,1,0
586903564,586802853,4325386,0.0034766865,-0.0069949077,-0.00093492516,0.34906584,2.0932164e-07,2.106485e-07,4.3142316e-07,4259850,-0.3474765,0.35122865,-0.10562347,0.4,0.0005060625,0.00050413585,0.00050039636,396321,0.0,0.0,0.0,0.5,0.0025000002,0.0025000002,0.0025000002,1,1,1,0,1,0
587503467,587402786,4325386,0.0034790698,-0.0070192525,-0.0009735324,0.34906584,2.0741962e-07,2.0887985e-07,4.3054501e-07,4259850,-0.34722784,0.35091782,-0.10698215,0.4,0.0005053978,0.0005034305,0.0004996879,396321,0.0,0.0,0.0,0.5,0.0025000002,0.0025000002,0.0025000002,1,1,1,0,1,0
587893408,587792742,4325386,0.0034583977,-0.007033247,-0.001000108,0.34906584,2.0573175e-07,2.0729613e-07,4.3060166e-07,4259850,-0.3472778,0.35090685,-0.108334266,0.4,0.0005055437,0.00050354854,0.0004997991,396321,0.0,0.0,0.0,0.5,0.0025000002,0.0025000002,0.0025000002,1,1,1,0,1,0
588503347,588402673,4325386,0.0034493443,-0.007043526,-0.00104691,0.34906584,2.0584304e-07,2.075103e-07,4.312287e-07,4259850,-0.34757394,0.35116336,-0.10962043,0.4,0.0005064399,0.000504409,0.0005006325,396321,0.0,0.0,0.0,0.5,0.0025000002,0.0025000002,0.0025000002,1,1,1,0,1,0
588963155,588862621,4325386,0.003451512,-0.0070355353,-0.0010806534,0.34906584,2.0626624e-07,2.0797586e-07,4.302069e-07,4259850,-0.34715828,0.35072154,-0.11044051,0.4,0.0005052749,0.000503229,0.0004994419,396321,0.0,0.0,0.0,0.5,0.0025000002,0.0025000002,0.0025000002,1,1,1,0,1,0
589972914,589872507,4325386,0.0034396376,-0.0070606177,-0.001141919,0.34906584,2.086024e-07,2.1040616e-07,4.3102224e-07,4259850,-0.34742886,0.35096663,-0.111220464,0.4,0.000506124,0.0005040405,0.0005001928,396321,0.0,0.0,0.0,0.5,0.0025000002,0.0025000002,0.0025000002,1,1,1,0,1,0
590982765,590882392,4325386,0.0034458516,-0.0070625935,-0.0011572979,0.34906584,2.1159451e-07,2.1344437e-07,4.300089e-07,4259850,-0.34723035,0.35076246,-0.11161579,0.4,0.0005056385,0.00050353416,0.000499628,396321,0.0,0.0,0.0,0.5,0.0025000002,0.0025000002,0.0025000002,1,1,1,0,1,0
591997657,591892278,4325386,0.0034271372,-0.007066749,-0.0011737603,0.34906584,2.11559e-07,2.1352417e-07,4.309931e-07,4259850,-0.34757268,0.3511233,-0.11078702,0.4,0.00050670945,0.000504583,0.00050059886,396321,0.0,0.0,0.0,0.5,0.0025000002,0.0025000002,0.0025000002,1,1,1,0,1,0
592462653,592362224,4325386,0.0033981465,-0.0070483377,-0.0011786595,0.34906584,2.1059296e-07,2.1260306e-07,4.3015476e-07,4259850,-0.34719548,0.35075265,-0.1098797,0.4,0.00050563214,0.00050350436,0.00049949286,396321,0.0,0.0,0.0,0.5,0.0025000002,0.0025000002,0.0025000002,1,1,1,0,1,0
593372541,593272121,4325386,0.003357037,-0.007047303,-0.0012175268,0.34906584,2.1250517e-07,2.145211e-07,4.3058193e-07,4259850,-0.34735414,0.35091785,-0.10889474,0.4,0.0005061537,0.0005040156,0.0004999302,396321,0.0,0.0,0.0,0.5,0.0025000002,0.0025000002,0.0025000002,1,1,1,0,1,0
594382383,594282005,4325386,0.0033610372,-0.00703551,-0.0012579148,0.34906584,2.1291353e-07,2.1488414e-07,4.29642e-07,4259850,-0.34714073,0.35071433,-0.10846362,0.4,0.0005056266,0.00050348596,0.0004993277,396321,0.0,0.0,0.0,0.5,0.0025000002,0.0025000002,0.0025000002,1,1,1,0,1,0
595392207,595291889,4325386,0.003424938,-0.0070155826,-0.0013055307,0.34906584,2.1221554e-07,2.1413898e-07,4.3080013e-07,4259850,-0.34746647,0.35105738,-0.10916222,0.4,0.00050668546,0.00050454034,0.0005002908,396321,0.0,0.0,0.0,0.5,0.0025000002,0.0025000002,0.0025000002,1,1,1,0,1,0
596312434,596211783,4325386,0.0035277426,-0.007062249,-0.0013585472,0.34906584,2.1108359e-07,2.129728e-07,4.3125337e-07,4259850,-0.34756374,0.35115457,-0.110184826,0.4,0.0005070946,0.0005049515,0.0005006204,396321,0.0,0.0,0.0,0.5,0.0025000002,0.0025000002,0.0025000002,1,1,1,0,1,0
597322011,597221667,4325386,0.0036244502,-0.0070573003,-0.0014140313,0.34906584,2.0975855e-07,2.1163642e-07,4.3103915e-07,4259850,-0.34733227,0.3509486,-0.11036156,0.4,0.00050658145,0.00050444703,0.00050003565,396321,0.0,0.0,0.0,0.5,0.0025000002,0.0025000002,0.0025000002,1,1,1,0,1,0
598331922,598231551,4325386,0.0036914188,-0.0070588286,-0.0014701023,0.34906584,2.1181573e-07,2.1369046e-07,4.3108145e-07,4259850,-0.34750715,0.35115498,-0.11006319,0.4,0.00050725177,0.0005051213,0.0005006184,396321,0.0,0.0,0.0,0.5,0.0025000002,0.0025000002,0.0025000002,1,1,1,0,1,0
599341759,599241434,4325386,0.003745142,-0.007041602,-0.0015177842,0.34906584,2.1160156e-07,2.1351963e-07,4.308097e-07,4259850,-0.347288,0.350958,-0.10984616,0.4,0.0005067508,0.0005046316,0.00050004525,396321,0.0,0.0,0.0,0.5,0.0025000002,0.0025000002,0.0025000002,1,1,1,0,1,0
600291764,600191327,4325386,0.0037893464,-0.0070177447,-0.0015677561,0.34906584,2.1320022e-07,2.1515825e-07,4.3061368e-07,4259850,-0.3473301,0.3510401,-0.10880421,0.4,0.0005070391,0.0005049274,0.0005002522,396321,0.0,0.0,0.0,0.5,0.0025000002,0.0025000002,0.0025000002,1,1,1,0,1,0
601111880,601011227,4325386,0.0038006082,-0.0069553717,-0.0015896134,0.34906584,2.1203314e-07,2.140797e-07,4.3061564e-07,4259850,-0.34740812,0.3511596,-0.10761418,0.4,0.00050739467,0.00050528976,0.00050053914,396321,0.0,0.0,0.0,0.5,0.0025000002,0.0025000002,0.0025000002,1,1,1,0,1,0
601611497,601511169,4325386,0.0038038585,-0.006888207,-0.0016046488,0.34906584,2.1356053e-07,2.1561785e-07,4.3013128e-07,4259850,-0.3470162,0.3507976,-0.106531076,0.4,0.00050634076,0.0005042439,0.00049946154,396321,0.0,0.0,0.0,0.5,0.0025000002,0.0025000002,0.0025000002,1,1,1,0,1,0
602621458,602521051,4325386,0.0038282312,-0.006878472,-0.0016269136,0.34906584,2.1536701e-07,2.1748333e-07,4.30196e-07,4259850,-0.34725735,0.35105202,-0.10651338,0.4,0.0005071497,0.0005050566,0.0005001752,396321,0.0,0.0,0.0,0.5,0.0025000002,0.0025000002,0.0025000002,1,1,1,0,1,0
603631249,603530932,4325386,0.0038007738,-0.006881992,-0.0016368357,0.34906584,2.1537966e-07,2.1757955e-07,4.3005633e-07,4259850,-0.34714538,0.35092846,-0.106811605,0.4,0.0005068781,0.00050479133,0.0004998267,396321,0.0,0.0,0.0,0.5,0.0025000002,0.0025000002,0.0025000002,1,1,1,0,1,0
604341227,604240848,4325386,0.0037892994,-0.0069254823,-0.0016433062,0.34906584,2.1409791e-07,2.1639069e-07,4.3098183e-07,4259850,-0.34745568,0.3512253,-0.10775182,0.4,0.00050781516,0.0005057275,0.0005006862,396321,0.0,0.0,0.0,0.5,0.0025000002,0.0025000002,0.0025000002,1,1,1,0,1,0
604701484,604600806,4325386,0.003779975,-0.006954878,-0.0016452542,0.34906584,2.1108752e-07,2.1345313e-07,4.3068178e-07,4259850,-0.34745336,0.35121045,-0.109117866,0.4,0.00050781784,0.00050573127,0.00050065806,396321,0.0,0.0,0.0,0.5,0.0025000002,0.0025000002,0.0025000002,1,1,1,0,1,0
605711004,605610687,4325386,0.0037899402,-0.0069558173,-0.0016810372,0.34906584,2.0954555e-07,2.1198302e-07,4.3039432e-07,4259850,-0.34725904,0.35102063,-0.1093708,0.4,0.0005073534,0.00050527096,0.00050011347,396321,0.0,0.0,0.0,0.5,0.0025000002,0.0025000002,0.0025000002,1,1,1,0,1,0
606330951,606230613,4325386,0.0037937276,-0.006978882,-0.0017031783,0.34906584,2.0993838e-07,2.124026e-07,4.309957e-07,4259850,-0.34744993,0.35121307,-0.1103339,0.4,0.00050796877,0.0005058846,0.00050066755,396321,0.0,0.0,0.0,0.5,0.0025000002,0.0025000002,0.0025000002,1,1,1,0,1,0
607340820,607240493,4325386,0.003778376,-0.007001937,-0.0017354564,0.34906584,2.0957245e-07,2.1207494e-07,4.300198e-07,4259850,-0.3472653,0.35102656,-0.11059825,0.4,0.0005075212,0.00050543994,0.0005001376,396321,0.0,0.0,0.0,0.5,0.0025000002,0.0025000002,0.0025000002,1,1,1,0,1,0
608350694,608250373,4325386,0.0037414723,-0.0070298878,-0.0017674814,0.34906584,2.0963088e-07,2.1218258e-07,4.2990416e-07,4259850,-0.34713355,0.35088998,-0.10997931,0.4,0.0005072161,0.00050513685,0.0004997471,396321,0.0,0.0,0.0,0.5,0.0025000002,0.0025000002,0.0025000002,1,1,1,0,1,0
609360726,609260252,4325386,0.003716463,-0.0070548337,-0.0017988287,0.34906584,2.0836627e-07,2.1099983e-07,4.298644e-07,4259850,-0.34735006,0.35110828,-0.10992425,0.4,0.00050793437,0.00050585327,0.0005003643,396321,0.0,0.0,0.0,0.5,0.0025000002,0.0025000002,0.0025000002,1,1,1,0,1,0
610370478,610270130,4325386,0.0036481756,-0.0070650973,-0.0018210462,0.34906584,2.0900043e-07,2.1168496e-07,4.295228e-07,4259850,-0.3471298,0.35088074,-0.1096898,0.4,0.00050736434,0.0005052867,0.00049971766,396321,0.0,0.0,0.0,0.5,0.0025000002,0.0025000002,0.0025000002,1,1,1,0,1,0
611380384,611280009,4325386,0.003606423,-0.007073052,-0.0018496513,0.34906584,2.0852792e-07,2.1129424e-07,4.302841e-07,4259850,-0.34735984,0.35111737,-0.110305704,0.4,0.00050812896,0.0005060497,0.0005003815,396321,0.0,0.0,0.0,0.5,0.0025000002,0.0025000002,0.0025000002,1,1,1,0,1,0
612390204,612289887,4325386,0.0035876103,-0.007083421,-0.0018746849,0.34906584,2.0774384e-07,2.105577e-07,4.300803e-07,4259850,-0.3474892,0.3512519,-0.110681534,0.4,0.0005086004,0.0005065212,0.00050075614,396321,0.0,0.0,0.0,0.5,0.0025000002,0.0025000002,0.0025000002,1,1,1,0,1,0
613110527,613009799,4325386,0.003549645,-0.007110632,-0.0018719493,0.34906584,2.0891038e-07,2.1171988e-07,4.303669e-07,4259850,-0.347451,0.35120198,-0.109634474,0.4,0.0005085237,0.00050644646,0.0005006173,396321,0.0,0.0,0.0,0.5,0.0025000002,0.0025000002,0.0025000002,1,1,1,1,1,0
613700604,613599728,4325386,0.0035320672,-0.0070947264,-0.0018688275,0.34906584,2.0975875e-07,2.125445e-07,4.2953076e-07,4259850,-0.34716946,0.3509125,-0.10865773,0.4,0.0005077325,0.0005056596,0.00049978704,396321,0.0,0.0,0.0,0.5,0.0025000002,0.0025000002,0.0025000002,1,1,1,1,1,0
614710027,614609605,4325386,0.0035091953,-0.0070664133,-0.0018624588,0.34906584,2.1178684e-07,2.1455655e-07,4.302804e-07,4259850,-0.3473584,0.35109904,-0.1078301,0.4,0.0005083553,0.0005062815,0.00050031184,396321,0.0,0.0,0.0,0.5,0.0025000002,0.0025000002,0.0025000002,1,1,1,1,1,0
615500144,615399509,4325386,0.0035063124,-0.007053724,-0.0018500483,0.34906584,2.0899364e-07,2.117922e-07,4.2967554e-07,4259850,-0.34728464,0.35102946,-0.10908841,0.4,0.0005082335,0.0005061619,0.00050012354,396321,0.0,0.0,0.0,0.5,0.0025000002,0.0025000002,0.0025000002,1,1,1,1,1,0
616300062,616199410,4325386,0.0035332474,-0.0070630396,-0.0018353385,0.34906584,2.0810457e-07,2.1090571e-07,4.3018386e-07,4259850,-0.34729648,0.35104847,-0.11035286,0.4,0.00050837843,0.0005063086,0.00050019793,396321,0.0,0.0,0.0,0.5,0.0025000002,0.0025000002,0.0025000002,1,1,1,1,1,0
617309610,617209287,4325386,0.0035445362,-0.007038681,-0.001843494,0.34906584,2.1043058e-07,2.131816e-07,4.301547e-07,4259850,-0.34745497,0.35120913,-0.10997134,0.4,0.0005089198,0.00050685246,0.0005006467,396321,0.0,0.0,0.0,0.5,0.0025000002,0.0025000002,0.0025000002,1,1,1,1,1,0
618319557,618219162,4325386,0.0035744628,-0.0070105707,-0.0018593244,0.34906584,2.0862153e-07,2.113772e-07,4.2985778e-07,4259850,-0.34722352,0.3509776,-0.10942595,0.4,0.0005083091,0.0005062549,0.0004999663,396321,0.0,0.0,0.0,0.5,0.0025000002,0.0025000002,0.0025000002,1,1,1,1,1,0
618904815,618799090,4325386,0.003562097,-0.0070233215,-0.0018615349,0.34906584,2.0621137e-07,2.090046e-07,4.3010002e-07,4259850,-0.3474521,0.3511874,-0.10819997,0.4,0.00050895486,0.000506908,0.00050056,396321,0.0,0.0,0.0,0.5,0.0025000002,0.0025000002,0.0025000002,1,1,1,1,1,0
619429409,619329025,4325386,0.0035594238,-0.0070207547,-0.0018613947,0.34906584,2.0807263e-07,2.108332e-07,4.2926206e-07,4259850,-0.34711048,0.35082728,-0.10716548,0.4,0.0005079512,0.0005059134,0.0004995326,396321,0.0,0.0,0.0,0.5,0.0025000002,0.0025000002,0.0025000002,1,1,1,1,1,0
620439291,620338899,4325386,0.003584743,-0.0070133167,-0.0018544833,0.34906584,2.099422e-07,2.1268521e-07,4.3001793e-07,4259850,-0.3472876,0.351006,-0.107404046,0.4,0.0005085538,0.0005065249,0.0005000459,396321,0.0,0.0,0.0,0.5,0.0025000002,0.0025000002,0.0025000002,1,1,1,1,1,0
620909562,620808841,4325386,0.0035924052,-0.0069636633,-0.0018418401,0.34906584,2.0878991e-07,2.1155631e-07,4.3039287e-07,4259850,-0.3473943,0.3510949,-0.10635011,0.4,0.0005088549,0.0005068305,0.000500305,396321,0.0,0.0,0.0,0.5,0.0025000002,0.0025000002,0.0025000002,1,1,1,1,1,0
621699370,621598743,4325386,0.0035984074,-0.006961814,-0.0018216061,0.34906584,2.0960258e-07,2.1237017e-07,4.2980878e-07,4259850,-0.3473388,0.3510202,-0.1050631,0.4,0.0005087042,0.0005066873,0.0005000937,396321,0.0,0.0,0.0,0.5,0.0025000002,0.0025000002,0.0025000002,1,1,1,1,1,0
622699432,622598618,4325386,0.0035917764,-0.0069787824,-0.0017933364,0.34906584,2.1034768e-07,2.1314813e-07,4.3034305e-07,4259850,-0.34750602,0.35117114,-0.10394812,0.4,0.0005092291,0.0005072193,0.0005005303,396321,0.0,0.0,0.0,0.5,0.0025000002,0.0025000002,0.0025000002,1,1,1,1,1,0
623558830,623458510,4325386,0.0035309915,-0.0069982894,-0.0017590881,0.34906584,2.0987426e-07,2.1272452e-07,4.2969063e-07,4259850,-0.34715134,0.35080254,-0.1030496,0.4,0.00050823874,0.00050624216,0.0004994946,396321,0.0,0.0,0.0,0.5,0.0025000002,0.0025000002,0.0025000002,1,1,1,1,1,0
623909181,623808466,4325386,0.0035258988,-0.006999725,-0.0017485899,0.34906584,2.0936712e-07,2.1226244e-07,4.301805e-07,4259850,-0.34749517,0.35112652,-0.10195512,0.4,0.0005092132,0.00050721806,0.0005004221,396321,0.0,0.0,0.0,0.5,0.0025000002,0.0025000002,0.0025000002,1,1,1,1,1,0
624818671,624718351,4325386,0.003507815,-0.006999435,-0.0017177298,0.34906584,2.097168e-07,2.1265436e-07,4.2938163e-07,4259850,-0.34718937,0.35079634,-0.10102553,0.4,0.0005083429,0.00050636445,0.0004995006,396321,0.0,0.0,0.0,0.5,0.0025000002,0.0025000002,0.0025000002,1,1,1,1,1,0
625828598,625728223,4325386,0.0035000157,-0.007013611,-0.0016844717,0.34906584,2.1032889e-07,2.1332313e-07,4.3005974e-07,4259850,-0.34735432,0.35097218,-0.10158896,0.4,0.0005089365,0.00050697365,0.0005000115,396321,0.0,0.0,0.0,0.5,0.0025000002,0.0025000002,0.0025000002,1,1,1,1,1,0
626838437,626738095,4325386,0.003462705,-0.007034127,-0.0016482954,0.34906584,2.122017e-07,2.1521336e-07,4.2993645e-07,4259850,-0.3474885,0.35111815,-0.10184538,0.4,0.0005094395,0.0005074905,0.00050043495,396321,0.0,0.0,0.0,0.5,0.0025000002,0.0025000002,0.0025000002,1,1,1,1,1,0
627848286,627747966,4325386,0.0034319728,-0.0070560034,-0.0016160903,0.34906584,2.1394936e-07,2.1696785e-07,4.295113e-07,4259850,-0.347198,0.35083416,-0.101861954,0.4,0.00050868606,0.00050675543,0.0004996204,396321,0.0,0.0,0.0,0.5,0.0025000002,0.0025000002,0.0025000002,1,1,1,1,1,0
628858243,628757837,4325386,0.0033827515,-0.007082073,-0.0015783091,0.34906584,2.1359504e-07,2.1667512e-07,4.3020628e-07,4259850,-0.3473636,0.35102573,-0.10243558,0.4,0.000509311,0.0005073943,0.0005001607,396321,0.0,0.0,0.0,0.5,0.0025000002,0.0025000002,0.0025000002,1,1,1,1,1,0
629868023,629767708,4325386,0.0033281283,-0.0070807054,-0.0015436722,0.34906584,2.128201e-07,2.1594728e-07,4.3008663e-07,4259850,-0.34750584,0.35118255,-0.10265423,0.4,0.0005098548,0.0005079507,0.00050062325,396321,0.0,0.0,0.0,0.5,0.0025000002,0.0025000002,0.0025000002,1,1,1,1,1,0
630877900,630777578,4325386,0.0032877426,-0.007038179,-0.001511501,0.34906584,2.1308935e-07,2.162245e-07,4.296231e-07,4259850,-0.347202,0.3508703,-0.10230968,0.4,0.0005090649,0.0005071764,0.0004997706,396321,0.0,0.0,0.0,0.5,0.0025000002,0.0025000002,0.0025000002,1,1,1,1,1,0
631587872,631487486,4325386,0.0032753672,-0.0069826706,-0.0014904552,0.34906584,2.1363724e-07,2.1676256e-07,4.2893345e-07,4259850,-0.34711286,0.3507521,-0.10130502,0.4,0.00050883065,0.0005069504,0.0004994858,396321,0.0,0.0,0.0,0.5,0.0025000002,0.0025000002,0.0025000002,1,1,1,1,1,0
632298027,632197395,4325386,0.0032334558,-0.0069814012,-0.0014666355,0.34906584,2.1288517e-07,2.1604056e-07,4.2964467e-07,4259850,-0.3472876,0.35092288,-0.10025625,0.4,0.00050940056,0.0005075252,0.0004999873,396321,0.0,0.0,0.0,0.5,0.0025000002,0.0025000002,0.0025000002,1,1,1,1,1,0
632927651,632827315,4325386,0.0032052356,-0.006985376,-0.0014414012,0.34906584,2.1281828e-07,2.1597118e-07,4.2939678e-07,4259850,-0.34708726,0.35071576,-0.099262156,0.4,0.0005088558,0.00050698785,0.0004994046,396321,0.0,0.0,0.0,0.5,0.0025000002,0.0025000002,0.0025000002,1,1,1,1,1,0
633937746,633837182,4325386,0.0031820734,-0.006996036,-0.0013975208,0.34906584,2.1248768e-07,2.156286e-07,4.2931228e-07,4259850,-0.34722936,0.35086572,-0.09928741,0.4,0.00050938246,0.0005075201,0.00049983885,396321,0.0,0.0,0.0,0.5,0.0025000002,0.0025000002,0.0025000002,1,1,1,1,1,0
634947388,634847050,4325386,0.0031699748,-0.007006842,-0.0013509643,0.34906584,2.1187566e-07,2.1501123e-07,4.2992102e-07,4259850,-0.34735817,0.35099438,-0.09893909,0.4,0.0005098519,0.00050799357,0.0005002214,396321,0.0,0.0,0.0,0.5,0.0025000002,0.0025000002,0.0025000002,1,1,1,1,1,0
635957231,635856918,4325386,0.0031513008,-0.0070045823,-0.0013148196,0.34906584,2.1353527e-07,2.1663098e-07,4.3053052e-07,4259850,-0.34747556,0.35110673,-0.09811042,0.4,0.0005102837,0.0005084285,0.00050055934,396321,0.0,0.0,0.0,0.5,0.0025000002,0.0025000002,0.0025000002,1,1,1,1,1,0
636967099,636866785,4325386,0.003143791,-0.006998278,-0.0012637528,0.34906584,2.1563748e-07,2.1865877e-07,4.2935977e-07,4259850,-0.34716526,0.3507904,-0.09782983,0.4,0.00050946925,0.000507621,0.000499674,396321,0.0,0.0,0.0,0.5,0.0025000002,0.0025000002,0.0025000002,1,1,1,1,1,0
637977028,637876652,4325386,0.0031398574,-0.007030654,-0.0012164445,0.34906584,2.1514512e-07,2.1815316e-07,4.300702e-07,4259850,-0.34732717,0.35096425,-0.09813796,0.4,0.0005100511,0.00050820445,0.0005001586,396321,0.0,0.0,0.0,0.5,0.0025000002,0.0025000002,0.0025000002,1,1,1,1,1,0
638907367,638806529,4325386,0.0031351836,-0.007016692,-0.0011761821,0.34906584,2.1491708e-07,2.1790967e-07,4.3038477e-07,4259850,-0.34734446,0.3509855,-0.09922751,0.4,0.00051021547,0.0005083706,0.00050024077,396321,0.0,0.0,0.0,0.5,0.0025000002,0.0025000002,0.0025000002,1,1,1,1,1,0
639546956,639446444,4325386,0.0031348532,-0.0070110303,-0.0011446308,0.34906584,2.1411378e-07,2.1708614e-07,4.2950927e-07,4259850,-0.34713933,0.35078308,-0.10023416,0.4,0.0005096925,0.0005078509,0.00049967365,396321,0.0,0.0,0.0,0.5,0.0025000002,0.0025000002,0.0025000002,1,1,1,1,1,0
640316659,640216342,4325386,0.0031108337,-0.0070193512,-0.0011018536,0.34906584,2.0937901e-07,2.1240452e-07,4.303452e-07,4259850,-0.3474259,0.35108343,-0.10114608,0.4,0.0005106416,0.00050879864,0.00050053996,396321,0.0,0.0,0.0,0.5,0.0025000002,0.0025000002,0.0025000002,1,1,1,1,1,0
641326587,641226208,4325386,0.0030974152,-0.006985513,-0.0010497145,0.34906584,2.0917184e-07,2.122013e-07,4.2984558e-07,4259850,-0.34711125,0.3507586,-0.10129106,0.4,0.000509822,0.0005079841,0.00049964926,396321,0.0,0.0,0.0,0.5,0.0025000002,0.0025000002,0.0025000002,1,1,1,1,1,0
642336469,642236073,4325386,0.0030639325,-0.0069720726,-0.0010033028,0.34906584,2.087915e-07,2.118483e-07,4.298297e-07,4259850,-0.3473001,0.35094845,-0.10096422,0.4,0.0005104917,0.0005086534,0.00050022197,396321,0.0,0.0,0.0,0.5,0.0025000002,0.0025000002,0.0025000002,1,1,1,1,1,0
643346257,643245937,4325386,0.0030201455,-0.0069416524,-0.00096437254,0.34906584,2.0944671e-07,2.1252104e-07,4.303196e-07,4259850,-0.34738594,0.35102868,-0.10009933,0.4,0.000510859,0.0005090205,0.00050049357,396321,0.0,0.0,0.0,0.5,0.0025000002,0.0025000002,0.0025000002,1,1,1,1,1,0
644306598,644205808,4325386,0.0029717223,-0.006941453,-0.0009242817,0.34906584,2.1008758e-07,2.1316531e-07,4.30054e-07,4259850,-0.34735966,0.35100648,-0.09897735,0.4,0.00051090104,0.0005090633,0.0005004497,396321,0.0,0.0,0.0,0.5,0.0025000002,0.0025000002,0.0025000002,1,1,1,1,1,0
645315986,645215673,4325386,0.002946502,-0.0069396226,-0.00088599825,0.34906584,2.103026e-07,2.133803e-07,4.3051307e-07,4259850,-0.3474267,0.3510787,-0.098874845,0.4,0.00051121495,0.0005093769,0.0005006706,396321,0.0,0.0,0.0,0.5,0.0025000002,0.0025000002,0.0025000002,1,1,1,1,1,0
646325976,646225535,4325386,0.002927777,-0.006903642,-0.0008362207,0.34906584,2.0979215e-07,2.1283442e-07,4.2926004e-07,4259850,-0.34709558,0.35074064,-0.09924663,0.4,0.000510355,0.00050852104,0.00049974193,396321,0.0,0.0,0.0,0.5,0.0025000002,0.0025000002,0.0025000002,1,1,1,1,1,0
647335732,647235397,4325386,0.0029139903,-0.006877246,-0.000790573,0.34906584,2.069247e-07,2.0997972e-07,4.2981077e-07,4259850,-0.34720382,0.350848,-0.09989786,0.4,0.00051078945,0.0005089542,0.0005000787,396321,0.0,0.0,0.0,0.5,0.0025000002,0.0025000002,0.0025000002,1,1,1,1,1,0
648345742,648245260,4325386,0.0029147023,-0.006834551,-0.0007447248,0.34906584,2.0737475e-07,2.1039521e-07,4.303017e-07,4259850,-0.34727606,0.35090736,-0.09990554,0.4,0.0005111018,0.0005092656,0.0005002953,396321,0.0,0.0,0.0,0.5,0.0025000002,0.0025000002,0.0025000002,1,1,1,1,1,0
649355491,649255121,4325386,0.0029008668,-0.006799273,-0.00069692003,0.34906584,2.0647506e-07,2.0945997e-07,4.302084e-07,4259850,-0.3474144,0.3510397,-0.10047188,0.4,0.0005116209,0.000509783,0.00050071895,396321,0.0,0.0,0.0,0.5,0.0025000002,0.0025000002,0.0025000002,1,1,1,1,1,0
650365306,650264983,4325386,0.0028998863,-0.0067845085,-0.0006557429,0.34906584,2.0723104e-07,2.1016015e-07,4.297271e-07,4259850,-0.34708756,0.3507067,-0.10098957,0.4,0.00051075534,0.0005089209,0.0004997819,396321,0.0,0.0,0.0,0.5,0.0025000002,0.0025000002,0.0025000002,1,1,1,1,1,0
651375229,651274843,4325386,0.0028891538,-0.006770458,-0.00061266014,0.34906584,2.084326e-07,2.1131383e-07,4.3025025e-07,4259850,-0.3471646,0.3507819,-0.10148291,0.4,0.00051108917,0.0005092537,0.00050001853,396321,0.0,0.0,0.0,0.5,0.0025000002,0.0025000002,0.0025000002,1,1,1,1,1,0
652385148,652284704,4325386,0.0028729052,-0.0067286408,-0.00057051703,0.34906584,2.0527457e-07,2.0813964e-07,4.298022e-07,4259850,-0.34716746,0.3507763,-0.10107597,0.4,0.00051120605,0.0005093703,0.0005000486,396321,0.0,0.0,0.0,0.5,0.0025000002,0.0025000002,0.0025000002,1,1,1,1,1,0
653394888,653294564,4325386,0.0028885736,-0.006685661,-0.00053809176,0.34906584,2.0604821e-07,2.0887596e-07,4.3028012e-07,4259850,-0.34723875,0.35083106,-0.101587325,0.4,0.00051150034,0.0005096637,0.0005002465,396321,0.0,0.0,0.0,0.5,0.0025000002,0.0025000002,0.0025000002,1,1,1,1,1,0
654404798,654304423,4325386,0.0028977303,-0.0066661374,-0.0005020151,0.34906584,2.0775009e-07,2.1053557e-07,4.3078546e-07,4259850,-0.34731713,0.35090148,-0.101339154,0.4,0.00051181775,0.00050998025,0.0005004678,396321,0.0,0.0,0.0,0.5,0.0025000002,0.0025000002,0.0025000002,1,1,1,1,1,0
655414661,655314282,4325386,0.0029090734,-0.0066376044,-0.0004714372,0.34906584,2.106742e-07,2.1339702e-07,4.304726e-07,4259850,-0.34736487,0.3509378,-0.10043513,0.4,0.0005120414,0.00051020336,0.00050059706,396321,0.0,0.0,0.0,0.5,0.0025000002,0.0025000002,0.0025000002,1,1,1,1,1,0
656424582,656324140,4325386,0.0029119265,-0.006659828,-0.00043951563,0.34906584,2.0904653e-07,2.1175772e-07,4.3005352e-07,4259850,-0.3470835,0.3506603,-0.10100282,0.4,0.0005113023,0.0005094671,0.00049978914,396321,0.0,0.0,0.0,0.5,0.0025000002,0.0025000002,0.0025000002,1,1,1,1,1,0
657434334,657333998,4325386,0.0029390124,-0.006644891,-0.00041711316,0.34906584,2.0810336e-07,2.108115e-07,4.304935e-07,4259850,-0.34715623,0.35072222,-0.10100812,0.4,0.0005115886,0.00050975254,0.000499979,396321,0.0,0.0,0.0,0.5,0.0025000002,0.0025000002,0.0025000002,1,1,1,1,1,0
658444253,658343856,4325386,0.0029660668,-0.006605247,-0.0003911383,0.34906584,2.1001827e-07,2.1268913e-07,4.301581e-07,4259850,-0.34720752,0.35075662,-0.10154108,0.4,0.00051181205,0.0005099754,0.0005001081,396321,0.0,0.0,0.0,0.5,0.0025000002,0.0025000002,0.0025000002,1,1,1,1,1,0
659454032,659353713,4325386,0.0029793663,-0.006598328,-0.00036767893,0.34906584,2.0855039e-07,2.1123985e-07,4.3052228e-07,4259850,-0.34725496,0.35079902,-0.10199999,0.4,0.0005120349,0.00051019766,0.0005002402,396321,0.0,0.0,0.0,0.5,0.0025000002,0.0025000002,0.0025000002,1,1,1,1,1,0
660464018,660363569,4325386,0.0029960931,-0.0065987227,-0.00034958153,0.34906584,2.0725362e-07,2.0994183e-07,4.300907e-07,4259850,-0.34728128,0.3508208,-0.10254348,0.4,0.00051219045,0.00051035284,0.0005003028,396321,0.0,0.0,0.0,0.5,0.0025000002,0.0025000002,0.0025000002,1,1,1,1,1,0
661473801,661373425,4325386,0.0030260042,-0.0065593026,-0.0003380448,0.34906584,2.1086578e-07,2.135084e-07,4.3050727e-07,4259850,-0.34732705,0.35085306,-0.10263907,0.4,0.0005123981,0.00051056006,0.0005004161,396321,0.0,0.0,0.0,0.5,0.0025000002,0.0025000002,0.0025000002,1,1,1,1,1,0
662483727,662383281,4325386,0.0030440032,-0.006555794,-0.000322276,0.34906584,2.1295574e-07,2.1556882e-07,4.3084967e-07,4259850,-0.34734797,0.35087028,-0.102559604,0.4,0.00051254133,0.00051070296,0.00050047,396321,0.0,0.0,0.0,0.5,0.0025000002,0.0025000002,0.0025000002,1,1,1,1,1,0
663496037,663393136,4325386,0.0030657123,-0.0065236175,-0.00031109905,0.34906584,2.1624211e-07,2.1879593e-07,4.2961145e-07,4259850,-0.34702608,0.3505386,-0.10182421,0.4,0.00051167334,0.00050983834,0.000499533,396321,0.0,0.0,0.0,0.5,0.0025000002,0.0025000002,0.0025000002,1,1,1,1,1,0
664503627,664402990,4325386,0.0030981817,-0.0065161493,-0.00030624383,0.34906584,2.1813455e-07,2.2067736e-07,4.308953e-07,4259850,-0.347432,0.35094216,-0.10186296,0.4,0.0005129486,0.0005111094,0.0005006866,396321,0.0,0.0,0.0,0.5,0.0025000002,0.0025000002,0.0025000002,1,1,1,0,1,0
665513159,665412844,4325386,0.0031340248,-0.0065910597,-0.0002969412,0.34906584,2.1111795e-07,2.1372959e-07,4.3007427e-07,4259850,-0.34702826,0.35054037,-0.10163541,0.4,0.0005118368,0.0005100019,0.0004995138,396321,0.0,0.0,0.0,0.5,0.0025000002,0.0025000002,0.0025000002,1,1,1,0,1,0
666523035,666422698,4325386,0.0031433713,-0.0066108243,-0.0002838174,0.34906584,2.1033198e-07,2.129524e-07,4.295976e-07,4259850,-0.3470369,0.35055178,-0.101485096,0.4,0.0005119538,0.00051011884,0.0004995405,396321,0.0,0.0,0.0,0.5,0.0025000002,0.0025000002,0.0025000002,1,1,1,0,1,0
667532886,667432551,4325386,0.0031586653,-0.0066030705,-0.00026593645,0.34906584,2.1177618e-07,2.1438815e-07,4.2993815e-07,4259850,-0.34706458,0.35057566,-0.10206561,0.4,0.0005121187,0.0005102836,0.0004996128,396321,0.0,0.0,0.0,0.5,0.0025000002,0.0025000002,0.0025000002,1,1,1,0,1,0
668542781,668442403,4325386,0.00316715,-0.006612782,-0.00024486546,0.34906584,2.1124062e-07,2.138742e-07,4.3019475e-07,4259850,-0.34706903,0.35058257,-0.101576015,0.4,0.00051222503,0.00051039003,0.00049962645,396321,0.0,0.0,0.0,0.5,0.0025000002,0.0025000002,0.0025000002,1,1,1,0,1,0
669552621,669452255,4325386,0.0031822997,-0.0066245454,-0.00022314479,0.34906584,2.1216768e-07,2.1479818e-07,4.29704e-07,4259850,-0.34706968,0.3505819,-0.1019336,0.4,0.0005123123,0.0005104776,0.00049962685,396321,0.0,0.0,0.0,0.5,0.0025000002,0.0025000002,0.0025000002,1,1,1,0,1,0
670562424,670462106,4325386,0.003208149,-0.0066089155,-0.00019918,0.34906584,2.130192e-07,2.156628e-07,4.3024212e-07,4259850,-0.34718516,0.35069543,-0.102300316,0.4,0.0005127387,0.00051090296,0.00049995247,396321,0.0,0.0,0.0,0.5,0.0025000002,0.0025000002,0.0025000002,1,1,1,0,1,0
671572379,671471957,4325386,0.0032358058,-0.006600897,-0.00018249727,0.34906584,2.0880601e-07,2.1153527e-07,4.3045182e-07,4259850,-0.34719956,0.35070968,-0.10210544,0.4,0.00051286956,0.0005110339,0.00049999,396321,0.0,0.0,0.0,0.5,0.0025000002,0.0025000002,0.0025000002,1,1,1,0,1,0
672582207,672481807,4325386,0.003240205,-0.006542698,-0.00017557656,0.34906584,2.0839302e-07,2.1114232e-07,4.2991627e-07,4259850,-0.34719008,0.35069835,-0.10193208,0.4,0.0005129348,0.0005110995,0.0004999689,396321,0.0,0.0,0.0,0.5,0.0025000002,0.0025000002,0.0025000002,1,1,1,0,1,0
673402128,673301685,4325386,0.0032428822,-0.0065499237,-0.00015522253,0.34906584,2.0849822e-07,2.1127191e-07,4.3040282e-07,4259850,-0.34744188,0.35095626,-0.10099175,0.4,0.00051376136,0.00051192363,0.00050069916,396321,0.0,0.0,0.0,0.5,0.0025000002,0.0025000002,0.0025000002,1,1,1,0,1,0
674411919,674311536,4325386,0.0032497866,-0.0065425807,-0.00014001993,0.34906584,2.1021846e-07,2.1298881e-07,4.3066694e-07,4259850,-0.3474382,0.3509543,-0.100310124,0.4,0.00051384675,0.00051200925,0.0005006975,396321,0.0,0.0,0.0,0.5,0.0025000002,0.0025000002,0.0025000002,1,1,1,0,1,0
675421864,675321383,4325386,0.0032600043,-0.006534113,-0.000116888696,0.34906584,2.0911227e-07,2.1191231e-07,4.3066606e-07,4259850,-0.34734517,0.35085934,-0.1005398,0.4,0.00051365956,0.0005118234,0.00050042506,396321,0.0,0.0,0.0,0.5,0.0025000002,0.0025000002,0.0025000002,1,1,1,0,1,0
676431696,676331231,4325386,0.0032876064,-0.0065251356,-0.00010181822,0.34906584,2.0625316e-07,2.0910191e-07,4.3028393e-07,4259850,-0.3474134,0.35092458,-0.10101415,0.4,0.0005139422,0.0005121057,0.0005006104,396321,0.0,0.0,0.0,0.5,0.0025000002,0.0025000002,0.0025000002,1,1,1,0,1,0
677441420,677341079,4325386,0.0033034005,-0.0065080556,-8.801336e-05,0.34906584,2.0919227e-07,2.1201922e-07,4.3053046e-07,4259850,-0.34739813,0.3509064,-0.10127839,0.4,0.00051398214,0.0005121459,0.00050056446,396321,0.0,0.0,0.0,0.5,0.0025000002,0.0025000002,0.0025000002,1,1,1,0,1,0
678451287,678350926,4325386,0.003308535,-0.00652224,-7.752675e-05,0.34906584,2.094641e-07,2.1230683e-07,4.3077034e-07,4259850,-0.3473944,0.35090306,-0.101231396,0.4,0.00051406014,0.00051222416,0.0005005502,396321,0.0,0.0,0.0,0.5,0.0025000002,0.0025000002,0.0025000002,1,1,1,0,1,0
679461170,679360772,4325386,0.003323503,-0.0064668213,-7.479455e-05,0.34906584,2.0537915e-07,2.0828683e-07,4.3018295e-07,4259850,-0.34738255,0.35088658,-0.100925,0.4,0.0005141155,0.0005122798,0.0005005148,396321,0.0,0.0,0.0,0.5,0.0025000002,0.0025000002,0.0025000002,1,1,1,0,1,0
680471099,680370618,4325386,0.0033218986,-0.0064528417,-6.6402004e-05,0.34906584,2.0847448e-07,2.1135993e-07,4.304162e-07,4259850,-0.34736064,0.3508631,-0.10138811,0.4,0.0005141397,0.00051230425,0.0005004489,396321,0.0,0.0,0.0,0.5,0.0025000002,0.0025000002,0.0025000002,1,1,1,0,1,0
681480871,681380464,4325386,0.0033296323,-0.006420088,-5.8329773e-05,0.34906584,2.087028e-07,2.1160187e-07,4.2991257e-07,4259850,-0.34736073,0.35086027,-0.102061585,0.4,0.00051422964,0.00051239424,0.0005004507,396321,0.0,0.0,0.0,0.5,0.0025000002,0.0025000002,0.0025000002,1,1,1,0,1,0
682490646,682390309,4325386,0.0033133165,-0.006438479,-4.4256936e-05,0.34906584,2.0944188e-07,2.1235836e-07,4.300859e-07,4259850,-0.3473287,0.35083127,-0.10212213,0.4,0.0005142312,0.0005123961,0.0005003619,396321,0.0,0.0,0.0,0.5,0.0025000002,0.0025000002,0.0025000002,1,1,1,0,1,0
683500530,683400153,4325386,0.003299206,-0.0063826153,-3.2235603e-05,0.34906584,2.107093e-07,2.1363097e-07,4.300314e-07,4259850,-0.34720242,0.35070035,-0.101201504,0.4,0.00051394803,0.00051211426,0.0004999971,396321,0.0,0.0,0.0,0.5,0.0025000002,0.0025000002,0.0025000002,1,1,1,0,1,0
684510386,684409997,4325386,0.003290025,-0.0063465466,-2.0220494e-05,0.34906584,2.0641356e-07,2.0941482e-07,4.2956563e-07,4259850,-0.34724438,0.35074127,-0.100710414,0.4,0.0005141653,0.0005123311,0.00050012284,396321,0.0,0.0,0.0,0.5,0.0025000002,0.0025000002,0.0025000002,1,1,1,0,1,0
685520445,685419841,4325386,0.0032552285,-0.0063288137,-1.2548306e-05,0.34906584,2.0692279e-07,2.0993288e-07,4.2970842e-07,4259850,-0.34719616,0.35069337,-0.10047638,0.4,0.00051411864,0.00051228487,0.00049998815,396321,0.0,0.0,0.0,0.5,0.0025000002,0.0025000002,0.0025000002,1,1,1,0,1,0
686530020,686429684,4325386,0.0032510185,-0.0063364306,4.2991633e-06,0.34906584,2.093889e-07,2.12369e-07,4.298804e-07,4259850,-0.34714526,0.35064366,-0.10032691,0.4,0.0005140601,0.0005122269,0.00049984193,396321,0.0,0.0,0.0,0.5,0.0025000002,0.0025000002,0.0025000002,1,1,1,0,1,0
687539851,687439526,4325386,0.0032504941,-0.0062996023,6.7179576e-06,0.34906584,2.1161912e-07,2.1455779e-07,4.2929955e-07,4259850,-0.34709045,0.35058737,-0.10013741,0.4,0.0005139907,0.00051215803,0.0004996889,396321,0.0,0.0,0.0,0.5,0.0025000002,0.0025000002,0.0025000002,1,1,1,0,1,0
688549982,688449371,4325386,0.0032227985,-0.0062805777,1.5270041e-05,0.34906584,2.1005364e-07,2.1300677e-07,4.2940135e-07,4259850,-0.3470313,0.3505263,-0.10082998,0.4,0.00051390496,0.000512073,0.00049951376,396321,0.0,0.0,0.0,0.5,0.0025000002,0.0025000002,0.0025000002,1,1,1,0,1,0
689349974,689249242,4325386,0.003239477,-0.0062855217,2.5247482e-05,0.34906584,2.0523495e-07,2.0822972e-07,4.295732e-07,4259850,-0.3472505,0.35074386,-0.10197466,0.4,0.0005146145,0.00051278056,0.0005001338,396321,0.0,0.0,0.0,0.5,0.0025000002,0.0025000002,0.0025000002,1,1,1,0,1,0
690149719,690049117,4325386,0.003231143,-0.006269907,3.199728e-05,0.34906584,2.0564437e-07,2.0861832e-07,4.2958288e-07,4259850,-0.3470776,0.3505635,-0.10335249,0.4,0.0005141573,0.0005123255,0.0004996198,396321,0.0,0.0,0.0,0.5,0.0025000002,0.0025000002,0.0025000002,1,1,1,0,1,0
691159305,691058957,4325386,0.003223598,-0.0063110185,4.0915387e-05,0.34906584,2.0618565e-07,2.0914544e-07,4.307579e-07,4259850,-0.3474404,0.3509318,-0.10338863,0.4,0.0005153241,0.0005134889,0.00050066656,396321,0.0,0.0,0.0,0.5,0.0025000002,0.0025000002,0.0025000002,1,1,1,0,1,0
692169136,692068797,4325386,0.003225821,-0.0063115666,4.2306052e-05,0.34906584,2.0834374e-07,2.1124646e-07,4.3025102e-07,4259850,-0.34741193,0.35090476,-0.1029077,0.4,0.00051533437,0.0005134997,0.0005005893,396321,0.0,0.0,0.0,0.5,0.0025000002,0.0025000002,0.0025000002,1,1,1,0,1,0
693178998,693078637,4325386,0.0032181446,-0.006303602,4.552067e-05,0.34906584,2.0925077e-07,2.1212253e-07,4.3043138e-07,4259850,-0.34736627,0.35086083,-0.102167,0.4,0.00051529583,0.0005134619,0.0005004629,396321,0.0,0.0,0.0,0.5,0.0025000002,0.0025000002,0.0025000002,1,1,1,0,1,0
693818978,693718535,4325386,0.003215798,-0.006288253,4.793992e-05,0.34906584,2.0987311e-07,2.1270912e-07,4.2924756e-07,4259850,-0.34704164,0.35053554,-0.10114019,0.4,0.0005143975,0.0005125671,0.00049953384,396321,0.0,0.0,0.0,0.5,0.0025000002,0.0025000002,0.0025000002,1,1,1,0,1,0
694349215,694248450,4325386,0.003219846,-0.0062883934,5.233229e-05,0.34906584,2.0788148e-07,2.1073821e-07,4.3019588e-07,4259850,-0.34742832,0.35092992,-0.10017049,0.4,0.00051560136,0.00051376707,0.0005006568,396321,0.0,0.0,0.0,0.5,0.0025000002,0.0025000002,0.0025000002,1,1,1,0,1,0
695358609,695258289,4325386,0.0032255196,-0.0062826327,5.8555557e-05,0.34906584,2.0935144e-07,2.1217384e-07,4.301504e-07,4259850,-0.34729066,0.35079268,-0.09985839,0.4,0.0005152869,0.00051345426,0.0005002643,396321,0.0,0.0,0.0,0.5,0.0025000002,0.0025000002,0.0025000002,1,1,1,1,1,0
696368445,696268127,4325386,0.0032349797,-0.00627647,6.681308e-05,0.34906584,2.1063447e-07,2.1343223e-07,4.304769e-07,4259850,-0.34730688,0.3508113,-0.09932033,0.4,0.00051542954,0.0005135969,0.0005003147,396321,0.0,0.0,0.0,0.5,0.0025000002,0.0025000002,0.0025000002,1,1,1,1,1,0
697378341,697277966,4325386,0.0032551982,-0.006234104,6.9089525e-05,0.34906584,2.0746464e-07,2.1027888e-07,4.2977715e-07,4259850,-0.34723586,0.3507366,-0.09986649,0.4,0.00051530224,0.00051347085,0.00050010247,396321,0.0,0.0,0.0,0.5,0.0025000002,0.0025000002,0.0025000002,1,1,1,1,1,0
698388194,698287801,4325386,0.00327849,-0.006218143,6.993165e-05,0.34906584,2.0691131e-07,2.0972757e-07,4.2983464e-07,4259850,-0.34715265,0.3506546,-0.09925705,0.4,0.00051515334,0.0005133231,0.0004998738,396321,0.0,0.0,0.0,0.5,0.0025000002,0.0025000002,0.0025000002,1,1,1,1,1,0
699397957,699297638,4325386,0.0032761118,-0.006190133,7.080697e-05,0.34906584,2.07668e-07,2.1047805e-07,4.2984246e-07,4259850,-0.34705,0.3505502,-0.09936781,0.4,0.0005149379,0.0005131089,0.000499575,396321,0.0,0.0,0.0,0.5,0.0025000002,0.0025000002,0.0025000002,1,1,1,1,1,0
700407898,700307474,4325386,0.0032939494,-0.0061749355,6.8952264e-05,0.34906584,2.0915972e-07,2.1196303e-07,4.3028106e-07,4259850,-0.3474245,0.3509288,-0.09930644,0.4,0.00051614176,0.000514309,0.00050065306,396321,0.0,0.0,0.0,0.5,0.0025000002,0.0025000002,0.0025000002,1,1,1,1,1,0
701357970,701257319,4325386,0.0032940784,-0.0061531947,6.540329e-05,0.34906584,2.1156336e-07,2.1434568e-07,4.3042343e-07,4259850,-0.34730867,0.3508091,-0.1003246,0.4,0.0005158775,0.000514046,0.0005003137,396321,0.0,0.0,0.0,0.5,0.0025000002,0.0025000002,0.0025000002,1,1,1,1,1,0
702367930,702267154,4325386,0.0032966223,-0.006168438,6.8936926e-05,0.34906584,2.1148124e-07,2.1426726e-07,4.2965547e-07,4259850,-0.34720436,0.35070366,-0.10035406,0.4,0.00051565695,0.00051382656,0.0005000118,396321,0.0,0.0,0.0,0.5,0.0025000002,0.0025000002,0.0025000002,1,1,1,1,1,0
703377321,703276989,4325386,0.0033101945,-0.0061717485,6.983928e-05,0.34906584,2.1116448e-07,2.1396784e-07,4.2980022e-07,4259850,-0.34716812,0.35066622,-0.10057153,0.4,0.00051563856,0.0005138085,0.0004999068,396321,0.0,0.0,0.0,0.5,0.0025000002,0.0025000002,0.0025000002,1,1,1,1,1,0
704387178,704286823,4325386,0.003306724,-0.006138219,7.226346e-05,0.34906584,2.1161037e-07,2.1441934e-07,4.2973147e-07,4259850,-0.3470408,0.35053676,-0.100665905,0.4,0.00051535026,0.0005135216,0.0004995402,396321,0.0,0.0,0.0,0.5,0.0025000002,0.0025000002,0.0025000002,1,1,1,1,1,0
705256994,705156679,4325386,0.0033145533,-0.0061556585,7.211233e-05,0.34906584,2.1206408e-07,2.1488049e-07,4.2991437e-07,4259850,-0.34727067,0.35076848,-0.10161161,0.4,0.00051611074,0.0005142797,0.0005002033,396321,0.0,0.0,0.0,0.5,0.0025000002,0.0025000002,0.0025000002,1,1,1,1,1,0
705567352,705466628,4325386,0.0033061842,-0.0061664525,7.284596e-05,0.34906584,2.101245e-07,2.1296506e-07,4.2948255e-07,4259850,-0.3470801,0.350575,-0.10260194,0.4,0.0005155707,0.00051374163,0.00049964926,396321,0.0,0.0,0.0,0.5,0.0025000002,0.0025000002,0.0025000002,1,1,1,1,1,0
706546837,706446466,4325386,0.0033180285,-0.0061898404,7.158399e-05,0.34906584,2.1312604e-07,2.1594161e-07,4.302542e-07,4259850,-0.3473956,0.35089326,-0.10350022,0.4,0.00051659584,0.00051476347,0.0005005608,396321,0.0,0.0,0.0,0.5,0.0025000002,0.0025000002,0.0025000002,1,1,1,1,1,0
707556614,707456299,4325386,0.0033403768,-0.006199045,7.702838e-05,0.34906584,2.108486e-07,2.136906e-07,4.3027492e-07,4259850,-0.34731072,0.35080826,-0.102790944,0.4,0.0005164349,0.0005146034,0.000500315,396321,0.0,0.0,0.0,0.5,0.0025000002,0.0025000002,0.0025000002,1,1,1,1,1,0
708566579,708466131,4325386,0.003360764,-0.006187243,8.581067e-05,0.34906584,2.080339e-07,2.108896e-07,4.295146e-07,4259850,-0.347213,0.35070872,-0.10349423,0.4,0.0005162312,0.0005144008,0.0005000288,396321,0.0,0.0,0.0,0.5,0.0025000002,0.0025000002,0.0025000002,1,1,1,1,1,0
709576359,709475963,4325386,0.0033677344,-0.006178726,8.675727e-05,0.34906584,2.100889e-07,2.1290869e-07,4.2951393e-07,4259850,-0.34709537,0.35058963,-0.10338213,0.4,0.00051596994,0.000514141,0.00049968803,396321,0.0,0.0,0.0,0.5,0.0025000002,0.0025000002,0.0025000002,1,1,1,1,1,0
710566397,710465798,4325386,0.0033746713,-0.0062013376,9.2570095e-05,0.34906584,2.1224224e-07,2.1503232e-07,4.3035962e-07,4259850,-0.34739563,0.35089588,-0.10239499,0.4,0.0005169593,0.00051512726,0.0005005591,396321,0.0,0.0,0.0,0.5,0.0025000002,0.0025000002,0.0025000002,1,1,1,1,1,0
711576029,711475629,4325386,0.0033931704,-0.00619399,9.4132316e-05,0.34906584,2.1384608e-07,2.1660465e-07,4.306154e-07,4259850,-0.34737855,0.35088018,-0.10187729,0.4,0.0005170035,0.0005151716,0.00050051376,396321,0.0,0.0,0.0,0.5,0.0025000002,0.0025000002,0.0025000002,1,1,1,1,1,0
712356192,712255498,4325386,0.003405076,-0.00613138,8.880525e-05,0.34906584,2.151963e-07,2.1791321e-07,4.2936728e-07,4259850,-0.34706965,0.35056984,-0.10091544,0.4,0.0005161576,0.000514329,0.000499627,396321,0.0,0.0,0.0,0.5,0.0025000002,0.0025000002,0.0025000002,1,1,1,1,1,0
713365729,713265328,4325386,0.003415048,-0.006139094,8.563759e-05,0.34906584,2.151303e-07,2.1785371e-07,4.3041075e-07,4259850,-0.34738508,0.3508893,-0.100473456,0.4,0.00051718974,0.00051535777,0.0005005381,396321,0.0,0.0,0.0,0.5,0.0025000002,0.0025000002,0.0025000002,1,1,1,1,1,0
714375471,714275158,4325386,0.0034086276,-0.00616981,8.493702e-05,0.34906584,2.154619e-07,2.1818656e-07,4.304713e-07,4259850,-0.34730148,0.35080516,-0.100260824,0.4,0.0005170331,0.000515202,0.00050030026,396321,0.0,0.0,0.0,0.5,0.0025000002,0.0025000002,0.0025000002,1,1,1,1,1,0
715385303,715284987,4325386,0.0033984566,-0.00619399,8.732531e-05,0.34906584,2.1608213e-07,2.187972e-07,4.2950774e-07,4259850,-0.3471072,0.35060838,-0.100644425,0.4,0.0005165441,0.00051471504,0.0004997392,396321,0.0,0.0,0.0,0.5,0.0025000002,0.0025000002,0.0025000002,1,1,1,1,1,0
716395162,716294816,4325386,0.003395748,-0.00621801,8.5722364e-05,0.34906584,2.1501204e-07,2.1776631e-07,4.304272e-07,4259850,-0.34738785,0.3508916,-0.10119265,0.4,0.00051746995,0.000515638,0.0005005462,396321,0.0,0.0,0.0,0.5,0.0025000002,0.0025000002,0.0025000002,1,1,1,1,1,0
717405141,717304645,4325386,0.0033674515,-0.0061977655,8.380989e-05,0.34906584,2.10475e-07,2.133126e-07,4.3053038e-07,4259850,-0.34735915,0.3508619,-0.10123119,0.4,0.0005174722,0.00051564054,0.00050046307,396321,0.0,0.0,0.0,0.5,0.0025000002,0.0025000002,0.0025000002,1,1,1,1,1,0
718334865,718234486,4325386,0.0033680168,-0.0061992565,8.4039115e-05,0.34906584,2.1289294e-07,2.1570064e-07,4.2954227e-07,4259850,-0.34716445,0.350665,-0.102230206,0.4,0.0005169769,0.00051514735,0.0004998996,396321,0.0,0.0,0.0,0.5,0.0025000002,0.0025000002,0.0025000002,1,1,1,1,1,0
719344654,719244314,4325386,0.003357459,-0.006195583,8.159903e-05,0.34906584,2.1394663e-07,2.1675552e-07,4.2943014e-07,4259850,-0.34701407,0.35051274,-0.102040656,0.4,0.0005166183,0.0005147903,0.0004994687,396321,0.0,0.0,0.0,0.5,0.0025000002,0.0025000002,0.0025000002,1,1,1,1,1,0
720354509,720254141,4325386,0.003367032,-0.0061942623,8.1891834e-05,0.34906584,2.1687447e-07,2.1967146e-07,4.3052074e-07,4259850,-0.34733713,0.35084006,-0.102264844,0.4,0.0005176742,0.0005158428,0.00050039985,396321,0.0,0.0,0.0,0.5,0.0025000002,0.0025000002,0.0025000002,1,1,1,1,1,0
721364429,721263968,4325386,0.0033318542,-0.0062075974,8.3301595e-05,0.34906584,2.1433594e-07,2.1717601e-07,4.2966968e-07,4259850,-0.34721082,0.3507107,-0.10160692,0.4,0.00051738345,0.00051555346,0.0005000301,396321,0.0,0.0,0.0,0.5,0.0025000002,0.0025000002,0.0025000002,1,1,1,1,1,0
722374168,722273795,4325386,0.0033258067,-0.006216676,8.477468e-05,0.34906584,2.1712735e-07,2.1993927e-07,4.295985e-07,4259850,-0.34706333,0.35056165,-0.10152384,0.4,0.0005170352,0.0005152068,0.00049960497,396321,0.0,0.0,0.0,0.5,0.0025000002,0.0025000002,0.0025000002,1,1,1,1,1,0
723384041,723283621,4325386,0.003320298,-0.0061826385,8.4813815e-05,0.34906584,2.2025326e-07,2.2303449e-07,4.299024e-07,4259850,-0.34736848,0.35086954,-0.101482674,0.4,0.0005180333,0.00051620166,0.0005004825,396321,0.0,0.0,0.0,0.5,0.0025000002,0.0025000002,0.0025000002,1,1,1,1,1,0
724393856,724293450,4325386,0.0032973515,-0.0061959787,8.895022e-05,0.34906584,2.1417367e-07,2.1705415e-07,4.3003044e-07,4259850,-0.34735316,0.35085273,-0.1008093,0.4,0.0005180756,0.0005162442,0.0005004356,396321,0.0,0.0,0.0,0.5,0.0025000002,0.0025000002,0.0025000002,1,1,1,1,1,0
725363906,725263279,4325386,0.003287963,-0.0061368896,8.496366e-05,0.34906584,2.1522305e-07,2.1809058e-07,4.296346e-07,4259850,-0.34723997,0.35073686,-0.09965212,0.4,0.00051781954,0.0005159893,0.00050010293,396321,0.0,0.0,0.0,0.5,0.0025000002,0.0025000002,0.0025000002,1,1,1,1,1,0
726373510,726273104,4325386,0.0032732352,-0.006176881,8.824381e-05,0.34906584,2.1161792e-07,2.1453073e-07,4.2936318e-07,4259850,-0.3470429,0.35053882,-0.100264765,0.4,0.00051732565,0.00051549764,0.0004995394,396321,0.0,0.0,0.0,0.5,0.0025000002,0.0025000002,0.0025000002,1,1,1,1,1,0
727383301,727282928,4325386,0.0032761216,-0.0061492804,9.8282646e-05,0.34906584,2.1440684e-07,2.1729103e-07,4.301929e-07,4259850,-0.3472545,0.3507524,-0.100318864,0.4,0.000518048,0.0005162178,0.0005001519,396321,0.0,0.0,0.0,0.5,0.0025000002,0.0025000002,0.0025000002,1,1,1,1,1,0
728393063,728292753,4325386,0.0032579233,-0.0061358945,0.00016124899,0.34906584,2.1238368e-07,2.1528345e-07,4.2928943e-07,4259850,-0.3470932,0.35058925,-0.10016859,0.4,0.00051765825,0.0005158298,0.0004996862,396321,0.0,0.0,0.0,0.5,0.0025000002,0.0025000002,0.0025000002,1,1,1,1,1,0
