timestamp,timestamp_sample,baro_device_id,baro_alt_meter,baro_temp_celcius,baro_pressure_pa,rho,calibration_count
539341316,539326316,4028193,120.61132,40.576664,99884.664,1.2116096,0
539416958,539383909,4028193,120.34709,40.579998,99887.8,1.2116476,0
539557341,539542341,4028193,120.44485,40.579998,99886.664,1.2116339,0
539773289,539758270,4028193,120.21761,40.579998,99889.336,1.2116662,0
539946181,539923926,4028193,120.35237,40.579998,99887.75,1.211647,0
540162173,540139974,4028193,120.37351,40.585,99887.5,1.2116439,0
540378204,540355955,4028193,120.60339,40.59,99884.75,1.2116107,0
540540210,540521619,4028193,120.33124,40.59,99888.0,1.21165,0
540756275,540737682,4028193,120.30217,40.59,99888.336,1.2116542,0
540972277,540953674,4028193,120.471275,40.596664,99886.336,1.21163,0
541145075,541112087,4028193,120.29688,40.6,99888.4,1.2116549,0
541361082,541328061,4028193,120.550545,40.6,99885.4,1.2116185,0
541577115,541544089,4028193,120.365585,40.601997,99887.6,1.2116452,0
541717445,541702453,4028193,120.526764,40.606667,99885.664,1.2116218,0
541933454,541918457,4028193,120.415794,40.61,99887.0,1.2116379,0
542149497,542134477,4028193,120.30217,40.61,99888.336,1.2116542,0
542365479,542350470,4028193,120.471275,40.61,99886.336,1.21163,0
542538277,542516059,4028193,120.394646,40.61,99887.25,1.211641,0
542754330,542732133,4028193,120.43693,40.61,99886.75,1.2112229,0
542970295,542948088,4028193,120.415794,40.62,99887.0,1.2112259,0
543132368,543113729,4028193,120.35765,40.62,99887.664,1.211234,0
543348352,543329745,4028193,120.415794,40.62,99887.0,1.2116379,0
543564281,543545683,4028193,120.500336,40.623333,99886.0,1.2112137,0
543737103,543704103,4028193,120.33124,40.628,99888.0,1.2112379,0
543953067,543920071,4028193,120.500336,40.629997,99886.0,1.2112137,0
544169067,544136065,4028193,120.365585,40.629997,99887.6,1.2112331,0
544309508,544294515,4028193,120.555824,40.63333,99885.336,1.2112056,0
544525481,544510480,4028193,120.415794,40.64,99887.0,1.2112259,0
544741489,544726482,4028193,120.44485,40.64,99886.664,1.2112218,0
544957461,544942463,4028193,120.471275,40.64,99886.336,1.2112179,0
545173450,545158454,4028193,120.526764,40.646664,99885.664,1.2112097,0
545346275,545324061,4028193,120.288956,40.644997,99888.5,1.2112441,0
545562276,545540072,4028193,120.288956,40.649998,99888.5,1.2112441,0
545778278,545756061,4028193,120.4792,40.644997,99886.25,1.2112168,0
545940359,545921739,4028193,120.471275,40.649998,99886.336,1.2112179,0
546156376,546137770,4028193,120.58489,40.65333,99885.0,1.2112017,0
546372332,546353719,4028193,120.27575,40.66,99888.664,1.211246,0
546545121,546512132,4028193,120.415794,40.66,99887.0,1.2112259,0
546761079,546728097,4028193,120.23083,40.662,99889.2,1.2108407,0
546901448,546886454,4028193,120.33124,40.663334,99888.0,1.210826,0
547117512,547102518,4028193,120.35765,40.67,99887.664,1.211234,0
547333454,547318455,4028193,120.44485,40.67,99886.664,1.21081,0
547549529,547534520,4028193,120.526764,40.67,99885.664,1.2107978,0
547765563,547750507,4028193,120.61132,40.67,99884.664,1.2107857,0
547938395,547916147,4028193,120.267815,40.675,99888.75,1.2108352,0
548154279,548132089,4028193,120.394646,40.68,99887.25,1.210817,0
548370297,548348064,4028193,120.500336,40.68,99886.0,1.2108018,0
548532276,548513665,4028193,120.415794,40.69,99887.0,1.210814,0
548748276,548729673,4028193,120.27575,40.69,99888.664,1.2108341,0
548964331,548945715,4028193,120.555824,40.683334,99885.336,1.2107937,0
549137104,549104106,4028193,120.450134,40.688,99886.6,1.2108091,0
549353135,549320117,4028193,120.33124,40.691998,99888.0,1.210826,0
549569088,549536097,4028193,120.450134,40.697998,99886.6,1.2108091,0
549709454,549694456,4028193,120.38672,40.7,99887.336,1.210818,0
549925519,549910518,4028193,120.35765,40.7,99887.664,1.210822,0
550141511,550126505,4028193,120.44485,40.7,99886.664,1.21081,0
550357464,550342460,4028193,120.30217,40.71,99888.336,1.2108302,0
550573468,550558473,4028193,120.471275,40.71,99886.336,1.210806,0
550746276,550724078,4028193,120.415794,40.71,99887.0,1.2104024,0
550962276,550940073,4028193,120.4792,40.71,99886.25,1.2103933,0
551124276,551105677,4028193,120.555824,40.71,99885.336,1.2103821,0
551340277,551321662,4028193,120.64038,40.713333,99884.336,1.2103701,0
551556274,551537680,4028193,120.500336,40.719997,99886.0,1.2103902,0
551772306,551753702,4028193,120.500336,40.719997,99886.0,1.2103902,0
551945082,551912060,4028193,120.38144,40.725998,99887.4,1.2104073,0
552161145,552128123,4028193,120.33124,40.724,99888.0,1.2104144,0
552301478,552286476,4028193,120.500336,40.72333,99886.0,1.2103902,0
552517507,552502467,4028193,120.61132,40.73,99884.664,1.2103741,0
552733563,552718532,4028193,120.35765,40.73,99887.664,1.2104104,0
552949571,552934578,4028193,120.500336,40.73,99886.0,1.2103902,0
553165571,553150574,4028193,120.33124,40.739998,99888.0,1.2104144,0
553338339,553316146,4028193,120.60339,40.739998,99884.75,1.2103752,0
553554337,553532118,4028193,120.22554,40.739998,99889.25,1.2104295,0
553770275,553748065,4028193,120.37351,40.745,99887.5,1.2104083,0
553932293,553913701,4028193,120.471275,40.75,99886.336,1.2099831,0
554148296,554129662,4028193,120.44485,40.75,99886.664,1.2103983,0
554364287,554345696,4028193,120.44485,40.75,99886.664,1.209987,0
554537092,554504102,4028193,120.51619,40.75,99885.8,1.2099766,0
554753066,554720056,4028193,120.550545,40.76,99885.4,1.2099718,0
554969065,554936057,4028193,120.500336,40.76,99886.0,1.2099789,0
555109467,555094474,4028193,120.415794,40.76,99887.0,1.2099911,0
555325477,555310460,4028193,120.38672,40.76,99887.336,1.2099953,0
555541455,555526460,4028193,120.33124,40.77,99888.0,1.2100031,0
555757472,555742474,4028193,120.526764,40.766666,99885.664,1.209975,0
555973470,555958466,4028193,120.44485,40.77,99886.664,1.209987,0
556146324,556124121,4028193,120.56376,40.77,99885.25,1.20997,0
556362291,556340103,4028193,120.500336,40.78,99886.0,1.2099789,0
556524276,556505661,4028193,120.526764,40.78,99885.664,1.209975,0
556740297,556721705,4028193,120.500336,40.78,99886.0,1.2099789,0
556956278,556937688,4028193,120.555824,40.78,99885.336,1.209971,0
557172276,557153663,4028193,120.35765,40.783333,99887.664,1.2099992,0
557345098,557312100,4028193,120.43164,40.79,99886.8,1.2099887,0
557561066,557528059,4028193,120.48184,40.79,99886.2,1.2099814,0
557701499,557686498,4028193,120.526764,40.79,99885.664,1.209975,0
557917506,557902502,4028193,120.415794,40.796665,99887.0,1.2099911,0
558133481,558118478,4028193,120.30217,40.79333,99888.336,1.2100073,0
558349454,558334459,4028193,120.500336,40.8,99886.0,1.2099789,0
558565503,558550491,4028193,120.66945,40.8,99884.0,1.2095437,0
558738283,558716069,4028193,120.43693,40.805,99886.75,1.2095771,0
558954318,558932095,4028193,120.415794,40.8,99887.0,1.2095801,0
559170309,559148108,4028193,120.45806,40.809998,99886.5,1.209574,0
559332276,559313661,4028193,120.44485,40.809998,99886.664,1.209576,0
559548340,559529727,4028193,120.27575,40.809998,99888.664,1.2096002,0
559764304,559745681,4028193,120.30217,40.809998,99888.336,1.2095963,0
559937113,559904070,4028193,120.28103,40.82,99888.6,1.2095995,0
560153094,560120107,4028193,120.34709,40.82,99887.8,1.2095897,0
560369077,560336090,4028193,120.33124,40.82,99888.0,1.2095921,0
560509449,560494455,4028193,120.30217,40.82,99888.336,1.2095963,0
560725494,560710500,4028193,120.07757,40.82,99891.0,1.2096285,0
560941517,560926524,4028193,120.19119,40.829998,99889.664,1.2096123,0
561157502,561142509,4028193,120.30217,40.829998,99888.336,1.2095963,0
561373515,561358465,4028193,120.21761,40.829998,99889.336,1.2096083,0
561546291,561524089,4028193,120.162125,40.84,99890.0,1.2096164,0
561762278,561740060,4028193,120.43693,40.84,99886.75,1.2095771,0
561924276,561905677,4028193,120.35765,40.829998,99887.664,1.209588,0
562140302,562121680,4028193,120.35765,40.84,99887.664,1.209588,0
562356316,562337705,4028193,120.38672,40.84,99887.336,1.2095841,0
562572276,562553663,4028193,120.555824,40.84,99885.336,1.2091492,0
562745089,562712101,4028193,120.51619,40.848,99885.8,1.2091548,0
562961151,562928117,4028193,120.450134,40.844,99886.6,1.2091646,0
563177116,563144120,4028193,120.38144,40.85,99887.4,1.2091743,0
563317449,563302452,4028193,120.19119,40.85,99889.664,1.2092016,0
563533559,563518542,4028193,120.30217,40.86,99888.336,1.2091856,0
563749566,563734546,4028193,120.27575,40.86,99888.664,1.2091895,0
563965473,563950461,4028193,120.500336,40.86,99886.0,1.2091572,0
564138296,564116102,4028193,120.394646,40.86,99887.25,1.2091725,0
564354298,564332095,4028193,120.3101,40.86,99888.25,1.2091845,0
564570302,564548107,4028193,120.58489,40.86,99885.0,1.2091452,0
564732323,564713726,4028193,120.44485,40.87,99886.664,1.2091653,0
564948297,564929706,4028193,120.35765,40.87,99887.664,1.2091774,0
565164274,565145659,4028193,120.526764,40.87,99885.664,1.2091533,0
565337076,565304093,4028193,120.33124,40.871998,99888.0,1.2091814,0
565553065,565520068,4028193,120.33124,40.87,99888.0,1.2091814,0
565769137,565736118,4028193,120.365585,40.879997,99887.6,1.2091767,0
565909471,565894471,4028193,120.27575,40.879997,99888.664,1.2091895,0
566125450,566110457,4028193,120.44485,40.873333,99886.664,1.2091653,0
566341533,566326517,4028193,120.500336,40.879997,99886.0,1.2091572,0
566557478,566542485,4028193,120.500336,40.879997,99886.0,1.2091572,0
566773492,566758496,4028193,120.471275,40.886665,99886.336,1.2091614,0
566946303,566924104,4028193,120.162125,40.89,99890.0,1.2092057,0
567162313,567140086,4028193,120.35237,40.89,99887.75,1.208768,0
567324275,567305659,4028193,120.27575,40.89,99888.664,1.2091895,0
567540283,567521693,4028193,120.24668,40.899998,99889.0,1.2091937,0
567756309,567737698,4028193,120.24668,40.899998,99889.0,1.2087831,0
567972285,567953674,4028193,120.30217,40.89333,99888.336,1.208775,0
568145078,568112081,4028193,120.38144,40.899998,99887.4,1.2087637,0
568361067,568328070,4028193,120.162125,40.899998,99890.0,1.2087952,0
568577132,568544073,4028193,120.33124,40.906,99888.0,1.208771,0
568717567,568702506,4028193,120.13306,40.899998,99890.336,1.2087992,0
568933511,568918474,4028193,120.30217,40.90333,99888.336,1.208775,0
569149532,569134519,4028193,120.27575,40.91,99888.664,1.208779,0
569365477,569350464,4028193,120.24668,40.91,99889.0,1.2087831,0
569538276,569516079,4028193,120.3101,40.91,99888.25,1.208774,0
569754324,569732108,4028193,120.37351,40.91,99887.5,1.2087649,0
569970279,569948082,4028193,120.35237,40.91,99887.75,1.208768,0
570132288,570113659,4028193,120.500336,40.92,99886.0,1.2087468,0
570348280,570329672,4028193,120.500336,40.916668,99886.0,1.2087468,0
570564282,570545689,4028193,120.38672,40.92,99887.336,1.208763,0
570737066,570704057,4028193,120.46599,40.92,99886.4,1.2087517,0
570953073,570920093,4028193,120.33124,40.92,99888.0,1.208771,0
571169067,571136081,4028193,120.262535,40.92,99888.8,1.2087806,0
571309522,571294505,4028193,120.162125,40.926666,99890.0,1.2087952,0
571525505,571510496,4028193,120.13306,40.93,99890.336,1.2087992,0
571741468,571726476,4028193,120.106636,40.93,99890.664,1.2088033,0
571957448,571942454,4028193,120.21761,40.93,99889.336,1.2087872,0
572173462,572158461,4028193,120.24668,40.93,99889.0,1.2087831,0
572346276,572324068,4028193,120.3101,40.93,99888.25,1.208774,0
572562349,572540066,4028193,120.162125,40.94,99890.0,1.2087952,0
572724332,572705669,4028193,120.21761,40.933334,99889.336,1.2087872,0
572940275,572921661,4028193,120.19119,40.94,99889.664,1.2087911,0
573156329,573137720,4028193,120.19119,40.94,99889.664,1.2087911,0
573372279,573353677,4028193,120.33124,40.94,99888.0,1.208771,0
573545106,573512071,4028193,120.51619,40.94,99885.8,1.2087443,0
573761073,573728069,4028193,120.397285,40.946,99887.2,1.2087615,0
573977076,573944093,4028193,120.365585,40.941998,99887.6,1.2087662,0
574117466,574102466,4028193,120.27575,40.94,99888.664,1.2083689,0
574333495,574318501,4028193,120.38672,40.95,99887.336,1.2083529,0
574549447,574534453,4028193,120.555824,40.95,99885.336,1.2083286,0
574765496,574750499,4028193,120.38672,40.95667,99887.336,1.2083529,0
574938275,574916076,4028193,120.33124,40.95,99888.0,1.2083608,0
575154292,575132084,4028193,120.415794,40.955,99887.0,1.2083488,0
575370277,575348062,4028193,120.3101,40.955,99888.25,1.2083639,0
575532287,575513682,4028193,120.27575,40.953335,99888.664,1.2083689,0
575748286,575729665,4028193,120.61132,40.953335,99884.664,1.2083206,0
575964277,575945660,4028193,120.106636,40.96,99890.664,1.2083932,0
576137120,576104083,4028193,119.876755,40.96,99893.4,1.2084262,0
576353113,576320093,4028193,120.29688,40.96,99888.4,1.2083657,0
576569152,576536164,4028193,120.162125,40.96,99890.0,1.2083851,0
576709548,576694549,4028193,120.751366,40.966663,99883.0,1.2083005,0
576925500,576910493,4028193,120.44485,40.96333,99886.664,1.2083447,0
577141536,577126527,4028193,120.30217,40.96333,99888.336,1.208365,0
577357585,577342592,4028193,120.13306,40.969997,99890.336,1.2083892,0
577573492,577558498,4028193,120.44485,40.969997,99886.664,1.2083447,0
577746300,577724102,4028193,120.33124,40.969997,99888.0,1.2083608,0
577962274,577940061,4028193,120.267815,40.969997,99888.75,1.20837,0
578178276,578156076,4028193,120.4792,40.969997,99886.25,1.2083397,0
578340288,578321689,4028193,120.64038,40.969997,99884.336,1.2083166,0
578556302,578537674,4028193,120.526764,40.98,99885.664,1.2079227,0
578772288,578753662,4028193,120.162125,40.976665,99890.0,1.2079751,0
578945075,578912076,4028193,120.315384,40.98,99888.2,1.2083634,0
579161068,579128076,4028193,120.28103,40.98,99888.6,1.2079582,0
579377097,579344074,4028193,120.397285,40.98,99887.2,1.2079413,0
579517547,579502535,4028193,120.44485,40.98,99886.664,1.2079347,0
579733463,579718463,4028193,120.415794,40.98,99887.0,1.2079388,0
579949542,579934540,4028193,120.33124,40.98,99888.0,1.2079508,0
580165518,580150518,4028193,120.24668,40.983334,99889.0,1.2079631,0
580338278,580316075,4028193,120.4792,40.989998,99886.25,1.2079298,0
580554321,580532123,4028193,120.35237,40.989998,99887.75,1.207948,0
580770342,580748140,4028193,120.33124,40.989998,99888.0,1.2079508,0
580932289,580913675,4028193,120.35765,40.989998,99887.664,1.2079469,0
581148292,581129700,4028193,120.19119,40.989998,99889.664,1.207971,0
581364277,581345659,4028193,120.19119,40.989998,99889.664,1.207971,0
581537080,581504082,4028193,120.28103,40.989998,99888.6,1.2079582,0
581753096,581720114,4028193,120.33124,40.989998,99888.0,1.2079508,0
581969077,581936081,4028193,120.315384,40.989998,99888.2,1.2079535,0
582109503,582094472,4028193,120.19119,40.989998,99889.664,1.207971,0
582325567,582310516,4028193,120.38672,41.0,99887.336,1.207943,0
582541463,582526463,4028193,120.24668,40.996666,99889.0,1.2079631,0
582757542,582742526,4028193,120.30217,41.0,99888.336,1.207955,0
582973523,582958528,4028193,120.35765,41.0,99887.664,1.2079469,0
583146276,583124067,4028193,120.3101,41.0,99888.25,1.2079539,0
583362351,583340145,4028193,120.3101,41.0,99888.25,1.2079539,0
583578325,583556129,4028193,120.22554,41.0,99889.25,1.2079661,0
583740304,583721699,4028193,120.21761,41.0,99889.336,1.207967,0
583956359,583937708,4028193,120.35765,41.0,99887.664,1.2079469,0
584172287,584153693,4028193,120.13306,41.0,99890.336,1.2079792,0
584345067,584312067,4028193,120.415794,41.0,99887.0,1.2079388,0
584561132,584528146,4028193,120.315384,41.0,99888.2,1.2079535,0
584701527,584686533,4028193,120.415794,41.0,99887.0,1.2079388,0
584917483,584902489,4028193,120.33124,41.0,99888.0,1.2079508,0
585133531,585118531,4028193,120.33124,41.0,99888.0,1.2079508,0
585349489,585334491,4028193,120.24668,41.00333,99889.0,1.2079631,0
585565483,585550468,4028193,120.415794,41.006664,99887.0,1.2079388,0
585738304,585716109,4028193,120.37351,41.01,99887.5,1.2079449,0
585954275,585932071,4028193,120.18326,41.01,99889.75,1.207972,0
586170275,586148070,4028193,120.01416,41.01,99891.75,1.2079962,0
586332380,586313790,4028193,120.33124,41.01,99888.0,1.2079508,0
586548276,586529685,4028193,120.162125,41.01,99890.0,1.2079751,0
586764367,586745743,4028193,120.27575,41.01,99888.664,1.2079589,0
586937130,586904152,4028193,120.19647,41.01,99889.6,1.2079703,0
587153108,587120077,4028193,120.212326,41.01,99889.4,1.2079679,0
587369177,587336194,4028193,120.34709,41.01,99887.8,1.2079484,0
587509592,587494596,4028193,120.19119,41.01,99889.664,1.207971,0
587725518,587710509,4028193,119.99302,41.013332,99892.0,1.2079993,0
587941488,587926496,4028193,120.162125,41.01,99890.0,1.2079751,0
588157466,588142469,4028193,120.13306,41.01,99890.336,1.2079792,0
588373468,588358469,4028193,120.35765,41.01,99887.664,1.2079469,0
588546304,588524094,4028193,120.18326,41.015,99889.75,1.207972,0
588762287,588740096,4028193,120.22554,41.01,99889.25,1.2079661,0
588924276,588905660,4028193,120.27575,41.016666,99888.664,1.2079589,0
589140356,589121734,4028193,120.38672,41.02,99887.336,1.207943,0
589356281,589337675,4028193,120.33124,41.013332,99888.0,1.2079508,0
589572277,589553661,4028193,120.13306,41.02,99890.336,1.2079792,0
589745131,589712075,4028193,120.315384,41.02,99888.2,1.2079535,0
589961079,589928060,4028193,120.23083,41.012,99889.2,1.2079655,0
590101483,590086473,4028193,120.19119,41.02,99889.664,1.207971,0
590317556,590302551,4028193,120.13306,41.02,99890.336,1.2079792,0
590533473,590518477,4028193,120.21761,41.013332,99889.336,1.207967,0
590749520,590734522,4028193,120.33124,41.02,99888.0,1.2079508,0
590965515,590950510,4028193,120.21761,41.02,99889.336,1.207967,0
591138278,591116060,4028193,120.09871,41.02,99890.75,1.2079842,0
591354281,591332093,4028193,120.394646,41.02,99887.25,1.2079419,0
591570275,591548061,4028193,120.11985,41.02,99890.5,1.2079812,0
591732332,591713707,4028193,120.30217,41.02667,99888.336,1.207955,0
591948304,591929702,4028193,120.27575,41.02,99888.664,1.2079589,0
592164304,592145701,4028193,120.13306,41.02,99890.336,1.2079792,0
592337065,592304070,4028193,120.23083,41.02,99889.2,1.2079655,0
592553071,592520069,4028193,120.01151,41.02,99891.8,1.2079968,0
592769065,592736081,4028193,120.162125,41.02,99890.0,1.2075654,0
592909492,592894498,4028193,120.02208,41.02,99891.664,1.2079953,0
593125540,593110532,4028193,120.04851,41.02,99891.336,1.2079912,0
593341482,593326490,4028193,120.19119,41.023335,99889.664,1.2075614,0
593557589,593542525,4028193,120.13306,41.02667,99890.336,1.2075695,0
593773572,593758578,4028193,120.471275,41.02,99886.336,1.2075212,0
593946345,593924153,4028193,120.07757,41.02,99891.0,1.2075776,0
594162330,594140137,4028193,120.11985,41.025,99890.5,1.2075715,0
594324314,594305722,4028193,120.35765,41.02,99887.664,1.2075372,0
594540289,594521673,4028193,119.96659,41.02667,99892.336,1.2075937,0
594756277,594737686,4028193,120.02208,41.02,99891.664,1.2075856,0
594972278,594953676,4028193,120.04851,41.02667,99891.336,1.2075815,0
595145082,595112078,4028193,120.262535,41.022003,99888.8,1.2075509,0
595361074,595328078,4028193,120.162125,41.022,99890.0,1.2075654,0
595501482,595486490,4028193,120.02208,41.02,99891.664,1.2075856,0
595717487,595702470,4028193,120.24668,41.02667,99889.0,1.2075534,0
595933523,595918474,4028193,120.415794,41.02667,99887.0,1.2075292,0
596149447,596134454,4028193,120.33124,41.02,99888.0,1.2075412,0
596365504,596350494,4028193,120.21761,41.02,99889.336,1.2075574,0
596538341,596516109,4028193,120.33124,41.025,99888.0,1.2075412,0
596754277,596732062,4028193,120.03529,41.02,99891.5,1.2075835,0
596970293,596948091,4028193,120.09871,41.025,99890.75,1.2075745,0
597132326,597113712,4028193,120.106636,41.02,99890.664,1.2075735,0
597348282,597329682,4028193,120.35765,41.023335,99887.664,1.2075372,0
597564332,597545736,4028193,120.07757,41.02,99891.0,1.2075776,0
597737137,597704136,4028193,120.14627,41.02,99890.2,1.2075679,0
597953067,597920074,4028193,120.28103,41.022,99888.6,1.2075485,0
598169086,598136081,4028193,120.162125,41.02,99890.0,1.2075654,0
598309467,598294474,4028193,120.33124,41.02,99888.0,1.2075412,0
598525513,598510508,4028193,120.24668,41.02,99889.0,1.2071441,0
598741483,598726483,4028193,120.33124,41.02,99888.0,1.2075412,0
598957463,598942469,4028193,119.71294,41.02,99895.336,1.2072207,0
599173556,599158511,4028193,120.162125,41.02,99890.0,1.2071562,0
599346316,599324081,4028193,120.18326,41.02,99889.75,1.2071531,0
599562284,599540084,4028193,120.14098,41.02,99890.25,1.2071592,0
599724332,599705688,4028193,120.44485,41.013332,99886.664,1.2071159,0
599940349,599921749,4028193,120.13306,41.02,99890.336,1.2071602,0
600156275,600137670,4028193,120.30217,41.02,99888.336,1.207136,0
600372278,600353667,4028193,120.33124,41.02,99888.0,1.207132,0
600545123,600512114,4028193,120.18062,41.02,99889.8,1.2071538,0
600761108,600728068,4028193,120.397285,41.02,99887.2,1.2071224,0
600977092,600944097,4028193,120.162125,41.02,99890.0,1.2071562,0
601117560,601102522,4028193,120.27575,41.02,99888.664,1.20714,0
601333488,601318480,4028193,120.24668,41.02,99889.0,1.2071441,0
601549504,601534499,4028193,120.38672,41.02,99887.336,1.207124,0
601765465,601750463,4028193,120.07757,41.02,99891.0,1.2071682,0
601938292,601916091,4028193,120.14098,41.02,99890.25,1.2071592,0
602154279,602132071,4028193,120.20441,41.02,99889.5,1.2071501,0
602370283,602348075,4028193,120.18326,41.02,99889.75,1.2071531,0
602532276,602513674,4028193,120.38672,41.02,99887.336,1.207124,0
602748352,602729763,4028193,120.27575,41.013332,99888.664,1.20714,0
602964276,602945662,4028193,120.27575,41.013332,99888.664,1.2067308,0
603137114,603104066,4028193,120.24668,41.012,99889.0,1.2071441,0
603353108,603320122,4028193,120.19647,41.02,99889.6,1.2067422,0
603569081,603536075,4028193,120.12777,41.02,99890.4,1.2067518,0
603709486,603694479,4028193,119.9111,41.016666,99893.0,1.2067833,0
603925511,603910509,4028193,120.13306,41.016666,99890.336,1.2067511,0
604141455,604126455,4028193,120.162125,41.02,99890.0,1.206747,0
604357467,604342468,4028193,120.19119,41.013332,99889.664,1.2067429,0
604573507,604558496,4028193,120.106636,41.02,99890.664,1.206755,0
604746278,604724067,4028193,120.267815,41.015,99888.75,1.2067319,0
604962349,604940102,4028193,120.37351,41.015,99887.5,1.2067168,0
605124289,605105681,4028193,120.162125,41.016666,99890.0,1.206747,0
605340290,605321690,4028193,120.24668,41.01,99889.0,1.206735,0
605556335,605537689,4028193,120.44485,41.01,99886.664,1.2067068,0
605772277,605753661,4028193,120.27575,41.01,99888.664,1.2067308,0
605945070,605912067,4028193,120.23083,41.01,99889.2,1.2067374,0
606161083,606128089,4028193,120.061714,41.01,99891.2,1.2067616,0
606377081,606344059,4028193,120.24668,41.01,99889.0,1.206735,0
606517508,606502505,4028193,120.33124,41.01,99888.0,1.2067229,0
606733508,606718515,4028193,120.35765,41.01,99887.664,1.2067188,0
606949456,606934461,4028193,120.24668,41.01,99889.0,1.206735,0
607165485,607150488,4028193,120.162125,41.01,99890.0,1.206747,0
607338289,607316089,4028193,120.11985,41.01,99890.5,1.2067531,0
607554279,607532084,4028193,120.267815,41.0,99888.75,1.2067319,0
607770273,607748073,4028193,120.01416,41.01,99891.75,1.2067682,0
607932291,607913698,4028193,120.38672,41.006664,99887.336,1.2063062,0
608148290,608129671,4028193,120.21761,41.006664,99889.336,1.2063303,0
608364364,608345730,4028193,120.162125,41.006664,99890.0,1.2063383,0
608537083,608504099,4028193,120.24668,41.002,99889.0,1.2063262,0
608753166,608720117,4028193,120.12777,41.005997,99890.4,1.206343,0
608969105,608936114,4028193,120.24668,41.005997,99889.0,1.2063262,0
609109503,609094496,4028193,120.33124,41.0,99888.0,1.2063141,0
609325501,609310472,4028193,120.04851,41.0,99891.336,1.2063544,0
609541492,609526495,4028193,120.13306,41.0,99890.336,1.2063423,0
609757488,609742486,4028193,120.35765,41.0,99887.664,1.20631,0
609973575,609958555,4028193,120.106636,41.0,99890.664,1.2063464,0
610146309,610124113,4028193,120.20441,41.0,99889.5,1.2063323,0
610362282,610340065,4028193,120.22554,41.0,99889.25,1.2063292,0
610524289,610505697,4028193,120.13306,41.0,99890.336,1.2063423,0
610740332,610721730,4028193,120.24668,41.0,99889.0,1.2063262,0
610956275,610937666,4028193,120.24668,41.0,99889.0,1.2063262,0
611172324,611153710,4028193,120.24668,41.0,99889.0,1.2063262,0
611345105,611312076,4028193,120.111916,41.0,99890.6,1.2063456,0
611561141,611528084,4028193,120.14627,40.997997,99890.2,1.2063408,0
611777108,611744104,4028193,120.02736,40.991997,99891.6,1.2063577,0
611917468,611902455,4028193,120.30217,40.993332,99888.336,1.2063183,0
612133514,612118510,4028193,119.99302,40.989998,99892.0,1.2063625,0
612349488,612334490,4028193,120.02208,40.993332,99891.664,1.2063584,0
612565487,612550488,4028193,120.21761,40.989998,99889.336,1.2063303,0
612738300,612716099,4028193,120.415794,40.989998,99887.0,1.206302,0
612954329,612932132,4028193,120.11985,40.989998,99890.5,1.2059358,0
613170279,613148066,4028193,120.20441,40.989998,99889.5,1.2059237,0
613332343,613313728,4028193,120.24668,40.989998,99889.0,1.2059177,0
613548277,613529674,4028193,120.07757,40.989998,99891.0,1.2059418,0
613764275,613745661,4028193,120.19119,40.989998,99889.664,1.2059256,0
613937065,613904071,4028193,120.19647,40.989998,99889.6,1.2059249,0
614153080,614120072,4028193,120.19647,40.983997,99889.6,1.2059249,0
614369106,614336066,4028193,120.34709,40.98,99887.8,1.205903,0
614509502,614494509,4028193,120.30217,40.989998,99888.336,1.2059096,0
614725455,614710455,4028193,119.93752,40.983334,99892.664,1.205962,0
614941450,614926456,4028193,120.13306,40.983334,99890.336,1.2059338,0
615157501,615142500,4028193,120.30217,40.983334,99888.336,1.2059096,0
615373485,615358459,4028193,120.27575,40.98,99888.664,1.2059135,0
615546314,615524108,4028193,120.07757,40.98,99891.0,1.2059418,0
615762275,615740064,4028193,120.35237,40.98,99887.75,1.2059026,0
615978275,615956069,4028193,120.288956,40.98,99888.5,1.2059116,0
616140331,616121740,4028193,120.33124,40.98,99888.0,1.2059056,0
616356312,616337710,4028193,120.162125,40.97333,99890.0,1.2059298,0
616572287,616553658,4028193,120.35765,40.97333,99887.664,1.2059015,0
616745105,616712089,4028193,120.07757,40.98,99891.0,1.2059418,0
616961068,616928059,4028193,120.212326,40.975998,99889.4,1.2059225,0
617177113,617144071,4028193,120.29688,40.975998,99888.4,1.2059104,0
617317503,617302507,4028193,120.21761,40.976665,99889.336,1.2059218,0
617533487,617518494,4028193,120.24668,40.969997,99889.0,1.2059177,0
617749502,617734477,4028193,120.24668,40.969997,99889.0,1.2059177,0
617965500,617950506,4028193,120.21761,40.969997,99889.336,1.2059218,0
618138276,618116078,4028193,120.18326,40.969997,99889.75,1.2059267,0
618354288,618332076,4028193,120.22554,40.969997,99889.25,1.2059207,0
618570290,618548098,4028193,120.20441,40.969997,99889.5,1.2059237,0
618732284,618713662,4028193,120.162125,40.969997,99890.0,1.2059298,0
618948284,618929695,4028193,120.162125,40.966663,99890.0,1.2059298,0
619164275,619145672,4028193,120.33124,40.966663,99888.0,1.2054974,0
619337101,619304098,4028193,120.24668,40.96,99889.0,1.2055095,0
619553081,619520096,4028193,120.12777,40.961998,99890.4,1.2055264,0
619769076,619736057,4028193,120.09606,40.96,99890.8,1.2055312,0
619909494,619894489,4028193,120.30217,40.96,99888.336,1.2055014,0
620125537,620110486,4028193,120.04851,40.96,99891.336,1.2055377,0
620341450,620326454,4028193,120.30217,40.96,99888.336,1.2055014,0
620557501,620542492,4028193,120.30217,40.953335,99888.336,1.2055014,0
620773501,620758497,4028193,120.07757,40.95667,99891.0,1.2055336,0
620946280,620924087,4028193,120.09871,40.96,99890.75,1.2055305,0
621162299,621140091,4028193,119.99302,40.96,99892.0,1.2055457,0
621378286,621356089,4028193,120.20441,40.954998,99889.5,1.2055155,0
621540277,621521659,4028193,120.106636,40.95,99890.664,1.2055296,0
621756277,621737687,4028193,120.21761,40.95,99889.336,1.2055136,0
621972324,621953702,4028193,120.02208,40.95,99891.664,1.2055416,0
622145064,622112064,4028193,120.12777,40.95,99890.4,1.2055264,0
622361193,622328104,4028193,120.262535,40.95,99888.8,1.205507,0
622501561,622486561,4028193,120.33124,40.95,99888.0,1.2050893,0
622717480,622702487,4028193,120.13306,40.95,99890.336,1.2055256,0
622933472,622918474,4028193,120.19119,40.946667,99889.664,1.2051095,0
623149464,623134464,4028193,120.19119,40.943333,99889.664,1.2051095,0
623365488,623350481,4028193,120.02208,40.946667,99891.664,1.2051337,0
623538317,623516131,4028193,120.07757,40.94,99891.0,1.2051256,0
623754288,623732063,4028193,120.20441,40.94,99889.5,1.2051076,0
623970301,623948112,4028193,120.20441,40.94,99889.5,1.2051076,0
624132300,624113707,4028193,120.13306,40.94,99890.336,1.2051176,0
624348288,624329659,4028193,120.24668,40.94,99889.0,1.2051015,0
624564276,624545682,4028193,120.07757,40.94,99891.0,1.2051256,0
624737103,624704108,4028193,120.07757,40.94,99891.0,1.2051256,0
624953105,624920071,4028193,120.29688,40.935997,99888.4,1.2050942,0
625169089,625136088,4028193,120.33124,40.93,99888.0,1.2050893,0
625309456,625294458,4028193,120.21761,40.93,99889.336,1.2051055,0
625525467,625510470,4028193,120.21761,40.93,99889.336,1.2051055,0
625741560,625726536,4028193,120.162125,40.93,99890.0,1.2051135,0
625957457,625942463,4028193,120.19119,40.93,99889.664,1.2051095,0
626173525,626158532,4028193,120.21761,40.93,99889.336,1.2051055,0
626346346,626324122,4028193,120.05643,40.92,99891.25,1.2051286,0
626562277,626540079,4028193,120.03529,40.92,99891.5,1.2051316,0
626724321,626705710,4028193,120.27575,40.92,99888.664,1.2050974,0
626940280,626921682,4028193,120.04851,40.92,99891.336,1.2051296,0
627156284,627137689,4028193,120.30217,40.916668,99888.336,1.2050935,0
627372369,627353723,4028193,119.9111,40.92,99893.0,1.2051497,0
627545065,627512078,4028193,120.111916,40.92,99890.6,1.204713,0
627761089,627728071,4028193,120.315384,40.92,99888.2,1.2046841,0
627901490,627886496,4028193,120.162125,40.916668,99890.0,1.2047058,0
628117445,628102452,4028193,120.162125,40.916668,99890.0,1.2047058,0
628333465,628318470,4028193,120.21761,40.91,99889.336,1.2046977,0
628549496,628534464,4028193,120.38672,40.91,99887.336,1.2046736,0
628765482,628750490,4028193,120.13306,40.91,99890.336,1.2047098,0
628938294,628916068,4028193,120.09871,40.91,99890.75,1.2047148,0
629154300,629132090,4028193,120.24668,40.905,99889.0,1.2046938,0
629370294,629348071,4028193,120.22554,40.899998,99889.25,1.2046968,0
629532304,629513706,4028193,120.38672,40.899998,99887.336,1.2046736,0
629748283,629729667,4028193,120.04851,40.899998,99891.336,1.2047218,0
629964298,629945669,4028193,120.33124,40.899998,99888.0,1.2046816,0
630137078,630104081,4028193,119.977165,40.899998,99892.2,1.2047323,0
630353064,630320061,4028193,120.14627,40.892,99890.2,1.2047082,0
630569086,630536073,4028193,120.162125,40.898,99890.0,1.2047058,0
630709494,630694494,4028193,120.07757,40.899998,99891.0,1.2047179,0
630925457,630910464,4028193,120.19119,40.89,99889.664,1.2047017,0
631141484,631126472,4028193,120.24668,40.89,99889.0,1.2046938,0
631357492,631342500,4028193,120.02208,40.89,99891.664,1.2047259,0
631573466,631558468,4028193,119.93752,40.89,99892.664,1.2047379,0
631746327,631724130,4028193,120.24668,40.89,99889.0,1.2042865,0
631962286,631940091,4028193,120.07757,40.89,99891.0,1.2043105,0
632124275,632105662,4028193,120.106636,40.89,99890.664,1.2043065,0
632340333,632321741,4028193,120.38672,40.879997,99887.336,1.2042663,0
632556323,632537718,4028193,120.07757,40.886665,99891.0,1.2043105,0
632772276,632753681,4028193,120.106636,40.879997,99890.664,1.2043065,0
632945083,632912101,4028193,120.12777,40.879997,99890.4,1.2043033,0
633161084,633128099,4028193,120.14627,40.879997,99890.2,1.2043009,0
633301484,633286491,4028193,119.96659,40.879997,99892.336,1.2043265,0
633517450,633502455,4028193,120.07757,40.873333,99891.0,1.2043105,0
633733461,633718453,4028193,120.33124,40.87,99888.0,1.2042743,0
633949542,633934512,4028193,120.415794,40.87,99887.0,1.2042623,0
634165485,634150483,4028193,119.9111,40.87,99893.0,1.2043346,0
634338276,634316066,4028193,120.415794,40.87,99887.0,1.2042623,0
634554319,634532116,4028193,120.18326,40.87,99889.75,1.2042954,0
634770306,634748093,4028193,120.288956,40.87,99888.5,1.2042804,0
634932275,634913666,4028193,120.162125,40.87,99890.0,1.2042985,0
635148277,635129673,4028193,120.33124,40.86,99888.0,1.2042743,0
635364306,635345676,4028193,120.106636,40.86,99890.664,1.2038993,0
635537109,635504075,4028193,120.111916,40.86,99890.6,1.2038984,0
635753102,635720111,4028193,120.111916,40.86,99890.6,1.2038984,0
635969087,635936078,4028193,120.01151,40.86,99891.8,1.2039129,0
636109472,636094464,4028193,120.13306,40.853333,99890.336,1.2038953,0
636325530,636310521,4028193,120.106636,40.85,99890.664,1.2038993,0
636541455,636526454,4028193,120.106636,40.85,99890.664,1.2038993,0
636757586,636742591,4028193,120.106636,40.85,99890.664,1.2038993,0
636973562,636958525,4028193,120.33124,40.85,99888.0,1.2038671,0
637146290,637124067,4028193,120.22554,40.85,99889.25,1.2038822,0
637362286,637340091,4028193,120.22554,40.85,99889.25,1.2038822,0
637524288,637505681,4028193,120.44485,40.843334,99886.664,1.203851,0
637740280,637721662,4028193,120.33124,40.85,99888.0,1.2038671,0
637956361,637937717,4028193,120.19119,40.84,99889.664,1.2038871,0
638172292,638153677,4028193,120.02208,40.84,99891.664,1.2039113,0
638345076,638312070,4028193,120.09606,40.84,99890.8,1.2039008,0
638561114,638528079,4028193,120.18062,40.834,99889.8,1.2038889,0
638777066,638744066,4028193,120.04587,40.836,99891.4,1.2039081,0
638917464,638902453,4028193,120.02208,40.836666,99891.664,1.2039113,0
639133542,639118537,4028193,120.21761,40.829998,99889.336,1.2038833,0
639349498,639334504,4028193,120.162125,40.829998,99890.0,1.2038913,0
639565508,639550514,4028193,120.30217,40.829998,99888.336,1.2034644,0
639738276,639716088,4028193,120.18326,40.82,99889.75,1.2034814,0
639954275,639932060,4028193,120.267815,40.824997,99888.75,1.2034694,0
640170332,640148128,4028193,120.11985,40.82,99890.5,1.2034905,0
640332299,640313711,4028193,120.27575,40.82,99888.664,1.2034683,0
640548276,640529670,4028193,120.13306,40.82,99890.336,1.2034885,0
640764355,640745719,4028193,120.33124,40.816666,99888.0,1.2034603,0
640937088,640904090,4028193,120.262535,40.818,99888.8,1.2034699,0
641153139,641120095,4028193,120.19647,40.809998,99889.6,1.2034796,0
641369118,641336101,4028193,119.99302,40.809998,99892.0,1.2035085,0
641509451,641494457,4028193,120.162125,40.809998,99890.0,1.2034844,0
641725450,641710455,4028193,120.24668,40.809998,99889.0,1.2034725,0
641941477,641926480,4028193,120.415794,40.809998,99887.0,1.2034483,0
642157448,642142454,4028193,119.9111,40.803333,99893.0,1.2035205,0
642373484,642358491,4028193,120.27575,40.8,99888.664,1.2034683,0
642546277,642524076,4028193,120.18326,40.8,99889.75,1.2034814,0
642762305,642740089,4028193,120.35237,40.8,99887.75,1.2034574,0
642924335,642905713,4028193,120.162125,40.8,99890.0,1.2034844,0
643140277,643121686,4028193,120.33124,40.796665,99888.0,1.2034603,0
643356277,643337662,4028193,120.24668,40.79,99889.0,1.2034725,0
643572319,643553685,4028193,120.21761,40.79,99889.336,1.2034764,0
643745100,643712060,4028193,120.162125,40.79,99890.0,1.2034844,0
643961099,643928090,4028193,120.24668,40.784004,99889.0,1.2034725,0
644177069,644144073,4028193,120.23083,40.786,99889.2,1.2034749,0
644317451,644302456,4028193,120.04851,40.783333,99891.336,1.2035005,0
644533473,644518471,4028193,120.106636,40.78,99890.664,1.2034925,0
644749554,644734532,4028193,120.27575,40.78,99888.664,1.2034683,0
644965471,644950467,4028193,120.24668,40.78,99889.0,1.2034725,0
645138291,645116097,4028193,120.07757,40.78,99891.0,1.2034965,0
645354279,645332074,4028193,120.14098,40.78,99890.25,1.2034874,0
645570287,645548064,4028193,120.01416,40.77,99891.75,1.2030988,0
645732303,645713697,4028193,120.33124,40.77,99888.0,1.2030537,0
645948278,645929675,4028193,120.24668,40.77,99889.0,1.2030658,0
646164358,646145755,4028193,120.19119,40.763332,99889.664,1.2030737,0
646337114,646304081,4028193,120.18062,40.77,99889.8,1.2030754,0
646553103,646520078,4028193,120.19647,40.76,99889.6,1.203073,0
646769115,646736122,4028193,120.18062,40.76,99889.8,1.2030754,0
646909492,646894496,4028193,120.21761,40.76,99889.336,1.2030698,0
647125519,647110524,4028193,120.13306,40.76,99890.336,1.2030818,0
647341527,647326516,4028193,120.162125,40.75,99890.0,1.2030778,0
647557481,647542468,4028193,120.02208,40.756664,99891.664,1.2030978,0
647773468,647758468,4028193,120.162125,40.75,99890.0,1.2030778,0
647946380,647924139,4028193,120.09871,40.75,99890.75,1.2030867,0
648162279,648140090,4028193,120.24668,40.75,99889.0,1.2030658,0
648324383,648305711,4028193,120.27575,40.746666,99888.664,1.2030617,0
648540330,648521691,4028193,120.162125,40.739998,99890.0,1.2030778,0
648756296,648737678,4028193,120.04851,40.739998,99891.336,1.2030939,0
648972304,648953701,4028193,120.33124,40.739998,99888.0,1.2030537,0
649145124,649112121,4028193,120.24668,40.739998,99889.0,1.2030658,0
649361069,649328072,4028193,120.212326,40.739998,99889.4,1.2030705,0
649577075,649544091,4028193,120.212326,40.732002,99889.4,1.2030705,0
649717491,649702493,4028193,120.13306,40.73,99890.336,1.2030818,0
649933497,649918499,4028193,120.162125,40.73,99890.0,1.2030778,0
650149526,650134532,4028193,119.96659,40.73,99892.336,1.2026997,0
650365487,650350493,4028193,120.21761,40.73,99889.336,1.2030698,0
650538288,650516079,4028193,120.415794,40.719997,99887.0,1.2026354,0
650754275,650732062,4028193,120.162125,40.719997,99890.0,1.2026715,0
650970280,650948060,4028193,120.35237,40.719997,99887.75,1.2026445,0
651132331,651113708,4028193,120.30217,40.719997,99888.336,1.2026515,0
651348328,651329727,4028193,120.21761,40.719997,99889.336,1.2026635,0
651564286,651545664,4028193,120.106636,40.716663,99890.664,1.2026796,0
651737152,651704141,4028193,120.111916,40.71,99890.6,1.2026788,0
651953118,651920127,4028193,120.23083,40.71,99889.2,1.202662,0
652169109,652136083,4028193,120.33124,40.704,99888.0,1.2026474,0
652309484,652294480,4028193,120.500336,40.703335,99886.0,1.2026234,0
652525534,652510522,4028193,120.162125,40.703335,99890.0,1.2026715,0
652741463,652726459,4028193,120.13306,40.7,99890.336,1.2026756,0
652957630,652942593,4028193,120.04851,40.7,99891.336,1.2026876,0
653173508,653158513,4028193,120.24668,40.7,99889.0,1.2026596,0
653346318,653324099,4028193,120.162125,40.7,99890.0,1.2026715,0
653562290,653540074,4028193,120.37351,40.69,99887.5,1.2026414,0
653778276,653756070,4028193,120.162125,40.69,99890.0,1.2026715,0
653940276,653921681,4028193,120.162125,40.69,99890.0,1.2026715,0
654156278,654137685,4028193,120.27575,40.69,99888.664,1.2022493,0
654372275,654353660,4028193,119.96659,40.686665,99892.336,1.2022935,0
654545107,654512096,4028193,120.07757,40.685997,99891.0,1.2022775,0
654761066,654728074,4028193,120.262535,40.68,99888.8,1.202251,0
654977067,654944067,4028193,120.29688,40.68,99888.4,1.2022462,0
655117456,655102461,4028193,120.162125,40.68,99890.0,1.2022655,0
655333471,655318477,4028193,120.30217,40.67,99888.336,1.2022455,0
655549449,655534452,4028193,120.19119,40.67,99889.664,1.2022613,0
655765537,655750523,4028193,120.19119,40.67,99889.664,1.2022613,0
655938279,655916080,4028193,120.14098,40.67,99890.25,1.2022685,0
656154370,656132178,4028193,120.05643,40.67,99891.25,1.2022804,0
656370337,656348146,4028193,120.14098,40.665,99890.25,1.2022685,0
656532291,656513679,4028193,120.500336,40.66,99886.0,1.2022173,0
656748297,656729704,4028193,120.13306,40.66,99890.336,1.2022694,0
656964277,656945661,4028193,120.35765,40.66,99887.664,1.2022374,0
657137116,657104105,4028193,120.23083,40.66,99889.2,1.2022558,0
657353099,657320107,4028193,120.061714,40.649998,99891.2,1.2022799,0
657569071,657536065,4028193,120.19647,40.649998,99889.6,1.2022606,0
657709471,657694474,4028193,120.19119,40.649998,99889.664,1.2022613,0
657925461,657910466,4028193,120.24668,40.649998,99889.0,1.2022535,0
658141504,658126480,4028193,120.21761,40.646664,99889.336,1.2018517,0
658357517,658342488,4028193,120.19119,40.64,99889.664,1.2022613,0
658573450,658558454,4028193,120.35765,40.64,99887.664,1.2022374,0
658746278,658724062,4028193,120.3101,40.64,99888.25,1.2018387,0
658962328,658940139,4028193,120.24668,40.635,99889.0,1.2018478,0
659178276,659156074,4028193,120.20441,40.629997,99889.5,1.2018538,0
659340277,659321662,4028193,120.21761,40.629997,99889.336,1.2018517,0
659556314,659537686,4028193,120.33124,40.629997,99888.0,1.2018356,0
659772276,659753687,4028193,120.24668,40.629997,99889.0,1.2018478,0
659945068,659912058,4028193,120.262535,40.621998,99888.8,1.2018453,0
660161137,660128120,4028193,120.38144,40.626,99887.4,1.2018285,0
660301499,660286506,4028193,120.35765,40.62,99887.664,1.2018317,0
660517570,660502538,4028193,120.35765,40.62,99887.664,1.2018317,0
660733506,660718514,4028193,120.24668,40.62,99889.0,1.2018478,0
660949447,660934454,4028193,120.27575,40.616665,99888.664,1.2018436,0
661165495,661150488,4028193,120.33124,40.61,99888.0,1.2018356,0
661338275,661316077,4028193,120.162125,40.61,99890.0,1.2018598,0
661554279,661532069,4028193,120.3101,40.61,99888.25,1.2018387,0
661770277,661748072,4028193,120.288956,40.61,99888.5,1.2018417,0
661932276,661913673,4028193,120.162125,40.6,99890.0,1.2018598,0
662148275,662129663,4028193,120.30217,40.6,99888.336,1.2018398,0
662364325,662345696,4028193,120.35765,40.6,99887.664,1.2018317,0
662537075,662504093,4028193,120.18062,40.598,99889.8,1.2018573,0
662753118,662720093,4028193,120.365585,40.59,99887.6,1.2018309,0
662969088,662936105,4028193,120.315384,40.59,99888.2,1.2014326,0
663109453,663094453,4028193,120.35765,40.59,99887.664,1.2014261,0
663325520,663310525,4028193,120.27575,40.59,99888.664,1.2014381,0
663541487,663526488,4028193,120.13306,40.579998,99890.336,1.2014582,0
663757432,663742433,4028193,120.106636,40.579998,99890.664,1.2014623,0
663973465,663958468,4028193,120.30217,40.579998,99888.336,1.2014343,0
664146276,664124069,4028193,120.35237,40.579998,99887.75,1.2014271,0
664362275,664340063,4028193,120.11985,40.57,99890.5,1.2014602,0
664524329,664505685,4028193,120.162125,40.576664,99890.0,1.2014543,0
664740288,664721674,4028193,120.38672,40.57,99887.336,1.2014222,0
664956277,664937662,4028193,120.19119,40.56333,99889.664,1.2014501,0
665172280,665153670,4028193,119.93752,40.57,99892.664,1.2014862,0
665345081,665312060,4028193,120.28103,40.559998,99888.6,1.2014374,0
665561091,665528098,4028193,120.162125,40.559998,99890.0,1.2014543,0
665701499,665686491,4028193,120.162125,40.559998,99890.0,1.2014543,0
665917449,665902455,4028193,120.04851,40.559998,99891.336,1.2014703,0
666133481,666118483,4028193,120.162125,40.553333,99890.0,1.2014543,0
666349491,666334492,4028193,120.13306,40.55,99890.336,1.2014582,0
666565569,666550539,4028193,120.24668,40.55,99889.0,1.2014422,0
666738348,666716118,4028193,120.43693,40.545,99886.75,1.2014152,0
666954281,666932091,4028193,119.99302,40.54,99892.0,1.2014782,0
667170290,667148072,4028193,120.24668,40.54,99889.0,1.2014422,0
667332291,667313701,4028193,120.30217,40.54,99888.336,1.2014343,0
667548299,667529673,4028193,120.24668,40.536667,99889.0,1.2014422,0
667764315,667745718,4028193,120.21761,40.54,99889.336,1.2014462,0
667937126,667904126,4028193,120.33124,40.53,99888.0,1.2014301,0
668153082,668120073,4028193,120.262535,40.53,99888.8,1.2014397,0
668369140,668336077,4028193,120.29688,40.522003,99888.4,1.201435,0
668509501,668494503,4028193,120.19119,40.52667,99889.664,1.2014501,0
668725486,668710484,4028193,120.27575,40.52,99888.664,1.2014381,0
668941496,668926466,4028193,120.162125,40.52,99890.0,1.2014543,0
669157458,669142459,4028193,120.27575,40.52,99888.664,1.2014381,0
669373593,669358600,4028193,120.19119,40.51,99889.664,1.2014501,0
669546368,669524168,4028193,120.14098,40.51,99890.25,1.201052,0
669762289,669740066,4028193,119.99302,40.51,99892.0,1.2014782,0
669924307,669905704,4028193,120.04851,40.506664,99891.336,1.201065,0
670140280,670121664,4028193,120.106636,40.51,99890.664,1.201057,0
670356288,670337691,4028193,120.106636,40.5,99890.664,1.201057,0
670572293,670553669,4028193,120.33124,40.5,99888.0,1.2010249,0
670745077,670712085,4028193,120.04587,40.5,99891.4,1.2010657,0
670961126,670928079,4028193,120.262535,40.489998,99888.8,1.2010344,0
671101564,671086550,4028193,120.33124,40.489998,99888.0,1.2010249,0
671317447,671302452,4028193,120.07757,40.489998,99891.0,1.201061,0
671533549,671518542,4028193,120.07757,40.483334,99891.0,1.201061,0
671749495,671734485,4028193,120.19119,40.489998,99889.664,1.2010448,0
671965456,671950458,4028193,120.02208,40.483334,99891.664,1.201069,0
672138357,672116169,4028193,120.11985,40.48,99890.5,1.2010549,0
672354281,672332092,4028193,120.24668,40.475,99889.0,1.2010369,0
672570275,672548064,4028193,120.288956,40.469997,99888.5,1.201031,0
672732277,672713676,4028193,120.07757,40.469997,99891.0,1.201061,0
672948277,672929670,4028193,120.162125,40.469997,99890.0,1.201049,0
673164289,673145660,4028193,120.27575,40.469997,99888.664,1.2010329,0
673337123,673304118,4028193,120.24668,40.469997,99889.0,1.2010369,0
673553068,673520059,4028193,120.34709,40.46,99887.8,1.2010224,0
673769110,673736091,4028193,120.14627,40.46,99890.2,1.2010514,0
673909561,673894556,4028193,120.13306,40.45667,99890.336,1.201053,0
674125500,674110499,4028193,120.106636,40.453335,99890.664,1.201057,0
674341477,674326481,4028193,119.96659,40.45667,99892.336,1.2006721,0
674557477,674542482,4028193,120.21761,40.45,99889.336,1.200636,0
674773499,674758461,4028193,120.162125,40.45,99890.0,1.2006441,0
674946329,674924066,4028193,120.22554,40.44,99889.25,1.2006351,0
675162292,675140062,4028193,120.01416,40.44,99891.75,1.200665,0
675324276,675305660,4028193,120.19119,40.44,99889.664,1.20064,0
675540358,675521768,4028193,120.21761,40.44,99889.336,1.200636,0
675756348,675737727,4028193,120.04851,40.436665,99891.336,1.2006601,0
675972282,675953688,4028193,120.106636,40.43,99890.664,1.2006521,0
676145121,676112112,4028193,120.14627,40.43,99890.2,1.2006465,0
676361004,676328023,4028193,120.162125,40.43,99890.0,1.2006441,0
676576956,676543910,4028193,120.38144,40.42,99887.4,1.2006128,0
676717360,676702344,4028193,120.13306,40.42,99890.336,1.2006481,0
676933274,676918263,4028193,120.21761,40.42,99889.336,1.200636,0
677149350,677134337,4028193,120.30217,40.42,99888.336,1.2006241,0
677365372,677350377,4028193,120.07757,40.42,99891.0,1.200656,0
677538111,677515916,4028193,120.22554,40.41,99889.25,1.2006351,0
677754152,677731929,4028193,120.22554,40.41,99889.25,1.2006351,0
677970167,677947918,4028193,120.288956,40.41,99888.5,1.2006261,0
678132105,678113480,4028193,120.162125,40.399998,99890.0,1.2006441,0
678348160,678329551,4028193,120.106636,40.399998,99890.664,1.2006521,0
678564100,678545488,4028193,120.19119,40.399998,99889.664,1.20064,0
678736926,678703890,4028193,120.12777,40.399998,99890.4,1.2006488,0
678952937,678919943,4028193,120.24668,40.39,99889.0,1.2006321,0
679168885,679135883,4028193,120.14627,40.39,99890.2,1.2006465,0
679309345,679294327,4028193,120.07757,40.39,99891.0,1.200656,0
679525306,679510308,4028193,120.19119,40.379997,99889.664,1.20064,0
679741277,679726269,4028193,120.27575,40.379997,99888.664,1.2006279,0
679957276,679942281,4028193,120.33124,40.379997,99888.0,1.2006199,0
680173287,680158271,4028193,120.162125,40.379997,99890.0,1.2006441,0
680346085,680323869,4028193,120.07757,40.379997,99891.0,1.2002513,0
680562128,680539900,4028193,120.521484,40.37,99885.75,1.2001883,0
680724099,680705477,4028193,120.21761,40.37,99889.336,1.2002313,0
680940121,680921481,4028193,120.07757,40.37,99891.0,1.2002513,0
681156125,681137504,4028193,120.38672,40.36,99887.336,1.2002074,0
681372127,681353521,4028193,120.162125,40.36333,99890.0,1.2002393,0
681544903,681511904,4028193,120.04587,40.36,99891.4,1.2002561,0
681760862,681727867,4028193,120.12777,40.36,99890.4,1.2002441,0
681976888,681943893,4028193,120.28103,40.351997,99888.6,1.2002225,0
682117313,682102302,4028193,120.35765,40.35,99887.664,1.2002113,0
682333293,682318295,4028193,120.07757,40.35,99891.0,1.2002513,0
682549351,682534303,4028193,120.19119,40.35,99889.664,1.2002352,0
682765339,682750330,4028193,120.106636,40.34,99890.664,1.2002474,0
682938075,682915878,4028193,120.24668,40.345,99889.0,1.2002274,0
683154122,683131929,4028193,120.24668,40.34,99889.0,1.2002274,0
683370111,683347872,4028193,119.99302,40.335,99892.0,1.2002634,0
683532066,683513451,4028193,120.162125,40.329998,99890.0,1.2002393,0
683748088,683729499,4028193,120.07757,40.329998,99891.0,1.2002513,0
683964113,683945521,4028193,119.99302,40.329998,99892.0,1.2002634,0
684136876,684103875,4028193,120.18062,40.326,99889.8,1.2002369,0
684352923,684319873,4028193,120.28103,40.32,99888.6,1.2002225,0
684568893,684535888,4028193,120.14627,40.32,99890.2,1.1998374,0
684709276,684694265,4028193,120.33124,40.32,99888.0,1.199811,0
684925409,684910411,4028193,120.13306,40.31333,99890.336,1.199839,0
685141326,685126315,4028193,119.882034,40.309998,99893.336,1.199875,0
685357337,685342341,4028193,119.826546,40.309998,99894.0,1.199883,0
685573292,685558297,4028193,120.04851,40.309998,99891.336,1.199851,0
685746116,685723923,4028193,120.162125,40.305,99890.0,1.1998351,0
685962080,685939891,4028193,120.22554,40.3,99889.25,1.199826,0
686124099,686105507,4028193,120.21761,40.3,99889.336,1.1998271,0
686340069,686321473,4028193,120.21761,40.3,99889.336,1.1998271,0
686556129,686537528,4028193,120.07757,40.29,99891.0,1.199847,0
686772075,686753470,4028193,119.9111,40.29,99893.0,1.1998711,0
686944958,686911878,4028193,120.19647,40.29,99889.6,1.1998302,0
687160910,687127919,4028193,120.09606,40.288002,99890.8,1.1998446,0
687376926,687343898,4028193,120.07757,40.288002,99891.0,1.199847,0
687517382,687502374,4028193,120.02208,40.28,99891.664,1.199855,0
687733328,687718335,4028193,120.07757,40.28,99891.0,1.199847,0
687949277,687934276,4028193,120.106636,40.28,99890.664,1.199843,0
688165343,688150332,4028193,120.13306,40.27,99890.336,1.199839,0
688338110,688315896,4028193,120.18326,40.27,99889.75,1.199832,0
688554161,688531939,4028193,120.07757,40.265,99891.0,1.199847,0
688770186,688747975,4028193,120.22554,40.265,99889.25,1.199826,0
688932092,688913500,4028193,120.162125,40.26,99890.0,1.1998351,0
689148183,689129555,4028193,120.04851,40.26,99891.336,1.199851,0
689364193,689345585,4028193,119.9111,40.26,99893.0,1.1998711,0
689536924,689503927,4028193,120.07757,40.253998,99891.0,1.199847,0
689752998,689719933,4028193,120.24668,40.25,99889.0,1.199823,0
689968900,689935910,4028193,120.24668,40.25,99889.0,1.199823,0
690109277,690094273,4028193,120.04851,40.243332,99891.336,1.199851,0
690325339,690310292,4028193,120.162125,40.239998,99890.0,1.1998351,0
690541275,690526270,4028193,120.24668,40.239998,99889.0,1.199823,0
690757348,690742339,4028193,119.9111,40.239998,99893.0,1.1994668,0
690973348,690958354,4028193,119.93752,40.239998,99892.664,1.1994628,0
691146084,691123890,4028193,120.18326,40.23,99889.75,1.1994278,0
691362105,691339897,4028193,120.11985,40.23,99890.5,1.199841,0
691578080,691555880,4028193,120.18326,40.23,99889.75,1.1994278,0
691740107,691721478,4028193,120.21761,40.23,99889.336,1.1994228,0
691956136,691937508,4028193,120.106636,40.219997,99890.664,1.1994388,0
692172068,692153477,4028193,119.96659,40.219997,99892.336,1.1994588,0
692344863,692311871,4028193,120.12777,40.219997,99890.4,1.1994356,0
692560898,692527896,4028193,120.12777,40.211998,99890.4,1.1994356,0
692776888,692743880,4028193,120.162125,40.21,99890.0,1.1994308,0
692917336,692902335,4028193,120.02208,40.21,99891.664,1.1994509,0
693133295,693118301,4028193,120.27575,40.21,99888.664,1.1994147,0
693349304,693334293,4028193,120.24668,40.2,99889.0,1.1994189,0
693565365,693550311,4028193,120.04851,40.2,99891.336,1.1994468,0
693738071,693715877,4028193,120.35237,40.2,99887.75,1.1994038,0
693954167,693931904,4028193,120.20441,40.2,99889.5,1.1994249,0
694170128,694147937,4028193,120.03529,40.19,99891.5,1.1994488,0
694332066,694313461,4028193,120.106636,40.19,99890.664,1.1994388,0
694548160,694529556,4028193,120.30217,40.19,99888.336,1.1994108,0
694764120,694745505,4028193,119.99302,40.186665,99892.0,1.1994548,0
694936889,694903879,4028193,120.33124,40.18,99888.0,1.1994067,0
695152905,695119918,4028193,120.04587,40.18,99891.4,1.1994475,0
695368929,695335916,4028193,120.29688,40.178,99888.4,1.1994116,0
695509279,695494273,4028193,119.93752,40.17,99892.664,1.1994628,0
695725287,695710283,4028193,120.30217,40.17,99888.336,1.1994108,0
695941311,695926304,4028193,120.21761,40.17,99889.336,1.1994228,0
696157399,696142380,4028193,120.02208,40.16,99891.664,1.1994509,0
696373328,696358334,4028193,120.162125,40.16,99890.0,1.1994308,0
696546071,696523862,4028193,119.99302,40.16,99892.0,1.1994548,0
696762148,696739953,4028193,120.05643,40.149998,99891.25,1.1994457,0
696978119,696955899,4028193,120.18326,40.149998,99889.75,1.1994278,0
697140066,697121468,4028193,120.27575,40.149998,99888.664,1.1994147,0
697356091,697337501,4028193,119.96659,40.149998,99892.336,1.1994588,0
697572064,697553454,4028193,120.13306,40.14333,99890.336,1.1994349,0
697744892,697711865,4028193,120.262535,40.14,99888.8,1.1994163,0
697960921,697927909,4028193,120.262535,40.14,99888.8,1.1994163,0
698101274,698086259,4028193,120.13306,40.136665,99890.336,1.1994349,0
698317311,698302304,4028193,120.19119,40.129997,99889.664,1.1994268,0
698533289,698518294,4028193,120.19119,40.129997,99889.664,1.1994268,0
698749281,698734267,4028193,120.21761,40.12,99889.336,1.1994228,0
698965280,698950285,4028193,120.19119,40.12,99889.664,1.1994268,0
699138094,699115899,4028193,120.18326,40.12,99889.75,1.1994278,0
699354099,699331888,4028193,120.14098,40.114998,99890.25,1.1994338,0
699570172,699547917,4028193,120.09871,40.11,99890.75,1.1994398,0
699732074,699713477,4028193,120.21761,40.11,99889.336,1.1994228,0
699948102,699929497,4028193,120.13306,40.11,99890.336,1.1994349,0
700164099,700145507,4028193,120.27575,40.11,99888.664,1.1994147,0
700336873,700303860,4028193,120.162125,40.1,99890.0,1.1994308,0
700552892,700519907,4028193,119.99302,40.1,99892.0,1.1994548,0
700768875,700735879,4028193,120.19647,40.1,99889.6,1.1990222,0
700909285,700894270,4028193,120.07757,40.09,99891.0,1.1994429,0
701125293,701110291,4028193,120.04851,40.09,99891.336,1.199043,0
701341305,701326312,4028193,120.35765,40.09,99887.664,1.1989989,0
701557319,701542308,4028193,120.13306,40.083332,99890.336,1.199031,0
701773305,701758302,4028193,120.13306,40.079998,99890.336,1.199031,0
701946128,701923903,4028193,120.162125,40.079998,99890.0,1.1990271,0
702162127,702139936,4028193,120.09871,40.079998,99890.75,1.199036,0
702324133,702305510,4028193,120.24668,40.079998,99889.0,1.199015,0
702540128,702521536,4028193,120.38672,40.076664,99887.336,1.1989951,0
702756089,702737497,4028193,120.04851,40.07,99891.336,1.199043,0
702972096,702953483,4028193,120.13306,40.07,99890.336,1.199031,0
703144892,703111891,4028193,120.33124,40.059998,99888.0,1.199003,0
703361014,703328001,4028193,120.111916,40.059998,99890.6,1.1990342,0
703501376,703486376,4028193,120.38672,40.05,99887.336,1.1989951,0
703717460,703702461,4028193,120.24668,40.053333,99889.0,1.199015,0
703933474,703918476,4028193,120.44485,40.05,99886.664,1.198987,0
704149528,704134516,4028193,120.02208,40.05,99891.664,1.1990471,0
704365522,704350525,4028193,120.27575,40.05,99888.664,1.199011,0
704538277,704516071,4028193,120.22554,40.04,99889.25,1.199018,0
704754361,704732162,4028193,120.09871,40.04,99890.75,1.199036,0
704970291,704948102,4028193,120.24668,40.035,99889.0,1.199015,0
705132288,705113690,4028193,120.27575,40.03,99888.664,1.199011,0
705348333,705329665,4028193,120.106636,40.03,99890.664,1.199035,0
705564276,705545659,4028193,120.19119,40.03,99889.664,1.199023,0
705737121,705704073,4028193,120.28103,40.024002,99888.6,1.1990103,0
705953135,705920118,4028193,120.04587,40.02,99891.4,1.1990438,0
706169091,706136075,4028193,119.99302,40.02,99892.0,1.199051,0
706309527,706294523,4028193,120.02208,40.02,99891.664,1.1990471,0
706525474,706510481,4028193,120.106636,40.01,99890.664,1.199035,0
706741467,706726466,4028193,120.04851,40.016666,99891.336,1.199043,0
706957478,706942479,4028193,120.27575,40.01,99888.664,1.199011,0
707173451,707158454,4028193,120.38672,40.0,99887.336,1.1989951,0
707346277,707324066,4028193,120.3101,40.0,99888.25,1.1990061,0
707562355,707540138,4028193,120.14098,40.0,99890.25,1.19903,0
707724286,707705696,4028193,120.21761,40.0,99889.336,1.1990191,0
707940326,707921713,4028193,120.27575,39.996666,99888.664,1.199011,0
708156299,708137693,4028193,120.07757,39.989998,99891.0,1.1990391,0
708372274,708353670,4028193,120.30217,39.989998,99888.336,1.199007,0
708545086,708512093,4028193,120.12777,39.983997,99890.4,1.1990318,0
708761064,708728058,4028193,120.09606,39.98,99890.8,1.1990366,0
708901482,708886489,4028193,120.13306,39.98,99890.336,1.199031,0
709117529,709102514,4028193,120.27575,39.97333,99888.664,1.199011,0
709333464,709318467,4028193,120.106636,39.97333,99890.664,1.199035,0
709549516,709534506,4028193,120.35765,39.969997,99887.664,1.1989989,0
709765466,709750472,4028193,120.13306,39.969997,99890.336,1.199031,0
709938275,709916060,4028193,120.162125,39.964996,99890.0,1.1990271,0
710154276,710132080,4028193,120.05643,39.96,99891.25,1.199042,0
710370278,710348070,4028193,120.33124,39.96,99888.0,1.199003,0
710532289,710513666,4028193,120.13306,39.96,99890.336,1.199031,0
710748384,710729746,4028193,119.79748,39.96,99894.336,1.1990792,0
710964277,710945659,4028193,120.07757,39.95,99891.0,1.1986355,0
711137113,711104073,4028193,120.19647,39.95,99889.6,1.1986185,0
711353092,711320098,4028193,120.29688,39.944,99888.4,1.1986042,0
711569119,711536101,4028193,120.04587,39.94,99891.4,1.1986401,0
711709507,711694495,4028193,120.30217,39.94,99888.336,1.1986034,0
711925484,711910490,4028193,120.19119,39.93333,99889.664,1.1986194,0
712141465,712126460,4028193,120.21761,39.93333,99889.336,1.1986154,0
712357491,712342495,4028193,120.106636,39.93,99890.664,1.1986314,0
712573509,712558517,4028193,120.30217,39.923332,99888.336,1.1986034,0
712746277,712724072,4028193,120.22554,39.92,99889.25,1.1986144,0
712962419,712940230,4028193,120.14098,39.93,99890.25,1.1986264,0
713124334,713105733,4028193,120.13306,39.92,99890.336,1.1986274,0
713340283,713321683,4028193,120.30217,39.92,99888.336,1.1986034,0
713556293,713537701,4028193,120.30217,39.91,99888.336,1.1986034,0
713772275,713753659,4028193,120.33124,39.91,99888.0,1.1985993,0
713945122,713912120,4028193,120.29688,39.91,99888.4,1.1986042,0
714161119,714128080,4028193,120.23083,39.91,99889.2,1.1986139,0
714377087,714344062,4028193,120.24668,39.899998,99889.0,1.1986114,0
714517448,714502452,4028193,120.24668,39.899998,99889.0,1.1986114,0
714733468,714718466,4028193,120.07757,39.899998,99891.0,1.1986355,0
714949578,714934530,4028193,120.35765,39.89,99887.664,1.1985953,0
715165527,715150528,4028193,120.33124,39.89,99888.0,1.1985993,0
715338306,715316100,4028193,119.97187,39.89,99892.25,1.1986505,0
715554305,715532103,4028193,120.07757,39.89,99891.0,1.1986355,0
715770291,715748074,4028193,120.162125,39.879997,99890.0,1.1986234,0
715932277,715913661,4028193,120.19119,39.879997,99889.664,1.1986194,0
716148337,716129712,4028193,120.162125,39.876663,99890.0,1.1986234,0
716364275,716345660,4028193,120.07757,39.879997,99891.0,1.1986355,0
716537129,716504084,4028193,119.96131,39.871998,99892.4,1.1986521,0
716753078,716720095,4028193,120.09606,39.87,99890.8,1.198633,0
716969065,716936057,4028193,120.24668,39.868,99889.0,1.1986114,0
717109549,717094534,4028193,120.38672,39.86,99887.336,1.1985915,0
717325497,717310502,4028193,120.07757,39.86,99891.0,1.1986355,0
717541464,717526462,4028193,120.07757,39.86,99891.0,1.1986355,0
717757600,717742588,4028193,120.07757,39.856667,99891.0,1.1986355,0
717973610,717958586,4028193,120.106636,39.85,99890.664,1.1986314,0
718146390,718124195,4028193,120.07757,39.85,99891.0,1.1986355,0
718362398,718340201,4028193,120.22554,39.845,99889.25,1.1986144,0
718524328,718505735,4028193,120.24668,39.843334,99889.0,1.1986114,0
718740281,718721690,4028193,120.27575,39.84,99888.664,1.1986073,0
718956276,718937669,4028193,120.24668,39.829998,99889.0,1.1986114,0
719172301,719153677,4028193,120.02208,39.836666,99891.664,1.1982402,0
719345071,719312058,4028193,120.01151,39.829998,99891.8,1.1982417,0
719561102,719528086,4028193,120.111916,39.829998,99890.6,1.1982273,0
