timestamp,timestamp_sample,states[0],states[1],states[2],states[3],states[4],states[5],states[6],states[7],states[8],states[9],states[10],states[11],states[12],states[13],states[14],states[15],states[16],states[17],states[18],states[19],states[20],states[21],states[22],states[23],covariances[0],covariances[1],covariances[2],covariances[3],covariances[4],covariances[5],covariances[6],covariances[7],covariances[8],covariances[9],covariances[10],covariances[11],covariances[12],covariances[13],covariances[14],covariances[15],covariances[16],covariances[17],covariances[18],covariances[19],covariances[20],covariances[21],covariances[22],covariances[23],n_states
540200244,540100269,0.04539839,0.01617759,0.0069442196,0.99881387,0.05284538,0.018242506,0.017809074,3.5397382,-3.0028145,5.4019513,-0.00018227322,2.0320364e-05,-5.534589e-05,-0.0026610726,0.0030261325,-0.0013389543,0.7650899,-0.19422965,0.13004266,0.0,0.0,0.0,0.0,0.0,8.870886e-05,5.7491798e-06,5.8001397e-06,1.7675435e-05,0.019348027,0.01934789,0.01588846,0.18915914,0.18915962,0.20890677,2.0187274e-11,2.0178694e-11,4.2688488e-11,5.0117446e-08,5.0144422e-08,5.000009e-08,0.0,0.0,0.0,0.0,0.0,0.0,0.0,0.0,24
541195722,541095730,0.046881497,0.015261833,0.006776671,0.99876094,0.0345433,-0.019449435,0.014461926,3.5767221,-3.1178722,5.37315,-0.0001825586,2.0659381e-05,-5.415364e-05,-0.0026605106,0.0030264072,-0.0013320786,0.7650899,-0.19422965,0.13004266,0.0,0.0,0.0,0.0,0.0,8.8461995e-05,5.3940976e-06,5.443839e-06,1.7677778e-05,0.015720071,0.01571988,0.014599452,0.17190044,0.17190072,0.20057972,1.9876881e-11,1.9867562e-11,4.263947e-11,5.012532e-08,5.0152504e-08,5.0000356e-08,0.0,0.0,0.0,0.0,0.0,0.0,0.0,0.0,24
542191095,542091190,0.04735422,0.016733903,0.0071044215,0.9987127,0.024330866,-0.03851368,0.012335908,3.613709,-3.2145243,5.3348317,-0.00018263642,2.0856392e-05,-5.3418033e-05,-0.0026602491,0.003026564,-0.0013209445,0.7650899,-0.19422965,0.13004266,0.0,0.0,0.0,0.0,0.0,8.855693e-05,5.612022e-06,5.6648723e-06,1.7681237e-05,0.016938923,0.016938629,0.014865595,0.17084832,0.17084861,0.19972539,2.0100664e-11,2.0090925e-11,4.2664483e-11,5.013365e-08,5.0160907e-08,5.000009e-08,0.0,0.0,0.0,0.0,0.0,0.0,0.0,0.0,24
543196512,543096606,0.047857266,0.016805848,0.0066580693,0.99869066,0.011758541,-0.06338714,-0.013620041,3.636022,-3.3320744,5.283539,-0.00018271913,2.1045005e-05,-5.2704756e-05,-0.0026599946,0.003026706,-0.0013103127,0.7650899,-0.19422965,0.13004266,0.0,0.0,0.0,0.0,0.0,8.8704415e-05,5.652828e-06,5.706721e-06,1.7684864e-05,0.01735163,0.017351152,0.015078192,0.16965204,0.16965225,0.20219779,2.0134254e-11,2.0123896e-11,4.2699035e-11,5.014201e-08,5.016936e-08,5.0000356e-08,0.0,0.0,0.0,0.0,0.0,0.0,0.0,0.0,24
544192096,544092067,0.048318908,0.015306532,0.005752071,0.9986982,0.021802349,-0.03712801,-0.010153405,3.6871688,-3.347187,5.245295,-0.00018228867,2.0968579e-05,-5.203711e-05,-0.002660132,0.003026913,-0.0013113136,0.7650899,-0.19422965,0.13004266,0.0,0.0,0.0,0.0,0.0,8.8462206e-05,5.6368253e-06,5.688687e-06,1.7688464e-05,0.017305324,0.01730471,0.015012884,0.16729084,0.167291,0.20002072,2.011474e-11,2.0103686e-11,4.2650158e-11,5.0150344e-08,5.0177732e-08,5.000009e-08,0.0,0.0,0.0,0.0,0.0,0.0,0.0,0.0,24
545197396,545097482,0.048474427,0.01617977,0.005766857,0.9986767,0.043175068,-0.025568333,-0.0010759049,3.740416,-3.3613198,5.2268205,-0.00018204474,2.077433e-05,-5.1463427e-05,-0.0026601574,0.0030271697,-0.0013167403,0.7650899,-0.19422965,0.13004266,0.0,0.0,0.0,0.0,0.0,8.860811e-05,5.791933e-06,5.8464543e-06,1.7692795e-05,0.018659253,0.018658448,0.015564207,0.17087875,0.17087865,0.20523354,2.0258488e-11,2.0246901e-11,4.268482e-11,5.015894e-08,5.018631e-08,5.0000356e-08,0.0,0.0,0.0,0.0,0.0,0.0,0.0,0.0,24
546192852,546092944,0.048795223,0.015686104,0.005345522,0.99867135,0.029135242,-0.02367584,-0.012754515,3.7329674,-3.3957877,5.2026534,-0.00018198274,2.0908587e-05,-5.091719e-05,-0.002660068,0.003027252,-0.0013195098,0.7650899,-0.19422965,0.13004266,0.0,0.0,0.0,0.0,0.0,8.8714434e-05,5.830787e-06,5.884629e-06,1.769684e-05,0.019341234,0.019340383,0.015778504,0.17454977,0.17454953,0.20598365,2.0284963e-11,2.0272778e-11,4.270947e-11,5.016747e-08,5.0194853e-08,5.000009e-08,0.0,0.0,0.0,0.0,0.0,0.0,0.0,0.0,24
547198295,547098360,0.049310733,0.016834613,0.004682482,0.99863064,0.04240124,0.017790684,-0.0046562795,3.790628,-3.3423142,5.204379,-0.00018156877,2.0833131e-05,-5.0265277e-05,-0.0026601404,0.0030274363,-0.0013309113,0.7650899,-0.19422965,0.13004266,0.0,0.0,0.0,0.0,0.0,8.851564e-05,5.932912e-06,5.9903205e-06,1.770151e-05,0.020552604,0.020551812,0.0161596,0.18209086,0.18209046,0.20886268,2.0373548e-11,2.0360932e-11,4.267034e-11,5.0176148e-08,5.0203536e-08,5e-08,0.0,0.0,0.0,0.0,0.0,0.0,0.0,0.0,24
548193734,548093822,0.049665,0.016794855,0.0051619564,0.9986114,0.051118895,0.029134305,0.009898044,3.8457115,-3.3139398,5.216596,-0.00018150815,2.0864933e-05,-4.9676975e-05,-0.0026600694,0.0030275907,-0.0013433569,0.7650899,-0.19422965,0.13004266,0.0,0.0,0.0,0.0,0.0,8.862093e-05,5.854096e-06,5.910945e-06,1.7705785e-05,0.020125644,0.020125043,0.01616817,0.18383275,0.18383233,0.21149267,2.0293609e-11,2.0280423e-11,4.269449e-11,5.018472e-08,5.0212122e-08,5.000009e-08,0.0,0.0,0.0,0.0,0.0,0.0,0.0,0.0,24
549189277,549089284,0.049970265,0.017052475,0.0052232184,0.9985915,0.055692356,0.052063927,0.023881245,3.9184613,-3.2522042,5.2455587,-0.00018137225,2.0931393e-05,-4.9116712e-05,-0.002660046,0.0030277288,-0.0013600626,0.7650899,-0.19422965,0.13004266,0.0,0.0,0.0,0.0,0.0,8.8379325e-05,5.9576464e-06,6.014913e-06,1.7710596e-05,0.021104123,0.021103593,0.016533911,0.19099955,0.19099902,0.21654437,2.0391322e-11,2.0377852e-11,4.2645013e-11,5.019335e-08,5.0220766e-08,5.0000356e-08,0.0,0.0,0.0,0.0,0.0,0.0,0.0,0.0,24
550194644,550094700,0.05061308,0.016551292,0.0056968015,0.998565,0.06857695,0.03509011,0.024188515,4.0104074,-3.2663004,5.2477098,-0.00018158232,2.0852005e-05,-4.838916e-05,-0.002659842,0.003027936,-0.0013640636,0.7650899,-0.19422965,0.13004266,0.0,0.0,0.0,0.0,0.0,8.853206e-05,5.7275206e-06,5.783792e-06,1.7715414e-05,0.01906979,0.019069387,0.015862089,0.1853363,0.18533602,0.21166293,2.0178543e-11,2.0164512e-11,4.2677997e-11,5.020201e-08,5.0229467e-08,5.0000175e-08,0.0,0.0,0.0,0.0,0.0,0.0,0.0,0.0,24
551200043,551100117,0.051481027,0.017446585,0.0056911972,0.9985054,0.04188173,0.03532614,0.025577005,4.016476,-3.2525573,5.2244563,-0.00018162525,2.1188212e-05,-4.762463e-05,-0.0026596596,0.003027978,-0.0013562919,0.7650899,-0.19422965,0.13004266,0.0,0.0,0.0,0.0,0.0,8.8683926e-05,5.5977703e-06,5.6559074e-06,1.7720593e-05,0.01756081,0.017560456,0.0153679745,0.17836608,0.17836589,0.20951669,2.0068983e-11,2.005452e-11,4.2711206e-11,5.021072e-08,5.0238228e-08,5.000044e-08,0.0,0.0,0.0,0.0,0.0,0.0,0.0,0.0,24
552195488,552095580,0.052064847,0.016500289,0.0059297513,0.99848986,0.055040292,0.022215938,0.020727344,4.0989394,-3.2792263,5.1916885,-0.00018172098,2.1109607e-05,-4.6997982e-05,-0.002659504,0.0030281178,-0.0013502446,0.7650899,-0.19422965,0.13004266,0.0,0.0,0.0,0.0,0.0,8.8446264e-05,5.629926e-06,5.6860295e-06,1.7725693e-05,0.017427035,0.01742663,0.015150341,0.1746435,0.17464334,0.20549609,2.0109164e-11,2.0094384e-11,4.2660996e-11,5.021937e-08,5.024694e-08,5.0000267e-08,0.0,0.0,0.0,0.0,0.0,0.0,0.0,0.0,24
553190953,553091043,0.05257726,0.016470518,0.0058124755,0.99846417,0.040408358,0.015808033,0.027583018,4.1238637,-3.3058128,5.187668,-0.00018172724,2.1278825e-05,-4.6417335e-05,-0.0026594081,0.0030281742,-0.0013592778,0.7650899,-0.19422965,0.13004266,0.0,0.0,0.0,0.0,0.0,8.85551e-05,5.4788984e-06,5.535236e-06,1.7731216e-05,0.015982749,0.015982367,0.014615987,0.16586754,0.16586742,0.20154859,1.9967519e-11,1.9952179e-11,4.2684162e-11,5.0228e-08,5.0255636e-08,5.0000352e-08,0.0,0.0,0.0,0.0,0.0,0.0,0.0,0.0,24
554196419,554096460,0.05314925,0.01606819,0.0059625385,0.99843955,0.026993396,-0.010123837,0.025766965,4.139247,-3.3848457,5.1932325,-0.00018194382,2.1435178e-05,-4.581929e-05,-0.0026592275,0.003028233,-0.0013609598,0.7650899,-0.19422965,0.13004266,0.0,0.0,0.0,0.0,0.0,8.836456e-05,5.4674406e-06,5.522922e-06,1.7737166e-05,0.015580106,0.015579649,0.014315179,0.15967149,0.15967138,0.19651002,1.9962684e-11,1.9946909e-11,4.2643652e-11,5.023678e-08,5.026448e-08,5.0000178e-08,0.0,0.0,0.0,0.0,0.0,0.0,0.0,0.0,24
555191876,555091923,0.05363021,0.016760616,0.0055704126,0.99840474,0.00072329555,0.024411669,0.02669287,4.097168,-3.3320665,5.1674185,-0.00018149658,2.1698252e-05,-4.5287496e-05,-0.0026592826,0.0030282126,-0.0013529895,0.7650899,-0.19422965,0.13004266,0.0,0.0,0.0,0.0,0.0,8.8471425e-05,5.5624746e-06,5.6195445e-06,1.7743505e-05,0.016308652,0.016308058,0.014514298,0.15813327,0.15813313,0.1950016,2.0050149e-11,2.0033978e-11,4.2666638e-11,5.024552e-08,5.0273247e-08,5e-08,0.0,0.0,0.0,0.0,0.0,0.0,0.0,0.0,24
556197287,556097341,0.054067757,0.01701362,0.0065939846,0.9983706,-0.01595317,0.023894748,0.01187456,4.0580273,-3.324021,5.126126,-0.000181496,2.1780961e-05,-4.478858e-05,-0.0026591984,0.003028245,-0.001338724,0.7650899,-0.19422965,0.13004266,0.0,0.0,0.0,0.0,0.0,8.8624336e-05,5.5051387e-06,5.561955e-06,1.774949e-05,0.015851628,0.015851153,0.014415874,0.15322733,0.15322731,0.19451837,1.9990542e-11,1.9973913e-11,4.2699216e-11,5.0254343e-08,5.0282097e-08,5.0000178e-08,0.0,0.0,0.0,0.0,0.0,0.0,0.0,0.0,24
557192794,557092805,0.054421406,0.016688213,0.0058793128,0.99836135,0.005770979,0.02717566,0.010933111,4.101258,-3.314744,5.097878,-0.0001814212,2.1549744e-05,-4.4350727e-05,-0.0026591362,0.0030283532,-0.001332819,0.7650899,-0.19422965,0.13004266,0.0,0.0,0.0,0.0,0.0,8.838706e-05,5.6697118e-06,5.72734e-06,1.7756534e-05,0.01721464,0.017214186,0.014878924,0.1550476,0.15504757,0.19548666,2.0146877e-11,2.0130234e-11,4.2648555e-11,5.026309e-08,5.0290875e-08,5e-08,0.0,0.0,0.0,0.0,0.0,0.0,0.0,0.0,24
558198134,558098223,0.05462523,0.017930036,0.0058698845,0.99832875,0.0053356625,0.023002066,0.009542968,4.141091,-3.3120308,5.075989,-0.00018141976,2.1488866e-05,-4.3939854e-05,-0.0026590694,0.0030284168,-0.001327985,0.7650899,-0.19422965,0.13004266,0.0,0.0,0.0,0.0,0.0,8.853846e-05,5.7736834e-06,5.8352016e-06,1.7763634e-05,0.018489411,0.018488737,0.015500978,0.16024421,0.1602441,0.20167038,2.0232331e-11,2.021553e-11,4.2681168e-11,5.0271936e-08,5.029975e-08,5.0000267e-08,0.0,0.0,0.0,0.0,0.0,0.0,0.0,0.0,24
559193663,559093687,0.054761708,0.017652862,0.0062598884,0.9983238,0.016686566,-0.0041721575,0.0039939727,4.173449,-3.356092,5.0610766,-0.00018171644,2.1421447e-05,-4.3573546e-05,-0.002658931,0.0030284813,-0.001326496,0.7650899,-0.19422965,0.13004266,0.0,0.0,0.0,0.0,0.0,8.8648136e-05,5.673449e-06,5.7345537e-06,1.7770459e-05,0.017983928,0.017983306,0.015375636,0.15971676,0.15971658,0.20052992,2.0129056e-11,2.0111997e-11,4.2703695e-11,5.0280683e-08,5.030853e-08,5e-08,0.0,0.0,0.0,0.0,0.0,0.0,0.0,0.0,24
560199020,560099106,0.055117827,0.017614234,0.005814791,0.9983075,0.018669939,0.005474433,0.007951137,4.1947336,-3.3285162,5.0802064,-0.00018153696,2.1375576e-05,-4.3129356e-05,-0.0026589367,0.0030285185,-0.0013352698,0.7650899,-0.19422965,0.13004266,0.0,0.0,0.0,0.0,0.0,8.845599e-05,5.679164e-06,5.7409234e-06,1.7777638e-05,0.018062687,0.01806199,0.015516863,0.16097489,0.1609747,0.20395553,2.0138103e-11,2.0120875e-11,4.266229e-11,5.0289533e-08,5.0317414e-08,5.0000356e-08,0.0,0.0,0.0,0.0,0.0,0.0,0.0,0.0,24
561194516,561094571,0.05544162,0.017820202,0.005383761,0.99828845,0.028873116,-0.0028615436,0.00975606,4.218954,-3.328047,5.0817842,-0.00018157015,2.1296382e-05,-4.271671e-05,-0.0026588843,0.0030285674,-0.0013357587,0.7650899,-0.19422965,0.13004266,0.0,0.0,0.0,0.0,0.0,8.856396e-05,5.7290217e-06,5.792219e-06,1.7785052e-05,0.018513335,0.018512448,0.015610818,0.16378298,0.16378278,0.20418276,2.0187867e-11,2.0170433e-11,4.268472e-11,5.0298308e-08,5.0326214e-08,5e-08,0.0,0.0,0.0,0.0,0.0,0.0,0.0,0.0,24
562189995,562090035,0.055817377,0.017033042,0.00596689,0.99827784,0.014588756,0.0068606315,0.02752003,4.1813273,-3.2852492,5.105972,-0.00018141705,2.1497139e-05,-4.230499e-05,-0.0026588696,0.0030285465,-0.0013437986,0.7650899,-0.19422965,0.13004266,0.0,0.0,0.0,0.0,0.0,8.83256e-05,5.575772e-06,5.6360386e-06,1.7791555e-05,0.017301492,0.017300816,0.015280408,0.16089125,0.1608911,0.20398647,2.0040351e-11,2.0022395e-11,4.2632755e-11,5.030707e-08,5.033502e-08,5.0000267e-08,0.0,0.0,0.0,0.0,0.0,0.0,0.0,0.0,24
563195421,563095454,0.056156747,0.017581582,0.0063950494,0.9982467,0.012261502,0.011464467,0.025758434,4.159754,-3.231096,5.1000514,-0.00018140212,2.1516851e-05,-4.1901094e-05,-0.0026588347,0.0030285637,-0.0013433904,0.7650899,-0.19422965,0.13004266,0.0,0.0,0.0,0.0,0.0,8.84763e-05,5.7000757e-06,5.7618067e-06,1.779905e-05,0.018191086,0.018190468,0.015495252,0.16502966,0.16502942,0.20497364,2.0164106e-11,2.014586e-11,4.266439e-11,5.0315947e-08,5.0343928e-08,5.000009e-08,0.0,0.0,0.0,0.0,0.0,0.0,0.0,0.0,24
564190834,564090919,0.056616593,0.01659609,0.005905067,0.9982406,0.010085994,0.012498601,0.022676934,4.1112423,-3.1664784,5.123815,-0.00018142298,2.1428788e-05,-4.1462532e-05,-0.0026588088,0.0030285965,-0.0013496313,0.7650899,-0.19422965,0.13004266,0.0,0.0,0.0,0.0,0.0,8.8586254e-05,5.6639665e-06,5.7242405e-06,1.7807057e-05,0.017902903,0.017902339,0.015449547,0.1645116,0.16451149,0.20616764,2.0130383e-11,2.0111728e-11,4.2686115e-11,5.0324733e-08,5.0352735e-08,5.0000263e-08,0.0,0.0,0.0,0.0,0.0,0.0,0.0,0.0,24
565196265,565096339,0.057176717,0.015409643,0.006054968,0.9982268,-0.0043307003,-0.0013036628,0.04792719,4.0206056,-3.13986,5.1247787,-0.00018153031,2.146152e-05,-4.0976425e-05,-0.0026587355,0.0030286177,-0.0013471055,0.7650899,-0.19422965,0.13004266,0.0,0.0,0.0,0.0,0.0,8.8395165e-05,5.8786804e-06,5.9362137e-06,1.7814964e-05,0.019705782,0.019704998,0.015973372,0.17269935,0.17269906,0.20930275,2.0333193e-11,2.0314441e-11,4.264425e-11,5.033364e-08,5.0361646e-08,5.000009e-08,0.0,0.0,0.0,0.0,0.0,0.0,0.0,0.0,24
566191730,566091804,0.05772418,0.017823515,0.006372091,0.99815315,-0.025855195,-0.007031885,0.038435176,3.876381,-3.1055968,5.143787,-0.0001815648,2.1632959e-05,-4.0475577e-05,-0.0026586745,0.0030286028,-0.0013511819,0.7650899,-0.19422965,0.13004266,0.0,0.0,0.0,0.0,0.0,8.849642e-05,5.7018633e-06,5.765529e-06,1.7823122e-05,0.018488413,0.018487817,0.015685074,0.1707633,0.17076309,0.20920536,2.0157251e-11,2.0137886e-11,4.2665815e-11,5.034245e-08,5.0370453e-08,5.0000263e-08,0.0,0.0,0.0,0.0,0.0,0.0,0.0,0.0,24
567197185,567097224,0.058278754,0.016090062,0.006100062,0.998152,-0.03089442,0.038581744,0.049330648,3.7915568,-2.9533455,5.1504693,-0.00018109573,2.1540554e-05,-4.004034e-05,-0.0026587013,0.0030286186,-0.0013502705,0.7650899,-0.19422965,0.13004266,0.0,0.0,0.0,0.0,0.0,8.8306806e-05,5.851781e-06,5.911362e-06,1.783129e-05,0.019753307,0.019752506,0.0160119,0.17812325,0.17812286,0.21094933,2.030022e-11,2.0280763e-11,4.2624033e-11,5.0351353e-08,5.037936e-08,5.000009e-08,0.0,0.0,0.0,0.0,0.0,0.0,0.0,0.0,24
568192630,568092689,0.058568425,0.01564525,0.005691305,0.9981446,-0.008737994,0.095298685,0.05375707,3.7458766,-2.7294533,5.1917386,-0.00018062204,2.1398799e-05,-3.972553e-05,-0.002658738,0.0030286382,-0.0013577591,0.7650899,-0.19422965,0.13004266,0.0,0.0,0.0,0.0,0.0,8.84146e-05,5.9555537e-06,6.01476e-06,1.7839833e-05,0.02085127,0.0208506,0.016415607,0.18615215,0.18615164,0.21578081,2.039265e-11,2.0373087e-11,4.2646216e-11,5.036016e-08,5.0388177e-08,5.0000356e-08,0.0,0.0,0.0,0.0,0.0,0.0,0.0,0.0,24
569188135,569088155,0.058969278,0.016321171,0.0066857478,0.998104,-0.043679934,0.05885463,0.061393343,3.5962465,-2.6830425,5.2116494,-0.0001811596,2.1598316e-05,-3.934551e-05,-0.002658594,0.003028612,-0.0013600502,0.7650899,-0.19422965,0.13004266,0.0,0.0,0.0,0.0,0.0,8.8519475e-05,6.030413e-06,6.0907932e-06,1.7848537e-05,0.021784464,0.021783693,0.016612837,0.1950817,0.19508122,0.21674187,2.0455061e-11,2.0435466e-11,4.2668175e-11,5.036896e-08,5.0396988e-08,5e-08,0.0,0.0,0.0,0.0,0.0,0.0,0.0,0.0,24
570193490,570093577,0.059538666,0.015930908,0.0066093416,0.998077,-0.031867508,0.0528464,0.062007513,3.5414798,-2.5948298,5.2380586,-0.00018123008,2.1424423e-05,-3.891756e-05,-0.0026585145,0.0030286429,-0.0013627802,0.7650899,-0.19422965,0.13004266,0.0,0.0,0.0,0.0,0.0,8.832503e-05,6.062173e-06,6.122548e-06,1.7857623e-05,0.022289202,0.022288354,0.016866095,0.20281364,0.20281325,0.22145176,2.0481079e-11,2.0461497e-11,4.2625927e-11,5.037785e-08,5.0405887e-08,5.0000356e-08,0.0,0.0,0.0,0.0,0.0,0.0,0.0,0.0,24
571198916,571098995,0.059954893,0.016722677,0.007297776,0.9980344,0.0047564283,0.043705404,0.048108045,3.5396445,-2.5240562,5.2195597,-0.00018127661,2.109495e-05,-3.852394e-05,-0.0026584559,0.0030287015,-0.0013545823,0.7650899,-0.19422965,0.13004266,0.0,0.0,0.0,0.0,0.0,8.847344e-05,6.320032e-06,6.3834013e-06,1.7866518e-05,0.024934666,0.024933707,0.017458066,0.22116774,0.22116712,0.22614965,2.0713214e-11,2.069377e-11,4.2657797e-11,5.0386745e-08,5.0414794e-08,5.0000175e-08,0.0,0.0,0.0,0.0,0.0,0.0,0.0,0.0,24
572194371,572094460,0.060258508,0.016919404,0.009175642,0.9979972,0.018443717,0.025093324,0.051110737,3.542025,-2.4931943,5.219359,-0.00018138927,2.1015909e-05,-3.8219336e-05,-0.0026584119,0.003028715,-0.0013500373,0.7650899,-0.19422965,0.13004266,0.0,0.0,0.0,0.0,0.0,8.857607e-05,6.3683083e-06,6.4312812e-06,1.7874405e-05,0.025888776,0.02588783,0.017799897,0.2339305,0.23392962,0.23190859,2.0742361e-11,2.0722852e-11,4.267963e-11,5.0395535e-08,5.0423612e-08,5.0000352e-08,0.0,0.0,0.0,0.0,0.0,0.0,0.0,0.0,24
573189834,573089929,0.060764927,0.016753767,0.010504718,0.9979562,0.006878576,0.014829069,0.043367423,3.4731827,-2.4543233,5.2000356,-0.0001814561,2.1221002e-05,-3.786134e-05,-0.0026583872,0.0030286836,-0.0013408083,0.7650899,-0.19422965,0.13004266,0.0,0.0,0.0,0.0,0.0,8.833351e-05,6.3257767e-06,6.387152e-06,1.7882265e-05,0.02569066,0.02569014,0.017654935,0.24021785,0.2402171,0.23079449,2.0699479e-11,2.0679904e-11,4.262764e-11,5.040431e-08,5.0432412e-08,5.000009e-08,0.0,0.0,0.0,0.0,0.0,0.0,0.0,0.0,24
574195258,574095346,0.061128482,0.016992807,0.02939144,0.99755234,0.006151571,-0.0065380363,0.03994411,3.403196,-2.4230623,5.1783834,-0.00018164156,2.1283788e-05,-3.7609814e-05,-0.0026583083,0.0030286973,-0.0013326586,0.7650899,-0.19422965,0.13004266,0.0,0.0,0.0,0.0,0.0,8.842367e-05,6.170925e-06,6.1883393e-06,1.7872304e-05,0.023447141,0.02344885,0.017198816,0.23351637,0.2335158,0.22991927,2.0509148e-11,2.0489143e-11,4.265892e-11,5.0413128e-08,5.0441244e-08,5.0000352e-08,0.0,0.0,0.0,0.0,0.0,0.0,0.0,0.0,24
575190774,575090811,0.061398204,0.017940415,0.043948166,0.99698395,0.00040064036,-0.015500135,0.03128398,3.3391151,-2.3595817,5.1007557,-0.00018168423,2.128392e-05,-3.7739075e-05,-0.002658263,0.003028883,-0.0013071318,0.7650899,-0.19422965,0.13004266,0.0,0.0,0.0,0.0,0.0,8.809307e-05,6.180661e-06,6.151211e-06,1.7853165e-05,0.022470368,0.022503242,0.016783744,0.22925204,0.22925222,0.22516158,2.045819e-11,2.0437685e-11,4.2607216e-11,5.0421345e-08,5.0449323e-08,5.000009e-08,0.0,0.0,0.0,0.0,0.0,0.0,0.0,0.0,24
576196169,576096231,0.061012834,0.017614217,0.044259172,0.9969996,0.004964503,0.015522758,0.04900522,3.2897568,-2.2138784,5.106228,-0.00018137136,2.1294647e-05,-3.782838e-05,-0.0026585883,0.0030287374,-0.0013051507,0.7650899,-0.19422965,0.13004266,0.0,0.0,0.0,0.0,0.0,8.824188e-05,6.141595e-06,6.1364376e-06,1.7834222e-05,0.02173204,0.02180544,0.016598664,0.22420913,0.22421229,0.22473206,2.0440942e-11,2.0418889e-11,4.2638577e-11,5.0428504e-08,5.04554e-08,5.000044e-08,0.0,0.0,0.0,0.0,0.0,0.0,0.0,0.0,24
577191642,577091696,0.060125753,0.017490083,0.04329545,0.9970981,-0.022196714,0.001336066,0.03010793,3.1732175,-2.159705,5.0810914,-0.0001815442,2.1533388e-05,-3.8012702e-05,-0.002658334,0.003029364,-0.0012863603,0.7650899,-0.19422965,0.13004266,0.0,0.0,0.0,0.0,0.0,8.8358014e-05,6.2708596e-06,6.300485e-06,1.7810578e-05,0.022975493,0.02307961,0.016782101,0.22829005,0.22830914,0.22373363,2.057908e-11,2.0554286e-11,4.2659723e-11,5.0435084e-08,5.0459267e-08,5.0000178e-08,0.0,0.0,0.0,0.0,0.0,0.0,0.0,0.0,24
578197027,578097116,0.059703432,0.01712938,0.043742906,0.9971101,0.0021299657,0.035051327,0.018210493,3.1797814,-2.0123932,5.042905,-0.00018116379,2.1335987e-05,-3.8049864e-05,-0.002658893,0.0030297046,-0.0012748007,0.7650899,-0.19422965,0.13004266,0.0,0.0,0.0,0.0,0.0,8.815774e-05,6.4014566e-06,6.4624796e-06,1.7777922e-05,0.024457727,0.024572395,0.017245261,0.23640645,0.23645507,0.2287641,2.0698622e-11,2.0669494e-11,4.2615637e-11,5.0441578e-08,5.0460702e-08,5.0000445e-08,0.0,0.0,0.0,0.0,0.0,0.0,0.0,0.0,24
579192488,579092580,0.0590837,0.016866792,0.043354336,0.9971685,-0.009308289,0.029741451,0.0022570826,3.123245,-1.9455858,4.9665027,-0.00018126701,2.1506263e-05,-3.8195696e-05,-0.0026587842,0.003030276,-0.0012589338,0.7650899,-0.19422965,0.13004266,0.0,0.0,0.0,0.0,0.0,8.826222e-05,6.292459e-06,6.3973125e-06,1.774105e-05,0.023885932,0.023976991,0.01705498,0.23685887,0.236913,0.22591574,2.0605349e-11,2.0569097e-11,4.263183e-11,5.0447696e-08,5.0457455e-08,5.0000175e-08,0.0,0.0,0.0,0.0,0.0,0.0,0.0,0.0,24
580198039,580098000,0.05818738,0.015561329,0.042984642,0.9972584,-0.037182104,0.010018547,0.020272894,3.0219378,-1.9126194,4.9384007,-0.0001814751,2.1711689e-05,-3.8490052e-05,-0.002658594,0.003030703,-0.0012500088,0.7650899,-0.19422965,0.13004266,0.0,0.0,0.0,0.0,0.0,8.807087e-05,6.498187e-06,6.6375505e-06,1.7721308e-05,0.026036456,0.026110105,0.017464321,0.2504508,0.25053826,0.22808635,2.0807975e-11,2.0766385e-11,4.258496e-11,5.045509e-08,5.045478e-08,5e-08,0.0,0.0,0.0,0.0,0.0,0.0,0.0,0.0,24
581193404,581093465,0.056811534,0.015597894,0.04343534,0.99731773,0.0038905812,0.01929566,0.039059892,3.052922,-1.8198754,4.9748893,-0.00018131814,2.1321634e-05,-3.877355e-05,-0.0026586675,0.0030302978,-0.0012556448,0.7650899,-0.19422965,0.13004266,0.0,0.0,0.0,0.0,0.0,8.816529e-05,6.504734e-06,6.683775e-06,1.7696359e-05,0.026409643,0.0264541,0.017642215,0.25825205,0.25834003,0.23140974,2.0816479e-11,2.0769603e-11,4.2597693e-11,5.0462567e-08,5.0449223e-08,5.0000178e-08,0.0,0.0,0.0,0.0,0.0,0.0,0.0,0.0,24
582198831,582098883,0.056367517,0.015957309,0.04323201,0.99734604,-0.05025044,0.07479586,0.053794656,2.8844192,-1.5918648,5.042276,-0.00018091241,2.187967e-05,-3.8920793e-05,-0.002659059,0.0030291514,-0.0012738075,0.7650899,-0.19422965,0.13004266,0.0,0.0,0.0,0.0,0.0,8.830181e-05,6.362717e-06,6.5799168e-06,1.767936e-05,0.025318878,0.025336714,0.0173489,0.26000366,0.2600726,0.22893195,2.069131e-11,2.0641301e-11,4.2615658e-11,5.0470568e-08,5.0441358e-08,5e-08,0.0,0.0,0.0,0.0,0.0,0.0,0.0,0.0,24
583194264,583094348,0.05587792,0.015513307,0.04308088,0.9973871,-0.054379433,0.018710338,0.04160647,2.7938042,-1.6528957,5.061917,-0.00018145939,2.1787659e-05,-3.888767e-05,-0.002658803,0.0030293192,-0.0012695953,0.7650899,-0.19422965,0.13004266,0.0,0.0,0.0,0.0,0.0,8.8055676e-05,6.3886114e-06,6.638525e-06,1.7673101e-05,0.025399897,0.025401352,0.017404309,0.2632272,0.2632804,0.23081535,2.0735805e-11,2.0685842e-11,4.255218e-11,5.047893e-08,5.0435165e-08,5.0000178e-08,0.0,0.0,0.0,0.0,0.0,0.0,0.0,0.0,24
584189722,584089811,0.05550234,0.017532678,0.04237452,0.99740493,-0.09054263,-0.008804166,0.030942414,2.6496124,-1.6900231,5.0159793,-0.0001816549,2.1954078e-05,-3.889558e-05,-0.002658928,0.0030305167,-0.0012475125,0.7650899,-0.19422965,0.13004266,0.0,0.0,0.0,0.0,0.0,8.814855e-05,6.3345396e-06,6.616791e-06,1.7674065e-05,0.024748642,0.024741393,0.017311703,0.26171088,0.2617464,0.2314738,2.0700846e-11,2.0655047e-11,4.256011e-11,5.0487486e-08,5.0429435e-08,5.000044e-08,0.0,0.0,0.0,0.0,0.0,0.0,0.0,0.0,24
585195137,585095230,0.054679852,0.020461338,0.04134766,0.99743766,-0.093979105,-0.04467331,0.045822755,2.5407126,-1.7786689,4.990949,-0.00018183653,2.19581e-05,-3.9065475e-05,-0.0026590263,0.0030313523,-0.0012305034,0.7650899,-0.19422965,0.13004266,0.0,0.0,0.0,0.0,0.0,8.8286775e-05,6.294905e-06,6.606252e-06,1.7680264e-05,0.024092829,0.024084577,0.017042335,0.25850075,0.2585209,0.22788918,2.0679776e-11,2.0641648e-11,4.257824e-11,5.049619e-08,5.0425008e-08,5.0000267e-08,0.0,0.0,0.0,0.0,0.0,0.0,0.0,0.0,24
586200680,586100648,0.053478934,0.022069555,0.041155484,0.9974764,-0.13475722,-0.046431832,0.045313906,2.3550124,-1.8038504,5.001663,-0.00018170683,2.2191905e-05,-3.942656e-05,-0.0026589993,0.003031778,-0.0012221274,0.7650899,-0.19422965,0.13004266,0.0,0.0,0.0,0.0,0.0,8.808242e-05,6.5006925e-06,6.829707e-06,1.7682372e-05,0.026028762,0.026023021,0.017371768,0.26712045,0.26712537,0.22903793,2.0864782e-11,2.0834607e-11,4.2528096e-11,5.05049e-08,5.042412e-08,5e-08,0.0,0.0,0.0,0.0,0.0,0.0,0.0,0.0,24
587196054,587096111,0.052323468,0.020724595,0.040946655,0.9975751,-0.0909579,-0.015233644,0.03877033,2.3384027,-1.7388542,5.0480475,-0.00018123035,2.1730753e-05,-3.9717554e-05,-0.002658844,0.003031523,-0.0012282138,0.7650899,-0.19422965,0.13004266,0.0,0.0,0.0,0.0,0.0,8.818007e-05,6.4827445e-06,6.8118215e-06,1.7682836e-05,0.026027504,0.026027406,0.017457131,0.26752582,0.26752305,0.23111528,2.0832867e-11,2.081528e-11,4.2538705e-11,5.0513346e-08,5.0424596e-08,5.0000263e-08,0.0,0.0,0.0,0.0,0.0,0.0,0.0,0.0,24
588191590,588091573,0.051076777,0.019985922,0.04166799,0.997625,-0.07048678,-0.013676238,0.04261578,2.3377392,-1.7296736,5.1046815,-0.00018119182,2.1412108e-05,-4.00969e-05,-0.002658964,0.0030310226,-0.0012454628,0.7650899,-0.19422965,0.13004266,0.0,0.0,0.0,0.0,0.0,8.7921166e-05,6.0724174e-06,6.3900766e-06,1.7680011e-05,0.021988528,0.021992236,0.016410649,0.2490564,0.24905704,0.2213963,2.0444313e-11,2.0446096e-11,4.2470784e-11,5.0521443e-08,5.0425793e-08,5e-08,0.0,0.0,0.0,0.0,0.0,0.0,0.0,0.0,24
589196906,589096991,0.04978648,0.019104656,0.041719574,0.99770534,-0.041088182,-0.0015136164,0.046349198,2.3284454,-1.6866382,5.133128,-0.00018110235,2.112113e-05,-4.0529525e-05,-0.002659051,0.0030308706,-0.0012526743,0.7650899,-0.19422965,0.13004266,0.0,0.0,0.0,0.0,0.0,8.806602e-05,6.128234e-06,6.4411e-06,1.7681257e-05,0.022090402,0.022095941,0.016456954,0.24748157,0.24747902,0.22244726,2.0499385e-11,2.051376e-11,4.24946e-11,5.0529742e-08,5.042998e-08,5.0000263e-08,0.0,0.0,0.0,0.0,0.0,0.0,0.0,0.0,24
590192363,590092453,0.048707247,0.02037343,0.04068004,0.9977763,-0.0201764,0.023612201,0.07512233,2.2936027,-1.59686,5.155371,-0.00018087063,2.1010834e-05,-4.0751485e-05,-0.0026589816,0.0030309812,-0.0012557036,0.7650899,-0.19422965,0.13004266,0.0,0.0,0.0,0.0,0.0,8.817012e-05,6.278234e-06,6.594474e-06,1.7685234e-05,0.023369024,0.023377806,0.01665419,0.25182927,0.2518247,0.22147639,2.0637464e-11,2.0662421e-11,4.2511345e-11,5.053798e-08,5.0435386e-08,5.000009e-08,0.0,0.0,0.0,0.0,0.0,0.0,0.0,0.0,24
591197825,591097869,0.048366662,0.020049304,0.039331567,0.99785364,0.011475294,0.04883086,0.08648973,2.3014288,-1.4915996,5.190294,-0.000180706,2.079294e-05,-4.069132e-05,-0.0026589476,0.0030311504,-0.0012499085,0.7650899,-0.19422965,0.13004266,0.0,0.0,0.0,0.0,0.0,8.7984256e-05,6.635883e-06,6.9539515e-06,1.7691124e-05,0.02714789,0.027161473,0.017598594,0.2710828,0.27107945,0.23034143,2.0954852e-11,2.0986903e-11,4.2468386e-11,5.0546394e-08,5.0442107e-08,5.0000263e-08,0.0,0.0,0.0,0.0,0.0,0.0,0.0,0.0,24
592193244,592093330,0.048227552,0.020832205,0.041959498,0.9977372,0.0036294968,0.04842962,0.05230578,2.2313302,-1.4164268,5.1675453,-0.00018089125,2.0913301e-05,-4.0635907e-05,-0.002659019,0.003031569,-0.0012277041,0.7650899,-0.19422965,0.13004266,0.0,0.0,0.0,0.0,0.0,8.806854e-05,6.646178e-06,6.9530242e-06,1.7681476e-05,0.02763218,0.027644983,0.017656233,0.27706823,0.27706856,0.22992297,2.09274e-11,2.0971277e-11,4.2484245e-11,5.055443e-08,5.044921e-08,5.000009e-08,0.0,0.0,0.0,0.0,0.0,0.0,0.0,0.0,24
593198712,593098746,0.05094901,0.031988777,0.07144056,0.9956291,-0.025065161,0.004856214,0.026485661,2.1141737,-1.4674159,5.139654,-0.00018140112,2.1126545e-05,-4.009376e-05,-0.0026591981,0.0030319302,-0.0012096631,0.7650899,-0.19422965,0.13004266,0.0,0.0,0.0,0.0,0.0,8.757916e-05,6.9771904e-06,7.2131957e-06,1.7556193e-05,0.028808707,0.028806072,0.018009214,0.28750607,0.28750676,0.23553671,2.0990085e-11,2.1042322e-11,4.2439007e-11,5.056271e-08,5.0456933e-08,5.0000352e-08,0.0,0.0,0.0,0.0,0.0,0.0,0.0,0.0,24
594194162,594094206,0.04798997,0.026534552,0.050158996,0.9972347,-0.04604493,-0.017907495,0.031855043,1.9988738,-1.5043449,5.1060843,-0.0001815869,2.1284472e-05,-3.974611e-05,-0.0026591818,0.0030321558,-0.0012006011,0.7650899,-0.19422965,0.13004266,0.0,0.0,0.0,0.0,0.0,8.7929824e-05,6.8404975e-06,7.1529203e-06,1.7641718e-05,0.029920451,0.029915292,0.018111968,0.30044478,0.3004423,0.23604015,2.1036409e-11,2.1094432e-11,4.245749e-11,5.0571057e-08,5.0464482e-08,5e-08,0.0,0.0,0.0,0.0,0.0,0.0,0.0,0.0,24
595189627,595089666,0.0479908,0.028485771,0.049541213,0.9972117,-0.109389886,-0.06654141,0.03876441,1.7309734,-1.6351597,5.1070867,-0.00018195418,2.180078e-05,-3.9526498e-05,-0.0026591043,0.0030323642,-0.0011959864,0.7650899,-0.19422965,0.13004266,0.0,0.0,0.0,0.0,0.0,8.803829e-05,6.8374543e-06,7.163946e-06,1.7643248e-05,0.030438608,0.030432234,0.018296935,0.31232798,0.31232288,0.24042106,2.1029841e-11,2.1093422e-11,4.24754e-11,5.0579313e-08,5.0472053e-08,5.0000356e-08,0.0,0.0,0.0,0.0,0.0,0.0,0.0,0.0,24
596195031,596095081,0.047740236,0.0252209,0.04908582,0.9973342,-0.058768153,-0.09358084,0.0311381,1.7434644,-1.7486128,5.1148796,-0.00018200108,2.1189557e-05,-3.9464452e-05,-0.0026594205,0.0030322287,-0.0011981904,0.7650899,-0.19422965,0.13004266,0.0,0.0,0.0,0.0,0.0,8.78586e-05,6.7394935e-06,7.0632072e-06,1.76441e-05,0.029616076,0.02961183,0.018048836,0.31650782,0.31650198,0.23850736,2.0947114e-11,2.1016583e-11,4.2428724e-11,5.058743e-08,5.0479645e-08,5.000009e-08,0.0,0.0,0.0,0.0,0.0,0.0,0.0,0.0,24
597190455,597090540,0.047273356,0.024246715,0.04797284,0.9974347,-0.039444637,-0.08551005,0.03745987,1.7200173,-1.795033,5.1176233,-0.0001818118,2.0971118e-05,-3.9512724e-05,-0.002659478,0.0030322082,-0.0011980543,0.7650899,-0.19422965,0.13004266,0.0,0.0,0.0,0.0,0.0,8.797455e-05,6.649158e-06,6.9780212e-06,1.764711e-05,0.02854932,0.028548082,0.01790326,0.31627995,0.31627455,0.2393131,2.087971e-11,2.0955468e-11,4.2445627e-11,5.0595457e-08,5.0487266e-08,5.0000267e-08,0.0,0.0,0.0,0.0,0.0,0.0,0.0,0.0,24
598195863,598095953,0.046447523,0.027558232,0.04712364,0.997428,-0.029124156,-0.07075469,0.022813745,1.6687694,-1.8134125,5.0895085,-0.00018159975,2.0924235e-05,-3.962401e-05,-0.0026593558,0.003032331,-0.0011902867,0.7650899,-0.19422965,0.13004266,0.0,0.0,0.0,0.0,0.0,8.812144e-05,6.6737166e-06,7.0209626e-06,1.7646531e-05,0.028500201,0.028500363,0.017750895,0.3195643,0.31955916,0.23694368,2.0913363e-11,2.0994817e-11,4.2473667e-11,5.0603596e-08,5.0495125e-08,5.0000178e-08,0.0,0.0,0.0,0.0,0.0,0.0,0.0,0.0,24
599191331,599091411,0.04580222,0.027156359,0.046126835,0.99751544,-0.016818406,-0.05106749,0.028499018,1.638303,-1.8017455,5.06476,-0.00018138332,2.0860753e-05,-3.9719205e-05,-0.0026592624,0.0030324114,-0.0011856257,0.7650899,-0.19422965,0.13004266,0.0,0.0,0.0,0.0,0.0,8.789151e-05,6.662678e-06,7.0120514e-06,1.7648845e-05,0.028351989,0.028353766,0.017773634,0.32249427,0.32248962,0.238411,2.090715e-11,2.0994618e-11,4.2418288e-11,5.0611618e-08,5.050311e-08,5.0000267e-08,0.0,0.0,0.0,0.0,0.0,0.0,0.0,0.0,24
600196765,600096823,0.04558556,0.026199786,0.045527287,0.9975785,-0.018488908,-0.015027602,0.010009754,1.5692267,-1.7313534,5.025118,-0.00018113236,2.0892725e-05,-3.9674538e-05,-0.0026589888,0.003032595,-0.0011706249,0.7650899,-0.19422965,0.13004266,0.0,0.0,0.0,0.0,0.0,8.805221e-05,6.726021e-06,7.072057e-06,1.7651093e-05,0.029019613,0.029023465,0.017788498,0.32971457,0.3297107,0.2372095,2.0961696e-11,2.1055274e-11,4.244641e-11,5.0619704e-08,5.0511343e-08,5.0000178e-08,0.0,0.0,0.0,0.0,0.0,0.0,0.0,0.0,24
601192239,601092281,0.045763277,0.025123954,0.045367707,0.9976053,-0.073137105,0.030293778,-0.010386719,1.3639412,-1.6049513,4.969609,-0.00018093076,2.1372003e-05,-3.9440874e-05,-0.0026586717,0.003032776,-0.0011535565,0.7650899,-0.19422965,0.13004266,0.0,0.0,0.0,0.0,0.0,8.7820816e-05,6.7802202e-06,7.1189334e-06,1.765116e-05,0.029574154,0.029579718,0.017964205,0.33411238,0.33410993,0.23981172,2.1005466e-11,2.110491e-11,4.2391403e-11,5.0627772e-08,5.051969e-08,5.0000356e-08,0.0,0.0,0.0,0.0,0.0,0.0,0.0,0.0,24
602197647,602097692,0.04634272,0.023758518,0.04626645,0.9975707,-0.14161685,0.10786928,-0.024916612,1.0565578,-1.3358868,4.907123,-0.00018054004,2.1893327e-05,-3.9067327e-05,-0.0026583578,0.003032881,-0.001139139,0.7650899,-0.19422965,0.13004266,0.0,0.0,0.0,0.0,0.0,8.7973276e-05,6.981624e-06,7.311272e-06,1.764732e-05,0.031771913,0.031778023,0.018240437,0.34850165,0.34850237,0.24091223,2.116796e-11,2.1272236e-11,4.2421098e-11,5.0636086e-08,5.0528232e-08,5.0000178e-08,0.0,0.0,0.0,0.0,0.0,0.0,0.0,0.0,24
603193062,603093148,0.046663113,0.024876477,0.04655547,0.9975151,-0.16515568,0.13613725,-0.02022367,0.84863424,-1.1320001,4.895492,-0.00018060952,2.1924825e-05,-3.8743157e-05,-0.0026583818,0.0030328636,-0.0011403151,0.7650899,-0.19422965,0.13004266,0.0,0.0,0.0,0.0,0.0,8.807588e-05,7.1093004e-06,7.4409622e-06,1.764696e-05,0.033546444,0.0335524,0.018611096,0.36361945,0.3636231,0.24581198,2.126396e-11,2.137346e-11,4.24403e-11,5.064447e-08,5.0536777e-08,5.0000445e-08,0.0,0.0,0.0,0.0,0.0,0.0,0.0,0.0,24
604188546,604088604,0.04832518,0.024704486,0.052596267,0.99714,-0.14992829,0.11872587,-0.016027693,0.7252231,-1.0386692,4.895557,-0.00018106063,2.1647396e-05,-3.813224e-05,-0.0026584559,0.0030328373,-0.0011432483,0.7650899,-0.19422965,0.13004266,0.0,0.0,0.0,0.0,0.0,8.778892e-05,7.0304804e-06,7.3424544e-06,1.7625855e-05,0.03265054,0.03265376,0.018370321,0.3661237,0.3661274,0.2428594,2.114394e-11,2.126059e-11,4.238354e-11,5.065294e-08,5.0545356e-08,5.000009e-08,0.0,0.0,0.0,0.0,0.0,0.0,0.0,0.0,24
605193923,605094013,0.04898348,0.021928044,0.054079767,0.9970934,-0.08292909,0.12896533,-0.008911137,0.7636126,-0.8787669,4.923272,-0.00018119566,2.098527e-05,-3.772266e-05,-0.0026583597,0.003032817,-0.0011566598,0.7650899,-0.19422965,0.13004266,0.0,0.0,0.0,0.0,0.0,8.793651e-05,6.7988517e-06,7.097131e-06,1.762335e-05,0.029970154,0.029970055,0.018051129,0.35638264,0.35638496,0.24264029,2.0933364e-11,2.1058126e-11,4.2408185e-11,5.0661633e-08,5.0554057e-08,5.0000445e-08,0.0,0.0,0.0,0.0,0.0,0.0,0.0,0.0,24
606199385,606099422,0.04821257,0.020527678,0.04970767,0.99738824,-0.08659691,0.15676333,0.0016950517,0.65861344,-0.67787254,4.926655,-0.00018120497,2.0992939e-05,-3.746965e-05,-0.0026583222,0.0030327835,-0.0011589618,0.7650899,-0.19422965,0.13004266,0.0,0.0,0.0,0.0,0.0,8.77924e-05,6.6346174e-06,6.947622e-06,1.7639017e-05,0.027982164,0.02797933,0.017580535,0.34397167,0.34397298,0.23718897,2.0837906e-11,2.0968121e-11,4.2362235e-11,5.0670383e-08,5.0562672e-08,5.0000263e-08,0.0,0.0,0.0,0.0,0.0,0.0,0.0,0.0,24
607194832,607094876,0.048354276,0.021728428,0.0476385,0.997457,-0.069408566,0.15686467,0.008876834,0.61127496,-0.56227535,4.945161,-0.00018139544,2.0812466e-05,-3.724144e-05,-0.0026582165,0.003032754,-0.0011654504,0.7650899,-0.19422965,0.13004266,0.0,0.0,0.0,0.0,0.0,8.791256e-05,6.522403e-06,6.849413e-06,1.7649945e-05,0.026508758,0.02650579,0.017353907,0.33178598,0.3317862,0.23589213,2.0760914e-11,2.0896875e-11,4.2380214e-11,5.0679045e-08,5.0571195e-08,5.0000445e-08,0.0,0.0,0.0,0.0,0.0,0.0,0.0,0.0,24
608190237,608090330,0.048273522,0.021973092,0.04748701,0.9974627,-0.039764464,0.09903521,0.0063063875,0.58736646,-0.6245848,4.9367614,-0.00018201255,2.0529995e-05,-3.7140464e-05,-0.0026581187,0.0030328454,-0.0011590833,0.7650899,-0.19422965,0.13004266,0.0,0.0,0.0,0.0,0.0,8.8024644e-05,6.419424e-06,6.751285e-06,1.765545e-05,0.025004756,0.025003063,0.016917283,0.31742612,0.31742582,0.22958656,2.0680608e-11,2.0822604e-11,4.2398758e-11,5.068773e-08,5.0579732e-08,5.0000175e-08,0.0,0.0,0.0,0.0,0.0,0.0,0.0,0.0,24
609195729,609095737,0.048151527,0.020516204,0.047229216,0.9975119,-0.006286524,0.085034646,0.008322529,0.591707,-0.61437523,4.9319425,-0.0001821275,2.0319425e-05,-3.7080932e-05,-0.002658069,0.0030328967,-0.0011579471,0.7650899,-0.19422965,0.13004266,0.0,0.0,0.0,0.0,0.0,8.7841356e-05,6.270348e-06,6.59749e-06,1.7659544e-05,0.023240484,0.023240706,0.01644796,0.30230868,0.30230847,0.22362033,2.0549213e-11,2.0697296e-11,4.2354294e-11,5.069652e-08,5.0588405e-08,5e-08,0.0,0.0,0.0,0.0,0.0,0.0,0.0,0.0,24
610191102,610091190,0.04774602,0.021245353,0.046688844,0.99754155,-0.013812316,0.039728355,0.021863423,0.5536482,-0.7216803,4.9354396,-0.0001825355,2.0369464e-05,-3.7113008e-05,-0.0026581124,0.0030328908,-0.0011560747,0.7650899,-0.19422965,0.13004266,0.0,0.0,0.0,0.0,0.0,8.795914e-05,6.4896462e-06,6.8211884e-06,1.7666209e-05,0.0251188,0.025120609,0.016916692,0.30258626,0.30258548,0.22701137,2.0755684e-11,2.0905947e-11,4.2378923e-11,5.070526e-08,5.0597123e-08,5.0000175e-08,0.0,0.0,0.0,0.0,0.0,0.0,0.0,0.0,24
611196571,611096596,0.047546335,0.020730019,0.047959417,0.9975017,-0.00019048489,0.0034056115,0.022177096,0.5417048,-0.8366382,4.9536686,-0.0001827438,2.0341395e-05,-3.6947793e-05,-0.0026580982,0.0030328797,-0.0011602158,0.7650899,-0.19422965,0.13004266,0.0,0.0,0.0,0.0,0.0,8.8112305e-05,6.345103e-06,6.6659227e-06,1.7662196e-05,0.0235108,0.023514124,0.016504075,0.28900036,0.2889999,0.22168262,2.061316e-11,2.0769548e-11,4.240929e-11,5.0714032e-08,5.060594e-08,5e-08,0.0,0.0,0.0,0.0,0.0,0.0,0.0,0.0,24
612191956,612092047,0.04809543,0.019589154,0.051174752,0.9973386,0.01669506,-0.0017303585,0.01755729,0.54903233,-0.91873443,4.9602456,-0.00018266174,2.0289099e-05,-3.6615173e-05,-0.0026580747,0.0030328648,-0.001160627,0.7650899,-0.19422965,0.13004266,0.0,0.0,0.0,0.0,0.0,8.785734e-05,6.241909e-06,6.543994e-06,1.764896e-05,0.022165095,0.022168139,0.016257226,0.27643433,0.27643406,0.21998142,2.0493203e-11,2.0653894e-11,4.2358627e-11,5.072269e-08,5.061471e-08,5.0000178e-08,0.0,0.0,0.0,0.0,0.0,0.0,0.0,0.0,24
613197427,613097453,0.049569234,0.023523288,0.052881125,0.99709237,0.05441861,-0.04473824,0.01795038,0.6207671,-1.0901511,4.949081,-0.00018294057,2.0048656e-05,-3.611064e-05,-0.0026581152,0.0030328766,-0.0011520563,0.7650899,-0.19422965,0.13004266,0.0,0.0,0.0,0.0,0.0,8.7989676e-05,6.45758e-06,6.77214e-06,1.7649118e-05,0.0238788,0.023882167,0.016585508,0.27717713,0.2771769,0.22022316,2.0683798e-11,2.0845515e-11,4.239429e-11,5.0731423e-08,5.062362e-08,5e-08,0.0,0.0,0.0,0.0,0.0,0.0,0.0,0.0,24
614192864,614092903,0.049485058,0.021684255,0.049106296,0.99733126,0.039382707,-0.058398224,0.018020175,0.6090518,-1.2318012,4.9313464,-0.00018290924,2.03762e-05,-3.5831876e-05,-0.0026582212,0.0030328399,-0.0011410896,0.7650899,-0.19422965,0.13004266,0.0,0.0,0.0,0.0,0.0,8.780158e-05,6.7203828e-06,7.0414335e-06,1.7666893e-05,0.027022693,0.027027858,0.017368104,0.28771308,0.28771374,0.22719449,2.093921e-11,2.1099988e-11,4.2348312e-11,5.0740134e-08,5.0632423e-08,5.0000267e-08,0.0,0.0,0.0,0.0,0.0,0.0,0.0,0.0,24
615188293,615088352,0.048938077,0.011866912,0.05496503,0.99721766,0.025337672,-0.06574936,0.008709579,0.597814,-1.3629043,4.943042,-0.00018282881,2.0596945e-05,-3.554815e-05,-0.0026582426,0.003032779,-0.0011408972,0.7650899,-0.19422965,0.13004266,0.0,0.0,0.0,0.0,0.0,8.790091e-05,6.6141715e-06,6.879993e-06,1.7634651e-05,0.026288666,0.026293796,0.017232832,0.2861672,0.28616834,0.2256224,2.0772307e-11,2.0937191e-11,4.2370364e-11,5.0748834e-08,5.0641223e-08,5e-08,0.0,0.0,0.0,0.0,0.0,0.0,0.0,0.0,24
616193688,616093756,0.049822487,0.011908765,0.052665755,0.9972975,0.055037625,-0.0549228,0.0062865727,0.66646296,-1.4771051,4.962658,-0.00018264537,2.0455649e-05,-3.512743e-05,-0.002658147,0.0030326855,-0.001151524,0.7650899,-0.19422965,0.13004266,0.0,0.0,0.0,0.0,0.0,8.80785e-05,6.43773e-06,6.7133924e-06,1.7648901e-05,0.024831051,0.024834093,0.017066387,0.27927873,0.27927956,0.22688447,2.0630862e-11,2.0800047e-11,4.2402297e-11,5.075751e-08,5.065005e-08,5.0000267e-08,0.0,0.0,0.0,0.0,0.0,0.0,0.0,0.0,24
617199087,617099159,0.050688818,0.008435855,0.0511715,0.9973671,0.056595072,-0.04915259,0.042114977,0.69074446,-1.5833504,4.9717097,-0.00018250801,2.0564978e-05,-3.4621535e-05,-0.0026581406,0.0030325425,-0.0011541966,0.7650899,-0.19422965,0.13004266,0.0,0.0,0.0,0.0,0.0,8.7910565e-05,6.598799e-06,6.8745508e-06,1.7655755e-05,0.026330275,0.0263304,0.017309418,0.2846685,0.28466934,0.22799729,2.0793142e-11,2.0963155e-11,4.236486e-11,5.076601e-08,5.065888e-08,5.000009e-08,0.0,0.0,0.0,0.0,0.0,0.0,0.0,0.0,24
618194594,618094607,0.05119726,0.011056551,0.04953097,0.9973983,0.021282017,-0.048814066,0.042927455,0.6172692,-1.6868366,4.9882913,-0.00018252699,2.0913512e-05,-3.4463006e-05,-0.0026583208,0.0030324704,-0.0011490777,0.7650899,-0.19422965,0.13004266,0.0,0.0,0.0,0.0,0.0,8.802867e-05,6.520544e-06,6.8078516e-06,1.7666718e-05,0.025909377,0.025907172,0.017334694,0.2835749,0.28357506,0.23032989,2.0726478e-11,2.090142e-11,4.2387496e-11,5.0773902e-08,5.066762e-08,5.0000267e-08,0.0,0.0,0.0,0.0,0.0,0.0,0.0,0.0,24
619190026,619090054,0.05204961,0.018888168,0.05312924,0.9970514,0.012908962,-0.026680352,0.016387202,0.5905606,-1.7204782,4.953686,-0.00018238765,2.0962276e-05,-3.4362798e-05,-0.0026586372,0.0030325162,-0.0011292407,0.7650899,-0.19422965,0.13004266,0.0,0.0,0.0,0.0,0.0,8.8080305e-05,6.254907e-06,6.552252e-06,1.7656213e-05,0.022762671,0.02276308,0.016520923,0.26700228,0.26700243,0.2227266,2.0464063e-11,2.0647525e-11,4.2407237e-11,5.0781274e-08,5.0676363e-08,5e-08,0.0,0.0,0.0,0.0,0.0,0.0,0.0,0.0,24
620195363,620095455,0.052529313,0.017462255,0.04968001,0.99723005,0.0076728277,-0.005911442,0.032010294,0.6049667,-1.7313054,4.9594197,-0.00018228212,2.095437e-05,-3.3898064e-05,-0.002658686,0.0030324797,-0.0011269251,0.7650899,-0.19422965,0.13004266,0.0,0.0,0.0,0.0,0.0,8.7928995e-05,6.3843245e-06,6.691069e-06,1.7671979e-05,0.023771763,0.023776513,0.016809748,0.26644823,0.26644838,0.22613594,2.0618557e-11,2.0804487e-11,4.2368945e-11,5.0789204e-08,5.0685223e-08,5.0000356e-08,0.0,0.0,0.0,0.0,0.0,0.0,0.0,0.0,24
621190838,621090901,0.053123057,0.017565329,0.04819986,0.9972694,-0.05161197,0.04348421,0.027112456,0.46212715,-1.636375,4.9657307,-0.00018201233,2.1551206e-05,-3.355083e-05,-0.0026589807,0.0030323653,-0.0011155949,0.7650899,-0.19422965,0.13004266,0.0,0.0,0.0,0.0,0.0,8.805013e-05,6.4626747e-06,6.770777e-06,1.7679542e-05,0.02444857,0.024455238,0.016852386,0.26575878,0.26575962,0.22442503,2.069406e-11,2.088403e-11,4.239276e-11,5.079713e-08,5.069397e-08,5e-08,0.0,0.0,0.0,0.0,0.0,0.0,0.0,0.0,24
622196263,622096301,0.053897664,0.012652063,0.048861027,0.9972701,-0.05873122,0.07529152,0.003899567,0.3970014,-1.5461738,4.940586,-0.0001819705,2.1512113e-05,-3.299395e-05,-0.0026591485,0.003032333,-0.0011027631,0.7650899,-0.19422965,0.13004266,0.0,0.0,0.0,0.0,0.0,8.7868226e-05,6.604455e-06,6.8933673e-06,1.7674225e-05,0.025900474,0.025907991,0.017283365,0.27095878,0.27096128,0.22945735,2.080314e-11,2.0996392e-11,4.2353628e-11,5.080532e-08,5.0702756e-08,5.0000352e-08,0.0,0.0,0.0,0.0,0.0,0.0,0.0,0.0,24
623191654,623091745,0.054458447,0.005784812,0.045661494,0.99745476,-0.04080914,0.07109208,-0.005709175,0.39064547,-1.5247195,4.8989296,-0.00018222898,2.1209844e-05,-3.270428e-05,-0.002659248,0.0030323926,-0.0010897884,0.7650899,-0.19422965,0.13004266,0.0,0.0,0.0,0.0,0.0,8.801121e-05,6.611295e-06,6.8894715e-06,1.7690578e-05,0.026443362,0.026450198,0.017331885,0.2740958,0.2740996,0.22850516,2.0813256e-11,2.1011979e-11,4.237624e-11,5.0813316e-08,5.0711503e-08,5.000009e-08,0.0,0.0,0.0,0.0,0.0,0.0,0.0,0.0,24
624197149,624097144,0.054531112,0.0055332375,0.04937679,0.9972752,-0.042586472,0.048683584,-0.0013237261,0.34992936,-1.5778724,4.8612385,-0.00018258858,2.1062713e-05,-3.272256e-05,-0.0026594284,0.0030324494,-0.001074318,0.7650899,-0.19422965,0.13004266,0.0,0.0,0.0,0.0,0.0,8.813365e-05,6.4249625e-06,6.6830908e-06,1.7678336e-05,0.024568975,0.024572898,0.017084869,0.26815394,0.2681568,0.22893678,2.0604454e-11,2.0812215e-11,4.2406183e-11,5.0820983e-08,5.072033e-08,5.0000352e-08,0.0,0.0,0.0,0.0,0.0,0.0,0.0,0.0,24
625192495,625092588,0.05485929,0.008697342,0.04834784,0.99728507,-0.047463655,0.06469082,-0.010358412,0.30375746,-1.5531503,4.8425303,-0.00018255306,2.1018897e-05,-3.2567994e-05,-0.0026595152,0.0030324205,-0.001068378,0.7650899,-0.19422965,0.13004266,0.0,0.0,0.0,0.0,0.0,8.7898086e-05,6.4219844e-06,6.68485e-06,1.7688591e-05,0.024483694,0.024486432,0.016960192,0.2673822,0.26738453,0.22637267,2.0611193e-11,2.0823728e-11,4.2356948e-11,5.0828373e-08,5.0729085e-08,5.000009e-08,0.0,0.0,0.0,0.0,0.0,0.0,0.0,0.0,24
626197893,626097985,0.055312894,0.010245196,0.047959432,0.997264,-0.0432099,0.07536146,-0.009677168,0.26737696,-1.5195104,4.8341804,-0.00018259091,2.0944999e-05,-3.236259e-05,-0.0026594212,0.003032409,-0.0010719245,0.7650899,-0.19422965,0.13004266,0.0,0.0,0.0,0.0,0.0,8.80525e-05,6.637835e-06,6.900395e-06,1.7696877e-05,0.026495349,0.026501192,0.017482108,0.2765715,0.27657428,0.23216961,2.0809389e-11,2.1024089e-11,4.2392714e-11,5.0835972e-08,5.073794e-08,5.0000356e-08,0.0,0.0,0.0,0.0,0.0,0.0,0.0,0.0,24
627193486,627093428,0.05564928,0.009344077,0.047698524,0.99726665,-0.022536552,0.0538677,-0.00068747834,0.28387547,-1.5588676,4.84668,-0.00018291018,2.0648544e-05,-3.2188655e-05,-0.0026592964,0.0030324485,-0.0010764136,0.7650899,-0.19422965,0.13004266,0.0,0.0,0.0,0.0,0.0,8.78211e-05,6.8164127e-06,7.0727856e-06,1.7703083e-05,0.028522845,0.02853121,0.017791618,0.28807372,0.28807828,0.23339649,2.096208e-11,2.1178052e-11,4.2345752e-11,5.0843497e-08,5.0746703e-08,5.0000086e-08,0.0,0.0,0.0,0.0,0.0,0.0,0.0,0.0,24
628198769,628098824,0.055998478,0.00974361,0.046656325,0.9972925,-0.00041565075,0.056469366,0.0064866412,0.31930414,-1.5478752,4.8512897,-0.00018296178,2.0488467e-05,-3.200429e-05,-0.0026592505,0.0030324534,-0.0010783153,0.7650899,-0.19422965,0.13004266,0.0,0.0,0.0,0.0,0.0,8.798309e-05,6.97378e-06,7.227648e-06,1.7714083e-05,0.030680364,0.030690929,0.018122358,0.3041283,0.30413532,0.23584299,2.1092971e-11,2.1310545e-11,4.23815e-11,5.085116e-08,5.0755553e-08,5e-08,0.0,0.0,0.0,0.0,0.0,0.0,0.0,0.0,24
629194218,629094265,0.056174308,0.008847034,0.04774478,0.9972395,0.022006296,0.011015364,0.013677705,0.37881938,-1.6652411,4.8679414,-0.00018341528,2.0288488e-05,-3.1865566e-05,-0.0026591765,0.003032497,-0.0010837604,0.7650899,-0.19422965,0.13004266,0.0,0.0,0.0,0.0,0.0,8.808825e-05,6.7901897e-06,7.0290193e-06,1.7714836e-05,0.029196357,0.02920582,0.017996596,0.30303097,0.30303705,0.23748171,2.090735e-11,2.1129161e-11,4.2404746e-11,5.0858727e-08,5.076428e-08,5.000009e-08,0.0,0.0,0.0,0.0,0.0,0.0,0.0,0.0,24
630189620,630089706,0.056345057,0.008175243,0.047630686,0.9972411,0.0039818943,0.016369747,0.010514624,0.33191505,-1.6827842,4.86907,-0.00018340956,2.0489504e-05,-3.1819283e-05,-0.0026591674,0.003032469,-0.0010845301,0.7650899,-0.19422965,0.13004266,0.0,0.0,0.0,0.0,0.0,8.785422e-05,6.7301758e-06,6.958683e-06,1.7718523e-05,0.028544124,0.028552549,0.017955914,0.30301574,0.303022,0.23927607,2.0854082e-11,2.1076769e-11,4.2357135e-11,5.0866497e-08,5.0773007e-08,5.0000356e-08,0.0,0.0,0.0,0.0,0.0,0.0,0.0,0.0,24
631195021,631095100,0.056621186,0.008737216,0.045995086,0.9972975,-0.03659098,0.041155178,0.00879335,0.19058165,-1.6482177,4.846847,-0.00018327184,2.0823249e-05,-3.172349e-05,-0.0026592913,0.0030323497,-0.0010731893,0.7650899,-0.19422965,0.13004266,0.0,0.0,0.0,0.0,0.0,8.802122e-05,6.910354e-06,7.137396e-06,1.7731012e-05,0.030374847,0.030384291,0.018163145,0.31527472,0.3152834,0.24016924,2.1027334e-11,2.1248794e-11,4.239453e-11,5.087454e-08,5.078183e-08,5.0000178e-08,0.0,0.0,0.0,0.0,0.0,0.0,0.0,0.0,24
632190457,632090540,0.056480452,0.008482379,0.04645229,0.9972865,-0.07795798,0.048680257,0.00057434314,-0.0038517243,-1.623894,4.8338833,-0.000183319,2.1046206e-05,-3.1696185e-05,-0.002659417,0.0030322382,-0.0010611298,0.7650899,-0.19422965,0.13004266,0.0,0.0,0.0,0.0,0.0,8.812988e-05,7.0179553e-06,7.2346706e-06,1.7731545e-05,0.031681757,0.031692065,0.018455787,0.3270562,0.3270673,0.24455844,2.1110017e-11,2.1330625e-11,4.242141e-11,5.0882637e-08,5.0790497e-08,5.0000352e-08,0.0,0.0,0.0,0.0,0.0,0.0,0.0,0.0,24
633195870,633095933,0.056863178,0.008759911,0.04768061,0.99720436,-0.07802398,0.050022572,-0.022628315,-0.101625815,-1.6379839,4.7855253,-0.00018333776,2.0834306e-05,-3.1546555e-05,-0.0026596037,0.0030321484,-0.0010468317,0.7650899,-0.19422965,0.13004266,0.0,0.0,0.0,0.0,0.0,8.792846e-05,6.830481e-06,7.037137e-06,1.7731123e-05,0.029931262,0.02993994,0.018083932,0.3242806,0.32428977,0.24110739,2.0927603e-11,2.1148699e-11,4.238268e-11,5.0890847e-08,5.0799237e-08,5.0000263e-08,0.0,0.0,0.0,0.0,0.0,0.0,0.0,0.0,24
634191277,634091371,0.057408176,0.008134353,0.046248436,0.9972458,-0.083969176,0.023991628,-0.012598839,-0.21409814,-1.7314038,4.7754545,-0.00018362819,2.0739863e-05,-3.132055e-05,-0.0026596405,0.0030321144,-0.0010455406,0.7650899,-0.19422965,0.13004266,0.0,0.0,0.0,0.0,0.0,8.805163e-05,6.9532166e-06,7.1587165e-06,1.7743641e-05,0.031183267,0.031192131,0.018349689,0.3338347,0.33384466,0.24475217,2.1051773e-11,2.1271032e-11,4.2409937e-11,5.0899178e-08,5.0807927e-08,5.0000356e-08,0.0,0.0,0.0,0.0,0.0,0.0,0.0,0.0,24
635196673,635096763,0.057630774,0.007668922,0.047162328,0.9971939,-0.07160151,0.02098775,-0.005682621,-0.29377854,-1.7767894,4.765662,-0.00018360921,2.0488493e-05,-3.1161235e-05,-0.0026596969,0.003032093,-0.0010428117,0.7650899,-0.19422965,0.13004266,0.0,0.0,0.0,0.0,0.0,8.785469e-05,6.8944796e-06,7.0909828e-06,1.7742059e-05,0.030549742,0.030557927,0.0181526,0.3347035,0.33471233,0.24218664,2.0990114e-11,2.1208204e-11,4.237261e-11,5.0907666e-08,5.0816666e-08,5.0000178e-08,0.0,0.0,0.0,0.0,0.0,0.0,0.0,0.0,24
636192217,636092200,0.057535004,0.007507103,0.04627134,0.9972424,-0.09047047,0.034742575,-0.028072037,-0.47047204,-1.7862822,4.744555,-0.00018352717,2.0541836e-05,-3.108783e-05,-0.0026597276,0.0030320408,-0.0010375932,0.7650899,-0.19422965,0.13004266,0.0,0.0,0.0,0.0,0.0,8.797305e-05,7.0399797e-06,7.2343128e-06,1.7747912e-05,0.0320773,0.032085862,0.018250346,0.3448103,0.3448199,0.24114916,2.1125442e-11,2.13412e-11,4.2400188e-11,5.091614e-08,5.0825346e-08,5e-08,0.0,0.0,0.0,0.0,0.0,0.0,0.0,0.0,24
637197500,637097591,0.05751875,0.007853456,0.045657713,0.997269,-0.077132866,0.01950073,-0.024908535,-0.58102906,-1.8443996,4.7005816,-0.0001837334,2.0249814e-05,-3.1165877e-05,-0.0026598198,0.0030320275,-0.0010301141,0.7650899,-0.19422965,0.13004266,0.0,0.0,0.0,0.0,0.0,8.813356e-05,7.3187202e-06,7.513539e-06,1.7758732e-05,0.035389803,0.035399415,0.01884241,0.36787996,0.3678927,0.24811925,2.1368676e-11,2.1581298e-11,4.243841e-11,5.0924807e-08,5.0834174e-08,5.0000178e-08,0.0,0.0,0.0,0.0,0.0,0.0,0.0,0.0,24
638192968,638093026,0.05749613,0.0059489748,0.04627813,0.9972548,-0.05521123,0.015931249,-0.014552001,-0.6272332,-1.8741413,4.708307,-0.00018376509,1.9930028e-05,-3.122908e-05,-0.0026598217,0.003032074,-0.0010350492,0.7650899,-0.19422965,0.13004266,0.0,0.0,0.0,0.0,0.0,8.789411e-05,7.236601e-06,7.4204727e-06,1.7757955e-05,0.034844656,0.034853365,0.018663444,0.37124118,0.37125275,0.24545433,2.1279273e-11,2.149059e-11,4.239124e-11,5.093338e-08,5.084289e-08,5e-08,0.0,0.0,0.0,0.0,0.0,0.0,0.0,0.0,24
639188376,639088462,0.05726678,0.0054780967,0.04578285,0.9972936,-0.050934367,0.030690378,-0.021986596,-0.72464174,-1.862084,4.7404494,-0.00018371668,1.9851384e-05,-3.1247324e-05,-0.0026597576,0.00303214,-0.0010468696,0.7650899,-0.19422965,0.13004266,0.0,0.0,0.0,0.0,0.0,8.800934e-05,7.238639e-06,7.4186296e-06,1.7761733e-05,0.035182703,0.03519117,0.01880838,0.37816805,0.37817943,0.24860112,2.1277306e-11,2.1487255e-11,4.2417545e-11,5.0942038e-08,5.085159e-08,5.0000178e-08,0.0,0.0,0.0,0.0,0.0,0.0,0.0,0.0,24
640193877,640093850,0.057074893,0.0051000803,0.041427184,0.997497,-0.022674592,0.0041448344,-0.005076922,-0.742747,-1.9277442,4.759784,-0.0001840262,1.9541347e-05,-3.124569e-05,-0.002659764,0.003032204,-0.0010578596,0.7650899,-0.19422965,0.13004266,0.0,0.0,0.0,0.0,0.0,8.785254e-05,6.5125264e-06,6.701106e-06,1.77829e-05,0.027772488,0.027777696,0.017585354,0.34161577,0.34162036,0.23807919,2.0668951e-11,2.088185e-11,4.2375187e-11,5.0950717e-08,5.0860347e-08,5e-08,0.0,0.0,0.0,0.0,0.0,0.0,0.0,0.0,24
641199314,641099239,0.05743821,0.005874944,0.040612254,0.99750537,-0.04739055,0.029118663,0.009078406,-0.8844991,-1.8767862,4.765037,-0.00018387256,1.9788456e-05,-3.11449e-05,-0.0026597125,0.0030322035,-0.0010595798,0.7650899,-0.19422965,0.13004266,0.0,0.0,0.0,0.0,0.0,8.80093e-05,6.5780237e-06,6.761877e-06,1.779133e-05,0.027572274,0.027578361,0.01760039,0.3357245,0.3357284,0.23903704,2.075366e-11,2.0964366e-11,4.241176e-11,5.0959496e-08,5.0869087e-08,5.0000356e-08,0.0,0.0,0.0,0.0,0.0,0.0,0.0,0.0,24
642194608,642094672,0.057766836,0.0064050066,0.04234109,0.9974113,-0.035739,0.03740181,0.004198944,-0.9298304,-1.8550998,4.757321,-0.00018392077,1.9661522e-05,-3.096394e-05,-0.0026597446,0.003032194,-0.0010606,0.7650899,-0.19422965,0.13004266,0.0,0.0,0.0,0.0,0.0,8.810579e-05,6.425052e-06,6.5960835e-06,1.7788834e-05,0.025025917,0.025031371,0.016935866,0.3140951,0.3140975,0.23048279,2.0625193e-11,2.0834945e-11,4.2437224e-11,5.0968143e-08,5.0877595e-08,5e-08,0.0,0.0,0.0,0.0,0.0,0.0,0.0,0.0,24
643190041,643090105,0.057982672,0.0077595413,0.039927706,0.9974887,-0.047595154,0.036386933,0.0074112974,-1.0197153,-1.8303524,4.734542,-0.00018406815,1.9787783e-05,-3.088255e-05,-0.0026597804,0.0030321507,-0.0010563718,0.7650899,-0.19422965,0.13004266,0.0,0.0,0.0,0.0,0.0,8.7885564e-05,6.439607e-06,6.6139364e-06,1.7804605e-05,0.024868628,0.02487408,0.01695258,0.3043228,0.3043249,0.23018736,2.0661351e-11,2.0868064e-11,4.239116e-11,5.0976837e-08,5.0886083e-08,5.0000267e-08,0.0,0.0,0.0,0.0,0.0,0.0,0.0,0.0,24
644195416,644095491,0.058338553,0.006385434,0.04186049,0.99739844,-0.036804605,0.016932841,0.0005903131,-1.037,-1.8513206,4.712894,-0.00018431483,1.9657413e-05,-3.0725572e-05,-0.002659879,0.0030320508,-0.0010486299,0.7650899,-0.19422965,0.13004266,0.0,0.0,0.0,0.0,0.0,8.80303e-05,6.588979e-06,6.7461965e-06,1.7800583e-05,0.025989946,0.025995994,0.017108817,0.30212793,0.30213055,0.22872543,2.078137e-11,2.0984721e-11,4.242876e-11,5.0985623e-08,5.0894627e-08,5.000009e-08,0.0,0.0,0.0,0.0,0.0,0.0,0.0,0.0,24
645190918,645090923,0.05849602,0.0063050617,0.04368226,0.99731153,-0.009210248,0.010302206,-0.013715897,-0.99236155,-1.8779584,4.701309,-0.00018444318,1.948467e-05,-3.06485e-05,-0.002659929,0.0030320082,-0.0010458835,0.7650899,-0.19422965,0.13004266,0.0,0.0,0.0,0.0,0.0,8.812898e-05,6.675948e-06,6.821387e-06,1.779801e-05,0.02693766,0.02694288,0.017407613,0.3015309,0.30153415,0.23149669,2.083794e-11,2.1037968e-11,4.245647e-11,5.099435e-08,5.0903047e-08,5.0000267e-08,0.0,0.0,0.0,0.0,0.0,0.0,0.0,0.0,24
646196232,646096308,0.05882561,0.0070151617,0.04128521,0.9973896,0.0007121615,0.015263659,-0.0037054233,-0.9108787,-1.8599553,4.701678,-0.00018443419,1.9519255e-05,-3.0538908e-05,-0.002659925,0.0030320173,-0.001047849,0.7650899,-0.19422965,0.13004266,0.0,0.0,0.0,0.0,0.0,8.795492e-05,6.6055863e-06,6.75608e-06,1.7812334e-05,0.026652986,0.026657607,0.01733505,0.29713646,0.2971397,0.22946118,2.0782863e-11,2.0979498e-11,4.242004e-11,5.100324e-08,5.091156e-08,5.000009e-08,0.0,0.0,0.0,0.0,0.0,0.0,0.0,0.0,24
647191657,647091738,0.059446894,0.006437112,0.0424244,0.9973088,0.03274972,0.013067272,0.010225479,-0.7571656,-1.8531502,4.7374043,-0.00018449646,1.940424e-05,-3.0247427e-05,-0.0026599376,0.003032063,-0.0010556629,0.7650899,-0.19422965,0.13004266,0.0,0.0,0.0,0.0,0.0,8.805715e-05,6.242146e-06,6.3835223e-06,1.7810653e-05,0.023084233,0.023087356,0.016686723,0.27725428,0.27725628,0.22565126,2.0444252e-11,2.0639407e-11,4.2445197e-11,5.1012062e-08,5.0919947e-08,5.0000267e-08,0.0,0.0,0.0,0.0,0.0,0.0,0.0,0.0,24
648197041,648097122,0.061014283,0.006636363,0.042311724,0.9972176,0.037749413,0.043623954,-0.0035040714,-0.652747,-1.7700156,4.7354217,-0.00018436351,1.96389e-05,-2.9573e-05,-0.0026599348,0.0030319907,-0.0010552219,0.7650899,-0.19422965,0.13004266,0.0,0.0,0.0,0.0,0.0,8.7867564e-05,6.271428e-06,6.410327e-06,1.7813569e-05,0.022921039,0.022924194,0.016544167,0.27003047,0.27003232,0.22250244,2.0484671e-11,2.0676023e-11,4.2409305e-11,5.102097e-08,5.0928506e-08,5.000009e-08,0.0,0.0,0.0,0.0,0.0,0.0,0.0,0.0,24
649192471,649092551,0.06338299,0.006585492,0.041835167,0.9970903,0.031832144,0.041110583,0.0046343617,-0.55903375,-1.7253565,4.7317038,-0.00018451482,1.984441e-05,-2.854961e-05,-0.0026599301,0.0030318808,-0.0010538966,0.7650899,-0.19422965,0.13004266,0.0,0.0,0.0,0.0,0.0,8.798068e-05,6.1701135e-06,6.3085795e-06,1.7820055e-05,0.02168958,0.021693027,0.016295066,0.25809595,0.25809708,0.22092931,2.0401953e-11,2.0591086e-11,4.2435756e-11,5.102978e-08,5.0937068e-08,5.0000352e-08,0.0,0.0,0.0,0.0,0.0,0.0,0.0,0.0,24
650197863,650097933,0.06614944,0.005676415,0.042205565,0.9969006,0.052428514,0.048131224,-0.0014964232,-0.4080701,-1.6522994,4.733665,-0.00018458355,1.987245e-05,-2.7349786e-05,-0.0026599322,0.0030317863,-0.001054489,0.7650899,-0.19422965,0.13004266,0.0,0.0,0.0,0.0,0.0,8.8133645e-05,6.294802e-06,6.427945e-06,1.782327e-05,0.022497963,0.02250207,0.016407333,0.25412235,0.25412345,0.21949834,2.0518805e-11,2.0704867e-11,4.2473147e-11,5.1038676e-08,5.094575e-08,5.000009e-08,0.0,0.0,0.0,0.0,0.0,0.0,0.0,0.0,24
651193267,651093361,0.069154166,0.0057438957,0.041970327,0.9967062,0.06874511,0.031595923,0.014712084,-0.22807142,-1.626803,4.743297,-0.00018485374,1.9904977e-05,-2.6091891e-05,-0.0026598542,0.0030316971,-0.0010621098,0.7650899,-0.19422965,0.13004266,0.0,0.0,0.0,0.0,0.0,8.7898545e-05,6.292412e-06,6.427001e-06,1.7830675e-05,0.022449922,0.022454457,0.016486017,0.24781603,0.24781743,0.22054146,2.0517492e-11,2.0700715e-11,4.2426927e-11,5.1047447e-08,5.0954345e-08,5.0000356e-08,0.0,0.0,0.0,0.0,0.0,0.0,0.0,0.0,24
652198650,652098742,0.07235227,0.0075975833,0.04235939,0.9964503,0.057771783,0.018763574,0.0050496496,-0.1039113,-1.5974811,4.723758,-0.00018507267,2.0204967e-05,-2.472447e-05,-0.0026597604,0.0030314894,-0.0010542974,0.7650899,-0.19422965,0.13004266,0.0,0.0,0.0,0.0,0.0,8.8048146e-05,6.0424436e-06,6.1802543e-06,1.7838198e-05,0.020364527,0.020368163,0.015927183,0.2356971,0.23569812,0.21517791,2.0277557e-11,2.0460179e-11,4.246182e-11,5.1056197e-08,5.0963013e-08,5.0000178e-08,0.0,0.0,0.0,0.0,0.0,0.0,0.0,0.0,24
653194154,653094169,0.07752011,0.0075650075,0.041905582,0.99608094,0.02297619,0.04216409,0.00709236,-0.05976788,-1.4905684,4.7114377,-0.0001849753,2.0784808e-05,-2.259887e-05,-0.0026597355,0.003031177,-0.001052047,0.7650899,-0.19422965,0.13004266,0.0,0.0,0.0,0.0,0.0,8.7809e-05,6.0944003e-06,6.2317295e-06,1.7847105e-05,0.020404607,0.020408537,0.015961194,0.22855194,0.22855286,0.21546039,2.0338991e-11,2.0518576e-11,4.2415443e-11,5.1064823e-08,5.097159e-08,5.0000356e-08,0.0,0.0,0.0,0.0,0.0,0.0,0.0,0.0,24
654189593,654089594,0.08278328,0.008755093,0.042351685,0.99562883,0.030460615,0.044691704,0.011498172,0.05506359,-1.4130195,4.715591,-0.00018503537,2.0857127e-05,-2.0344278e-05,-0.0026595895,0.0030311134,-0.0010526133,0.7650899,-0.19422965,0.13004266,0.0,0.0,0.0,0.0,0.0,8.790834e-05,6.188287e-06,6.326979e-06,1.7857157e-05,0.021106157,0.02111065,0.01607321,0.22552827,0.22552942,0.21397604,2.0424887e-11,2.0602037e-11,4.244225e-11,5.107332e-08,5.0980056e-08,5.000009e-08,0.0,0.0,0.0,0.0,0.0,0.0,0.0,0.0,24
655194923,655094974,0.08830705,0.008290781,0.041957702,0.99517477,-0.00453623,0.053684928,-0.0080801025,0.05170749,-1.3164014,4.6634707,-0.00018508111,2.1283133e-05,-1.810922e-05,-0.0026594047,0.0030308159,-0.0010355178,0.7650899,-0.19422965,0.13004266,0.0,0.0,0.0,0.0,0.0,8.8058936e-05,6.469495e-06,6.6065204e-06,1.7872095e-05,0.023857422,0.023863515,0.016894227,0.23354754,0.23355033,0.2215588,2.067823e-11,2.0852195e-11,4.2479863e-11,5.1081816e-08,5.0988554e-08,5.0000352e-08,0.0,0.0,0.0,0.0,0.0,0.0,0.0,0.0,24
656200265,656100352,0.09385937,0.008742689,0.04223705,0.9946507,0.016509585,0.036428854,0.0016280523,0.13746066,-1.2828432,4.6514454,-0.00018526075,2.1113492e-05,-1.587166e-05,-0.0026590554,0.0030310268,-0.0010332897,0.7650899,-0.19422965,0.13004266,0.0,0.0,0.0,0.0,0.0,8.785698e-05,6.4282463e-06,6.567588e-06,1.7887025e-05,0.024300996,0.024306815,0.017063508,0.23833005,0.23833378,0.22309494,2.0614666e-11,2.0786909e-11,4.244246e-11,5.1089838e-08,5.099669e-08,5.0000175e-08,0.0,0.0,0.0,0.0,0.0,0.0,0.0,0.0,24
