timestamp,timestamp_sample,device_id,x,y,z,temperature,error_count,samples
540117881,540117690,2490378,-0.020524273,-0.02762883,0.0043933,39.163647,0,20
541115826,541115639,2490378,-0.016294181,-0.02609334,0.004013591,39.130436,0,20
542116262,542116077,2490378,-0.017166846,-0.025553752,0.0046497704,39.230072,0,20
543116703,543116515,2490378,-0.014465583,-0.018689012,0.005582389,39.121376,0,20
544119631,544119442,2490378,-0.014991846,-0.02541719,0.0042534075,39.127415,0,20
545117579,545117392,2490378,-0.011211409,-0.02243281,0.0044499235,39.1093,0,20
546118019,546117830,2490378,-0.0127302455,-0.029071057,0.0033574272,39.10326,0,20
547118457,547118269,2490378,-0.013739472,-0.02494089,0.004536524,39.178745,0,20
548116403,548116220,2490378,-0.009089702,-0.020021325,0.005112749,39.148552,0,20
549116847,549116659,2490378,-0.018089471,-0.022479441,0.0064417305,39.181763,0,20
550117286,550117098,2490378,-0.011551148,-0.020684151,0.0041135144,39.130436,0,20
551117723,551117538,2490378,-0.014635452,-0.022719258,0.004426608,39.169685,0,20
552115675,552115489,2490378,-0.013919334,-0.022009801,0.004822971,39.221016,0,20
553118604,553118418,2490378,-0.012973392,-0.023548622,0.003257504,39.224033,0,20
554119041,554118858,2490378,-0.013403063,-0.023362098,0.0053325803,39.248188,0,20
555116998,555116810,2490378,-0.017409993,-0.02149353,0.0060820063,39.23611,0,20
556117439,556117251,2490378,-0.017080246,-0.017413324,0.004899579,39.227055,0,20
557117882,557117691,2490378,-0.014485567,-0.02285915,0.0048562787,39.24517,0,20
558118318,558118133,2490378,-0.01548147,-0.029354174,0.0049961717,39.34179,0,20
559116276,559116085,2490378,-0.019068722,-0.01398595,0.0062885145,39.314613,0,20
560116713,560116527,2490378,-0.01927856,-0.0278853,0.005565735,39.38406,0,20
561117152,561116968,2490378,-0.014652106,-0.022822512,0.0049362173,39.248188,0,20
562115108,562114922,2490378,-0.01108484,-0.02456118,0.004746363,39.27838,0,20
563118041,563117852,2490378,-0.024071556,-0.023981623,0.0052659647,39.20894,0,20
564118477,564118295,2490378,-0.023425383,-0.025783576,0.0060520293,39.214977,0,20
565118921,565118737,2490378,-0.03421378,-0.03280486,0.004363323,39.371983,0,20
566116878,566116691,2490378,-0.008829901,-0.016920367,0.00281451,39.347828,0,20
567117319,567117133,2490378,-0.013782772,-0.0368018,0.0042500766,39.329712,0,20
568117761,568117576,2490378,-0.019271899,-0.018912176,0.0049528712,39.248188,0,20
569115715,569115530,2490378,-0.008100459,-0.023958309,0.0035106433,39.426327,0,20
570116158,570115973,2490378,-0.016897053,-0.020844027,0.00435,39.32669,0,20
571119092,571118904,2490378,-0.018728983,-0.024467917,0.005349234,39.353867,0,20
572119534,572119347,2490378,-0.014785337,-0.02268595,0.0045431852,39.275364,0,20
573117485,573117301,2490378,0.021247052,-0.02797856,-0.0019052067,39.227055,0,20
574117930,574117744,2490378,0.105492495,-0.01825934,-0.014818645,39.314613,0,20
575118369,575118186,2490378,0.01266363,-0.030220177,-0.0013889357,39.314613,0,20
576116329,576116140,2490378,-0.041671403,-0.024964204,0.0014155819,39.221016,0,20
577116767,577116582,2490378,-0.015904479,-0.020374388,0.0052659647,39.308575,0,20
578117209,578117025,2490378,-0.012140697,-0.022309572,0.0049995026,39.272343,0,20
579117657,579117467,2490378,-0.018672358,-0.020311102,0.0060520293,39.269325,0,20
580115606,580115421,2490378,-0.011294679,-0.015851187,0.00771742,39.272343,0,20
581118540,581118351,2490378,-0.018858882,-0.02515739,0.0063651227,39.175724,0,20
582118978,582118793,2490378,-0.022682618,-0.015158385,0.0027345712,39.211956,0,20
583116928,583116745,2490378,-0.015391539,-0.020394372,0.005562404,39.311596,0,20
584117370,584117187,2490378,-0.018236026,-0.03778438,0.0038237367,39.20894,0,20
585117811,585117628,2490378,-0.018132772,-0.02263932,0.0052259956,39.263287,0,20
586118253,586118068,2490378,-0.019325191,-0.021953179,0.004729709,39.172707,0,20
587116208,587116020,2490378,-0.0052892803,-0.011268033,0.0038603751,39.169685,0,20
588116650,588116460,2490378,-0.0076274886,-0.028068492,0.00418013,39.124397,0,20
589119574,589119388,2490378,-0.014648775,-0.01876229,0.0054258425,39.1878,0,20
590115036,590114850,2490378,-0.019778177,-0.025643684,0.004932887,39.142513,0,20
591117967,591117778,2490378,0.0006828101,-0.02178664,0.006115314,39.157608,0,20
592118403,592118217,2490378,0.0027578867,-0.03309464,-0.007863974,39.211956,0,20
593118843,593118655,2490378,-0.2593679,0.1002332,0.10557577,39.2029,0,20
594116787,594116604,2490378,-0.031825613,-0.0367152,0.005342573,39.1878,0,20
595117225,595117041,2490378,-0.016440736,-0.012330552,0.005206011,39.181763,0,20
596117664,596117478,2490378,-0.017576532,-0.027991883,0.0046531013,39.1093,0,20
597115611,597115426,2490378,-0.020777412,-0.042290926,0.003770444,39.15459,0,20
598116049,598115862,2490378,-0.025104096,-0.022286257,0.008013859,39.079105,0,20
599118975,599118786,2490378,-0.011151455,-0.017926265,0.0032142038,39.121376,0,20
600119404,600119221,2490378,-0.015195023,-0.02034108,0.004949541,39.039856,0,20
601117355,601117167,2490378,-0.069400154,-0.041797973,-0.0005129403,39.100243,0,20
602117787,602117601,2490378,-0.013169908,-0.026519679,0.0044232775,38.919083,0,20
603118223,603118034,2490378,-0.018882198,-0.017719755,0.008140429,38.970413,0,20
604116163,604115979,2490378,-0.04583821,-0.027812023,0.016727183,38.94022,0,20
605116596,605116411,2490378,-0.027015965,0.0062618684,0.015834533,38.873795,0,20
606117025,606116843,2490378,-0.06265199,-0.044675767,0.0052426495,39.003624,0,20
607119951,607119763,2490378,-0.023915008,-0.023865046,0.0062485454,38.873795,0,20
608115406,608115216,2490378,-0.021989817,-0.026846096,0.003483997,38.864735,0,20
609118318,609118135,2490378,-0.026746172,-0.026216578,0.004926225,38.831524,0,20
610118749,610118565,2490378,-0.013426378,-0.023698507,0.0068081166,38.722828,0,20
611116694,611116505,2490378,-0.009259571,-0.021953179,0.004143492,38.79831,0,20
612117120,612116934,2490378,0.041847933,-0.0603804,-0.021720024,38.813408,0,20
613117547,613117362,2490378,-0.1345036,0.004852948,0.03467676,38.84964,0,20
614117975,614117789,2490378,-0.04346003,-0.027995214,0.0101155825,38.75,0,20
615115913,615115727,2490378,0.31084514,0.47896963,0.01074843,38.7651,0,20
616116341,616116153,2490378,-0.038740315,-0.0074442956,0.014881929,38.71075,0,20
617119252,617119068,2490378,-0.014395636,-0.028554786,0.0025347243,38.629227,0,20
618114703,618114516,2490378,-0.020074617,-0.037021633,0.0044166157,38.689613,0,20
619117614,619117429,2490378,0.052982733,-0.04123174,-0.016207581,38.586956,0,20
620118035,620117852,2490378,-0.02264598,-0.02678281,0.00435,38.740944,0,20
621118459,621118276,2490378,0.023638554,0.046171285,0.0062718606,38.559784,0,20
622116430,622116210,2490378,-0.03769445,-0.01023216,0.008247014,38.565823,0,20
623116817,623116632,2490378,-0.005309265,-0.0060053985,0.0037771058,38.56884,0,20
624117241,624117053,2490378,-0.0065183383,0.00016986983,0.0068980474,38.408817,0,20
625115170,625114985,2490378,-0.003863706,-0.012900115,0.00532925,38.33937,0,20
626118080,626117894,2490378,-0.01036206,-0.027848661,0.004346669,38.426933,0,20
627118505,627118314,2490378,-0.021480206,-0.021253714,0.0037038284,38.333332,0,20
628118920,628118733,2490378,-0.019371822,-0.020271134,0.004956202,38.399757,0,20
629116846,629116663,2490378,-0.017799694,-0.018216042,0.0035039817,38.33937,0,20
630117266,630117080,2490378,-0.022189664,-0.029300882,0.00392366,38.39674,0,20
631117681,631117498,2490378,-0.018046172,-0.019808155,0.0076541346,38.27295,0,20
632115612,632115426,2490378,-0.011138132,-0.026666233,0.001735337,38.282005,0,20
633116026,633115841,2490378,-0.012813515,-0.01825268,0.005199349,38.2971,0,20
634118929,634118746,2490378,-0.020247819,-0.026902718,0.006345138,38.282005,0,20
635119347,635119160,2490378,-0.01031876,-0.016324159,0.004596478,38.26389,0,20
636117276,636117086,2490378,-0.010218836,-0.020361064,0.0051027564,38.251812,0,20
637117686,637117499,2490378,-0.023432044,-0.024551187,0.0061952528,38.25483,0,20
638118081,638117914,2490378,-0.009179632,-0.012733576,0.0058188746,38.12802,0,20
639116021,639115836,2490378,-0.031802297,-0.027155858,0.0072544413,38.137077,0,20
640116433,640116248,2490378,0.0034506891,-0.030849693,-0.0026846095,38.212563,0,20
641116845,641116659,2490378,-0.018662367,-0.014219104,0.011284687,38.094807,0,20
642119743,642119558,2490378,-0.009675919,-0.08730643,-0.00010325421,38.115944,0,20
643115176,643114991,2490378,-0.0150751155,-0.031209419,0.0018985452,38.100845,0,20
644118073,644117889,2490378,-0.007351034,-0.021766653,0.003680513,38.022343,0,20
645118483,645118297,2490378,0.089348204,-0.034780014,-0.027029289,37.925724,0,20
646116404,646116217,2490378,-0.016084341,-0.021093836,0.00409353,38.004227,0,20
647116811,647116624,2490378,-0.0064850305,-0.025423853,0.0042933766,37.9378,0,20
648117216,648117031,2490378,-0.015161715,-0.021570139,0.0040335758,37.844204,0,20
649117626,649117437,2490378,-0.014858615,-0.02277255,0.0034207122,37.850243,0,20
650115540,650115353,2490378,-0.014745368,-0.017769717,0.0052426495,37.89553,0,20
651118435,651118247,2490378,-0.0148219755,-0.023845062,0.005658997,37.75664,0,20
652118837,652118651,2490378,-0.014545521,-0.021590123,0.0039769528,37.832127,0,20
653116754,653116566,2490378,-0.015328255,-0.023122283,0.00532925,37.871376,0,20
654117197,654116968,2490378,-0.014602144,-0.025220674,0.004789663,37.77174,0,20
655117559,655117371,2490378,-0.017390007,-0.021003906,0.004156815,37.726448,0,20
656117955,656117772,2490378,-0.011807619,-0.026706202,0.0036472052,37.780796,0,20
657115875,657115687,2490378,-0.017360032,-0.021473546,0.0054524885,37.750603,0,20
658116272,658116084,2490378,-0.0147786755,-0.022069756,0.0051060873,37.77174,0,20
659119156,659118972,2490378,-0.009419449,-0.023595253,0.0037804365,37.708332,0,20
660117073,660116882,2490378,-0.021473546,-0.021363629,0.0040735453,37.67512,0,20
661117465,661117280,2490378,-0.012557045,-0.023785107,0.004792994,37.54529,0,20
662117864,662117678,2490378,-0.015847856,-0.021283692,0.005199349,37.59058,0,20
663118266,663118075,2490378,-0.015165046,-0.022412825,0.0034873278,37.64191,0,20
664116166,664115982,2490378,-0.005795559,-0.011734341,0.0047996556,37.64191,0,20
665116564,665116377,2490378,-0.013166578,-0.024814319,0.004243415,37.512077,0,20
666119450,666119261,2490378,-0.014558844,-0.020667497,0.003437366,37.5,0,20
667114863,667114677,2490378,-0.018262673,-0.022955744,0.004792994,37.427536,0,20
668117743,668117559,2490378,-0.011581126,-0.024554517,0.00435,37.394325,0,20
669118136,669117951,2490378,-0.018096134,-0.0235786,0.004956202,37.454712,0,20
670118532,670118344,2490378,-0.013109954,-0.024880935,0.00609866,37.439613,0,20
671116430,671116246,2490378,-0.012533729,-0.0238384,0.0032808194,37.315823,0,20
672116824,672116636,2490378,-0.017589854,-0.025676992,0.004473239,37.397343,0,20
673117213,673117026,2490378,-0.008416884,-0.026579633,0.0037138208,37.219204,0,20
674115113,674114926,2490378,-0.01616761,-0.019918071,0.0040901992,37.24336,0,20
675117990,675117803,2490378,-0.011054862,-0.021050537,0.0035939128,37.288647,0,20
676118378,676118190,2490378,-0.013599579,-0.023258844,0.0041001914,37.164856,0,20
677116272,677116088,2490378,-0.016154287,-0.023865046,0.0048396247,37.14372,0,20
678116659,678116474,2490378,-0.013759457,-0.021083845,0.004163476,37.170895,0,20
679117043,679116859,2490378,-0.009672588,-0.028907849,0.004972856,37.17995,0,20
680117429,680117244,2490378,-0.012916769,-0.017506585,0.004170138,37.077293,0,20
681115326,681115139,2490378,-0.014981853,-0.026030054,0.005156049,37.038044,0,20
682115711,682115522,2490378,-0.014009265,-0.027848661,0.0047397013,37.167873,0,20
683118576,683118393,2490378,-0.013579594,-0.02447458,0.005066118,37.074276,0,20
684118958,684118775,2490378,-0.021100499,-0.022539396,0.004746363,36.97162,0,20
685116853,685116667,2490378,0.0011357963,-0.021926532,0.0052559725,36.97162,0,20
686117235,686117048,2490378,-0.014688744,-0.024974197,0.004626455,37.053143,0,20
687117614,687117427,2490378,-0.014708729,-0.013393071,0.00435,36.99879,0,20
688115506,688115318,2490378,-0.012670292,-0.022832504,0.0046630935,36.890095,0,20
689115884,689115696,2490378,-0.021440238,-0.017276762,0.005066118,36.983696,0,20
690118797,690118562,2490378,-0.012670292,-0.026156623,0.004699732,36.83575,0,20
691119126,691118939,2490378,-0.011850919,-0.019688247,0.005525766,36.850845,0,20
692117010,692116827,2490378,-0.017333385,-0.023658538,0.0044565853,36.865944,0,20
693117385,693117202,2490378,-0.012810184,-0.022635989,0.0060220524,36.781403,0,20
694117760,694117578,2490378,-0.016467381,-0.022586027,0.00451987,36.850845,0,20
695115654,695115463,2490378,-0.01270693,-0.022246286,0.0046331165,36.675724,0,20
696116022,696115837,2490378,-0.0148652755,-0.021726685,0.0042867153,36.754227,0,20
697118885,697118698,2490378,-0.014432275,-0.021769986,0.005279288,36.69384,0,20
698119256,698119071,2490378,-0.01684376,-0.02285915,0.0048029865,36.714977,0,20
699117142,699116954,2490378,-0.0135063175,-0.025856853,0.0049995026,36.69686,0,20
700117511,700117325,2490378,-0.016747167,-0.022113055,0.0048129787,36.59722,0,20
701117883,701117696,2490378,-0.013406394,-0.021376953,0.0035872513,36.491547,0,20
702115759,702115577,2490378,-0.015514778,-0.021863246,0.0044965544,36.57005,0,20
703116132,703115946,2490378,-0.01684376,-0.022366194,0.0055024503,36.69384,0,20
704118989,704118803,2490378,-0.013299809,-0.030673163,0.0039936067,36.594204,0,20
705119359,705119171,2490378,-0.0135929175,-0.023358768,0.0057722437,36.585144,0,20
706117236,706117050,2490378,-0.015061792,-0.036115658,0.0066715544,36.491547,0,20
707117604,707117417,2490378,-0.016380781,-0.020627527,0.004979518,36.47343,0,20
708117968,708117783,2490378,-0.015374885,-0.024797665,0.0046331165,36.476448,0,20
709115841,709115660,2490378,-0.0029277566,-0.048342958,0.0011990812,36.485508,0,20
710116215,710116025,2490378,-0.013599579,-0.021480206,0.0036272206,36.391907,0,20
711119062,711118878,2490378,-0.015411524,-0.02102722,0.0045098774,36.407005,0,20
712119427,712119242,2490378,-0.013409724,-0.022536065,0.004589816,36.358696,0,20
713117304,713117117,2490378,-0.02017121,-0.013666195,0.006161945,36.38889,0,20
714117666,714117479,2490378,-0.0129634,-0.018738974,0.0042767227,36.403988,0,20
715118030,715117841,2490378,-0.015797894,-0.0214036,0.004939548,36.328503,0,20
716115899,716115714,2490378,-0.01731007,-0.027282428,0.0052493108,36.33454,0,20
717116260,717116075,2490378,-0.013083308,-0.025786906,0.004926225,36.301327,0,20
718116625,718116435,2490378,-0.01667389,-0.023095636,0.005232657,36.186596,0,20
719119471,719119283,2490378,-0.0140725495,-0.020544257,0.005369219,36.24396,0,20
720117337,720117154,2490378,-0.013329786,-0.024374656,0.005002833,36.304348,0,20
721117701,721117513,2490378,-0.01394598,-0.023531968,0.0055157733,36.141304,0,20
722118055,722117871,2490378,-0.015088438,-0.02089399,0.0048729326,36.132248,0,20
723115928,723115740,2490378,-0.013276493,-0.023948316,0.0032308577,36.123188,0,20
724116282,724116097,2490378,-0.013426378,-0.022532733,0.0051360643,36.053745,0,20
725116639,725116454,2490378,-0.014468913,-0.02370517,0.0041767997,36.02959,0,20
726119484,726119298,2490378,-0.01428239,-0.024657773,0.0040502297,36.12017,0,20
727117351,727117165,2490378,-0.015731279,-0.024804326,0.005612366,35.98128,0,20
728117704,728117520,2490378,-0.012210643,-0.02349533,0.0055890507,36.02657,0,20
729118058,729117874,2490378,-0.0152316615,-0.025700307,0.0051327334,35.99336,0,20
730115926,730115740,2490378,-0.020104595,-0.021650078,0.005182695,36.02657,0,20
731116281,731116094,2490378,-0.014132504,-0.019415123,0.0058921515,35.954105,0,20
732116636,732116447,2490378,-0.012833499,-0.025283959,0.004792994,36.014492,0,20
733119471,733119288,2490378,-0.016310835,-0.02170337,0.0058954824,35.842392,0,20
734117340,734117151,2490378,-0.013896018,-0.02533059,0.004566501,35.89674,0,20
735117690,735117503,2490378,-0.0068813935,-0.024980858,0.0037371363,35.90278,0,20
736118041,736117854,2490378,-0.0079539055,-0.027948584,0.005112749,35.932972,0,20
737115900,737115717,2490378,-0.020794066,-0.020011332,0.007117879,35.794083,0,20
738116278,738116067,2490378,-0.012646976,-0.020101264,0.004736371,35.85447,0,20
739119092,739118905,2490378,-0.015161715,-0.029580666,0.005176034,35.845413,0,20
740119465,740119255,2490378,-0.015687978,-0.033497665,0.0053758807,35.88164,0,20
741117302,741117115,2490378,-0.008683346,-0.020147895,0.0044066235,35.872585,0,20
742117648,742117464,2490378,-0.015498124,-0.025250651,0.0052892803,35.8122,0,20
743117995,743117812,2490378,-0.015061792,-0.024158156,0.005019487,35.8122,0,20
744115858,744115671,2490378,-0.010208844,-0.023725154,0.0027612175,35.769928,0,20
745116204,745116018,2490378,-0.011228063,-0.02673951,0.0050561256,35.75785,0,20
746119042,746118854,2490378,-0.011664395,-0.018945483,0.004579824,35.72464,0,20
747119388,747119202,2490378,-0.015105092,-0.021723354,0.005572397,35.785027,0,20
748117246,748117057,2490378,-0.01305,-0.022519412,0.0040802066,35.637077,0,20
749117588,749117403,2490378,-0.015854517,-0.021826608,0.0056456737,35.754833,0,20
750117962,750117748,2490378,-0.017676456,-0.026592957,0.0049095713,35.637077,0,20
751115792,751115604,2490378,-0.0072810873,-0.024068223,0.0042633996,35.682365,0,20
752116132,752115948,2490378,-0.014658768,-0.017823009,0.004686409,35.63104,0,20
753118972,753118780,2490378,-0.017549885,-0.026050039,0.0056223585,35.664253,0,20
754119307,754119124,2490378,-0.009246248,-0.024154825,0.0040335758,35.685387,0,20
755117162,755116978,2490378,-0.015058462,-0.025580399,0.004623124,35.62198,0,20
756117504,756117320,2490378,-0.012047435,-0.024761027,0.003773775,35.625,0,20
757117861,757117662,2490378,-0.014422282,-0.024168147,0.0043067,35.552536,0,20
758115702,758115515,2490378,-0.011551148,-0.024990851,0.00481964,35.6401,0,20
759116044,759115856,2490378,-0.013143262,-0.017859649,0.0040901992,35.513287,0,20
760118869,760118685,2490378,-0.014119181,-0.022399502,0.003940314,35.519325,0,20
761119211,761119026,2490378,-0.0033174579,-0.019971363,0.0021716692,35.519325,0,20
762117066,762116877,2490378,-0.012397167,-0.035216346,0.004626455,35.44988,0,20
763117403,763117216,2490378,0.00040968606,-0.026722856,0.0018152756,35.531403,0,20
764117741,764117555,2490378,-0.010445329,-0.025453828,0.0029310873,35.44384,0,20
765115592,765115406,2490378,-0.02520402,0.005492458,0.011847588,35.36232,0,20
766115926,766115743,2490378,0.11126141,-0.0990874,-0.012626991,35.386475,0,20
767118754,767118569,2490378,-0.014092535,-0.024587825,0.0040868684,35.480072,0,20
768119093,768118906,2490378,-0.011354633,-0.02298572,0.0044998853,35.422707,0,20
769116938,769116755,2490378,-0.009879096,-0.027881969,0.0048696017,35.371376,0,20
770117274,770117091,2490378,-0.025407199,-0.022952411,0.0046131318,35.341183,0,20
771117618,771117427,2490378,-0.012054097,-0.020704135,0.005232657,35.480072,0,20
772115462,772115274,2490378,-0.016447397,-0.02102056,0.0044032927,35.36232,0,20
773115799,773115609,2490378,-0.011038208,-0.026126647,0.0050094947,35.335144,0,20
774118620,774118432,2490378,-0.016054364,-0.02200314,0.0049228943,35.317028,0,20
775118951,775118767,2490378,-0.011777642,-0.02247278,0.004559839,35.371376,0,20
776116809,776116613,2490378,-0.014871937,-0.03203545,0.004076876,35.383453,0,20
777117168,777116946,2490378,-0.014678752,-0.023528637,0.005139395,35.335144,0,20
778117466,778117279,2490378,-0.010128905,-0.025593722,0.004579824,35.292873,0,20
779115312,779115124,2490378,-0.014762022,-0.022272933,0.0055757277,35.232487,0,20
780115646,780115456,2490378,-0.010195521,-0.023825077,0.005109418,35.244564,0,20
781118463,781118276,2490378,-0.015105092,-0.023009036,0.003877029,35.1872,0,20
782118797,782118608,2490378,-0.012880131,-0.023225537,0.0034573507,35.069447,0,20
783116638,783116451,2490378,-0.014345674,-0.022436142,0.004443262,35.18116,0,20
784116965,784116782,2490378,-0.012357198,-0.022289587,0.0048795943,35.25664,0,20
785117298,785117113,2490378,-0.012583691,-0.021303676,0.0050494643,35.13587,0,20
786115139,786114954,2490378,-0.012726914,-0.024228102,0.004366654,35.141907,0,20
787117959,787117773,2490378,-0.016044373,-0.023841731,0.005748928,35.069447,0,20
788118286,788118102,2490378,-0.014905245,-0.025993416,0.00498951,35.108696,0,20
789116130,789115943,2490378,-0.010118913,-0.023508653,0.00537255,35.09662,0,20
790116457,790116272,2490378,-0.016214242,-0.021693377,0.00409353,35.153984,0,20
791116791,791116600,2490378,-0.023385413,-0.025257314,0.004426608,35.03321,0,20
792119604,792119416,2490378,-0.014249082,-0.021916538,0.0043067,35.099636,0,20
793114954,793114767,2490378,-0.013079978,-0.022835836,0.005795559,35.00604,0,20
794117769,794117583,2490378,-0.014505551,-0.024717726,0.0059854137,35.018116,0,20
795118102,795117910,2490378,-0.010781738,-0.022382848,0.0048396247,34.99396,0,20
796118426,796118237,2490378,-0.014192458,-0.021693377,0.0052593034,34.978867,0,20
797116261,797116075,2490378,-0.013722818,-0.023308806,0.0043733157,35.051327,0,20
798116585,798116401,2490378,-0.013023354,-0.026403101,0.0050428025,35.00906,0,20
799119403,799119215,2490378,-0.010851685,-0.020391041,0.005675651,35.0151,0,20
800114750,800114563,2490378,-0.011820942,-0.025137404,0.0048729326,34.91848,0,20
801117563,801117376,2490378,-0.012437137,-0.021247052,0.004359992,35.003017,0,20
802117887,802117701,2490378,-0.015761256,-0.023981623,0.0058188746,34.846016,0,20
803118210,803118025,2490378,-0.011977489,-0.016570635,0.0052526416,34.990944,0,20
804116048,804115860,2490378,-0.02285249,-0.02933752,0.0052892803,34.90942,0,20
805116368,805116184,2490378,-0.014395636,-0.017443301,0.006368453,34.91848,0,20
806119180,806118995,2490378,-0.009272895,-0.025976762,0.0048629404,34.933575,0,20
807117017,807116829,2490378,-0.012587022,-0.038320635,0.0039303214,34.981884,0,20
808117337,808117151,2490378,-0.013839396,-0.02178664,0.0052692955,34.806763,0,20
809117659,809117473,2490378,-0.015468148,-0.022905782,0.0040369066,34.906403,0,20
810117986,810117795,2490378,-0.0150085,-0.026080016,0.00541585,34.82186,0,20
811115815,811115627,2490378,-0.013289817,-0.018365927,0.0054325038,34.797707,0,20
812116133,812115948,2490378,-0.013489664,-0.020630857,0.005309265,34.81884,0,20
813118947,813118756,2490378,-0.01164108,-0.025104096,0.0038703675,34.64674,0,20
814116771,814116588,2490378,-0.012540391,-0.021473546,0.0046930704,34.758453,0,20
815117092,815116907,2490378,-0.01594445,-0.020674158,0.004882925,34.701088,0,20
816117409,816117226,2490378,-0.014532198,-0.023695176,0.0050161565,34.649757,0,20
817117732,817117545,2490378,-0.014408959,-0.021976493,0.0060520293,34.664856,0,20
818115562,818115375,2490378,-0.017260108,-0.021180436,0.0055290964,34.701088,0,20
819118414,819118183,2490378,-0.01914866,-0.021010567,0.005688974,34.676933,0,20
820118684,820118499,2490378,-0.018915506,-0.01872565,0.0049195634,34.658817,0,20
821116515,821116328,2490378,-0.011750995,-0.024551187,0.005429173,34.613525,0,20
822116832,822116645,2490378,-0.014801991,-0.03386072,0.0034473585,34.673912,0,20
823117147,823116962,2490378,-0.018695675,-0.032142036,0.0050128256,34.661835,0,20
824119956,824119767,2490378,-0.013879364,-0.020244487,0.0059088054,34.59541,0,20
825115291,825115106,2490378,-0.008286984,-0.022905782,0.004753025,34.64372,0,20
826118095,826117910,2490378,-0.015601379,-0.01501183,0.0044032927,34.544083,0,20
827118412,827118225,2490378,-0.016670559,-0.022123048,0.0051327334,34.559177,0,20
828116237,828116052,2490378,-0.011241386,-0.023265505,0.004623124,34.54106,0,20
829116551,829116367,2490378,-0.009602642,-0.019425115,0.004792994,34.577297,0,20
830116866,830116681,2490378,-0.007817343,-0.022202987,0.0041901227,34.565216,0,20
831119672,831119483,2490378,-0.018009532,-0.026030054,0.0046531013,34.495773,0,20
832117492,832117309,2490378,-0.019644946,-0.025467152,0.0054791346,34.547104,0,20
833117806,833117622,2490378,-0.011631087,-0.018832237,0.0065949466,34.46256,0,20
834118120,834117935,2490378,-0.016091004,-0.014299043,0.0052992725,34.483696,0,20
835115945,835115760,2490378,-0.015684647,-0.024627795,0.0036005743,34.532005,0,20
836116261,836116072,2490378,-0.23340115,0.098654404,-0.014362328,34.42633,0,20
837119062,837118873,2490378,-0.00021983155,-0.009089702,0.0055157733,34.586353,0,20
838119368,838119184,2490378,-0.026376456,-0.034606814,0.0038437212,34.51691,0,20
839117193,839117007,2490378,-0.05548415,-0.02656631,0.0018419219,34.495773,0,20
840117505,840117318,2490378,-0.017603178,-0.022802528,0.007667458,34.522945,0,20
841117815,841117629,2490378,-0.015658002,-0.032814857,0.0044166157,34.38104,0,20
842115638,842115451,2490378,-0.031242726,0.034899924,0.015644679,34.46256,0,20
843115943,843115760,2490378,-0.015028484,-0.0076141655,0.006208576,34.356884,0,20
844118780,844118558,2490378,-0.014105857,-0.014915237,0.003893683,34.489735,0,20
845119051,845118866,2490378,-0.016840428,-0.0103420755,0.00562902,34.36896,0,20
846116871,846116686,2490378,-0.0153715545,-0.026599618,0.0036771824,34.329712,0,20
847117178,847116994,2490378,-0.010368722,-0.02477768,0.0055457503,34.281403,0,20
848117484,848117302,2490378,-0.012050766,-0.022635989,0.005112749,34.29348,0,20
849115305,849115119,2490378,-0.015208346,-0.029870445,0.0035039817,34.269325,0,20
850118098,850117913,2490378,-0.022442803,0.10344074,0.011564472,34.28442,0,20
851118401,851118219,2490378,-0.013656203,-0.03031677,0.0024581165,34.2029,0,20
852118709,852118524,2490378,-0.01625088,-0.026213247,0.0033174579,34.19988,0,20
853116525,853116340,2490378,0.0039070062,-0.028168416,0.003167573,34.214977,0,20
854116829,854116644,2490378,-0.01121474,0.014742037,0.006008729,34.19686,0,20
855119631,855119435,2490378,-0.027578868,-0.033244524,0.0047230474,34.329712,0,20
856114947,856114762,2490378,-0.013203216,-0.02328216,0.0063984306,34.11836,0,20
857117737,857117552,2490378,-0.0118409265,-0.03002366,0.004759686,34.19686,0,20
858118043,858117854,2490378,-0.012457121,-0.031945523,0.0026146632,34.073067,0,20
859118349,859118155,2490378,-0.0063817766,-0.02251608,0.0044932235,34.09722,0,20
860116152,860115968,2490378,-0.0195317,-0.025816884,0.005778905,34.091183,0,20
861116454,861116268,2490378,-0.013163247,-0.029853791,0.005142726,34.051933,0,20
862119244,862119057,2490378,-0.007131202,-0.01564801,0.0041168453,34.088165,0,20
863117056,863116868,2490378,-0.016314166,-0.024131509,0.0053159264,34.039856,0,20
864117330,864117167,2490378,-0.008533461,-0.021943185,0.0056390124,34.00664,0,20
865117653,865117465,2490378,-0.014319028,-0.01632749,0.0048629404,34.030796,0,20
866117951,866117763,2490378,-0.0071112174,-0.028674694,0.0062552067,33.958332,0,20
867115758,867115573,2490378,-0.02784533,-0.047666807,0.0034406967,33.89795,0,20
868118543,868118358,2490378,-0.015937787,-0.008003867,0.0071745026,33.96437,0,20
869118838,869118655,2490378,0.02196317,0.031955514,0.0008560107,33.9372,0,20
870116653,870116463,2490378,-0.046600956,-0.008919831,0.011051532,33.97947,0,20
871116947,871116759,2490378,-0.015931126,-0.020441003,0.0056356816,33.894928,0,20
872117243,872117055,2490378,0.22344212,-0.059344526,-0.0037238132,33.93116,0,20
873120024,873119839,2490378,-0.052646324,0.0067947935,0.009915736,33.913044,0,20
874115348,874115157,2490378,-0.057042956,0.07878296,0.024374656,33.907005,0,20
875118128,875117940,2490378,-0.031695712,-0.050284803,0.0021383613,33.786232,0,20
876118423,876118235,2490378,-0.006128637,-0.019238591,0.004593147,33.864735,0,20
877116257,877116040,2490378,-0.0098624425,-0.02354196,0.004719717,33.934177,0,20
878116518,878116334,2490378,-0.007167841,-0.023971632,0.00473304,33.837563,0,20
879116812,879116628,2490378,-0.017370023,-0.01965827,0.0042400844,33.9221,0,20
880119596,880119409,2490378,-0.0060886675,-0.022376187,0.0049228943,33.737923,0,20
881117400,881117214,2490378,-0.00075941806,-0.03330448,-0.00029310872,33.725845,0,20
882117733,882117507,2490378,-0.0063517997,-0.025433844,0.0041001914,33.828503,0,20
883117984,883117799,2490378,-0.010591884,-0.03557607,0.0040635527,33.870773,0,20
884115791,884115604,2490378,-0.009699235,-0.015471478,0.0048462865,33.713768,0,20
885116085,885115895,2490378,-0.005732274,-0.030689817,0.0044599157,33.84662,0,20
886118860,886118675,2490378,-0.009229594,-0.024464587,0.0040802066,33.774155,0,20
887119149,887118967,2490378,-0.017519908,-0.027362367,0.0054857964,33.737923,0,20
888116955,888116770,2490378,-0.008736638,-0.015558078,0.005006164,33.79227,0,20
889117246,889117061,2490378,-0.026499694,-0.019734878,0.0064217458,33.74396,0,20
890117540,890117351,2490378,-0.008596746,-0.041724693,0.004713055,33.656403,0,20
891115339,891115154,2490378,-0.012863477,-0.022599349,0.00596876,33.70169,0,20
892115631,892115444,2490378,-0.0012057427,-0.015854517,0.009782504,33.650364,0,20
893118408,893118222,2490378,-0.014262404,-0.029454097,0.0044932235,33.719807,0,20
894118698,894118512,2490378,-0.006521669,-0.030653179,0.0042800535,33.725845,0,20
895116498,895116313,2490378,-0.0059854137,-0.0056956355,0.0066715544,33.592995,0,20
896116787,896116603,2490378,-0.0074143186,-0.017406661,0.004729709,33.623188,0,20
897119572,897119380,2490378,-0.023631891,-0.036725193,0.004759686,33.602055,0,20
898114878,898114693,2490378,-0.017796364,-0.027012635,0.004942879,33.677536,0,20
899117656,899117470,2490378,-0.020774081,-0.027219143,0.0035406202,33.746983,0,20
900117946,900117762,2490378,-0.00750425,-0.029377488,0.0044932235,33.596016,0,20
901118236,901118047,2490378,-0.014382313,-0.023288822,0.010075613,33.57488,0,20
902116035,902115847,2490378,-0.0031009573,-0.012277259,0.008197052,33.538647,0,20
903116320,903116136,2490378,-0.010891654,-0.030846363,0.012227297,33.638287,0,20
904119097,904118912,2490378,-0.008167075,-0.02541719,0.0056423433,33.553745,0,20
905116898,905116712,2490378,-0.012603676,-0.01586784,0.0044965544,33.541668,0,20
906117186,906117000,2490378,-0.0068214396,-0.026596287,0.0048762634,33.605072,0,20
907117483,907117288,2490378,-0.013666195,-0.019112023,0.0070845713,33.677536,0,20
908117763,908117575,2490378,-0.012383844,-0.012260605,0.0050894334,33.532608,0,20
909115561,909115375,2490378,-0.019748202,-0.03121608,0.0050128256,33.61111,0,20
910118339,910118150,2490378,-0.010541922,-0.03189889,0.004549847,33.641304,0,20
911118627,911118438,2490378,-0.00985245,-0.014055896,0.004559839,33.641304,0,20
912116428,912116237,2490378,-0.0085201375,-0.030776417,0.0050294795,33.677536,0,20
913116708,913116524,2490378,-0.010052297,-0.02533392,0.0058455206,33.44505,0,20
914116995,914116811,2490378,-0.0106585,-0.0214902,0.0054624807,33.559784,0,20
915119772,915119587,2490378,-0.0070612556,-0.023835069,0.005139395,33.556763,0,20
916117629,916117385,2490378,-0.010212175,-0.019535031,0.009975689,33.66546,0,20
917117856,917117672,2490378,-0.0018352603,-0.036571976,0.0053026034,33.52053,0,20
918118144,918117959,2490378,-0.019255245,-0.01957833,0.0054857964,33.40278,0,20
919115946,919115758,2490378,-0.014445597,-0.024211448,0.0036771824,33.580917,0,20
920116233,920116045,2490378,0.014272396,-0.017896287,0.004639778,33.58394,0,20
921119016,921118820,2490378,-0.014705398,-0.020877335,0.0024547856,33.58394,0,20
922119290,922119106,2490378,0.0023648546,-0.0257103,0.005572397,33.523552,0,20
923117116,923116905,2490378,-0.009885758,-0.030250154,0.0045398544,33.586956,0,20
924117377,924117191,2490378,-0.010998239,-0.02008128,0.0056490046,33.605072,0,20
925117664,925117478,2490378,-0.01104487,-0.026293186,0.005305934,33.499397,0,20
926115458,926115276,2490378,-0.009745865,-0.025077451,0.0058688363,33.65942,0,20
927115746,927115563,2490378,-0.01117477,-0.015278293,0.0061253062,33.538647,0,20
928118525,928118338,2490378,-0.01902209,-0.019891424,0.004703063,33.704712,0,20
929118811,929118624,2490378,-0.012213974,-0.021446899,0.0050494643,33.57186,0,20
930116607,930116423,2490378,-0.0146387825,-0.018142764,0.004962864,33.57186,0,20
931116893,931116709,2490378,0.007357695,-0.03498319,-0.0007327718,33.49336,0,20
932117179,932116996,2490378,-0.012070751,-0.018096134,0.0059121363,33.592995,0,20
933114980,933114794,2490378,-0.01748327,-0.031365965,0.005355896,33.635265,0,20
934117753,934117569,2490378,-0.00020650843,-0.029883768,0.0019684916,33.496376,0,20
935118040,935117855,2490378,-0.018136103,-0.002588017,0.0067614857,33.553745,0,20
936118326,936118142,2490378,-0.012517075,-0.030420024,0.004396631,33.499397,0,20
937116126,937115940,2490378,-0.012127373,-0.01747994,0.009865774,33.466183,0,20
938116412,938116226,2490378,-0.017766386,-0.024198124,0.0052426495,33.614132,0,20
939119184,939119001,2490378,-0.022762557,-0.026789472,0.009795827,33.369564,0,20
940116987,940116800,2490378,-0.015131738,-0.015141731,0.004153484,33.602055,0,20
941117272,941117086,2490378,-0.009915736,-0.028944487,0.0052426495,33.53563,0,20
942117558,942117373,2490378,-0.010631853,-0.024104863,0.0058588437,33.58394,0,20
943115359,943115172,2490378,-0.010062289,-0.02008794,0.0050694486,33.56884,0,20
944115646,944115458,2490378,-0.0049228943,-0.029131012,0.006008729,33.511475,0,20
945118422,945118233,2490378,-0.008973124,-0.015441501,0.0042633996,33.57186,0,20
946118710,946118520,2490378,-0.010835031,-0.02716252,0.0051327334,33.589977,0,20
947116502,947116319,2490378,-0.015254977,-0.02017121,0.0048762634,33.632248,0,20
948116793,948116606,2490378,-0.0066615622,-0.021846592,0.004516539,33.541668,0,20
949117076,949116893,2490378,-0.014568836,-0.023215543,0.005345904,33.605072,0,20
950119854,950119669,2490378,-0.01164108,-0.01978817,0.0040535606,33.61111,0,20
951115165,951114979,2490378,-0.0087033305,-0.02588683,0.0034873278,33.417873,0,20
952117939,952117755,2490378,-0.013709495,-0.024511218,0.0024681087,33.547707,0,20
953118227,953118042,2490378,-0.008560107,-0.022749234,0.0057855668,33.541668,0,20
954116030,954115841,2490378,-0.011834265,-0.02017121,0.0052826186,33.722828,0,20
955116316,955116129,2490378,-0.012983385,-0.03011359,0.004076876,33.517513,0,20
956119089,956118905,2490378,-0.012130705,-0.010715122,0.0061852606,33.541668,0,20
957119376,957119193,2490378,-0.013483002,-0.027515583,0.004533193,33.614132,0,20
958117178,958116993,2490378,-0.006295176,-0.018089471,0.0044032927,33.677536,0,20
959117466,959117281,2490378,-0.016290851,-0.035632696,0.004000268,33.686596,0,20
960117754,960117569,2490378,-0.012233959,-0.025657006,0.003377412,33.58394,0,20
961115554,961115369,2490378,-0.00776072,-0.01888886,0.005535758,33.66848,0,20
962115842,962115658,2490378,-0.014452259,-0.0363688,0.0041168453,33.62017,0,20
963118625,963118435,2490378,-0.010628522,-0.008536791,0.0058655054,33.692635,0,20
964118909,964118723,2490378,-0.010738438,-0.030939626,0.003867037,33.592995,0,20
965116730,965116524,2490378,-0.012853484,-0.009585988,0.005505781,33.683575,0,20
966117053,966116813,2490378,-0.0106585,-0.032405168,0.0048263017,33.650364,0,20
967117285,967117102,2490378,-0.014398967,-0.01616095,0.0060287137,33.602055,0,20
968115092,968114903,2490378,-0.008190391,-0.037044946,0.0047263782,33.771137,0,20
969117864,969117681,2490378,-0.018229365,-0.012217305,0.0066982005,33.671497,0,20
970118154,970117971,2490378,-0.010212175,-0.033038016,0.0040435684,33.70169,0,20
971118446,971118261,2490378,-0.010465314,-0.015304939,0.0038370597,33.75302,0,20
972116249,972116063,2490378,-0.010195521,-0.02703928,0.0053792116,33.719807,0,20
973116540,973116353,2490378,-0.012866807,-0.023741808,0.005389204,33.70169,0,20
974119316,974119131,2490378,-0.015624694,-0.020281127,0.0050094947,33.686596,0,20
975114635,975114446,2490378,-0.015854517,-0.014378982,0.006751493,33.689613,0,20
976117409,976117224,2490378,-0.010162213,-0.027445637,0.0040668836,33.75604,0,20
977117704,977117515,2490378,-0.014049235,-0.015997741,0.006711524,33.771137,0,20
978117994,978117806,2490378,-0.0115011865,-0.029454097,0.004150153,33.768116,0,20
979115795,979115609,2490378,-0.008563438,-0.012144027,0.005172703,33.65942,0,20
980118574,980118388,2490378,-0.0102721285,-0.035173047,0.0052726264,33.765095,0,20
981118869,981118680,2490378,-0.01419912,-0.010555245,0.005765582,33.75302,0,20
982116668,982116483,2490378,-0.009759189,-0.04200115,0.00409353,33.879833,0,20
983116960,983116775,2490378,-0.013796095,-0.012607006,0.0064084227,33.843597,0,20
984117250,984117067,2490378,-0.007950574,-0.037164856,0.004346669,33.722828,0,20
985120044,985119847,2490378,-0.014135835,-0.011327987,0.0054957885,33.816425,0,20
986115349,986115163,2490378,-0.008896517,-0.031998813,0.0061819297,33.746983,0,20
987118127,987117943,2490378,-0.0089997705,-0.010881661,0.0052692955,33.75302,0,20
988118421,988118236,2490378,-0.01471206,-0.034770023,0.004686409,33.762077,0,20
989116230,989116040,2490378,-0.009516042,-0.013975957,0.0062119067,33.913044,0,20
990116523,990116335,2490378,-0.011491194,-0.030133577,0.0045864857,33.695652,0,20
991116812,991116626,2490378,-0.014365659,-0.020707466,0.0044066235,33.855675,0,20
992119593,992119408,2490378,-0.010581891,-0.024381317,0.00515938,33.810387,0,20
993117397,993117213,2490378,-0.009486064,-0.020667497,0.0036138974,33.75604,0,20
994117692,994117506,2490378,-0.010731776,-0.016860414,0.005186026,33.71075,0,20
995117987,995117800,2490378,-0.009889089,-0.02980716,0.004912902,33.84058,0,20
996115792,996115605,2490378,-0.013449694,-0.019461753,0.0040269145,33.861713,0,20
997116085,997115899,2490378,-0.011780973,-0.026363133,0.0048929173,33.831524,0,20
998118873,998118681,2490378,-0.0126169985,-0.021157121,0.0070812404,33.934177,0,20
999119161,999118976,2490378,-0.013369755,-0.021037214,0.005445827,33.84662,0,20
1000116970,1000116782,2490378,-0.011864242,-0.03292477,0.0044332696,33.89795,0,20
1001117268,1001117080,2490378,-0.011944181,-0.013236524,0.005129403,33.867756,0,20
1002117556,1002117371,2490378,-0.0151817,-0.03885023,0.0051027564,33.93116,0,20
1003115367,1003115177,2490378,-0.012643645,-0.01283683,0.006371784,33.940216,0,20
1004118149,1004117961,2490378,-0.012696938,-0.03551945,0.0052126725,33.952293,0,20
1005118439,1005118256,2490378,-0.011321325,-0.020197857,0.005129403,33.876812,0,20
1006118734,1006118551,2490378,-0.016084341,-0.028155092,0.0047830017,33.83454,0,20
1007116546,1007116358,2490378,-0.0118409265,-0.01863572,0.006135299,33.88889,0,20
1008116845,1008116653,2490378,-0.013742803,-0.026932696,0.0041301684,33.919083,0,20
1009119648,1009119437,2490378,-0.01616095,-0.023944985,0.005295942,33.88285,0,20
1010117434,1010117245,2490378,-0.010348736,-0.019548355,0.0060919984,33.961353,0,20
1011117725,1011117541,2490378,-0.012174005,-0.019255245,0.006208576,33.876812,0,20
1012118023,1012117837,2490378,-0.013286485,-0.023984954,0.004626455,33.891907,0,20
1013118320,1013118133,2490378,-0.014958538,-0.0171835,0.005355896,33.955315,0,20
1014116125,1014115941,2490378,-0.009692573,-0.03266497,0.004929556,33.900967,0,20
1015116420,1015116237,2490378,-0.016407428,-0.021733345,0.004379977,33.958332,0,20
1016119188,1016119022,2490378,-0.013909342,-0.023618568,0.0038703675,33.943237,0,20
1017117024,1017116830,2490378,-0.014112519,-0.028198393,0.0052093416,33.952293,0,20
1018117312,1018117127,2490378,-0.012796861,-0.011924196,0.005172703,34.00664,0,20
1019117610,1019117424,2490378,-0.010195521,-0.041095175,0.004106853,33.982487,0,20
1020117904,1020117721,2490378,-0.007540888,-0.015714625,0.004553178,33.903984,0,20
1021115716,1021115530,2490378,-0.014695406,-0.025657006,0.0054091886,33.955315,0,20
1022118502,1022118316,2490378,-0.010635184,-0.037771057,0.003960299,34.036835,0,20
1023118803,1023118613,2490378,-0.016570635,-0.0050461334,0.0060886675,33.876812,0,20
1024116609,1024116422,2490378,-0.008686677,-0.026786141,0.0040269145,34.057972,0,20
1025116906,1025116720,2490378,-0.0142290965,-0.0056656585,-0.0026546326,34.024757,0,20
1026117206,1026117018,2490378,0.011907542,-0.018922167,0.0054424964,33.991547,0,20
1027119987,1027119804,2490378,-0.008283652,-0.022659304,0.0046564317,33.952293,0,20
1028115309,1028115126,2490378,-0.015784571,-0.021000575,0.004713055,33.943237,0,20
1029118098,1029117913,2490378,-0.014522205,-0.016557314,0.0046331165,34.085144,0,20
1030118399,1030118211,2490378,-0.01194085,-0.026602948,0.004196784,34.01872,0,20
1031116204,1031116022,2490378,-0.04357661,-0.03760452,0.0044765696,33.997585,0,20
1032116508,1032116321,2490378,0.05445827,0.0039136675,0.00018652374,34.024757,0,20
1033116805,1033116620,2490378,-0.07052263,-0.28825244,0.004736371,34.094204,0,20
1034119599,1034119408,2490378,0.036735184,-0.12731245,-0.023248851,34.05495,0,20
1035117403,1035117219,2490378,-0.05036474,-0.11134801,0.07827669,34.076088,0,20
1036117702,1036117519,2490378,-0.17917937,-0.044269413,-0.01467209,34.003624,0,20
1037118004,1037117819,2490378,-0.021356968,0.0066582314,-0.15863177,34.115337,0,20
1038115823,1038115631,2490378,-0.17832668,0.1880459,-0.36835775,34.01268,0,20
1039116120,1039115932,2490378,-0.11029881,0.025293952,-0.3082338,34.00664,0,20
1040118907,1040118721,2490378,0.008500153,0.086390465,-0.05778239,34.14553,0,20
1041119207,1041119022,2490378,-0.036019064,-0.00035972436,-0.022019794,34.172707,0,20
1042117022,1042116835,2490378,-0.03851049,-0.23177573,-0.104106896,34.11232,0,20
1043117327,1043117137,2490378,-0.032598354,-0.034416962,0.0032674961,34.130436,0,20
1044117631,1044117439,2490378,0.009019755,-0.039303217,0.0038004213,34.05495,0,20
1045115435,1045115252,2490378,0.04636447,-0.17348373,-0.2005863,34.136475,0,20
1046115743,1046115555,2490378,0.060583577,0.03130601,-0.120734155,34.088165,0,20
1047118531,1047118345,2490378,-0.06849418,0.07241784,-0.038134113,34.163647,0,20
1048118850,1048118648,2490378,-0.053638898,0.04760019,0.12151688,34.157608,0,20
1049116651,1049116463,2490378,-0.16441402,-0.31900555,-0.012540391,34.10326,0,20
1050116951,1050116766,2490378,-0.08750961,0.017233461,-0.009299541,34.257248,0,20
1051117257,1051117070,2490378,0.0066415775,-0.103507355,0.09155318,34.214977,0,20
1052115073,1052114885,2490378,0.08860877,-0.1778837,0.17042607,34.19988,0,20
1053117862,1053117678,2490378,-0.03403725,0.16105326,0.18228032,34.20894,0,20
1054118169,1054117982,2490378,0.071295366,-0.16764154,0.25347576,34.166668,0,20
1055118472,1055118287,2490378,0.045261983,-0.023098966,0.25032485,34.33273,0,20
1056116293,1056116104,2490378,0.029603982,0.04333013,0.15803556,34.142513,0,20
1057116596,1057116409,2490378,0.056733195,-0.10080609,0.18398236,34.296497,0,20
1058119387,1058119204,2490378,0.024744373,-0.03710823,0.15741271,34.20894,0,20
1059114716,1059114533,2490378,0.008043836,-0.05804885,0.09210942,34.266304,0,20
1060117515,1060117328,2490378,-0.07572198,-0.016643913,-0.029537367,34.254227,0,20
1061117825,1061117635,2490378,0.021247052,-0.03802753,0.076514706,34.254227,0,20
1062118128,1062117942,2490378,-0.027182505,-0.030120254,-0.06054694,34.320652,0,20
1063115948,1063115762,2490378,0.089111716,-0.18250349,-0.068460874,34.405193,0,20
1064116255,1064116070,2490378,-0.14647442,0.0899111,-0.05425176,34.402176,0,20
1065119052,1065118867,2490378,0.10068285,-0.06924361,-0.01036539,34.408215,0,20
1066116871,1066116688,2490378,0.0012390505,-0.022699272,0.17855984,34.46256,0,20
1067117237,1067116997,2490378,-0.19730881,-0.065163404,0.014868607,34.492752,0,20
1068117491,1068117307,2490378,-0.012893453,0.07064254,0.083902374,34.438408,0,20
1069117804,1069117619,2490378,-0.020973928,0.026513018,0.0388036,34.347828,0,20
1070115629,1070115440,2490378,-0.01603438,-0.06897715,-0.08222699,34.3901,0,20
1071118426,1071118240,2490378,-0.031705704,-0.05778905,0.07796026,34.50483,0,20
1072118737,1072118551,2490378,0.030007007,-0.006558308,0.016304173,34.525967,0,20
1073116562,1073116375,2490378,-0.004576493,-0.01308997,0.004546516,34.46256,0,20
1074116876,1074116688,2490378,0.0032641655,-0.024158156,-0.0030609877,34.447464,0,20
1075117189,1075117001,2490378,0.035163056,-0.018728983,-0.008813247,34.519928,0,20
1076119991,1076119804,2490378,-0.009436103,-0.022962404,0.02272925,34.492752,0,20
1077115329,1077115141,2490378,0.063757814,0.07854315,0.045851532,34.5622,0,20
1078118130,1078117944,2490378,0.030216847,-0.10306436,-0.006498354,34.619564,0,20
1079118445,1079118260,2490378,0.016124312,0.092758924,-0.008107121,34.58937,0,20
1080116271,1080116087,2490378,-0.010565237,-0.068221055,0.056430094,34.559177,0,20
1081116589,1081116404,2490378,0.04771344,0.06217902,-0.0064250766,34.571255,0,20
1082116903,1082116720,2490378,-0.050741117,-0.1514706,-0.033331126,34.673912,0,20
1083119714,1083119526,2490378,-0.004763017,0.10807718,-0.02682278,34.64372,0,20
1084117542,1084117356,2490378,0.05411853,0.07278756,0.017639816,34.682972,0,20
1085117858,1085117674,2490378,0.008660031,-0.022466118,0.0044799005,34.676933,0,20
1086118202,1086117993,2490378,-0.08017856,-0.07869969,0.0003164242,34.725243,0,20
1087116013,1087115825,2490378,-0.10404361,0.0022416157,0.015921133,34.806763,0,20
1088116330,1088116145,2490378,0.041668072,0.040152565,-0.009332849,34.767513,0,20
1089116655,1089116465,2490378,-0.038746975,-0.052140046,0.0080671515,34.755436,0,20
1090119460,1090119275,2490378,-0.0053792116,0.024854288,0.060070638,34.713165,0,20
1091117295,1091117109,2490378,-0.0005129403,-0.00090930326,0.0013922665,34.86111,0,20
1092117625,1092117432,2490378,0.011364625,-0.03138595,0.04453254,34.921497,0,20
1093117948,1093117755,2490378,0.010888323,-0.03338442,0.031162787,34.815823,0,20
1094115774,1094115590,2490378,0.0020217842,-0.013789434,0.024114855,34.888287,0,20
1095116095,1095115915,2490378,0.25311938,0.056586638,0.02187657,34.91848,0,20
1096118959,1096118728,2490378,-0.025440505,-0.03339108,-0.09926394,34.95773,0,20
1097119238,1097119053,2490378,0.004763017,-0.07937917,-0.18242688,34.99396,0,20
1098117076,1098116891,2490378,-0.058311984,0.03462347,0.21192761,35.039253,0,20
1099117402,1099117218,2490378,0.01193752,0.02597343,-0.32278267,34.990944,0,20
1100117732,1100117545,2490378,0.024367994,-0.19391142,-0.3400461,35.063404,0,20
1101115573,1101115385,2490378,-0.13801092,-0.098884225,-0.304963,35.163044,0,20
1102115903,1102115714,2490378,-0.18271999,0.026463056,0.09422114,35.141907,0,20
1103118715,1103118532,2490378,-0.08031845,0.035529442,0.0050328104,35.021137,0,20
1104116562,1104116373,2490378,-0.030206854,-0.046560988,-0.012177335,35.144928,0,20
1105116891,1105116704,2490378,0.04081872,0.119638324,-0.019271899,35.13587,0,20
1106117338,1106117036,2490378,0.16279192,0.09587653,-0.072357886,35.1872,0,20
1107117554,1107117368,2490378,-0.19404131,0.046287864,-0.08525134,35.22041,0,20
1108115398,1108115213,2490378,0.066232584,0.0033540966,-0.062482122,35.2657,0,20
1109115732,1109115547,2490378,-0.10718121,0.103260875,0.038896862,35.211353,0,20
1110118556,1110118370,2490378,0.06958335,-0.16530666,0.07594514,35.27778,0,20
1111118892,1111118705,2490378,0.13022022,0.050900996,0.045701645,35.365337,0,20
1112116736,1112116552,2490378,-0.12025452,-0.075195715,0.09122343,35.274757,0,20
1113117073,1113116889,2490378,-0.15123412,-0.14491563,0.0044665774,35.413647,0,20
1114117414,1114117227,2490378,0.09025417,-0.0010392037,-0.06606271,35.386475,0,20
1115115262,1115115077,2490378,-0.51272714,-0.05036807,-0.069869794,35.483093,0,20
1116118093,1116117905,2490378,0.35485476,1.4530965,0.21516512,35.489132,0,20
1117118429,1117118245,2490378,0.13786435,0.7907308,0.19362496,35.54046,0,20
1118118772,1118118586,2490378,0.18908177,-0.11522171,0.07728078,35.579712,0,20
1119116635,1119116439,2490378,0.12779874,0.17007302,0.05331248,35.567635,0,20
1120116970,1120116781,2490378,-0.16498691,-0.098691046,0.14157152,35.6401,0,20
1121117311,1121117124,2490378,-0.38104802,0.06344805,0.05748262,35.658215,0,20
1122115162,1122114980,2490378,0.066835456,0.06536658,0.011371287,35.57669,0,20
1123117998,1123117813,2490378,-0.012130705,-0.031619105,-0.1155781,35.688408,0,20
1124118347,1124118159,2490378,0.08508147,0.09130004,0.04139828,35.697464,0,20
1125118693,1125118505,2490378,-0.25550422,-0.25851858,0.023372091,35.89674,0,20
1126116548,1126116364,2490378,-0.03232523,0.049318876,-0.012590352,35.7971,0,20
1127116897,1127116712,2490378,0.11177102,0.0053925347,-0.03769112,35.869564,0,20
1128117243,1128117061,2490378,0.23062328,-0.15938787,0.027941922,35.769928,0,20
1129115114,1129114922,2490378,-0.016410759,0.19645613,0.09714223,35.908817,0,20
1130117947,1130117761,2490378,0.10767749,-0.084858306,0.1311928,35.905796,0,20
1131118295,1131118112,2490378,0.10414686,0.007967228,0.3065784,35.92995,0,20
1132118651,1132118464,2490378,-0.17804357,0.11113817,0.29036084,35.99336,0,20
1133116514,1133116329,2490378,-0.19709563,0.03100291,0.29171315,35.94505,0,20
1134116872,1134116683,2490378,0.04810314,0.06781137,0.19519377,35.975243,0,20
1135117222,1135117037,2490378,0.0889585,-0.027029289,0.23338117,36.11111,0,20
1136115139,1136114904,2490378,-0.23256512,0.004399962,0.3700398,36.096016,0,20
1137117939,1137117749,2490378,-0.19095701,-0.047217153,0.17886294,36.129227,0,20
1138118291,1138118106,2490378,0.1616328,0.14414954,0.049275573,36.228867,0,20
1139118655,1139118464,2490378,0.119521745,-0.14517543,0.076134995,36.25302,0,20
1140116519,1140116335,2490378,-0.0097225495,-0.0025613706,0.0586817,36.16244,0,20
1141116877,1141116693,2490378,-0.1643907,0.084152184,0.11684047,36.222828,0,20
1142117237,1142117053,2490378,0.19886096,-0.053022705,-0.026496364,36.21679,0,20
1143115113,1143114925,2490378,0.040102605,-0.04916566,-0.065056816,36.213768,0,20
1144117963,1144117776,2490378,0.16641915,-0.08298641,0.17959239,36.286232,0,20
1145118322,1145118136,2490378,-0.07585188,-0.15667328,-0.06402761,36.367752,0,20
1146118684,1146118499,2490378,0.09149323,-0.0062152375,0.1673018,36.373795,0,20
1147116559,1147116373,2490378,-0.17362362,0.034903254,0.11262703,36.370773,0,20
1148116922,1148116737,2490378,0.0657796,0.15248649,0.22588357,36.410023,0,20
1149117289,1149117101,2490378,0.036172282,0.07088235,0.22513749,36.449276,0,20
1150115160,1150114977,2490378,-0.12346539,-0.10653836,0.43213886,36.449276,0,20
1151118019,1151117831,2490378,0.10099261,0.038134113,0.16210578,36.410023,0,20
1152118385,1152118197,2490378,-0.020124579,-0.072104745,-0.0066449083,36.449276,0,20
1153118755,1153118563,2490378,0.092305936,0.050458003,0.35272306,36.50664,0,20
1154116633,1154116441,2490378,0.07121543,0.17039943,0.23750468,36.588165,0,20
1155116993,1155116808,2490378,0.01871899,0.0064117536,0.4677749,36.57005,0,20
1156117359,1156117175,2490378,0.026259879,0.22099732,0.45954785,36.391907,0,20
1157115244,1157115054,2490378,-0.280988,0.12383844,0.42855495,36.494564,0,20
1158118098,1158117911,2490378,-0.051973507,-0.011231394,0.087353066,36.579105,0,20
1159118463,1159118280,2490378,-0.10471643,-0.11792964,-0.008057159,36.545895,0,20
1160118832,1160118648,2490378,0.10591551,-0.046544336,-0.17653139,36.55495,0,20
1161116719,1161116529,2490378,0.018772282,0.11633752,0.11424246,36.51268,0,20
1162117084,1162116899,2490378,-0.05146723,-0.06679215,0.07674453,36.530796,0,20
1163117456,1163117269,2490378,-0.02750226,-0.06610268,0.11856914,36.66063,0,20
1164115336,1164115151,2490378,-0.07597511,-0.016553981,-0.12872803,36.669685,0,20
1165115707,1165115522,2490378,-0.07740402,-0.14705065,-0.23853722,36.705917,0,20
1166118568,1166118382,2490378,-0.030123584,0.17245118,0.032585032,36.74517,0,20
1167118938,1167118753,2490378,0.042287596,0.086163975,-0.0011224733,36.739132,0,20
1168116821,1168116637,2490378,0.20293117,-0.20831704,-0.0069746557,36.69988,0,20
1169117192,1169117009,2490378,-0.18078813,0.04158813,0.069536716,36.69686,0,20
1170117566,1170117382,2490378,0.31730685,0.012174005,0.14465249,36.721016,0,20
1171115455,1171115267,2490378,-0.21360965,0.08511811,-0.09785835,36.690823,0,20
1172115828,1172115640,2490378,-0.033594258,-0.10534594,0.18646379,36.748188,0,20
1173118715,1173118503,2490378,0.1267029,0.14931226,-0.24879602,36.772343,0,20
1174119061,1174118878,2490378,0.2641276,-0.035979096,-0.12617998,36.811596,0,20
1175116951,1175116764,2490378,0.025896823,0.028228369,-0.028235031,36.92633,0,20
1176117325,1176117139,2490378,-0.05714621,0.051830284,0.07120544,36.717995,0,20
1177117702,1177117515,2490378,0.14316364,0.025357237,0.22990716,36.79348,0,20
1178115585,1178115403,2490378,-0.12636983,0.033714164,0.16915038,36.847828,0,20
1179115962,1179115779,2490378,0.14732045,-0.24291053,0.08302305,36.95954,0,20
1180118831,1180118645,2490378,-0.044402644,-0.08154751,0.15723619,36.802536,0,20
1181119209,1181119022,2490378,-0.03403725,0.010628522,0.11354633,36.82669,0,20
1182117095,1182116911,2490378,0.0048895865,0.06947676,0.14767018,36.893116,0,20
1183117475,1183117290,2490378,0.09539357,0.113533005,0.19578332,36.899155,0,20
1184117853,1184117668,2490378,-0.28658372,0.0003164242,0.32570708,36.88104,0,20
1185115744,1185115559,2490378,-0.053755477,0.15946114,0.20410693,36.97464,0,20
1186116124,1186115938,2490378,-0.6934653,-0.46506363,0.21091504,36.986717,0,20
1187118990,1187118807,2490378,-0.2043301,0.037411332,0.3209574,36.95954,0,20
1188119374,1188119187,2490378,-0.019478407,-0.122482814,-0.16044706,36.92331,0,20
1189117264,1189117079,2490378,-0.012450459,0.010521937,-0.17447631,36.941425,0,20
1190117650,1190117460,2490378,-0.027269104,0.05301604,-0.27009636,36.908215,0,20
1191118028,1191117842,2490378,0.051966846,0.08884525,-0.33448038,36.995773,0,20
1192115919,1192115735,2490378,-0.10560241,0.059507735,-0.31850594,37.0622,0,20
1193116303,1193116118,2490378,-0.093495026,0.34050575,-0.4178998,37.10447,0,20
1194116688,1194116500,2490378,-0.086846784,0.16664897,-0.47080922,37.1407,0,20
1195119560,1195119372,2490378,0.20638852,0.16463052,-0.39794174,37.128624,0,20
1196117485,1196117267,2490378,-0.13375418,0.072347894,-0.30607215,36.995773,0,20
1197117834,1197117650,2490378,0.07236455,0.115198396,-0.29939392,37.116547,0,20
1198118219,1198118035,2490378,0.11498189,0.13376416,-0.28341615,37.092392,0,20
1199116174,1199115931,2490378,-0.20855686,0.0880059,-0.29428783,37.074276,0,20
1200116506,1200116315,2490378,0.18620065,0.18340945,-0.38390583,37.113525,0,20
1201116928,1201116700,2490378,-0.057839014,0.16108324,-0.3173335,37.255436,0,20
1202119758,1202119574,2490378,-0.3343205,0.22408828,-0.22538063,37.068237,0,20
1203115166,1203114983,2490378,-0.016857082,0.47354048,-0.3759286,37.18599,0,20
1204118044,1204117857,2490378,-0.11851918,0.35759598,-0.48046517,37.161835,0,20
1205118431,1205118243,2490378,0.009013093,0.4562537,-0.4587185,37.216183,0,20
1206116326,1206116140,2490378,0.10776076,0.3334112,-0.48466527,37.219204,0,20
1207116712,1207116527,2490378,-0.04298706,-0.031332657,-0.21825942,37.27657,0,20
1208117097,1208116913,2490378,-0.12998374,-0.06641244,-0.14421283,37.19505,0,20
1209119978,1209119789,2490378,0.04810647,-0.008823239,-0.11111152,37.201088,0,20
1210115441,1210115199,2490378,-0.20447998,0.06294177,-0.07571865,37.240337,0,20
1211118260,1211118074,2490378,-0.12817179,0.2226827,0.06506348,37.255436,0,20
1212118650,1212118462,2490378,0.027562214,0.11898216,0.012683614,37.246376,0,20
1213116546,1213116361,2490378,0.025087442,0.05497787,0.07240785,37.273552,0,20
1214116934,1214116749,2490378,0.051577143,-0.16779809,-0.07221133,37.28563,0,20
1215117329,1215117137,2490378,0.1452487,-0.12709261,-0.10686145,37.17995,0,20
1216117712,1216117525,2490378,0.085317954,-0.0653799,-0.07837994,37.216183,0,20
1217115609,1217115424,2490378,0.14383645,-0.076851115,-2.9977029e-05,37.300724,0,20
1218118491,1218118302,2490378,-0.21591122,0.088881895,-0.058605094,37.27657,0,20
1219118875,1219118690,2490378,0.3497187,-0.17337048,0.120457694,37.246376,0,20
1220116778,1220116592,2490378,-0.34064564,0.044279404,0.04276723,37.3128,0,20
1221117164,1221116979,2490378,0.18808587,-0.18430877,-0.1325884,37.23128,0,20
1222117552,1222117367,2490378,0.095620066,-0.06097661,0.042240966,37.216183,0,20
1223117942,1223117756,2490378,-0.06302504,0.35158393,0.09093698,37.309784,0,20
1224115845,1224115657,2490378,-0.32190666,-0.030942956,0.21129143,37.28563,0,20
1225116237,1225116046,2490378,0.15741271,0.013849388,0.009532696,37.294685,0,20
1226119107,1226118924,2490378,-0.41515854,0.2711922,0.1567832,37.207127,0,20
1227117013,1227116825,2490378,-0.16860414,0.08265333,0.23371758,37.282608,0,20
1228117400,1228117215,2490378,-0.08679016,-0.031289358,0.082993075,37.3128,0,20
1229117790,1229117604,2490378,-0.1435067,-0.06396432,0.047047284,37.397343,0,20
1230118179,1230117994,2490378,-0.14088205,0.04911237,0.020627527,37.291668,0,20
1231116080,1231115895,2490378,-0.27212813,-0.0351464,0.10898649,37.339977,0,20
1232116471,1232116285,2490378,0.061519526,-0.03773775,0.041601457,37.336956,0,20
1233119355,1233119166,2490378,0.25900486,-0.113626264,0.06192921,37.201088,0,20
1234117249,1234117065,2490378,0.2737336,0.16873404,0.07761386,37.355072,0,20
1235117643,1235117455,2490378,-0.016314166,0.049388822,0.16737175,37.336956,0,20
1236118028,1236117845,2490378,0.103091,0.047646824,0.20877002,37.288647,0,20
1237118418,1237118235,2490378,-0.10416018,-0.008600077,0.27857652,37.255436,0,20
1238116323,1238116137,2490378,0.14300708,-0.07691106,0.27222142,37.309784,0,20
1239116713,1239116527,2490378,0.38674697,0.02856478,0.14725716,37.3279,0,20
1240119591,1240119406,2490378,-0.2930388,0.040722128,0.48072162,37.33394,0,20
1241115002,1241114819,2490378,-0.24330689,0.19966367,0.16011731,37.364132,0,20
1242117884,1242117698,2490378,-0.12743568,-0.04912569,-0.007107887,37.309784,0,20
1243118275,1243118088,2490378,0.28523478,-0.2239051,-0.098661065,37.382248,0,20
1244118666,1244118479,2490378,0.057705782,0.008296976,0.002038438,37.41244,0,20
1245116564,1245116381,2490378,0.11471543,0.122719295,0.17068921,37.32488,0,20
1246116955,1246116771,2490378,-0.14593484,-0.028125115,0.15627025,37.306763,0,20
1247117350,1247117162,2490378,0.07471275,-0.12581359,0.08725647,37.3279,0,20
1248115263,1248115064,2490378,-0.0034506891,-0.14475575,-0.06309499,37.300724,0,20
1249115644,1249115454,2490378,0.02549713,-0.08138763,0.15485801,37.31884,0,20
1250118504,1250118334,2490378,0.026639586,-0.010528599,0.16220571,37.40942,0,20
1251116422,1251116236,2490378,0.104453295,0.044625804,0.09680915,37.394325,0,20
1252116816,1252116626,2490378,-0.0522,0.0034473585,0.1212804,37.330917,0,20
1253117202,1253117017,2490378,0.17651474,-0.07809016,0.16845424,37.28563,0,20
1254117596,1254117408,2490378,0.0804317,0.015731279,0.30354407,37.31884,0,20
1255115494,1255115310,2490378,0.11218737,0.10498955,0.23145598,37.27657,0,20
1256115884,1256115700,2490378,0.0042633996,0.3813178,0.3842922,37.342995,0,20
1257118764,1257118579,2490378,0.11176436,0.3606503,0.46726194,37.41244,0,20
1258119155,1258118970,2490378,-0.26918706,0.2968592,0.5381543,37.330917,0,20
1259117057,1259116872,2490378,-0.5136664,-0.17759724,0.6647806,37.27053,0,20
1260117446,1260117262,2490378,0.04374981,0.023615237,0.09337512,37.37017,0,20
1261117841,1261117653,2490378,-0.31476548,-0.070126265,0.017456623,37.3128,0,20
1262115741,1262115554,2490378,0.28224707,-0.10629854,-0.20917971,37.261475,0,20
1263116130,1263115945,2490378,-0.08093465,0.17652807,-0.08906175,37.336956,0,20
1264119009,1264118824,2490378,0.05893151,0.013766118,-0.03739801,37.282608,0,20
1265119401,1265119214,2490378,-0.19928396,-0.14412622,-0.047153868,37.31884,0,20
1266117305,1266117116,2490378,-0.32267275,0.23877037,-0.017370023,37.31884,0,20
1267117691,1267117506,2490378,0.023082312,-0.11107822,0.01850582,37.27657,0,20
1268118084,1268117896,2490378,-0.14008932,-0.22380517,-0.14335349,37.255436,0,20
1269115986,1269115798,2490378,0.4563403,0.0035339587,-0.19107358,37.364132,0,20
1270116372,1270116189,2490378,0.23213212,-0.1653966,0.14641447,37.291668,0,20
1271116762,1271116579,2490378,-0.111411296,-0.09942381,0.082376875,37.261475,0,20
1272119650,1272119458,2490378,0.04022584,0.08304303,0.14540191,37.240337,0,20
1273117544,1273117359,2490378,-0.17916937,-0.1769211,0.11253377,37.32488,0,20
1274117934,1274117750,2490378,0.027392343,0.023511983,0.059481088,37.22826,0,20
1275118329,1275118140,2490378,0.133994,-0.0697299,0.062009152,37.37017,0,20
1276116227,1276116042,2490378,0.072221324,-0.12040441,0.10084273,37.27959,0,20
1277116620,1277116432,2490378,0.017173506,-0.007873966,0.09789832,37.22222,0,20
1278117009,1278116822,2490378,0.23813753,-0.018828906,0.101612136,37.24336,0,20
1279119887,1279119701,2490378,0.094764054,0.026709532,0.32536736,37.349033,0,20
1280115300,1280115114,2490378,-0.18576765,0.3134032,0.32855156,37.391304,0,20
1281118179,1281117993,2490378,-0.003254173,-0.00032974733,0.39516053,37.330917,0,20
1282118572,1282118384,2490378,0.2553377,-0.073320486,0.096785836,37.27959,0,20
