timestamp,accel_device_id,gyro_device_id,accel_clipping[0],accel_clipping[1],accel_clipping[2],accel_error_count,gyro_error_count,accel_rate_hz,gyro_rate_hz,accel_raw_rate_hz,gyro_raw_rate_hz,accel_vibration_metric,gyro_vibration_metric,delta_angle_coning_metric,mean_accel[0],mean_accel[1],mean_accel[2],mean_gyro[0],mean_gyro[1],mean_gyro[2],var_accel[0],var_accel[1],var_accel[2],var_gyro[0],var_gyro[1],var_gyro[2],temperature_accel,temperature_gyro
540005924,2490378,2490378,3,3,27,0,0,401.99387,401.99387,8039.878,8039.878,0.12001004,0.0045297127,4.4480506e-11,-0.14657074,-0.2819138,-9.938545,-0.008033619,-0.0147182,0.0048734676,0.001040812,0.011093449,0.023463305,3.3128803e-05,1.5214472e-05,3.4876127e-06,39.1359,39.1359
541051150,2490378,2490378,3,3,27,0,0,401.99387,401.99387,8039.878,8039.878,0.06519751,0.0024768065,2.0379715e-11,-0.12057777,-0.2444649,-9.870475,-0.012135182,-0.0152744865,0.0048322952,0.00060913456,0.0012360584,0.0014230396,5.531158e-06,3.8140129e-06,6.904955e-07,39.13677,39.13677
542096388,2490378,2490378,3,3,27,0,0,401.99387,401.99387,8039.878,8039.878,0.049977295,0.0018272126,2.1184485e-11,-0.13197924,-0.26179758,-9.861865,-0.01347173,-0.02300138,0.005034629,0.00019144053,0.0011397164,0.003680523,4.6494424e-06,4.168034e-06,6.0439004e-07,39.144234,39.144234
543037115,2490378,2490378,3,3,27,0,0,401.99387,401.99387,8039.878,8039.878,0.035558738,0.001535687,1.5943372e-11,-0.1615359,-0.2322684,-9.907999,-0.017768567,-0.021417595,0.0050530815,8.168674e-05,0.0008575542,0.0015137976,2.4412782e-06,1.5275182e-06,5.6377917e-07,39.137764,39.137764
544082336,2490378,2490378,3,3,27,0,0,401.99387,401.99387,8039.878,8039.878,0.06208896,0.0021535414,3.1363925e-11,-0.11218427,-0.23832777,-9.873979,-0.012911093,-0.022344096,0.0052830605,-1.0930356e-05,0.0051929564,0.013043346,1.6022472e-05,6.540442e-06,3.122989e-06,39.144085,39.144085
545023047,2490378,2490378,3,3,27,0,0,401.99387,401.99387,8039.878,8039.878,0.10128991,0.003416789,1.3278417e-10,-0.1450945,-0.2099443,-9.861913,-0.015516015,-0.02395326,0.005636033,0.00012024548,0.048591595,0.09940508,0.00022852875,7.912619e-05,2.893197e-05,39.14028,39.14028
546068277,2490378,2490378,3,3,27,0,0,401.99387,401.99387,8039.878,8039.878,0.106103435,0.004015767,5.153232e-11,-0.12860265,-0.185425,-9.917583,-0.01774734,-0.024889661,0.005398647,0.0009648867,0.009263302,0.007450471,3.83666e-05,9.20181e-06,5.0752974e-06,39.164875,39.164875
547008987,2490378,2490378,3,3,27,0,0,401.99387,401.99387,8039.878,8039.878,0.11903999,0.004812516,5.711185e-11,-0.14535084,-0.22494538,-9.910723,-0.02204893,-0.022011515,0.0052631674,2.9565606e-05,0.0033730187,0.00795151,1.5424175e-05,6.0703946e-06,2.0518783e-06,39.1648,39.1648
548054222,2490378,2490378,3,3,27,0,0,401.99387,401.99387,8039.878,8039.878,0.12529075,0.0048596086,1.1189537e-10,-0.15867437,-0.22151111,-9.91354,-0.0110293,-0.018694153,0.0051925126,-0.0021970174,0.009420611,0.040452603,6.6457025e-05,2.4075056e-05,8.536648e-06,39.18515,39.18515
549099458,2490378,2490378,3,3,27,0,0,401.99387,401.99387,8039.878,8039.878,0.08244266,0.0032548832,2.0346868e-11,-0.1587152,-0.23531233,-9.932462,-0.019817527,-0.023795186,0.005642307,9.057173e-05,0.0007851102,0.0008960731,2.1823334e-06,1.7430716e-06,5.963096e-07,39.17745,39.17745
550040166,2490378,2490378,3,3,27,0,0,401.99387,401.99387,8039.878,8039.878,0.054552432,0.0020475811,4.6315955e-11,-0.15620916,-0.22810702,-9.911524,-0.014772342,-0.020874348,0.0053510778,0.0012279182,0.008786746,0.007897207,4.301011e-05,6.762949e-06,6.6885186e-06,39.180325,39.180325
551085406,2490378,2490378,3,3,27,0,0,401.99387,401.99387,8039.878,8039.878,0.07263123,0.0024618434,1.8754782e-11,-0.17851338,-0.23193364,-9.915379,-0.012089223,-0.023198513,0.005188011,-2.191855e-06,0.00041049242,0.0009818982,1.0666154e-06,2.1433423e-06,3.681983e-07,39.19664,39.19664
552026114,2490378,2490378,3,3,27,0,0,401.99387,401.99387,8039.878,8039.878,0.04820916,0.001906923,1.9041489e-11,-0.12929231,-0.22592278,-9.867453,-0.016090358,-0.02261662,0.0053649014,0.000110748835,0.0005934526,0.0016262946,1.339864e-06,3.3351305e-06,2.401258e-07,39.210236,39.210236
553071350,2490378,2490378,3,3,27,0,0,401.99387,401.99387,8039.878,8039.878,0.048417382,0.0018075753,1.8557437e-11,-0.13474442,-0.21773537,-9.8833275,-0.015066869,-0.02361219,0.005214566,4.884682e-05,0.000711072,0.0012856522,5.212722e-06,1.134352e-06,8.44341e-07,39.204987,39.204987
554012078,2490378,2490378,3,3,27,0,0,401.99387,401.99387,8039.878,8039.878,0.035108894,0.0014758756,1.599669e-11,-0.13321963,-0.23211017,-9.923503,-0.015262053,-0.020205574,0.005243134,0.00011401882,0.0007168122,0.0007246103,1.0656557e-06,1.5353035e-06,3.763958e-07,39.20649,39.20649
555057301,2490378,2490378,3,3,27,0,0,401.99387,401.99387,8039.878,8039.878,0.032748368,0.0013717411,1.5662971e-11,-0.16780771,-0.23435742,-9.921656,-0.015863787,-0.026088236,0.0052263704,5.8239468e-05,0.00031298702,0.00032453873,7.3318853e-07,2.4737765e-06,3.06589e-07,39.220867,39.220867
556102564,2490378,2490378,3,3,27,0,0,401.99387,401.99387,8039.878,8039.878,0.033908103,0.0013913335,1.332355e-11,-0.15484855,-0.25396645,-9.95234,-0.015646094,-0.018600425,0.0050107446,0.0001498715,0.0005134829,0.0006042971,1.7986497e-06,3.6081133e-06,2.5304277e-07,39.211166,39.211166
557043267,2490378,2490378,3,3,27,0,0,401.99387,401.99387,8039.878,8039.878,0.044185784,0.0018026469,3.4440544e-11,-0.16176824,-0.2337368,-9.898602,-0.013571364,-0.022127207,0.0052305185,0.00041612997,0.002902577,0.00794137,9.832175e-06,5.057311e-06,1.4867121e-06,39.247612,39.247612
558088492,2490378,2490378,3,3,27,0,0,401.99387,401.99387,8039.878,8039.878,0.0508972,0.002057407,4.9199176e-11,-0.14417477,-0.23948652,-9.890716,-0.012581064,-0.028560504,0.0053401906,0.000112198846,0.0013991348,0.0049523422,6.7536994e-06,5.947284e-06,6.489518e-07,39.23798,39.23798
559029201,2490378,2490378,3,3,27,0,0,401.99387,401.99387,8039.878,8039.878,0.05599955,0.0021010966,2.6921501e-11,-0.18311897,-0.24797188,-9.893772,-0.015961273,-0.01725381,0.005396585,-4.7199104e-05,0.001274659,0.0037473245,5.9073413e-06,3.6632728e-06,7.75998e-07,39.242516,39.242516
560074446,2490378,2490378,3,3,27,0,0,401.99387,401.99387,8039.878,8039.878,0.061369896,0.0023479145,2.1705516e-11,-0.15012884,-0.23825958,-9.911536,-0.018980982,-0.02478105,0.0055843596,-2.9536668e-05,0.00046112807,0.0010220968,3.7246905e-06,2.0974599e-06,6.906153e-07,39.25293,39.25293
561015151,2490378,2490378,3,3,27,0,0,401.99387,401.99387,8039.878,8039.878,0.034788225,0.0013987019,1.3955128e-11,-0.16419904,-0.22365853,-9.875531,-0.019333458,-0.021178532,0.0056808023,0.000120911536,0.00024949393,0.00034971492,1.6406422e-06,4.2494244e-06,1.4536953e-07,39.25293,39.25293
562060428,2490378,2490378,3,3,27,0,0,401.99387,401.99387,8039.878,8039.878,0.07149212,0.0023111654,2.7827563e-11,-0.14407124,-0.23133153,-9.911074,-0.013557053,-0.02514031,0.005255471,-0.0002179615,0.001181853,0.004656202,3.8420085e-06,3.0466852e-06,6.037098e-07,39.25373,39.25373
563105663,2490378,2490378,3,3,27,0,0,401.99387,401.99387,8039.878,8039.878,0.5396684,0.021556437,1.1457101e-10,-0.15962923,-0.23817758,-9.880085,-0.019600073,-0.021169927,0.005640895,-0.0009953917,0.009031836,0.03837764,2.9363793e-05,2.2355007e-05,3.0873657e-06,39.25861,39.25861
564046343,2490378,2490378,3,3,27,0,0,401.99387,401.99387,8039.878,8039.878,0.25103542,0.009131853,9.2471926e-11,-0.13346183,-0.2360902,-9.896803,-0.017036607,-0.016042111,0.0052127913,-0.0021103802,0.0067332555,0.035640318,3.780987e-05,2.7279551e-05,2.3474602e-06,39.27967,39.27967
565091584,2490378,2490378,3,3,27,0,0,401.99387,401.99387,8039.878,8039.878,0.097702555,0.0036698007,3.4956482e-11,-0.071542986,-0.23798344,-9.822748,-0.009194319,-0.024813686,0.005686598,0.00046901254,0.007940703,0.005054749,1.9024805e-05,2.0875177e-05,1.2015371e-06,39.289665,39.289665
566032293,2490378,2490378,3,3,27,0,0,401.99387,401.99387,8039.878,8039.878,0.073488206,0.0028404705,3.3502052e-11,-0.18146634,-0.22863325,-9.903536,-0.0138935475,-0.023353076,0.005318271,0.0004839888,0.0040267673,0.0036053765,1.8160552e-05,7.22377e-06,2.0572336e-06,39.28845,39.28845
567077536,2490378,2490378,3,3,27,0,0,401.99387,401.99387,8039.878,8039.878,0.080576435,0.0031994095,6.994712e-11,-0.11805313,-0.23780589,-9.885132,-0.0120594725,-0.029223599,0.00546127,0.0028688607,0.0095134545,0.010679416,2.2178672e-05,1.1221502e-05,3.1485986e-06,39.291107,39.291107
568018247,2490378,2490378,3,3,27,0,0,401.99387,401.99387,8039.878,8039.878,0.0742932,0.0029406103,3.0812953e-11,-0.13925727,-0.22561732,-9.858818,-0.012429729,-0.017287195,0.0051586735,0.0001746083,0.0022990247,0.0023236182,1.1680532e-05,3.4181319e-06,1.7205928e-06,39.29096,39.29096
569063490,2490378,2490378,3,3,27,0,0,401.99387,401.99387,8039.878,8039.878,0.14971712,0.0059277257,3.035481e-11,-0.15103209,-0.24206065,-9.87071,-0.009847344,-0.022117494,0.0050779902,3.409069e-05,0.0091184685,0.010482117,2.8602883e-05,5.7434595e-06,4.324872e-06,39.28442,39.28442
570004203,2490378,2490378,3,3,27,0,0,401.99387,401.99387,8039.878,8039.878,0.09722491,0.0036304009,1.992662e-11,-0.1344541,-0.25717428,-9.8922205,-0.0169872,-0.022442503,0.0051636756,-3.786085e-05,0.0012467862,0.002190477,5.121274e-06,1.283523e-06,9.418479e-07,39.28974,39.28974
571049442,2490378,2490378,3,3,27,0,0,401.99387,401.99387,8039.878,8039.878,0.06498323,0.0025308377,1.6294884e-11,-0.15749751,-0.2582503,-9.90399,-0.015640004,-0.01991061,0.0054561542,7.675467e-05,0.0005443533,0.0006035509,3.2874348e-06,1.3272972e-06,7.069171e-07,39.288223,39.288223
572094696,2490378,2490378,3,3,27,0,0,401.99387,401.99387,8039.878,8039.878,0.07275488,0.0027221385,2.3507807e-11,-0.15409061,-0.28356123,-9.897224,-0.008404762,-0.01986619,0.005001311,-9.357208e-05,0.0010160324,0.0034720728,1.2529366e-05,1.942792e-06,2.0820423e-06,39.275215,39.275215
573035399,2490378,2490378,3,3,27,0,0,401.99387,401.99387,8039.878,8039.878,0.17317368,0.006107962,1.8220604e-10,-0.15599011,-0.298498,-9.908866,0.0019939428,-0.022882778,0.004582516,0.008429734,0.09094137,0.07955567,0.000645893,5.980719e-05,8.891698e-05,39.29829,39.29829
574080635,2490378,2490378,3,3,27,0,0,401.99387,401.99387,8039.878,8039.878,0.21479273,0.007973273,4.155552e-10,-0.11848989,-0.6020042,-9.879431,0.115767784,-0.02006955,0.0010907438,0.00083596073,0.036367863,0.07248769,0.00015276525,5.2209514e-05,1.9771318e-05,39.2929,39.2929
575021366,2490378,2490378,3,3,27,0,0,401.99387,401.99387,8039.878,8039.878,0.18560591,0.006547221,8.469096e-11,-0.14119041,-0.94851726,-9.83471,-0.0071838466,-0.023949198,0.0049674017,0.016783126,0.10524065,0.040619515,0.00017390113,3.126315e-05,3.275677e-05,39.29492,39.29492
576066603,2490378,2490378,3,3,27,0,0,401.99387,401.99387,8039.878,8039.878,0.33248365,0.0115169,1.4628584e-10,-0.13449754,-0.9755966,-9.861033,-0.012628127,-0.0243177,0.0054648346,-0.0014416238,0.0197529,0.0472348,5.5475997e-05,5.6574976e-05,3.2423432e-06,39.288082,39.288082
577007299,2490378,2490378,3,3,27,0,0,401.99387,401.99387,8039.878,8039.878,0.39454177,0.017590431,3.5601735e-10,-0.114221,-0.9471739,-9.832087,-0.010613198,-0.0231693,0.0052691363,0.013177513,0.084363185,0.17335773,0.00056386186,0.0001574507,7.141094e-05,39.27702,39.27702
578052540,2490378,2490378,3,3,27,0,0,401.99387,401.99387,8039.878,8039.878,0.16143534,0.0063314363,2.0403691e-11,-0.12064864,-0.96119416,-9.848272,-0.0071483986,-0.021168295,0.00495638,6.5026376e-05,0.0010738983,0.0015911873,3.8538697e-06,1.1975516e-06,9.0206987e-07,39.283417,39.283417
579097778,2490378,2490378,3,3,27,0,0,401.99387,401.99387,8039.878,8039.878,0.05521956,0.0024758095,3.1915116e-11,-0.106515005,-0.9686462,-9.835983,-0.016292294,-0.020501604,0.005154549,0.00082216377,0.002850493,0.005061852,1.7685468e-05,6.347861e-06,2.16044e-06,39.27248,39.27248
580038507,2490378,2490378,3,3,27,0,0,401.99387,401.99387,8039.878,8039.878,0.08496444,0.003739884,4.974774e-11,-0.04011951,-0.9631907,-9.78198,-0.013989641,-0.021633802,0.0051290137,-0.00067535817,0.0034159166,0.010621255,3.2697073e-05,3.1016367e-05,1.804609e-06,39.258835,39.258835
581083997,2490378,2490378,3,3,27,0,0,401.99387,401.99387,8039.878,8039.878,0.08369503,0.0048206095,5.0375315e-11,-0.10200402,-0.95425516,-9.875842,-0.0142552415,-0.029378746,0.0069170306,0.00067776866,0.001051461,0.005856756,1.775835e-05,3.71498e-05,-8.4829315e-07,39.25395,39.25395
582024442,2490378,2490378,3,3,27,0,0,401.99387,401.99387,8039.878,8039.878,0.34333223,0.016130606,5.302116e-10,-0.046667863,-1.0393515,-9.995778,-0.012281161,-0.023210963,0.0049287686,-0.06709843,0.23396255,1.307292,0.0011697577,0.00087479653,7.3724295e-05,39.254517,39.254517
583069679,2490378,2490378,3,3,27,0,0,401.99387,401.99387,8039.878,8039.878,0.106941946,0.0059579653,1.8559662e-11,-0.08110117,-0.9504177,-9.870883,-0.017283434,-0.020371845,0.0051098214,1.976197e-05,0.0010180946,0.0015768228,1.3208228e-05,2.794029e-06,1.916989e-06,39.232597,39.232597
584010401,2490378,2490378,3,3,27,0,0,401.99387,401.99387,8039.878,8039.878,0.05242059,0.0035087606,3.521088e-11,-0.08377778,-0.931532,-9.8723345,-0.02162184,-0.032791257,0.006203471,-3.5195328e-05,0.00090953213,0.0017543775,9.907209e-06,1.0605248e-05,4.9682205e-07,39.24618,39.24618
585055659,2490378,2490378,3,3,27,0,0,401.99387,401.99387,8039.878,8039.878,0.06726406,0.0040000346,2.7470992e-11,-0.1627222,-0.9016135,-9.767996,-0.01331792,-0.02421579,0.0055906503,-0.00016971213,0.0019046653,0.0070080934,9.433957e-06,1.2446579e-05,5.1134134e-07,39.233017,39.233017
586100865,2490378,2490378,3,3,27,0,0,401.99387,401.99387,8039.878,8039.878,0.039356027,0.0024637184,2.5057059e-11,-0.19886492,-0.92050374,-9.86286,-0.017873036,-0.02476406,0.0057021207,4.2219224e-05,0.00044585255,0.00074463343,9.77052e-06,1.3820655e-05,4.8285676e-07,39.21117,39.21117
587041578,2490378,2490378,3,3,27,0,0,401.99387,401.99387,8039.878,8039.878,0.04702124,0.0022395097,1.0521862e-11,-0.20502602,-0.9055398,-9.912054,-0.008269205,-0.016467283,0.0049367906,4.3494612e-05,0.0014322068,0.00083417766,2.8108893e-06,2.1618334e-06,6.5985984e-07,39.20053,39.20053
588086818,2490378,2490378,3,3,27,0,0,401.99387,401.99387,8039.878,8039.878,0.041485034,0.0022777366,2.8965108e-11,-0.15187274,-0.9232484,-9.849587,-0.0126423985,-0.030403366,0.0059734443,0.0003522481,0.00047641995,0.0020521055,7.871401e-06,7.6535325e-06,7.0188906e-07,39.19427,39.19427
589027525,2490378,2490378,3,3,27,0,0,401.99387,401.99387,8039.878,8039.878,0.038156416,0.0021928668,1.5223517e-11,-0.18391873,-0.9417634,-9.836063,-0.019491943,-0.01761922,0.004391541,0.00010658866,0.00039746103,0.00025150986,3.653689e-06,1.4623841e-06,7.23141e-07,39.184925,39.184925
590072965,2490378,2490378,3,3,27,0,0,401.99387,401.99387,8039.878,8039.878,0.07376097,0.0047196844,7.4654345e-11,-0.2012328,-0.9187587,-9.827958,-0.007103547,-0.019555397,0.0065411953,-0.0006761162,0.0041823806,0.0191936,2.9199728e-05,1.4067802e-05,4.282619e-06,39.17781,39.17781
591013490,2490378,2490378,3,3,27,0,0,401.99387,401.99387,8039.878,8039.878,0.116062574,0.0072477357,4.2669337e-11,-0.18801768,-0.9030844,-9.850307,-0.014375135,-0.022996513,0.0051301126,0.0003705667,0.0010403198,0.002897692,1.8078154e-05,1.5574706e-05,1.4600454e-06,39.163715,39.163715
592058730,2490378,2490378,3,3,27,0,0,401.99387,401.99387,8039.878,8039.878,0.15610798,0.010603429,1.5832088e-10,-0.20607007,-0.95831585,-9.877719,-0.0025324074,-0.005195473,0.0074621337,0.0022133708,0.008995275,0.022750497,0.00024952777,0.0006002627,5.183955e-06,39.141724,39.141724
593103960,2490378,2490378,3,3,27,0,0,401.99387,401.99387,8039.878,8039.878,0.2490617,0.04334418,2.4930218e-09,-0.38726678,-1.5359582,-9.794723,0.08631827,-0.048535947,-0.010095225,0.0045138076,0.018490437,0.016866075,0.03183304,0.0039662933,0.007857814,39.141865,39.141865
594044671,2490378,2490378,3,3,27,0,0,401.99387,401.99387,8039.878,8039.878,0.11947621,0.016641939,6.2626834e-11,-0.28613737,-1.0813576,-9.770002,-0.01720998,-0.024292318,0.0066801347,0.0025005583,0.0024762899,0.002707417,9.444621e-05,0.00010848196,2.740315e-06,39.12152,39.12152
595089885,2490378,2490378,3,3,27,0,0,401.99387,401.99387,8039.878,8039.878,0.08620543,0.0065925573,2.7851624e-11,-0.35779116,-1.0830383,-9.850935,-0.015370488,-0.015410873,0.004885497,0.00041869277,0.0024350027,0.0039765807,1.0887052e-05,1.0608132e-05,1.5364077e-06,39.11555,39.11555
596030596,2490378,2490378,3,3,27,0,0,401.99387,401.99387,8039.878,8039.878,0.13005272,0.0060408497,6.034766e-11,-0.26407045,-1.0694722,-9.851309,-0.017039109,-0.020920994,0.004946058,-0.00081614876,0.0049025584,0.029431451,1.7328799e-05,3.1414453e-05,-2.0122091e-07,39.094345,39.094345
597075830,2490378,2490378,3,3,27,0,0,401.99387,401.99387,8039.878,8039.878,0.065446585,0.003450438,4.096463e-11,-0.24085647,-1.0469482,-9.837721,-0.015084971,-0.03110662,0.0067552715,0.000405709,0.0013022295,0.0029773952,6.7514325e-06,1.3896957e-05,-6.334218e-08,39.07968,39.07968
598016537,2490378,2490378,3,3,27,0,0,401.99387,401.99387,8039.878,8039.878,0.06152757,0.0031224901,2.1792788e-11,-0.33221728,-1.0407097,-9.841414,-0.014448067,-0.027227528,0.0058695944,0.00014803937,0.0006900677,0.0015388605,2.501313e-06,5.4630254e-06,2.2160785e-07,39.06912,39.06912
599061908,2490378,2490378,3,3,27,0,0,401.99387,401.99387,8039.878,8039.878,0.094213404,0.0045306426,6.0337194e-11,-0.32856753,-1.0167512,-9.808129,-0.01545754,-0.02128613,0.0050447998,0.00020188703,0.0046544946,0.031295337,1.8479921e-05,8.284903e-05,-4.984419e-06,39.047825,39.047825
600107009,2490378,2490378,3,3,27,0,0,401.99387,401.99387,8039.878,8039.878,0.064811945,0.003768414,2.367429e-11,-0.29847637,-1.0185947,-9.833134,-0.016868232,-0.020624306,0.0050685946,0.00026202455,0.0005229327,0.0013185868,5.878821e-06,1.0212062e-05,8.203853e-08,39.014404,39.014404
601047708,2490378,2490378,3,3,27,0,0,401.99387,401.99387,8039.878,8039.878,0.09697371,0.0065856623,4.4851033e-11,-0.27139798,-1.0338663,-9.843836,-0.01795173,-0.01745176,0.0049963095,-5.4530276e-05,0.0016860984,0.008724392,2.4381869e-05,2.527338e-05,1.0219217e-06,39.02016,39.02016
602092935,2490378,2490378,3,3,27,0,0,401.99387,401.99387,8039.878,8039.878,0.115921,0.012869282,1.7548123e-10,-0.21914062,-1.0555665,-9.8475895,-0.02497612,-0.040165436,0.0061698915,0.0034753894,0.007950737,0.010551642,0.00021253842,0.0002901255,4.1928383e-06,38.9904,38.9904
603033659,2490378,2490378,3,3,27,0,0,401.99387,401.99387,8039.878,8039.878,0.0855977,0.0069845044,4.5297915e-11,-0.23394918,-1.0487906,-9.812275,-0.016289556,-0.026129091,0.005265756,0.0004823658,0.00084439135,0.0019068215,3.3662596e-05,3.6183326e-05,1.3385778e-06,38.978825,38.978825
604078871,2490378,2490378,3,3,27,0,0,401.99387,401.99387,8039.878,8039.878,0.17650871,0.019540286,3.4652847e-10,-0.2704264,-1.2024044,-9.817839,-0.022490608,-0.01976763,0.0062385993,0.0024446028,0.010330557,0.016307952,0.00092068774,0.0005051166,0.00017312448,38.94669,38.94669
605014594,2490378,2490378,3,3,27,0,0,401.99387,401.99387,8039.878,8039.878,0.21676782,0.03337354,8.155044e-10,-0.24066336,-1.2244872,-9.8137665,-0.030286757,0.0060758786,0.011863029,0.004075551,0.057853177,0.07534549,0.0026456832,0.0015690955,0.0007285808,38.920086,38.920086
606059823,2490378,2490378,3,3,27,0,0,401.99387,401.99387,8039.878,8039.878,0.26721025,0.020170735,2.400323e-10,-0.16374083,-1.1117187,-9.837661,-0.02827082,-0.033418253,0.0055221105,0.0046514263,0.024924349,0.036815006,0.00021999727,6.58224e-05,2.8797696e-05,38.897152,38.897152
607105049,2490378,2490378,3,3,27,0,0,401.99387,401.99387,8039.878,8039.878,0.21693139,0.011199388,7.537365e-11,-0.2136069,-1.0672575,-9.816543,-0.018577136,-0.022304356,0.0049507543,0.00096917956,0.013861067,0.020448683,5.976314e-05,7.008401e-05,2.3210719e-06,38.865093,38.865093
608045752,2490378,2490378,3,3,27,0,0,401.99387,401.99387,8039.878,8039.878,0.15888813,0.0070407116,7.22644e-11,-0.22944483,-1.0652999,-9.866037,-0.020179447,-0.02163113,0.004972352,8.398216e-05,0.0049666665,0.024244096,2.5561e-05,3.6184898e-05,2.6714957e-07,38.865093,38.865093
609090982,2490378,2490378,3,3,27,0,0,401.99387,401.99387,8039.878,8039.878,0.1377967,0.005839725,8.0487e-11,-0.19707575,-1.0481653,-9.821814,-0.017522527,-0.020252792,0.0046721585,0.0031827872,0.009426753,0.011837364,6.162331e-05,1.8173663e-05,7.1796503e-06,38.85841,38.85841
610031682,2490378,2490378,3,3,27,0,0,401.99387,401.99387,8039.878,8039.878,0.18689895,0.007984219,1.307502e-10,-0.17841592,-1.0240568,-9.772302,-0.0153595535,-0.0276743,0.0059876065,-0.0025236895,0.010263262,0.07039993,5.242632e-05,9.036188e-05,-1.2816956e-06,38.82275,38.82275
611076908,2490378,2490378,3,3,27,0,0,401.99387,401.99387,8039.878,8039.878,0.17658399,0.00864439,3.2990093e-11,-0.18577798,-1.042782,-9.836099,-0.012242846,-0.022663984,0.0055215578,0.0002480078,0.0016564362,0.00535652,1.3013924e-05,1.7868495e-05,6.8615435e-07,38.797153,38.797153
612017624,2490378,2490378,3,3,27,0,0,401.99387,401.99387,8039.878,8039.878,0.22971848,0.01191912,1.378727e-10,-0.16604148,-1.0866382,-9.832723,-0.013113715,-0.026822424,0.004312473,-0.0007871753,0.006307412,0.02814532,0.0002369804,5.7044195e-05,3.338985e-05,38.774445,38.774445
613062844,2490378,2490378,3,3,27,0,0,401.99387,401.99387,8039.878,8039.878,0.3786616,0.043786872,2.292953e-09,-0.29816172,-1.273035,-9.7946,-0.074466415,-0.017558983,0.016721804,4.50157e-05,0.0915394,0.12488218,0.015530244,0.006137773,0.0032950954,38.763298,38.763298
614108051,2490378,2490378,3,3,27,0,0,401.99387,401.99387,8039.878,8039.878,0.20181215,0.022179846,1.6460246e-10,-0.22401564,-1.0937738,-9.83613,-0.037480664,-0.014055104,0.009548648,0.0015826558,0.011509661,0.0068269246,0.00028786558,8.137895e-05,6.114229e-05,38.744972,38.744972
615048750,2490378,2490378,3,3,27,0,0,401.99387,401.99387,8039.878,8039.878,0.17642891,0.014434359,1.2770913e-10,-0.12687862,-1.1041864,-9.889421,0.009397883,-0.0076081567,0.005972648,0.0018395148,0.0077801785,0.026269969,0.00082595355,0.0009490883,1.1134696e-05,38.71262,38.71262
616094020,2490378,2490378,3,3,27,0,0,401.99387,401.99387,8039.878,8039.878,0.22558038,0.019079834,1.6813766e-10,-0.039766893,-1.1372323,-9.845408,-0.013810589,-0.0044573783,0.008405798,0.010510663,0.012415495,0.08015098,0.00015838117,0.00042287604,-6.3226325e-06,38.675606,38.675606
617034691,2490378,2490378,3,3,27,0,0,401.99387,401.99387,8039.878,8039.878,0.21172693,0.010492727,8.101174e-11,0.064665556,-1.1200918,-9.760802,-0.015943246,-0.008711031,0.004953909,-0.0004763309,0.008970849,0.02997904,6.683291e-05,5.6628323e-05,4.981442e-06,38.653816,38.653816
618079899,2490378,2490378,3,3,27,0,0,401.99387,401.99387,8039.878,8039.878,0.17350075,0.010163726,5.1155143e-11,0.023264624,-1.0746498,-9.814704,-0.019895084,-0.020918958,0.0057120332,0.00021241051,0.0019739056,0.005544823,0.0001474713,0.00011677132,6.9487637e-06,38.630955,38.630955
619020593,2490378,2490378,3,3,27,0,0,401.99387,401.99387,8039.878,8039.878,0.18612386,0.018586447,3.3479408e-10,-0.1139809,-1.1349133,-9.80238,0.011462998,-0.039154872,0.00080124015,0.0049495357,0.019613065,0.08558435,0.0005472067,0.00042404197,0.000110247754,38.6132,38.6132
620065808,2490378,2490378,3,3,27,0,0,401.99387,401.99387,8039.878,8039.878,0.16486952,0.019059118,8.7612306e-11,-0.09609548,-1.1046,-9.789514,-0.03290582,-0.023963295,0.005985554,0.00030289864,0.0016471198,0.0060980003,5.707402e-05,4.2801712e-05,5.471721e-06,38.58056,38.58056
621006518,2490378,2490378,3,3,27,0,0,401.99387,401.99387,8039.878,8039.878,0.12333196,0.0116360895,1.1417185e-10,-0.14051002,-1.0673139,-9.853006,-0.009152664,-0.012064916,0.0054912283,0.007948624,0.008055448,0.01848334,0.00019242938,0.0003012266,-4.321398e-06,38.57725,38.57725
622051722,2490378,2490378,3,3,27,0,0,401.99387,401.99387,8039.878,8039.878,0.16004074,0.01288858,1.5166368e-10,-0.021587905,-1.0889709,-9.844701,-0.02048323,-0.016116524,0.006185561,0.0028232578,0.011526528,0.020462306,0.00023500569,0.00032158845,6.129303e-06,38.538357,38.538357
623096942,2490378,2490378,3,3,27,0,0,401.99387,401.99387,8039.878,8039.878,0.17674778,0.0131067345,1.1399068e-10,0.11510672,-1.0141991,-9.822798,-0.02785947,-0.005251375,0.0046848864,0.0021058926,0.010588993,0.01107578,8.545307e-05,7.322781e-05,9.704126e-06,38.510326,38.510326
624037638,2490378,2490378,3,3,27,0,0,401.99387,401.99387,8039.878,8039.878,0.13947704,0.0088749975,6.993958e-11,0.13351047,-1.0779552,-9.819204,-0.013772114,-0.029343303,0.0052898414,-6.575263e-05,0.0014340042,0.0047734696,8.700745e-05,5.2702333e-05,6.949246e-06,38.482067,38.482067
625082864,2490378,2490378,3,3,27,0,0,401.99387,401.99387,8039.878,8039.878,0.09879121,0.007360625,1.12105034e-10,0.06873399,-1.0780699,-9.819409,-0.023782054,-0.026120521,0.006777359,0.0011427708,0.0037918075,0.0054647317,0.00012925082,5.5900437e-05,1.2400974e-05,38.43232,38.43232
626023567,2490378,2490378,3,3,27,0,0,401.99387,401.99387,8039.878,8039.878,0.18069789,0.009788211,1.200092e-10,0.027657408,-1.0616976,-9.818711,-0.013688339,-0.021645006,0.0053196987,0.004793962,0.036653545,0.03890563,0.00010177143,4.9867973e-05,1.2169583e-05,38.43089,38.43089
627068761,2490378,2490378,3,3,27,0,0,401.99387,401.99387,8039.878,8039.878,0.17219658,0.008073529,7.7589754e-11,0.041137215,-1.0511155,-9.808543,-0.018743461,-0.022645969,0.0050199763,-0.00058165967,0.0044305725,0.019171411,1.4511134e-05,3.138526e-05,-7.163496e-07,38.40573,38.40573
628009453,2490378,2490378,3,3,27,0,0,401.99387,401.99387,8039.878,8039.878,0.13413286,0.0053827437,4.581159e-11,0.03305383,-1.0271425,-9.78723,-0.016569074,-0.023890812,0.0050976775,-0.0009235061,0.0057561235,0.02129956,8.584238e-06,1.6218815e-05,-4.682621e-08,38.36921,38.36921
629054691,2490378,2490378,3,3,27,0,0,401.99387,401.99387,8039.878,8039.878,0.09075245,0.0036430776,2.8402293e-11,0.045844037,-1.0393186,-9.8391285,-0.012348859,-0.016118007,0.0050780457,5.6008535e-05,0.0007867616,0.0031022877,9.25722e-06,6.1615838e-06,1.0279236e-06,38.358135,38.358135
630099878,2490378,2490378,3,3,27,0,0,401.99387,401.99387,8039.878,8039.878,0.10835745,0.0047540073,8.248488e-11,0.057777986,-1.0517259,-9.833729,-0.01745303,-0.023998661,0.00520738,0.0008717211,0.007857726,0.010187602,4.3011667e-05,2.2580412e-05,4.9877585e-06,38.33175,38.33175
631040618,2490378,2490378,3,3,27,0,0,401.99387,401.99387,8039.878,8039.878,0.123038106,0.0055614295,4.126141e-11,0.059720248,-1.0220478,-9.834066,-0.015085799,-0.020691894,0.005248828,-4.6333593e-05,0.002086476,0.0050522275,1.9172563e-05,1.7666924e-05,1.6952933e-06,38.30882,38.30882
632085781,2490378,2490378,3,3,27,0,0,401.99387,401.99387,8039.878,8039.878,0.19082572,0.008697922,5.1677482e-11,0.06726634,-1.0290506,-9.85576,-0.016017796,-0.017250312,0.0066400464,-0.00015985519,0.0043802815,0.009908397,5.036194e-05,0.00010881076,5.83496e-06,38.275826,38.275826
633026470,2490378,2490378,3,3,27,0,0,401.99387,401.99387,8039.878,8039.878,0.13252528,0.006506316,6.6649755e-11,0.06512777,-1.0553471,-9.842023,-0.015374761,-0.017779648,0.0054229856,-0.0006989215,0.0050382507,0.021814402,3.6696067e-05,8.522381e-05,-2.985393e-06,38.27244,38.27244
634071676,2490378,2490378,3,3,27,0,0,401.99387,401.99387,8039.878,8039.878,0.11127066,0.0057480126,1.2747162e-10,0.0721873,-1.0248363,-9.821742,-0.02000666,-0.0213343,0.005526035,0.0027679384,0.0144778285,0.019787678,0.00015353819,7.198947e-05,1.5519172e-05,38.256557,38.256557
635012387,2490378,2490378,3,3,27,0,0,401.99387,401.99387,8039.878,8039.878,0.119354166,0.006590393,4.782706e-11,0.082479805,-1.0177407,-9.829605,-0.008069146,-0.018595928,0.00530303,-0.0010778932,0.0034058278,0.024451066,1.2956214e-05,2.8447244e-05,1.7980133e-07,38.240242,38.240242
636057579,2490378,2490378,3,3,27,0,0,401.99387,401.99387,8039.878,8039.878,0.10874533,0.006317589,4.7395574e-11,0.08057574,-1.0331317,-9.8513775,-0.018459586,-0.02441501,0.005388048,0.0003340746,0.0017773106,0.007002752,1.3522051e-05,3.1231386e-05,-8.035128e-07,38.214077,38.214077
637102786,2490378,2490378,3,3,27,0,0,401.99387,401.99387,8039.878,8039.878,0.11237027,0.0052930047,4.35214e-11,0.08261214,-1.0166762,-9.808186,-0.008704329,-0.024438921,0.00476998,0.0004932592,0.002176854,0.006344239,3.446037e-05,9.72977e-06,5.0961444e-06,38.200626,38.200626
638043477,2490378,2490378,3,3,27,0,0,401.99387,401.99387,8039.878,8039.878,0.12708722,0.0053796745,2.142552e-11,0.10184309,-1.03293,-9.752693,-0.002074837,-0.0058139144,0.004048755,-0.00068648194,0.005282422,0.022232413,4.986879e-05,2.3097971e-05,5.4556785e-06,38.18165,38.18165
639088683,2490378,2490378,3,3,27,0,0,401.99387,401.99387,8039.878,8039.878,0.17811152,0.0072257984,1.658532e-10,0.11007485,-1.0416433,-9.835759,-0.03288505,-0.021312501,0.007142937,-0.0020418658,0.015945442,0.04980307,0.00024905353,5.6388788e-05,3.4173274e-05,38.15893,38.15893
640029365,2490378,2490378,3,3,27,0,0,401.99387,401.99387,8039.878,8039.878,0.18756467,0.010646416,1.0417649e-10,0.09588624,-0.9087251,-9.835235,-0.0092803985,-0.013459007,0.006507534,0.00092424045,0.016181827,0.022119416,0.00016016231,0.00012662234,1.2414666e-05,38.135784,38.135784
641074571,2490378,2490378,3,3,27,0,0,401.99387,401.99387,8039.878,8039.878,0.21446806,0.0102741085,9.582523e-11,0.11033281,-0.90344274,-9.827813,-0.014697903,-0.020316735,0.0056530694,0.0017789353,0.018305345,0.06597364,5.7777033e-05,0.00011685688,-3.8877856e-06,38.097683,38.097683
642015257,2490378,2490378,3,3,27,0,0,401.99387,401.99387,8039.878,8039.878,0.18642487,0.0078010797,4.2636897e-11,0.10532743,-0.93837655,-9.79522,-0.0138174575,-0.02788408,0.0057212804,-0.0006443108,0.002009652,0.008778023,9.552279e-06,1.0134638e-05,5.485655e-07,38.092224,38.092224
643060458,2490378,2490378,3,3,27,0,0,401.99387,401.99387,8039.878,8039.878,0.10370143,0.004509066,8.0365645e-11,0.05834139,-0.8910206,-9.817015,-0.021423165,-0.02605189,0.00555624,0.00044233055,0.0037155473,0.007620327,3.6952188e-05,2.509598e-05,3.392254e-06,38.05606,38.05606
644105667,2490378,2490378,3,3,27,0,0,401.99387,401.99387,8039.878,8039.878,0.0876574,0.004270685,2.785545e-11,0.088931665,-0.92753804,-9.850436,-0.009028136,-0.02148554,0.0055796406,6.274323e-05,0.00082727126,0.002072876,5.3181584e-06,5.773347e-06,5.2714165e-07,38.027443,38.027443
645046349,2490378,2490378,3,3,27,0,0,401.99387,401.99387,8039.878,8039.878,0.07297073,0.0029670517,2.8651012e-11,0.09373504,-0.9757565,-9.850525,-0.020780308,-0.022468125,0.005434785,-0.000102499354,0.0012264269,0.0034182742,4.940916e-06,2.5887673e-06,9.90359e-07,38.006245,38.006245
646091548,2490378,2490378,3,3,27,0,0,401.99387,401.99387,8039.878,8039.878,0.080412686,0.0028971692,2.2195364e-11,0.083077274,-0.915936,-9.859228,-0.019288572,-0.020635122,0.005445531,0.00015655479,0.0006208362,0.001016731,5.926737e-06,1.2581235e-06,1.2732852e-06,37.975758,37.975758
647032231,2490378,2490378,3,3,27,0,0,401.99387,401.99387,8039.878,8039.878,0.035581436,0.0015120694,1.7696452e-11,0.08512531,-0.9359003,-9.832859,-0.010679211,-0.023166515,0.0054736496,0.00036509262,0.0006266662,0.00045861964,3.0039257e-06,1.5959431e-06,6.939589e-07,37.952183,37.952183
648077438,2490378,2490378,3,3,27,0,0,401.99387,401.99387,8039.878,8039.878,0.04330345,0.0016547152,1.6771652e-11,0.0798972,-0.95481205,-9.859417,-0.017439319,-0.019469444,0.005139046,0.00026811665,0.00056647207,0.0013193008,1.6345239e-06,1.073933e-06,5.3277995e-07,37.928383,37.928383
649018110,2490378,2490378,3,3,27,0,0,401.99387,401.99387,8039.878,8039.878,0.044260245,0.0016723367,1.603458e-11,0.10525196,-0.9385501,-9.8545475,-0.0143115,-0.020621683,0.0052615483,8.52519e-05,0.000991682,0.0005249131,2.2362426e-06,1.0487779e-06,5.102944e-07,37.93255,37.93255
650063369,2490378,2490378,3,3,27,0,0,401.99387,401.99387,8039.878,8039.878,0.06279952,0.0022779785,2.7050993e-11,0.09853874,-0.9436127,-9.852732,-0.015787037,-0.01322307,0.0046609994,8.4513136e-05,0.0020732917,0.0050727804,8.034185e-06,4.307028e-06,1.1380066e-06,37.88137,37.88137
651003994,2490378,2490378,3,3,27,0,0,401.99387,401.99387,8039.878,8039.878,0.0423961,0.0016498491,2.2083484e-11,0.12751462,-0.93089163,-9.854075,-0.015474837,-0.028537223,0.005811697,0.00016942692,0.001141272,0.000628243,2.718661e-06,9.656285e-07,5.7348785e-07,37.846718,37.846718
652049186,2490378,2490378,3,3,27,0,0,401.99387,401.99387,8039.878,8039.878,0.03574601,0.0014372369,1.8288523e-11,0.076080255,-0.9404237,-9.868773,-0.016676106,-0.017057529,0.0050877035,8.121825e-05,0.00030486015,0.00063515233,1.5582515e-06,8.802471e-07,6.1831184e-07,37.82084,37.82084
653094403,2490378,2490378,3,3,27,0,0,401.99387,401.99387,8039.878,8039.878,0.03821383,0.0014270771,1.7801552e-11,0.098271295,-0.93298435,-9.84873,-0.015606932,-0.022161577,0.005176042,0.00015576599,0.00032693808,0.00084224314,9.936966e-07,1.3228853e-06,4.2418407e-07,37.80049,37.80049
654035066,2490378,2490378,3,3,27,0,0,401.99387,401.99387,8039.878,8039.878,0.04009211,0.0018464423,2.7779818e-11,0.093195245,-0.94377506,-9.874641,-0.01432349,-0.024567053,0.0057368143,9.719221e-05,0.004351851,0.0035483043,8.3215355e-06,4.9363084e-06,1.4790107e-06,37.794163,37.794163
655080260,2490378,2490378,3,3,27,0,0,401.99387,401.99387,8039.878,8039.878,0.04058204,0.0017863557,1.4653542e-11,0.09365286,-0.93638444,-9.862981,-0.016525414,-0.02052125,0.0053016897,8.962753e-05,0.001024309,0.00047768175,1.5522717e-06,1.2697267e-06,5.218418e-07,37.76491,37.76491
656020935,2490378,2490378,3,3,27,0,0,401.99387,401.99387,8039.878,8039.878,0.03879609,0.0017965024,2.2711518e-11,0.088149175,-0.9323366,-9.8396635,-0.0146731865,-0.022917166,0.0054662675,0.0001344794,0.00038691546,0.00043176697,1.6050699e-06,1.1880799e-06,6.3004046e-07,37.739525,37.739525
657066136,2490378,2490378,3,3,27,0,0,401.99387,401.99387,8039.878,8039.878,0.03846712,0.0016146457,2.2727754e-11,0.075291686,-0.94489694,-9.83438,-0.015583069,-0.02382541,0.005174252,1.36401395e-05,0.0009908733,0.0018740803,2.48443e-06,2.138842e-06,6.097056e-07,37.72142,37.72142
658006806,2490378,2490378,3,3,27,0,0,401.99387,401.99387,8039.878,8039.878,0.06361958,0.0026867553,1.2726863e-11,0.08482689,-0.9364286,-9.821527,-0.017114095,-0.019827753,0.0052028755,0.00012956989,0.00022437041,0.0004200979,9.698098e-07,6.553797e-07,4.381302e-07,37.709415,37.709415
659051999,2490378,2490378,3,3,27,0,0,401.99387,401.99387,8039.878,8039.878,0.03433775,0.0017080727,1.4303635e-11,0.08715072,-0.9503759,-9.8337345,-0.0068235504,-0.023153424,0.005224322,4.8281876e-05,0.00028667774,0.0003885007,1.6949509e-06,7.965684e-07,4.840987e-07,37.686043,37.686043
660097191,2490378,2490378,3,3,27,0,0,401.99387,401.99387,8039.878,8039.878,0.08619668,0.003078637,4.4383056e-11,0.07251974,-0.972721,-9.851953,-0.01874425,-0.02125161,0.005265104,0.00060896087,0.0013994519,0.0046677412,3.220989e-06,6.7759165e-06,3.170381e-07,37.66268,37.66268
661037869,2490378,2490378,3,3,27,0,0,401.99387,401.99387,8039.878,8039.878,0.10243141,0.0037103596,7.4057774e-11,0.09546955,-0.9413896,-9.806733,-0.014812621,-0.019262247,0.0052049174,-0.00042689257,0.005456813,0.040582575,1.7816481e-05,3.6915575e-05,-1.374774e-06,37.627605,37.627605
662083067,2490378,2490378,3,3,27,0,0,401.99387,401.99387,8039.878,8039.878,0.055388086,0.002125991,2.1260181e-11,0.06695803,-0.98069626,-9.848342,-0.013890808,-0.023962408,0.0053048944,1.8187869e-07,0.0019190151,0.006297135,2.8888112e-06,3.846974e-06,3.8114501e-07,37.61567,37.61567
663023732,2490378,2490378,3,3,27,0,0,401.99387,401.99387,8039.878,8039.878,0.04033173,0.001601508,1.2455357e-11,0.09302327,-0.9524913,-9.822546,-0.015236368,-0.022382323,0.0053152745,4.931079e-05,0.0001603467,0.0003008449,9.688297e-07,9.75703e-07,5.043402e-07,37.591583,37.591583
664068920,2490378,2490378,3,3,27,0,0,401.99387,401.99387,8039.878,8039.878,0.03983027,0.0015881318,2.0349883e-11,0.07133924,-0.9674827,-9.837407,-0.01582671,-0.021330578,0.005364658,2.6973192e-05,0.0005095335,0.0013731854,1.485981e-06,1.4005483e-06,3.8868768e-07,37.554348,37.554348
665009588,2490378,2490378,3,3,27,0,0,401.99387,401.99387,8039.878,8039.878,0.06685616,0.0025354829,3.359876e-11,0.035882425,-0.9624189,-9.844444,-0.015184934,-0.02898384,0.0059131845,0.00024931735,0.000971217,0.0012521743,2.9404491e-06,1.9698375e-06,6.1402153e-07,37.536373,37.536373
666054792,2490378,2490378,3,3,27,0,0,401.99387,401.99387,8039.878,8039.878,0.06822159,0.002631516,2.4282515e-11,0.073792964,-0.9626869,-9.848511,-0.014366537,-0.01985536,0.0055561266,-3.5442376e-05,0.0005918403,0.0015579144,3.5927585e-06,9.602554e-07,7.377432e-07,37.519913,37.519913
667099968,2490378,2490378,3,3,27,0,0,401.99387,401.99387,8039.878,8039.878,0.04776472,0.0017585934,1.7975668e-11,0.051193323,-0.97786224,-9.842032,-0.01874255,-0.023677276,0.005086311,7.964824e-05,0.0006446543,0.0015981516,1.9183158e-06,1.2695502e-06,4.5868896e-07,37.476566,37.476566
668040634,2490378,2490378,3,3,27,0,0,401.99387,401.99387,8039.878,8039.878,0.07268568,0.002599007,4.7001597e-11,0.053928286,-0.9460606,-9.812651,-0.017574927,-0.020679763,0.005717473,-4.6042693e-05,0.0027769548,0.012232953,6.637851e-06,8.486663e-06,6.053513e-07,37.440403,37.440403
669085821,2490378,2490378,3,3,27,0,0,401.99387,401.99387,8039.878,8039.878,0.050857678,0.0020622597,2.3580301e-11,0.06650817,-0.9952666,-9.847413,-0.015506157,-0.022820305,0.004939082,0.00016251078,0.00048206266,0.0015307318,2.3263149e-06,1.4847016e-06,7.0083405e-07,37.412434,37.412434
670026527,2490378,2490378,3,3,27,0,0,401.99387,401.99387,8039.878,8039.878,0.03668656,0.0018326608,1.921487e-11,0.05254584,-0.9470448,-9.798342,-0.019048518,-0.023228955,0.005684841,3.0268313e-05,0.000279555,0.00061203254,7.977345e-07,1.2683635e-06,3.969785e-07,37.40338,37.40338
671071670,2490378,2490378,3,3,27,0,0,401.99387,401.99387,8039.878,8039.878,0.04881036,0.0020447327,1.2064832e-11,0.08886069,-0.97116536,-9.860991,-0.012873163,-0.02241025,0.005370197,8.488639e-05,0.00024205548,0.0005241004,1.3071791e-06,1.3733659e-06,3.2894653e-07,37.367733,37.367733
672012338,2490378,2490378,3,3,27,0,0,401.99387,401.99387,8039.878,8039.878,0.072019406,0.0032973061,4.0289473e-11,0.03943081,-0.96948344,-9.852231,-0.018298553,-0.02477127,0.0054158526,-3.610873e-05,0.004749914,0.004796969,8.635058e-06,5.678767e-06,9.216893e-07,37.345444,37.345444
673057518,2490378,2490378,3,3,27,0,0,401.99387,401.99387,8039.878,8039.878,0.04178868,0.0018547965,1.6613256e-11,0.058543086,-0.9545756,-9.812671,-0.012163877,-0.023815824,0.0054019005,0.00018907919,0.00065158133,0.00048946263,9.680895e-07,1.1844855e-06,4.878817e-07,37.32351,37.32351
674102704,2490378,2490378,3,3,27,0,0,401.99387,401.99387,8039.878,8039.878,0.06912593,0.0025833054,3.8699738e-11,0.028007884,-0.97093785,-9.85171,-0.018930782,-0.020415025,0.004993524,0.0005335172,0.0035030532,0.00729679,1.1523069e-05,7.086811e-06,1.2144593e-06,37.279877,37.279877
675043367,2490378,2490378,3,3,27,0,0,401.99387,401.99387,8039.878,8039.878,0.048456416,0.0023119655,3.4247015e-11,0.04438308,-0.9431931,-9.811725,-0.013405524,-0.023540039,0.005573916,-8.782227e-06,0.0008727483,0.0032402733,2.7678682e-06,3.5815294e-06,5.731092e-07,37.26528,37.26528
676088547,2490378,2490378,3,3,27,0,0,401.99387,401.99387,8039.878,8039.878,0.05170025,0.0019632012,2.0608114e-11,0.06544206,-0.9741995,-9.8600235,-0.015679147,-0.022310583,0.0052544666,8.057969e-05,0.00046634575,0.0006381758,1.2358726e-06,9.4298946e-07,4.06045e-07,37.23703,37.23703
677029209,2490378,2490378,3,3,27,0,0,401.99387,401.99387,8039.878,8039.878,0.041794717,0.0017590611,1.5672252e-11,0.035289224,-0.9606748,-9.8395195,-0.016135246,-0.02345799,0.005379343,0.00011741997,0.00041012946,0.0006774107,1.1808332e-06,2.1546018e-06,2.4396147e-07,37.21618,37.21618
678074392,2490378,2490378,3,3,27,0,0,401.99387,401.99387,8039.878,8039.878,0.061272647,0.002151554,1.7418322e-11,0.055947453,-0.97953933,-9.859486,-0.015344452,-0.020546732,0.005355498,8.98489e-05,0.0003428603,0.0011620728,1.2827678e-06,1.0110473e-06,5.2712164e-07,37.177654,37.177654
679015050,2490378,2490378,3,3,27,0,0,401.99387,401.99387,8039.878,8039.878,0.15380302,0.0056220093,3.5225142e-11,0.052096147,-0.9547081,-9.817088,-0.017743275,-0.02481248,0.005869984,0.0011744312,0.0024031696,0.0023247893,5.3163376e-06,5.4625916e-06,9.5337066e-07,37.147167,37.147167
680060226,2490378,2490378,3,3,27,0,0,401.99387,401.99387,8039.878,8039.878,0.055336073,0.0021566607,1.5374e-11,0.091904104,-0.95921564,-9.867565,-0.01579453,-0.01660166,0.0050385175,6.5966626e-05,0.00065724156,0.0016895129,2.2139939e-06,1.2709357e-06,5.5406707e-07,37.118347,37.118347
681105417,2490378,2490378,3,3,27,0,0,401.99387,401.99387,8039.878,8039.878,0.049883015,0.00253084,2.8586428e-11,0.118889704,-0.9358622,-9.894888,-0.017000785,-0.028447462,0.005579591,0.00029390486,0.000540151,0.0014752551,2.2241766e-06,4.0379828e-06,3.2364136e-07,37.08693,37.08693
682046061,2490378,2490378,3,3,27,0,0,401.99387,401.99387,8039.878,8039.878,0.04630049,0.0019297983,2.7192231e-11,0.05670592,-0.93888485,-9.838152,-0.016286561,-0.024817312,0.0058863065,5.9881255e-05,0.0005194346,0.0008866896,2.3608106e-06,2.5759186e-06,5.9190376e-07,37.063347,37.063347
683091239,2490378,2490378,3,3,27,0,0,401.99387,401.99387,8039.878,8039.878,0.03061009,0.0015973006,1.1873429e-11,0.08905963,-0.94651264,-9.83103,-0.014196166,-0.021569755,0.005630143,9.234806e-05,0.0002700562,0.00040341925,1.3658428e-06,1.2297575e-06,6.066599e-07,37.04228,37.04228
684031893,2490378,2490378,3,3,27,0,0,401.99387,401.99387,8039.878,8039.878,0.038431898,0.0015158391,2.0371422e-11,0.06834705,-0.9549594,-9.827665,-0.016984474,-0.025286023,0.005695465,0.00018953458,0.00052646105,0.00095865317,2.0709583e-06,1.2761157e-06,6.0018635e-07,37.028767,37.028767
685077083,2490378,2490378,3,3,27,0,0,401.99387,401.99387,8039.878,8039.878,0.16410957,0.005723683,2.1853692e-10,0.021091452,-0.9526477,-9.862478,-0.016337618,-0.033427496,0.0064597903,-0.0009583206,0.025959635,0.22433071,6.733398e-05,0.00019582295,-1.10557e-05,37.008137,37.008137
686017724,2490378,2490378,3,3,27,0,0,401.99387,401.99387,8039.878,8039.878,0.080354705,0.0030360518,3.0674963e-11,0.013755892,-0.9527017,-9.800444,-0.016838433,-0.02185999,0.0052682688,-0.00012593085,0.00096792995,0.004288504,3.7352231e-06,2.494548e-06,6.56357e-07,36.97112,36.97112
687062897,2490378,2490378,3,3,27,0,0,401.99387,401.99387,8039.878,8039.878,0.055145476,0.0022235527,2.639721e-11,0.0143301375,-0.94646645,-9.836651,-0.016709307,-0.017693056,0.0048020487,-0.00019300138,0.0008402963,0.0034523124,3.328576e-06,4.6403834e-06,3.647272e-07,36.9425,36.9425
688003582,2490378,2490378,3,3,27,0,0,401.99387,401.99387,8039.878,8039.878,0.088230096,0.003460878,4.8301252e-11,0.022983192,-0.9702478,-9.831401,-0.010282907,-0.027972251,0.0055350075,-0.00017917468,0.0021887263,0.011488531,6.0226266e-06,1.7603754e-05,-4.1041932e-07,36.921154,36.921154
689048744,2490378,2490378,3,3,27,0,0,401.99387,401.99387,8039.878,8039.878,0.080874816,0.0030365305,2.0590975e-11,-0.007180546,-0.9765323,-9.844436,-0.017632583,-0.018651549,0.005113603,8.703486e-05,0.00048619558,0.0010165799,1.452955e-06,1.4548559e-06,3.634116e-07,36.899086,36.899086
690093949,2490378,2490378,3,3,27,0,0,401.99387,401.99387,8039.878,8039.878,0.12422066,0.00448673,3.495834e-11,0.026129268,-0.94911325,-9.816934,-0.012995164,-0.025532853,0.0053597777,0.00054064824,0.0018442512,0.0022168516,4.199991e-06,3.3242627e-06,1.1733401e-06,36.876225,36.876225
691034548,2490378,2490378,3,3,27,0,0,401.99387,401.99387,8039.878,8039.878,0.15900287,0.0053132414,8.689264e-11,0.020406455,-0.98188627,-9.844542,-0.013569912,-0.020824524,0.005470981,-0.0034654564,0.006944819,0.051974356,1.5087879e-05,3.869585e-05,-1.6370911e-06,36.86868,36.86868
692079718,2490378,2490378,3,3,27,0,0,401.99387,401.99387,8039.878,8039.878,0.058894463,0.0023432851,2.6965107e-11,0.059645776,-0.9485659,-9.813542,-0.017859807,-0.02203374,0.0054545933,0.0007991117,0.0009403447,0.00064106256,3.6945873e-06,2.3235623e-06,1.0845051e-06,36.84423,36.84423
693020371,2490378,2490378,3,3,27,0,0,401.99387,401.99387,8039.878,8039.878,0.060419787,0.0021605163,2.4091406e-11,0.023499731,-0.9786172,-9.838648,-0.012884951,-0.023206381,0.005311892,-3.6604888e-05,0.00066382403,0.0040653003,1.2422936e-06,3.0779927e-06,3.2554271e-07,36.82669,36.82669
694065537,2490378,2490378,3,3,27,0,0,401.99387,401.99387,8039.878,8039.878,0.052801847,0.0020940367,2.8176631e-11,0.011511297,-0.9723634,-9.836809,-0.016210133,-0.022119492,0.005529263,-6.2894585e-05,0.0007342998,0.0019903355,3.0630733e-06,2.3806117e-06,4.647477e-07,36.802685,36.802685
695006186,2490378,2490378,3,3,27,0,0,401.99387,401.99387,8039.878,8039.878,0.039582573,0.0018202257,2.34451e-11,0.030140173,-0.9574146,-9.832067,-0.016207345,-0.02021265,0.004822754,0.00028980972,0.000523981,0.0014515932,3.7035948e-06,5.679733e-06,4.5938748e-07,36.77479,36.77479
696051353,2490378,2490378,3,3,27,0,0,401.99387,401.99387,8039.878,8039.878,0.06817206,0.0027721277,3.9080194e-11,-0.007840013,-0.9789152,-9.843651,-0.014034473,-0.023215365,0.0053236,-6.455331e-05,0.0012499506,0.0051541934,4.5089996e-06,1.1654902e-05,2.8226202e-08,36.765877,36.765877
697096522,2490378,2490378,3,3,27,0,0,401.99387,401.99387,8039.878,8039.878,0.031199561,0.0014415373,1.430501e-11,0.015368939,-0.97542906,-9.829963,-0.014161443,-0.021210905,0.005143282,1.6760176e-05,0.00029412174,0.0005173416,8.8951373e-07,9.4625113e-07,5.9592634e-07,36.73366,36.73366
698037169,2490378,2490378,3,3,27,0,0,401.99387,401.99387,8039.878,8039.878,0.039045345,0.0015898468,2.4914697e-11,0.020991147,-0.98204905,-9.859614,-0.017198846,-0.021556722,0.0055152196,8.249635e-05,0.0010804496,0.0009242493,4.2999645e-06,9.604788e-07,9.119542e-07,36.721443,36.721443
699082333,2490378,2490378,3,3,27,0,0,401.99387,401.99387,8039.878,8039.878,0.067227796,0.0024755443,4.311785e-11,0.026477305,-0.9686187,-9.820085,-0.014140745,-0.023613805,0.005351493,0.0013194716,0.006061427,0.008842146,8.677114e-06,8.25079e-06,1.1929955e-06,36.685066,36.685066
700022998,2490378,2490378,3,3,27,0,0,401.99387,401.99387,8039.878,8039.878,0.054199204,0.0021249347,1.1002134e-11,0.015872939,-0.9662993,-9.841079,-0.015480984,-0.023098325,0.005363468,5.160106e-05,0.00014238116,0.00010967822,8.391516e-07,6.320711e-07,4.577006e-07,36.666607,36.666607
701068145,2490378,2490378,3,3,27,0,0,401.99387,401.99387,8039.878,8039.878,0.13087465,0.0045491313,4.7209278e-11,0.015929464,-0.95820254,-9.823174,-0.013763619,-0.02195682,0.005336421,-2.4844172e-05,0.0019543536,0.007766553,5.5882306e-06,6.161203e-06,6.8505466e-07,36.619152,36.619152
702008793,2490378,2490378,3,3,27,0,0,401.99387,401.99387,8039.878,8039.878,0.069391295,0.002830739,2.4794427e-11,0.022635495,-0.98084944,-9.84331,-0.015308983,-0.022317199,0.0055420185,6.675208e-05,0.000716449,0.0022525024,3.4452537e-06,1.08789645e-05,-1.8141957e-07,36.597363,36.597363
703053952,2490378,2490378,3,3,27,0,0,401.99387,401.99387,8039.878,8039.878,0.03595959,0.0015922871,1.5936993e-11,0.03069836,-0.977146,-9.831246,-0.01642611,-0.020740246,0.005442643,0.00010494044,0.0006820861,0.00042988293,1.3539466e-06,9.203538e-07,3.8554887e-07,36.58306,36.58306
704099114,2490378,2490378,3,3,27,0,0,401.99387,401.99387,8039.878,8039.878,0.03348387,0.0015179366,1.960355e-11,0.06093695,-0.9641548,-9.846462,-0.014478832,-0.02817955,0.0058801956,0.00024732455,0.00021268842,0.0007380177,7.681475e-07,9.193203e-06,-3.158583e-07,36.552937,36.552937
705039757,2490378,2490378,3,3,27,0,0,401.99387,401.99387,8039.878,8039.878,0.03248145,0.0014408327,2.2144715e-11,0.020629816,-0.9820306,-9.871253,-0.015491104,-0.02617287,0.005672353,0.00032500713,0.00029507003,0.00060062524,1.7979661e-06,1.8163877e-06,6.259602e-07,36.53087,36.53087
706084896,2490378,2490378,3,3,27,0,0,401.99387,401.99387,8039.878,8039.878,0.03866015,0.0016434592,3.2781524e-11,0.030685777,-0.99274725,-9.909489,-0.017913418,-0.025954744,0.006298257,0.00031009264,0.0015181934,0.0021412477,3.7251232e-06,3.1691325e-06,5.624512e-07,36.511818,36.511818
707025560,2490378,2490378,3,3,27,0,0,401.99387,401.99387,8039.878,8039.878,0.04191663,0.0017521125,2.4387324e-11,-0.03290511,-0.9978252,-9.826668,-0.0174277,-0.025686696,0.0059764707,0.00011425887,0.0005377294,0.0008878674,2.7585647e-06,1.3425922e-06,5.123727e-07,36.47379,36.47379
708070726,2490378,2490378,3,3,27,0,0,401.99387,401.99387,8039.878,8039.878,0.036754847,0.0016046567,2.5201985e-11,-0.022901407,-0.9884794,-9.814729,-0.016841488,-0.024928331,0.0053653317,7.642899e-05,0.00036508287,0.0005187904,2.3214916e-06,7.779134e-07,5.467429e-07,36.474792,36.474792
709011362,2490378,2490378,3,3,27,0,0,401.99387,401.99387,8039.878,8039.878,0.03711387,0.0015994901,1.5956979e-11,-0.019416982,-0.9839067,-9.821822,-0.0058299056,-0.024654612,0.005290555,0.0001783486,0.0011551217,0.00080804416,1.232452e-05,1.0573051e-06,1.6955105e-06,36.435413,36.435413
710056535,2490378,2490378,3,3,27,0,0,401.99387,401.99387,8039.878,8039.878,0.22095482,0.0067166835,3.1189416e-11,0.0035677399,-1.0130701,-9.807363,-0.012217423,-0.02347557,0.0050376095,0.0007376594,0.0026978008,0.008987994,7.2391285e-06,1.2821377e-05,-9.918514e-08,36.42922,36.42922
711101701,2490378,2490378,3,3,27,0,0,401.99387,401.99387,8039.878,8039.878,0.061322063,0.0021546574,1.7846507e-11,0.018274011,-1.0117909,-9.852645,-0.015626982,-0.021269891,0.005479236,0.00016499289,0.0006707734,0.0009233649,1.5354558e-06,2.4307762e-06,2.99798e-07,36.40025,36.40025
712042317,2490378,2490378,3,3,27,0,0,401.99387,401.99387,8039.878,8039.878,0.049193867,0.0022334242,4.9574775e-11,0.00036198366,-0.99742013,-9.822282,-0.017869834,-0.027145,0.0056499774,0.00047338824,0.0015454744,0.0051430813,5.6244853e-06,1.0948508e-05,2.917428e-07,36.36639,36.36639
713087473,2490378,2490378,3,3,27,0,0,401.99387,401.99387,8039.878,8039.878,0.1260278,0.0044483603,2.4360661e-11,0.016651196,-0.9929536,-9.831278,-0.020523375,-0.014974371,0.0049929502,-7.5818236e-05,0.00049640576,0.0018572785,1.5364775e-06,2.2820168e-06,3.9942654e-07,36.359844,36.359844
714028111,2490378,2490378,3,3,27,0,0,401.99387,401.99387,8039.878,8039.878,0.050531182,0.0020111708,1.4611166e-11,0.012674537,-0.982248,-9.823407,-0.013501923,-0.01717293,0.005008899,0.00012081044,0.00041548023,0.00068287476,1.4093571e-06,1.4219564e-06,4.2562263e-07,36.330513,36.330513
715073268,2490378,2490378,3,3,27,0,0,401.99387,401.99387,8039.878,8039.878,0.029803166,0.001292013,1.676278e-11,0.020799633,-0.9995427,-9.831182,-0.015319624,-0.021282336,0.005637046,8.459436e-05,0.00034692028,0.0009659399,1.3058186e-06,8.0094276e-07,4.76932e-07,36.30658,36.30658
716013920,2490378,2490378,3,3,27,0,0,401.99387,401.99387,8039.878,8039.878,0.03130788,0.0016220836,3.2704395e-11,0.05559876,-1.0093857,-9.826895,-0.016412145,-0.02297999,0.00504469,2.9422647e-05,0.00095229433,0.0034699435,5.223287e-06,8.403531e-06,3.569582e-07,36.291485,36.291485
717059062,2490378,2490378,3,3,27,0,0,401.99387,401.99387,8039.878,8039.878,0.032304708,0.001560709,2.3735073e-11,0.028480627,-0.9744687,-9.786263,-0.017110728,-0.023259955,0.005830246,0.00016239657,0.00082745944,0.001044311,2.7599021e-06,3.468862e-06,2.7485862e-07,36.253883,36.253883
718104212,2490378,2490378,3,3,27,0,0,401.99387,401.99387,8039.878,8039.878,0.04531611,0.001842802,2.0975516e-11,0.02013601,-0.99848646,-9.861886,-0.012623278,-0.024308661,0.005334546,1.7018412e-05,0.00069825357,0.0013161026,1.7526972e-06,2.202823e-06,4.5051388e-07,36.239143,36.239143
719044851,2490378,2490378,3,3,27,0,0,401.99387,401.99387,8039.878,8039.878,0.033945452,0.0015087839,1.782389e-11,0.037434205,-0.9937764,-9.802633,-0.017484592,-0.020864164,0.005663546,0.00010097071,0.0002033711,0.00078330335,6.821668e-07,8.536511e-07,4.67371e-07,36.198174,36.198174
720090000,2490378,2490378,3,3,27,0,0,401.99387,401.99387,8039.878,8039.878,0.047031865,0.0017851433,1.8039981e-11,0.04393649,-0.9859706,-9.842148,-0.015237117,-0.02404075,0.0054934905,0.00012595739,0.0002465329,0.0005241822,1.0843559e-06,1.1394603e-06,3.6480225e-07,36.18681,36.18681
721030642,2490378,2490378,3,3,27,0,0,401.99387,401.99387,8039.878,8039.878,0.043417674,0.0016995593,1.7243486e-11,0.018455623,-0.991379,-9.853812,-0.013672349,-0.022334108,0.005543687,1.2490451e-05,0.00028045237,0.00042143886,1.174055e-06,1.022814e-06,4.9260603e-07,36.1738,36.1738
722075787,2490378,2490378,3,3,27,0,0,401.99387,401.99387,8039.878,8039.878,0.030912444,0.0013866915,1.5586163e-11,0.023072716,-0.9994919,-9.838715,-0.014174644,-0.020475315,0.0050070276,7.3236e-05,0.0002771686,0.0005197334,1.3218455e-06,9.473577e-07,5.482468e-07,36.146477,36.146477
723016451,2490378,2490378,3,3,27,0,0,401.99387,401.99387,8039.878,8039.878,0.038484003,0.0015593718,1.6546665e-11,0.036967833,-0.9826251,-9.829715,-0.017497433,-0.022429192,0.005543385,9.352396e-05,0.0003929428,0.0008424092,1.205323e-06,1.3467769e-06,2.9160572e-07,36.145977,36.145977
724061569,2490378,2490378,3,3,27,0,0,401.99387,401.99387,8039.878,8039.878,0.031546455,0.0018293973,1.8045338e-11,0.02753416,-0.98439753,-9.833969,-0.013165417,-0.02303123,0.0054212124,4.4910325e-05,0.00035490046,0.001030799,1.9047309e-06,1.4807994e-06,6.9232885e-07,36.10371,36.10371
725106740,2490378,2490378,3,3,27,0,0,401.99387,401.99387,8039.878,8039.878,0.04955331,0.0025454748,1.2119734e-11,0.028886814,-0.9875,-9.826664,-0.013567602,-0.021716997,0.0054980763,0.00012816883,0.0002441749,0.0005800151,1.004126e-06,1.03582e-06,3.712305e-07,36.085526,36.085526
726047352,2490378,2490378,3,3,27,0,0,401.99387,401.99387,8039.878,8039.878,0.037610933,0.001734707,1.7056401e-11,0.0433861,-0.991875,-9.811879,-0.016233472,-0.023627937,0.0053599775,0.00010553706,0.0005647969,0.00077951245,1.7043667e-06,1.50466e-06,3.9753937e-07,36.068054,36.068054
727092496,2490378,2490378,3,3,27,0,0,401.99387,401.99387,8039.878,8039.878,0.044298336,0.0019778924,1.9955065e-11,0.03611007,-0.9616809,-9.814668,-0.016115408,-0.023287777,0.0053382465,9.611139e-05,0.00034309004,0.0003222193,1.4801349e-06,8.463632e-07,4.2319914e-07,36.050213,36.050213
728033228,2490378,2490378,3,3,27,0,0,401.99387,401.99387,8039.878,8039.878,0.06916832,0.0032487952,3.7118173e-11,0.029808309,-0.98683244,-9.845476,-0.013096707,-0.021236151,0.005337464,-3.4736935e-05,0.0010871488,0.0027023586,5.755883e-06,2.5625714e-06,8.060385e-07,36.029156,36.029156
729078275,2490378,2490378,3,3,27,0,0,401.99387,401.99387,8039.878,8039.878,0.03741456,0.001729337,2.088907e-11,0.04072635,-0.9991856,-9.842484,-0.0152229415,-0.025037104,0.0056573,0.00015193784,0.00039608573,0.00051007484,2.2916895e-06,7.294043e-07,5.942646e-07,36.01938,36.01938
730018907,2490378,2490378,3,3,27,0,0,401.99387,401.99387,8039.878,8039.878,0.034901597,0.0016249128,1.9618439e-11,0.029754462,-0.97679067,-9.820574,-0.02037383,-0.020012451,0.005185439,0.00013544434,0.00024580784,0.00036647034,1.0639892e-06,1.4963205e-06,5.4098984e-07,36.002274,36.002274
731064057,2490378,2490378,3,3,27,0,0,401.99387,401.99387,8039.878,8039.878,0.040410783,0.002118384,3.2006182e-11,0.008846641,-0.9615021,-9.8233185,-0.013148162,-0.022920912,0.0057099126,0.00033642023,0.0009855491,0.0012920857,5.8168716e-06,9.280676e-06,3.796266e-07,35.981426,35.981426
732004698,2490378,2490378,3,3,27,0,0,401.99387,401.99387,8039.878,8039.878,0.031834766,0.0015588665,1.6170447e-11,0.04198531,-0.99158984,-9.856094,-0.011432504,-0.02307268,0.0056699226,9.3788716e-05,0.00021814741,0.00042364324,1.4162797e-06,6.771001e-07,5.4576486e-07,35.970207,35.970207
733049830,2490378,2490378,3,3,27,0,0,401.99387,401.99387,8039.878,8039.878,0.053841088,0.0023162938,9.003081e-11,0.033823077,-0.99393374,-9.82054,-0.017737433,-0.022672107,0.005594364,0.0026535925,0.0094098,0.012347774,3.5662306e-05,1.3434667e-05,3.882067e-06,35.954613,35.954613
734094989,2490378,2490378,3,3,27,0,0,401.99387,401.99387,8039.878,8039.878,0.03875413,0.0019942182,4.3678915e-11,0.025004188,-0.9593908,-9.816888,-0.014118541,-0.021302307,0.005253977,0.000106988955,0.0026655362,0.005655895,7.758333e-06,7.610824e-06,7.585524e-07,35.93786,35.93786
735035603,2490378,2490378,3,3,27,0,0,401.99387,401.99387,8039.878,8039.878,0.03127505,0.0015546117,1.6102245e-11,0.018386116,-0.9864434,-9.858997,-0.009358132,-0.023414316,0.0056593316,0.00019399181,0.0002941779,0.00024171437,1.1557082e-06,9.610465e-07,4.866704e-07,35.929596,35.929596
736080743,2490378,2490378,3,3,27,0,0,401.99387,401.99387,8039.878,8039.878,0.111543015,0.00417704,8.046259e-11,0.041485768,-1.0014333,-9.820198,-0.01653684,-0.0209222,0.0055020223,0.0012891648,0.010938557,0.039382894,3.572835e-05,3.148994e-05,2.5571558e-06,35.909176,35.909176
737021389,2490378,2490378,3,3,27,0,0,401.99387,401.99387,8039.878,8039.878,0.103208974,0.004254568,2.5150807e-11,0.0448784,-0.95475215,-9.797027,-0.017563602,-0.021451626,0.0052575176,6.4365275e-05,0.0009769606,0.0032609426,4.2453753e-06,7.0375086e-06,1.9652899e-07,35.894512,35.894512
738066518,2490378,2490378,3,3,27,0,0,401.99387,401.99387,8039.878,8039.878,0.054512218,0.0026353728,2.4726766e-11,0.06274341,-0.9674272,-9.873525,-0.015920825,-0.017153496,0.0052619344,0.00021890958,0.0009348212,0.0021747819,3.485875e-06,6.3055672e-06,4.4165552e-07,35.87294,35.87294
739007144,2490378,2490378,3,3,27,0,0,401.99387,401.99387,8039.878,8039.878,0.050250795,0.0023370723,2.8175741e-11,0.10544497,-0.9794371,-9.82361,-0.016642584,-0.02039424,0.0055796155,-6.553925e-05,0.0007924084,0.003041828,2.2306513e-06,1.4766344e-05,-7.3666337e-07,35.874958,35.874958
740052302,2490378,2490378,3,3,27,0,0,401.99387,401.99387,8039.878,8039.878,0.05430546,0.002346173,3.7202894e-11,0.020712085,-0.9520016,-9.812469,-0.021317048,-0.032016467,0.006418078,0.00024696038,0.0014689818,0.003506188,3.7729185e-06,2.50939e-06,7.3820115e-07,35.85325,35.85325
741097429,2490378,2490378,3,3,27,0,0,401.99387,401.99387,8039.878,8039.878,0.049347494,0.0021140047,1.317426e-11,-0.006193329,-0.9631103,-9.853078,-0.010606373,-0.019704457,0.005253676,0.00026876328,0.0005978257,0.00059217244,2.1160874e-06,1.9357776e-06,4.5775883e-07,35.827007,35.827007
742038115,2490378,2490378,3,3,27,0,0,401.99387,401.99387,8039.878,8039.878,0.062462732,0.0025813475,2.3944133e-11,-0.008842678,-0.9829115,-9.851078,-0.015150958,-0.023846209,0.0058470536,7.346502e-05,0.000824912,0.0012321736,2.988867e-06,2.55731e-06,6.535504e-07,35.824493,35.824493
743083199,2490378,2490378,3,3,27,0,0,401.99387,401.99387,8039.878,8039.878,0.046953533,0.002048146,1.9470292e-11,0.016088072,-0.9641916,-9.841579,-0.015924692,-0.021765964,0.0054988284,0.00016132825,0.00064111507,0.0010895752,2.4799322e-06,4.159537e-06,2.4609915e-07,35.80149,35.80149
744023820,2490378,2490378,3,3,27,0,0,401.99387,401.99387,8039.878,8039.878,0.040584967,0.0019243923,2.3178797e-11,0.020577462,-0.9546919,-9.815473,-0.01527786,-0.023926504,0.00572485,0.00016758265,0.00094500446,0.0005223259,3.1232937e-06,1.159877e-06,7.6287364e-07,35.79811,35.79811
745068960,2490378,2490378,3,3,27,0,0,401.99387,401.99387,8039.878,8039.878,0.02549768,0.0013566462,2.0362297e-11,0.0139025,-0.9670867,-9.833142,-0.0146319615,-0.025561312,0.0061398204,5.455431e-05,0.00017861476,0.00022454959,1.9973108e-06,8.877881e-07,5.642628e-07,35.786037,35.786037
746009600,2490378,2490378,3,3,27,0,0,401.99387,401.99387,8039.878,8039.878,0.031393364,0.0015821722,2.2049295e-11,0.009175495,-0.97056973,-9.839002,-0.014463507,-0.021121087,0.0052831685,6.7668625e-05,0.00027785718,0.0008532515,2.1078151e-06,1.769761e-06,6.447646e-07,35.763893,35.763893
747054716,2490378,2490378,3,3,27,0,0,401.99387,401.99387,8039.878,8039.878,0.030973446,0.0014689579,1.8385847e-11,0.017894274,-0.9624907,-9.836209,-0.01675188,-0.02054397,0.005302952,-8.489476e-06,0.00036543052,0.00090878207,1.6909025e-06,2.1044502e-06,4.260525e-07,35.742176,35.742176
748099856,2490378,2490378,3,3,27,0,0,401.99387,401.99387,8039.878,8039.878,0.10141777,0.0039682314,7.705297e-11,0.010907247,-0.95611215,-9.814138,-0.013021169,-0.021834966,0.005770746,-0.0006716174,0.0056687924,0.01621927,2.5253117e-05,1.8872744e-05,2.4337155e-06,35.712704,35.712704
749040477,2490378,2490378,3,3,27,0,0,401.99387,401.99387,8039.878,8039.878,0.058804527,0.0022945048,1.9382575e-11,0.031291448,-0.9943309,-9.844097,-0.014740975,-0.020335233,0.00522212,0.0001861888,0.00091482385,0.0019789308,2.584549e-06,1.5487544e-06,5.3665315e-07,35.698616,35.698616
