timestamp,timestamp_sample,baro_device_id,bias,bias_var,innov,innov_var,innov_test_ratio
539703064,539594937,4028193,2.923639,0.007464529,-6.9101543,16.608864,0.31944278
540111116,539969340,4028193,2.9172034,0.0074583204,-7.1224194,16.592186,0.33971047
540709027,540567024,4028193,2.9074397,0.0074490677,-7.3484592,16.550636,0.36252287
541106591,540999114,4028193,2.9010627,0.0074429396,-7.119322,16.50929,0.34111932
541713866,541596720,4028193,2.8911073,0.0074336464,-7.4416094,16.394594,0.3753104
542101996,541971129,4028193,2.8845162,0.007427397,-7.3183627,16.358057,0.3637924
542709260,542561526,4028193,2.8745663,0.0074180732,-7.262826,16.337822,0.35873568
543117366,542993497,4028193,2.868016,0.007411924,-7.298417,16.337816,0.36226037
543714651,543591092,4028193,2.8581626,0.0074026464,-7.3388977,16.301527,0.36710548
544113037,543972685,4028193,2.8517683,0.007396443,-7.0291185,16.28545,0.33710057
544710275,544563081,4028193,2.842598,0.0073871794,-6.9446664,16.325682,0.32823804
545108998,544995098,4028193,2.8365753,0.0073811025,-6.6026106,16.394543,0.2954538
545715547,545585518,4028193,2.827787,0.0073719784,-6.3534966,16.500977,0.271815
546113785,545967183,4028193,2.821969,0.007365937,-6.5134706,16.5713,0.28446302
546721046,546615107,4028193,2.8135757,0.007357034,-6.1875,16.65477,0.2554167
547109165,546996711,4028193,2.8081062,0.007351074,-6.2418666,16.709455,0.2590742
547716414,547587156,4028193,2.7999473,0.007342203,-6.0963306,16.78573,0.24601085
548114625,547961595,4028193,2.7946563,0.0073363036,-6.059865,16.849789,0.24215247
548711894,548609523,4028193,2.7872026,0.0073276623,-5.6130495,17.001015,0.20591141
549110114,548991130,4028193,2.7822647,0.0073218937,-5.6648827,17.084133,0.2087115
549717994,549588697,4028193,2.77484,0.007313315,-5.6437836,17.123753,0.20668039
550105594,549963122,4028193,2.770073,0.007307577,-5.572463,17.136992,0.20133407
550712837,550611092,4028193,2.7631538,0.007299107,-5.275256,17.114918,0.18066324
551110908,550985478,4028193,2.7584627,0.0072933813,-5.438743,17.101698,0.19218317
551718187,551583104,4028193,2.7515922,0.007284868,-5.2961445,17.097288,0.18228456
552106475,551964694,4028193,2.7472823,0.007279184,-4.985449,17.097282,0.16152468
552703747,552555110,4028193,2.7411702,0.0072706793,-4.767167,17.070911,0.14791818
553111955,552987195,4028193,2.737252,0.0072650625,-4.5722647,17.031494,0.13638526
553709200,553577507,4028193,2.7311974,0.0072565214,-4.559686,16.914223,0.13657631
554098012,553959104,4028193,2.727198,0.0072508035,-4.714077,16.86257,0.146429
554704624,554556711,4028193,2.7211545,0.007242235,-4.4965706,16.751646,0.13411051
555112690,554988699,4028193,2.717222,0.00723653,-4.4481163,16.646265,0.13206658
555709963,555579100,4028193,2.711635,0.007227861,-4.4020786,16.567007,0.12996578
556128124,556011084,4028193,2.7080235,0.00722213,-4.037938,16.529715,0.10960024
556715353,556601493,4028193,2.7022743,0.0072134486,-4.3653426,16.480244,0.12847851
557113644,556983092,4028193,2.6985314,0.007207657,-4.2367077,16.480238,0.12101829
557720797,557580686,4028193,2.6927783,0.0071990318,-4.53088,16.5173,0.13809678
558109063,557955111,4028193,2.6889875,0.007193268,-4.43084,16.537958,0.13190089
558716928,558603113,4028193,2.6833775,0.007184773,-4.3938065,16.562815,0.12951055
559114503,558977547,4028193,2.6797457,0.0071790507,-4.152459,16.579424,0.11555767
559711873,559575139,4028193,2.6741006,0.007170565,-4.362693,16.629456,0.12717119
560110041,560007107,4028193,2.6705718,0.007164971,-4.096526,16.642004,0.11204264
560707289,560604695,4028193,2.6650078,0.007156535,-4.3774614,16.633625,0.12800156
561105391,560979118,4028193,2.6613622,0.007150879,-4.2666693,16.625256,0.1216654
561712595,561569495,4028193,2.6556165,0.00714244,-4.3696556,16.583546,0.12793063
562110951,562001536,4028193,2.6518536,0.007136868,-4.2826605,16.558615,0.12307244
562708219,562599137,4028193,2.646362,0.007128478,-4.3295164,16.604357,0.1254337
563106925,562980757,4028193,2.6426766,0.00712289,-4.299088,16.629408,0.123490445
563723513,563571186,4028193,2.637272,0.0071145166,-4.382427,16.562744,0.12884115
564111752,564003083,4028193,2.6334708,0.007108978,-4.439863,16.521338,0.1325719
564718886,564593540,4028193,2.6278107,0.007100591,-4.336835,16.496584,0.12668036
565117081,564975100,4028193,2.6240106,0.0070950002,-4.489069,16.488348,0.13579786
565714354,565572683,4028193,2.618361,0.0070866616,-4.3146877,16.484226,0.1254838
566122493,566004723,4028193,2.6145365,0.0070811566,-4.384509,16.48422,0.12957793
566719924,566595095,4028193,2.608839,0.0070728348,-4.2698374,16.492441,0.12282739
567108085,566969513,4028193,2.605124,0.007067283,-4.3350363,16.52956,0.12632278
567716036,567567108,4028193,2.599493,0.0070590656,-4.374754,16.604288,0.12806913
568103600,567999100,4028193,2.5957496,0.0070536663,-4.4548755,16.662859,0.13233633
568700845,568596758,4028193,2.5905852,0.0070455642,-3.9067605,16.75569,0.10121124
569108934,568971114,4028193,2.5872352,0.0070401556,-4.03185,16.80247,0.107496195
569716127,569561481,4028193,2.582239,0.007032133,-3.9375167,16.883835,0.102030784
570114467,569993479,4028193,2.5788574,0.007026876,-3.9756644,16.931274,0.10372592
570711623,570591089,4028193,2.573929,0.0070189927,-3.7996523,17.08383,0.09389879
571109959,570972688,4028193,2.5707862,0.0070137796,-3.8369887,17.203194,0.09508882
571717010,571563117,4028193,2.5661178,0.007006057,-3.8002205,17.369131,0.092384055
572115770,571995108,4028193,2.563171,0.007001022,-3.6890156,17.491947,0.08644509
572712571,572585553,4028193,2.55867,0.0069934605,-3.778785,17.620853,0.09003988
573110693,572967093,4028193,2.5557475,0.006988447,-3.763361,17.685892,0.08897792
573727895,573615099,4028193,2.5513284,0.006981049,-3.8305237,17.681225,0.09220648
574116166,573996689,4028193,2.5483057,0.0069760536,-3.7393982,17.653309,0.088010564
574713455,574587085,4028193,2.5440586,0.0069685676,-3.4198856,17.588453,0.07388444
575111680,574961475,4028193,2.5412858,0.0069635385,-3.5032468,17.53777,0.07775434
575718890,575609533,4028193,2.5372508,0.0069561107,-3.3217275,17.50564,0.07003377
576107091,575991114,4028193,2.5344079,0.0069511095,-3.7328258,17.52398,0.08834871
576714866,576588758,4028193,2.5302026,0.006943678,-3.3995566,17.606916,0.0729321
577112495,576963106,4028193,2.5274463,0.006938729,-3.4498115,17.709166,0.07467068
577719837,577611089,4028193,2.523443,0.006931501,-3.170589,17.859625,0.06254103
578107972,577985522,4028193,2.5207794,0.006926643,-3.563281,17.945156,0.078615904
578705256,578583090,4028193,2.5171344,0.0069194715,-3.043167,18.036139,0.0570513
579113374,578964716,4028193,2.5146415,0.0069146967,-3.1257515,18.089144,0.060013425
579710723,579555138,4028193,2.5109022,0.006907607,-3.3041673,18.230047,0.06654168
580108878,579987138,4028193,2.5084193,0.006902978,-3.312794,18.318352,0.066567145
580716134,580577522,4028193,2.504773,0.006895998,-3.1810236,18.397383,0.061113227
581114915,581009490,4028193,2.5026355,0.0068914257,-2.759725,18.442062,0.045885943
581502472,581391084,4028193,2.5008142,0.0068867975,-2.3289797,18.427147,0.032706253
581910625,581772719,4028193,2.4991164,0.006882171,-2.2140322,18.422174,0.029565446
582497951,582363146,4028193,2.4964492,0.006875274,-2.6994898,18.511879,0.043739155
583115297,583011114,4028193,2.4935057,0.0068685156,-2.7715688,18.572039,0.045956742
583712422,583601546,4028193,2.4906487,0.006861699,-2.8294444,18.58209,0.0478702
583911485,583767114,4028193,2.4896405,0.0068593975,-2.734359,18.607264,0.04464636
584707962,584580738,4028193,2.485593,0.006850409,-2.8077526,18.617338,0.04704978
585116079,585012699,4028193,2.48353,0.0068459483,-2.8526387,18.592138,0.04863195
585714060,585603123,4028193,2.4804568,0.006839162,-2.858785,18.52185,0.049027085
586101578,585977474,4028193,2.4783726,0.006834617,-2.8414788,18.531862,0.048409134
586499662,586359183,4028193,2.4762542,0.0068301028,-2.7481177,18.551914,0.045231335
586907912,586791174,4028193,2.4742968,0.0068256673,-2.7544346,18.587084,0.045353536
587714203,587604762,4028193,2.470407,0.0068167835,-2.8171873,18.65772,0.047263987
588102441,587979087,4028193,2.468336,0.0068123126,-2.8402634,18.68811,0.04796333
588500720,588353492,4028193,2.4664211,0.006807854,-2.5525067,18.708412,0.038694955
588898753,588785488,4028193,2.4645052,0.0068034884,-2.5785003,18.723656,0.039454922
589705221,589599106,4028193,2.4608872,0.006794723,-2.5736437,18.749102,0.039253093
590103863,589980691,4028193,2.459255,0.0067903264,-2.20821,18.779709,0.028850235
590501494,590355151,4028193,2.4576797,0.006785935,-2.3485625,18.861689,0.03249235
590909596,590787131,4028193,2.456094,0.0067816474,-2.157647,18.897715,0.027372153
591706003,591593475,4028193,2.4532633,0.0067729573,-1.821672,18.749079,0.019666085
592114196,591975117,4028193,2.4520664,0.0067685903,-1.7092319,18.769476,0.017294472
592513014,592407148,4028193,2.4508014,0.0067642992,-1.882416,18.784792,0.020959567
592910492,592788682,4028193,2.4496033,0.0067599528,-1.7913735,18.805243,0.018960547
593706839,593595181,4028193,2.4468992,0.0067513795,-1.934036,18.964855,0.021914776
594105045,593969555,4028193,2.4456542,0.006747099,-1.9385786,19.089746,0.021873794
594503460,594401504,4028193,2.4445624,0.0067429407,-1.5472617,19.221066,0.013839092
594901409,594783100,4028193,2.4434128,0.006738754,-1.8156927,19.337662,0.01894254
595707761,595596684,4028193,2.4410896,0.0067305416,-1.6273329,19.530542,0.015065932
596106001,595971108,4028193,2.439972,0.006726411,-1.5851998,19.557533,0.014276163
596523978,596403111,4028193,2.4388778,0.0067223846,-1.5833995,19.64425,0.014180874
596912799,596777484,4028193,2.4377532,0.0067183017,-1.6619339,19.726011,0.015557712
597708657,597591136,4028193,2.4354813,0.0067103147,-1.6035912,19.907469,0.0143525405
598106898,597972685,4028193,2.4342887,0.0067063347,-1.7866373,20.035229,0.017702555
598714043,598563104,4028193,2.4327843,0.0067004403,-1.7003274,20.226032,0.015882246
599112772,598995087,4028193,2.4316056,0.006696606,-1.8583431,20.345036,0.018860398
599500404,599369519,4028193,2.430344,0.006692717,-1.9110956,20.453465,0.01984063
599908698,599801532,4028193,2.42909,0.006688944,-1.9548512,20.585688,0.020626213
600704917,600564706,4028193,2.4264429,0.0066813356,-2.0762398,20.672485,0.02316967
601113090,600996703,4028193,2.4249785,0.0066776024,-2.283331,20.66668,0.02803009
601501866,601371093,4028193,2.4235415,0.0066738133,-2.2511883,20.812302,0.02705584
601899480,601745486,4028193,2.4219823,0.0066700554,-2.5270267,20.935589,0.033891592
602705890,602559108,4028193,2.4191258,0.0066627385,-2.4009776,21.22669,0.030175287
603104011,602991088,4028193,2.4175653,0.0066591613,-2.657041,21.358952,0.03672604
603502370,603372712,4028193,2.4159923,0.006655545,-2.5619583,21.449682,0.034000143
603910374,603804722,4028193,2.4145138,0.0066520106,-2.4755182,21.522593,0.03163699
604696734,604553519,4028193,2.41176,0.0066448147,-2.1385922,21.504328,0.023631299
605104817,604985555,4028193,2.4105763,0.0066412794,-1.834302,21.40122,0.017468702
605503104,605367114,4028193,2.4093566,0.006637665,-2.0676837,21.298689,0.02230349
605902126,605799087,4028193,2.4081237,0.0066341017,-1.9658363,21.220673,0.020234525
606707541,606555128,4028193,2.4058144,0.006626759,-1.914757,20.882597,0.019507442
607105816,606987089,4028193,2.4045572,0.0066231117,-2.0099785,20.707275,0.02167791
607503914,607361489,4028193,2.403205,0.00661935,-2.1715198,20.528,0.025523394
607902098,607793527,4028193,2.4016886,0.006615645,-2.365207,20.384819,0.03049221
608698487,608556696,4028193,2.3985653,0.0066080373,-2.3519058,20.158333,0.030488968
609106546,608988708,4028193,2.3969328,0.0066042687,-2.381807,20.023977,0.031478956
609504745,609363116,4028193,2.3952503,0.0066003897,-2.5410748,19.863167,0.03611968
609903019,609795117,4028193,2.3935068,0.006596556,-2.5630822,19.665884,0.037116677
610699258,610551097,4028193,2.389739,0.0065886453,-2.8098218,19.353489,0.045326877
611097575,610983160,4028193,2.3878062,0.0065847198,-2.811481,19.205084,0.045731097
611495761,611364714,4028193,2.3857534,0.006580703,-3.0971222,19.068684,0.05589249
612102968,611955080,4028193,2.3826714,0.0065746685,-2.98404,18.985413,0.052113082
612710882,612603089,4028193,2.379674,0.0065686963,-2.888658,18.902655,0.04904864
613108292,612977530,4028193,2.3775332,0.0065646386,-3.074771,18.928457,0.055496782
613705590,613575085,4028193,2.3744197,0.006558638,-3.0546007,18.990585,0.05459188
614093813,613956692,4028193,2.3722792,0.006554652,-3.2036176,19.110481,0.059671536
614701015,614547152,4028193,2.369119,0.0065487507,-3.0328312,19.294962,0.052967567
615099179,614979105,4028193,2.367032,0.0065448936,-3.132543,19.294958,0.056507718
615696446,615569517,4028193,2.3639774,0.0065390235,-3.097781,19.241991,0.055412646
616094823,615951092,4028193,2.3619053,0.0065350947,-3.0367904,19.210306,0.053339973
616711785,616599092,4028193,2.3587897,0.0065293172,-3.1706877,19.273733,0.05795603
617100658,616980684,4028193,2.3566182,0.006525431,-3.3039713,19.358753,0.062654555
617707383,617571091,4028193,2.353381,0.006519667,-3.2610068,19.524939,0.060516145
618105484,618003131,4028193,2.3512824,0.0065158852,-3.1626792,19.417494,0.0572367
618702778,618593489,4028193,2.3479795,0.006510107,-3.3913615,19.326794,0.06612197
619100931,618975091,4028193,2.3457923,0.006506223,-3.1184173,19.226109,0.056199774
619708085,619572707,4028193,2.3424318,0.006500444,-3.3708086,19.263111,0.06553891
620106310,620004736,4028193,2.3402097,0.0064966567,-3.3720703,19.348068,0.06529999
620703691,620595108,4028193,2.3369308,0.006490927,-3.250465,19.428177,0.060424965
621101747,620969509,4028193,2.3346896,0.0064871013,-3.2288926,19.454979,0.059543435
621699607,621567110,4028193,2.3314502,0.006481453,-3.203222,19.5681,0.05826167
622107193,621999121,4028193,2.3291276,0.006477766,-3.570682,19.70392,0.07189641
622704502,622596725,4028193,2.3256783,0.006472243,-3.4093564,19.90723,0.0648771
623102552,622971110,4028193,2.323334,0.0064685517,-3.6486402,20.00156,0.07395299
623709806,623561537,4028193,2.319408,0.0064631044,-4.108965,20.152567,0.09308763
624108016,623993509,4028193,2.3169212,0.00645956,-4.110984,20.242739,0.092764065
624705336,624591135,4028193,2.313027,0.0064542377,-4.179028,20.464682,0.094820686
625103531,624972710,4028193,2.3104782,0.0064507057,-4.0124865,20.58545,0.086900905
625710676,625563108,4028193,2.306803,0.0064454987,-3.8377662,20.888292,0.07834505
626109441,625995094,4028193,2.3044748,0.0064421375,-3.882786,21.11302,0.07934034
626706191,626585497,4028193,2.300916,0.006437102,-3.9122157,21.461597,0.079239376
627104225,626967086,4028193,2.2985475,0.006433797,-4.0543957,21.724365,0.08407418
627711542,627564682,4028193,2.2951157,0.006428972,-3.871854,22.153748,0.07518795
628099738,627996722,4028193,2.2928636,0.006425855,-3.9086695,22.368828,0.07588783
628697041,628587085,4028193,2.2894588,0.006421144,-3.9910448,22.528448,0.07855963
629095216,628961512,4028193,2.2872887,0.006417996,-3.727985,22.599075,0.06833058
629702396,629559103,4028193,2.2839556,0.006413371,-4.0383606,22.754015,0.079636045
630100590,629991091,4028193,2.2816274,0.0064103487,-4.2586474,22.818914,0.08830919
630688605,630531096,4028193,2.2780013,0.006405717,-4.4789295,23.047632,0.09671184
631095958,630963089,4028193,2.2755,0.0064027593,-4.476217,23.199268,0.09596335
631693346,631553491,4028193,2.2715297,0.0063982913,-4.990176,23.445425,0.11801336
632091452,631985486,4028193,2.268957,0.006395401,-4.5473466,23.586353,0.09741208
632698709,632583122,4028193,2.2650774,0.0063910494,-4.7923193,23.843609,0.10702296
633097006,632964729,4028193,2.2625523,0.0063881697,-4.714487,24.055614,0.10266205
633704069,633555115,4028193,2.258823,0.0063838935,-4.7869797,24.158886,0.105391055
634102184,633987150,4028193,2.2562609,0.0063811187,-4.9224935,24.297283,0.11080773
634689607,634577520,4028193,2.252443,0.006376913,-4.6963043,24.478394,0.100112215
635098216,634959087,4028193,2.2498631,0.006374122,-4.87698,24.576479,0.10753251
635704866,635556717,4028193,2.2459364,0.0063700094,-5.1894627,24.823397,0.12054274
636093136,635988682,4028193,2.2431908,0.006367343,-5.398316,25.00841,0.12947562
636710247,636579080,4028193,2.2391455,0.0063633206,-5.5315723,25.34629,0.13413444
637108447,636953548,4028193,2.2363865,0.0063606454,-5.4333105,25.520529,0.12852775
637705717,637601493,4028193,2.23223,0.006356794,-5.5422373,25.72526,0.13266854
638103900,637983132,4028193,2.2294154,0.006354184,-5.554049,25.828213,0.13270354
638701181,638580721,4028193,2.2252023,0.0063503166,-5.9343867,25.879833,0.15119858
639109263,638955167,4028193,2.222339,0.006347704,-5.8045073,25.909376,0.14448781
639697241,639545537,4028193,2.2181883,0.006343834,-5.5411835,25.901983,0.13171327
640094804,639977476,4028193,2.2154157,0.006341303,-5.5519056,25.813467,0.1326769
640692097,640575096,4028193,2.211353,0.006337445,-5.6157246,25.820827,0.13570596
641090214,640956697,4028193,2.2085235,0.0063348613,-5.7659936,25.872437,0.14278035
641707699,641604709,4028193,2.2040687,0.006331044,-6.0427656,25.462288,0.15934248
642105482,641979112,4028193,2.2010477,0.0063283923,-6.0708947,25.418716,0.1611051
642712722,642569493,4028193,2.196586,0.0063244454,-5.8982577,25.245142,0.15311831
643111091,643001561,4028193,2.1937153,0.00632185,-5.798369,25.122892,0.14869608
643698183,643548708,4028193,2.1893177,0.0063178246,-5.8529873,25.072721,0.15181378
644106915,643980738,4028193,2.1863601,0.0063152257,-5.943982,25.094208,0.15643683
644703601,644571113,4028193,2.1818829,0.006311271,-6.0976477,25.230719,0.16373916
645101833,644945490,4028193,2.1788976,0.0063086203,-5.8954964,25.266758,0.15284412
645708972,645593524,4028193,2.1745512,0.006304783,-5.7671814,25.331764,0.1458879
646107200,645975091,4028193,2.171733,0.006302162,-5.5812864,25.27397,0.13694704
646724421,646623109,4028193,2.1673405,0.006298314,-5.894521,25.165949,0.1534056
647112543,647004683,4028193,2.164536,0.0062956754,-5.495042,25.07986,0.13377482
647709776,647595087,4028193,2.1603384,0.0062917066,-5.546278,24.873001,0.1374145
648107970,647969593,4028193,2.157544,0.006289006,-5.4776235,24.66782,0.13514845
648705220,648567152,4028193,2.1533666,0.006284971,-5.3654346,24.345818,0.13138413
649103507,648999105,4028193,2.1506462,0.0062822863,-5.2239647,24.110535,0.12576248
649700834,649596688,4028193,2.14673,0.006278137,-4.808618,23.707735,0.10836974
650098820,649971153,4028193,2.1441953,0.006275293,-4.759359,23.48548,0.10716549
650706298,650561509,4028193,2.1405435,0.006270967,-4.3873873,22.805779,0.09378308
651104230,650993479,4028193,2.138047,0.0062680617,-4.572623,22.464296,0.10341783
651721314,651591093,4028193,2.134365,0.0062635792,-4.2425585,22.134714,0.090352304
652109561,651972727,4028193,2.1319568,0.006260527,-4.2087755,21.88487,0.08993423
652716808,652563145,4028193,2.128292,0.0062558865,-4.1349764,21.510023,0.08832074
653105723,652995230,4028193,2.1259398,0.006252806,-3.9690855,21.298304,0.08218515
653722214,653585488,4028193,2.1224375,0.0062480518,-3.7926898,21.047476,0.07593677
654100404,653967104,4028193,2.1201038,0.006244843,-3.8376522,20.888092,0.07834115
654707805,654564718,4028193,2.116625,0.0062400233,-3.8454216,20.706892,0.07934699
655115791,654996683,4028193,2.1142282,0.0062368438,-3.9524791,20.67204,0.0839679
655713090,655587116,4028193,2.1105878,0.0062320046,-4.0970087,20.735977,0.08994287
656111268,655961526,4028193,2.1082087,0.00622877,-3.995464,20.788473,0.08532364
656718406,656609477,4028193,2.1046581,0.0062240646,-3.8589664,20.864582,0.07930303
657116569,656991089,4028193,2.102411,0.006220873,-3.716533,20.85285,0.07359835
657723783,657588686,4028193,2.0988677,0.0062161293,-4.2318316,20.89394,0.09523441
658102152,657963095,4028193,2.096629,0.0062129335,-3.7515233,20.893936,0.07484323
658709296,658553477,4028193,2.0932684,0.006208187,-3.7165308,20.870438,0.07353624
659107431,658985550,4028193,2.091013,0.006205083,-3.8623543,20.893929,0.079330765
659715195,659583137,4028193,2.0876222,0.0062003704,-3.7920156,20.882172,0.076510675
660102810,659964688,4028193,2.0853255,0.0061972095,-3.9297917,20.876295,0.08219457
660709996,660555176,4028193,2.0819345,0.0061924886,-3.90188,20.882164,0.08100835
661108192,660987101,4028193,2.0797741,0.006189405,-3.7350059,20.91744,0.074102275
661715480,661577478,4028193,2.0765245,0.0061847186,-3.61516,20.982304,0.06920849
662114243,662009516,4028193,2.0743985,0.0061816634,-3.6971006,21.017784,0.072259195
674954436,674811122,4028193,2.072954,0.006197161,-4.8458467,20.794285,0.12547374
675163540,675027107,4028193,2.0715399,0.0061956085,-4.748193,20.811823,0.12036605
675352894,675243101,4028193,2.0702033,0.0061940574,-4.491666,20.823524,0.10765102
675949828,675833494,4028193,2.0662646,0.006189329,-4.44071,20.835232,0.10516325
676347995,676215095,4028193,2.0636382,0.0061861747,-4.407214,20.841087,0.103553645
676756165,676646948,4028193,2.0611002,0.0061830874,-4.1887794,20.835226,0.09356949
677363293,677244606,4028193,2.0572047,0.006178386,-4.4487696,20.735924,0.1060508
677960586,677834974,4028193,2.0532238,0.006173632,-4.464012,20.573631,0.10762106
678358777,678209333,4028193,2.0505369,0.0061704167,-4.5667005,20.493073,0.113072105
678956090,678806963,4028193,2.0466318,0.006165644,-4.3412113,20.407192,0.102611504
679354205,679238893,4028193,2.0439217,0.0061624935,-4.4697905,20.338814,0.1091456
679952001,679836496,4028193,2.0400257,0.006157697,-4.368104,20.27072,0.10458617
680349627,680210905,4028193,2.0374289,0.0061544515,-4.2281976,20.219841,0.098240435
680956775,680801307,4028193,2.0334575,0.0061496235,-4.3544664,20.19164,0.104341194
681354921,681233295,4028193,2.0307567,0.006146459,-4.3667707,20.15787,0.10510749
681763030,681614886,4028193,2.0281198,0.006143231,-4.416424,20.146626,0.10757136
682360239,682212556,4028193,2.0240788,0.0061384216,-4.602783,20.118557,0.11700427
682947553,682802921,4028193,2.0198545,0.0061335983,-4.576441,20.101738,0.11576562
683345779,683234892,4028193,2.017071,0.006130441,-4.5544405,20.101734,0.11465527
683943091,683825337,4028193,2.0129514,0.00612562,-4.499941,20.062565,0.11214623
684351432,684206922,4028193,2.0102305,0.006122401,-4.5831437,20.056974,0.11636411
684958479,684855044,4028193,2.0061932,0.0061176764,-4.441949,20.056969,0.10930481
685346577,685236517,4028193,2.0035274,0.006114459,-4.418561,20.001207,0.108458355
685953651,685826937,4028193,1.9995236,0.0061096423,-4.419357,19.978952,0.108618274
686351807,686201292,4028193,1.9967074,0.006106409,-4.7248793,19.990068,0.12408653
686740949,686633299,4028193,1.9937644,0.006103271,-4.8375373,20.045788,0.12971285
687357288,687230951,4028193,1.9894328,0.0060985433,-4.7124043,20.214142,0.12206391
687944692,687828489,4028193,1.9850609,0.0060938317,-5.057381,20.118513,0.14125797
688362699,688260539,4028193,1.982016,0.00609072,-5.013778,20.056942,0.1392589
688950461,688793367,4028193,1.9774785,0.006085887,-4.9426603,20.073706,0.13522328
689348052,689225425,4028193,1.9744515,0.00608279,-4.910552,20.112894,0.13321206
689945248,689822962,4028193,1.9698876,0.0060780747,-4.9119267,20.045763,0.13373302
690353321,690204545,4028193,1.9668472,0.0060749077,-5.1841254,20.023447,0.14913158
690950582,690794951,4028193,1.9624764,0.0060701612,-4.6518188,19.917896,0.120714545
691358699,691226909,4028193,1.9596232,0.0060670334,-4.680996,19.818571,0.12284618
691946008,691817349,4028193,1.9553319,0.00606225,-4.8035927,19.774628,0.1296527
692354236,692249327,4028193,1.9524173,0.006059116,-4.742487,19.758183,0.12648027
692951489,692846902,4028193,1.9480159,0.0060543553,-4.896617,19.73628,0.13498467
693360228,693228496,4028193,1.9450358,0.006051159,-4.8307137,19.703495,0.13159423
693946744,693818888,4028193,1.9403594,0.006046372,-5.1723986,19.659891,0.15120298
694344942,694193340,4028193,1.9372933,0.0060431533,-4.9075546,19.638136,0.13626601
694952108,694841309,4028193,1.9326717,0.006038445,-4.8303556,19.583889,0.1323783
695350257,695222911,4028193,1.9296051,0.006035241,-5.0475435,19.55684,0.14475012
695957413,695820514,4028193,1.9250507,0.0060304557,-4.889758,19.492132,0.1362928
696345669,696194992,4028193,1.921921,0.0060272254,-5.1578116,19.481375,0.15172909
696753864,696626912,4028193,1.9187523,0.006024076,-5.128838,19.443789,0.15031923
697370970,697217375,4028193,1.9140685,0.006019259,-5.104896,19.347591,0.14965953
697958827,697814947,4028193,1.9091687,0.0060144407,-5.2549086,19.257332,0.15932785
698346400,698196515,4028193,1.9058409,0.006011195,-5.5884266,19.178175,0.18093781
698754527,698628490,4028193,1.9022939,0.0060080015,-5.8484325,19.109934,0.19887365
699361666,699218908,4028193,1.8970778,0.0060031204,-5.6257906,19.047241,0.18462585
699759918,699650923,4028193,1.8935322,0.0059999144,-5.644852,18.995218,0.18638816
700357084,700241287,4028193,1.8880789,0.005995014,-5.7629614,18.943394,0.19480097
700954317,700838912,4028193,1.8824414,0.0059901346,-5.943724,18.922718,0.20743942
701362515,701220531,4028193,1.8786316,0.0059868647,-6.037713,18.92788,0.21399345
701780519,701652499,4028193,1.874745,0.005983666,-6.33452,18.943382,0.23535712
702368651,702242936,4028193,1.868939,0.0059788013,-6.1246147,18.979631,0.21959744
702765932,702617338,4028193,1.8651026,0.0059755356,-6.149212,18.964079,0.22154637
703363181,703214940,4028193,1.859437,0.0059707058,-6.1491966,18.969254,0.22148484
703781273,703647046,4028193,1.8555758,0.0059675286,-6.2706223,18.938194,0.23069605
704368496,704244693,4028193,1.8499192,0.005962697,-6.032016,18.907206,0.21382333
704776631,704619094,4028193,1.846098,0.0059594386,-5.976406,18.902044,0.2099563
705373889,705267118,4028193,1.840292,0.005954683,-6.238553,18.896887,0.2288416
705782152,705641476,4028193,1.8364911,0.0059514334,-6.163732,18.902037,0.22332451
706369287,706239117,4028193,1.8308431,0.005946631,-6.02042,18.902033,0.2130603
706757921,706620712,4028193,1.8271312,0.005943408,-5.965136,18.876276,0.20945072
707364768,707211090,4028193,1.8213203,0.0059385886,-6.0467052,18.865984,0.2153355
707772740,707643130,4028193,1.8174834,0.0059354347,-6.1415114,18.845427,0.22238323
708360027,708233479,4028193,1.8117646,0.005930613,-6.1349173,18.799297,0.22245045
708748210,708615130,4028193,1.8080801,0.0059273946,-5.8470497,18.80441,0.20200929
709375297,709263113,4028193,1.8025026,0.0059226803,-5.8870325,18.881401,0.20394643
709783573,709644711,4028193,1.798682,0.0059194984,-6.128836,18.953665,0.22020154
710370761,710235112,4028193,1.7931932,0.005914776,-5.8461304,19.099373,0.198827
710768979,710667140,4028193,1.7895235,0.005911713,-6.0489235,19.193869,0.21181229
711356774,711207102,4028193,1.7840918,0.0059070187,-5.9347258,19.374134,0.2019931
711784151,711639105,4028193,1.7805108,0.0059040193,-6.0185733,19.497387,0.2064278
712162508,712020689,4028193,1.7768067,0.005900981,-6.227981,19.610847,0.21976359
733931415,733779310,4028193,1.7756033,0.00592886,-4.4862304,22.109251,0.101145506
734130628,733995310,4028193,1.7743741,0.0059275622,-4.583286,22.109251,0.10556922
734329599,734211385,4028193,1.773194,0.0059262654,-4.4015,22.10925,0.09736098
734926856,734801801,4028193,1.7697436,0.0059223007,-4.2835045,22.14066,0.09208003
735315090,735183397,4028193,1.7675292,0.005919648,-4.044183,22.084146,0.082288355
735922752,735781028,4028193,1.7641261,0.005915697,-4.1944466,22.034046,0.08871817
747120845,747013155,4028193,1.762812,0.005929129,-4.373763,19.741629,0.107667595
747319178,747171498,4028193,1.7614985,0.005927557,-4.3709383,19.730688,0.1075882
747538104,747387493,4028193,1.7602274,0.005926063,-4.216423,19.665213,0.10044937
747926367,747819559,4028193,1.7576995,0.0059230668,-4.272915,19.610868,0.10344491
748523515,748409920,4028193,1.7535818,0.0059185172,-4.575012,19.736145,0.11783645
749120760,749007511,4028193,1.7492975,0.0059140446,-4.833281,19.934359,0.13020849
749518908,749389154,4028193,1.7464089,0.005911068,-4.765973,20.017708,0.12608005
750116174,749979521,4028193,1.7420137,0.0059066527,-5.1041913,20.168879,0.14352567
750534296,750411536,4028193,1.7390673,0.005903793,-5.1953254,20.287462,0.1478275
750932333,750785908,4028193,1.7360783,0.0059008696,-5.101239,20.372705,0.14192541
751530077,751383497,4028193,1.7315911,0.005896586,-5.2650604,20.533028,0.1500069
751927684,751815509,4028193,1.7286459,0.0058937925,-5.0950975,20.590666,0.14008515
752524936,752413090,4028193,1.7241914,0.0058895145,-5.102236,20.378393,0.14194125
752923118,752787520,4028193,1.7210702,0.0058865882,-5.374827,20.185745,0.15901631
753530233,753377912,4028193,1.7161636,0.0058822017,-5.5483656,19.995409,0.1710635
753939129,753809918,4028193,1.7128339,0.0058793104,-5.7220964,19.873482,0.18306017
754525669,754407539,4028193,1.7074345,0.005874879,-6.2474275,19.665161,0.22052734
754923964,754789133,4028193,1.7036793,0.0058718743,-6.2746234,19.540474,0.22387095
755521029,755379501,4028193,1.6977876,0.005867347,-6.4122114,19.374094,0.2358043
755939181,755811531,4028193,1.6939386,0.005864366,-6.2284036,19.278368,0.223584
756526313,756401895,4028193,1.6881127,0.0058598,-6.436826,19.225462,0.2394552
757123591,756999522,4028193,1.6823441,0.0058552492,-6.4376907,19.172758,0.24017794
757531570,757381109,4028193,1.6784555,0.005852189,-6.336145,19.13074,0.23317176
757939682,757813087,4028193,1.6747029,0.0058491845,-6.1312246,19.041878,0.2193523
758526978,758403503,4028193,1.6690673,0.005844565,-6.1104918,18.922571,0.21924497
758925158,758777898,4028193,1.6653786,0.005841454,-6.0028496,18.896774,0.21187745
759512493,759375503,4028193,1.6597993,0.005836841,-5.820872,18.824808,0.19998756
760119542,759973086,4028193,1.6545209,0.0058322186,-5.570864,18.7992,0.183427
760528198,760405093,4028193,1.651118,0.005829196,-5.3479266,18.876162,0.1683506
760925889,760779604,4028193,1.6477646,0.0058261133,-5.4331493,18.97429,0.17286028
761523023,761369933,4028193,1.6426076,0.0058215726,-5.584945,19.130709,0.18116081
761921203,761801924,4028193,1.639144,0.005818632,-5.677475,19.251846,0.1860354
772920030,772818105,4028193,1.6380721,0.0058319126,-3.8098264,20.735577,0.077777095
773118984,772983686,4028193,1.6370283,0.0058305045,-3.7186213,20.776394,0.07395222
773318038,773199756,4028193,1.6360154,0.005829163,-3.6141543,20.805607,0.06975744
773517195,773415693,4028193,1.6350036,0.005827824,-3.6165648,20.83487,0.0697524
774114395,774013323,4028193,1.6319476,0.005823756,-3.7662833,20.864182,0.07554089
774920646,774819712,4028193,1.6279901,0.0058183684,-3.471932,21.005585,0.06376247
775318720,775194037,4028193,1.6261913,0.0058156564,-3.226696,21.088602,0.054856207
775727071,775625919,4028193,1.6243999,0.005813045,-3.1930645,21.18396,0.053476837
776125378,776007511,4028193,1.6227969,0.005810387,-2.9989963,21.27382,0.04697468
776921333,776763510,4028193,1.6200222,0.005805098,-2.5622535,21.406431,0.03407669
777320151,777195509,4028193,1.6187261,0.005802534,-2.3535542,21.376205,0.028792229
777717570,777569912,4028193,1.6175019,0.0057998793,-2.1782887,21.315903,0.024733447
778135530,778001960,4028193,1.616348,0.005797309,-1.985014,21.315899,0.020539079
778712934,778599531,4028193,1.6148329,0.0057934,-1.9167334,21.34602,0.01912335
779320110,779197108,4028193,1.6136962,0.005789494,-1.0740007,21.309872,0.00601431
780116358,780003490,4028193,1.612592,0.005784322,-0.8327961,21.479155,0.0035877128
781519762,781407503,4028193,1.6115787,0.005775396,-0.45524967,21.570482,0.0010675713
783321359,783185920,4028193,1.6104534,0.005763677,-0.5997901,20.864122,0.0019158255
785133609,785029127,4028193,1.6094098,0.0057515707,-0.41821146,20.179977,0.0009630053
786924615,786807483,4028193,1.608282,0.005739146,-0.46326625,19.984142,0.0011932552
788347963,788211510,4028193,1.6072749,0.005729489,-0.69145405,19.862295,0.0026745747
789134911,789017890,4028193,1.6061914,0.0057239556,-0.83939433,19.785263,0.0039568334
789731505,789615522,4028193,1.6051643,0.005719777,-1.3019241,19.61609,0.009600998
790318869,790213088,4028193,1.6040941,0.0057155695,-1.466695,19.507965,0.012252511
790925888,790803524,4028193,1.6028076,0.0057113376,-1.6015491,19.486433,0.01462533
791513146,791393949,4028193,1.6013333,0.0057071373,-1.7009841,19.6378,0.016370622
791921864,791775509,4028193,1.600267,0.0057043578,-1.8697995,19.757828,0.019661127
792329309,792207489,4028193,1.5991626,0.0057016574,-1.905809,19.818205,0.020363478
792926737,792805123,4028193,1.5976989,0.0056975354,-1.7674488,19.719524,0.017601704
793513893,793395532,4028193,1.5961856,0.0056933793,-1.8685148,19.659538,0.019732278
794131506,793985939,4028193,1.5947784,0.005689227,-1.5475262,19.637783,0.013550055
794728109,794583523,4028193,1.5935814,0.0056851003,-1.2713498,19.648647,0.009140184
795315548,795181093,4028193,1.5924507,0.0056809955,-1.2834346,19.741379,0.00927102
795922580,795771499,4028193,1.5913732,0.0056769084,-1.3397937,19.86776,0.010038861
796519797,796361891,4028193,1.590219,0.005672857,-1.238208,19.978516,0.00852671
797117132,797009990,4028193,1.5889751,0.0056689177,-1.4600024,20.05652,0.011808889
797734110,797607516,4028193,1.5878915,0.005664939,-1.2702414,20.140532,0.008901415
798341242,798205113,4028193,1.5866352,0.0056609917,-1.4286494,20.24194,0.011203577
798928491,798795493,4028193,1.585261,0.005657048,-1.5952424,20.28155,0.013941506
799525695,799385884,4028193,1.5838782,0.0056531,-1.6825194,20.23063,0.015547774
800122915,799983484,4028193,1.5823709,0.0056491867,-1.9396989,20.292875,0.020600727
800531152,800415484,4028193,1.5813413,0.0056466293,-1.8705438,20.315569,0.019136578
800949060,800847560,4028193,1.5802822,0.0056440793,-1.8400598,20.343983,0.018492064
801327279,801171515,4028193,1.5792044,0.0056413887,-1.9037119,20.361053,0.019776968
801735388,801603517,4028193,1.5780816,0.0056388495,-2.060987,20.378141,0.023160258
802123605,801977922,4028193,1.5768496,0.005636236,-2.16064,20.418087,0.0254043
802521749,802410010,4028193,1.575486,0.005633703,-2.416326,20.34966,0.031879492
802930335,802791527,4028193,1.5740547,0.005631098,-2.606461,20.281523,0.037218545
803328088,803223509,4028193,1.57249,0.0056285337,-3.0317197,20.09003,0.050834082
804124385,803979515,4028193,1.5691229,0.0056231986,-3.073121,19.823626,0.05293388
804532261,804411503,4028193,1.5672276,0.005620561,-3.3244777,19.556427,0.062793516
804920500,804785903,4028193,1.5653528,0.0056177783,-3.1194649,19.093843,0.056627102
805329119,805217881,4028193,1.5634506,0.005615016,-3.2426596,18.783642,0.062198568
805726719,805599497,4028193,1.5615836,0.005612147,-3.0846162,18.530638,0.057051808
806532972,806413109,4028193,1.5581368,0.005606357,-2.5655017,18.083004,0.040441897
806931168,806787489,4028193,1.5564046,0.005603347,-2.649363,17.83465,0.043729633
807329549,807219495,4028193,1.5546714,0.0056003802,-2.6458473,17.624092,0.044134714
807727322,807593928,4028193,1.5529256,0.005597313,-2.7461019,17.53181,0.047792964
808533795,808407480,4028193,1.5496721,0.0055912035,-2.461019,17.25529,0.039000053
808921880,808789090,4028193,1.5481131,0.0055880826,-2.3234856,17.130856,0.035015345
809329877,809221166,4028193,1.5466683,0.0055850064,-2.2265928,17.029812,0.032346644
810116215,809969879,4028193,1.5436568,0.00557866,-2.2651315,16.92118,0.033690985
810524261,810401965,4028193,1.5421808,0.0055755572,-2.1340578,16.860893,0.030011605
810932354,810783512,4028193,1.5408533,0.005572382,-2.078092,16.796736,0.028566837
811330510,811215488,4028193,1.5394896,0.0055692606,-1.9891441,16.741495,0.02626006
811738650,811597174,4028193,1.538142,0.0055660703,-2.105015,16.699232,0.029482981
812534864,812403488,4028193,1.5355211,0.005559728,-2.0072289,16.657166,0.026875107
812933139,812777932,4028193,1.5342152,0.0055565154,-1.8675896,16.640394,0.023289317
813331191,813209901,4028193,1.532978,0.0055533824,-1.8872249,16.581957,0.023865417
814128152,814023489,4028193,1.530198,0.0055470266,-2.1150079,16.490913,0.030139552
814525580,814405154,4028193,1.5287365,0.0055438094,-2.134756,16.441662,0.030796992
814923753,814779535,4028193,1.5275028,0.005540568,-1.8848219,16.408987,0.02405561
815322025,815211490,4028193,1.5262213,0.005537413,-1.7170727,16.41714,0.01995434
815739834,815585890,4028193,1.5248736,0.005534184,-2.054782,16.44165,0.028532745
816526863,816399505,4028193,1.5222297,0.005527863,-1.9158286,16.503252,0.024711622
816924379,816781110,4028193,1.5208547,0.005524688,-2.0388355,16.540426,0.027923843
817322480,817213204,4028193,1.5194607,0.005521592,-2.1483922,16.590248,0.030912332
817730588,817587518,4028193,1.5180938,0.005518427,-1.926859,16.63617,0.02479728
818537289,818393929,4028193,1.5151017,0.0055122306,-2.3140793,16.758398,0.03550434
818934961,818825882,4028193,1.513627,0.005509199,-2.1745787,16.813736,0.03124953
819323084,819207556,4028193,1.5122086,0.0055061225,-2.193163,16.886614,0.031648763
819731402,819589106,4028193,1.5108135,0.0055030696,-2.163754,16.981781,0.030633034
820517531,820395492,4028193,1.5079864,0.0054970775,-2.2910137,17.183899,0.033938386
820926181,820769931,4028193,1.5065467,0.0054940805,-2.273057,17.29552,0.033192847
821313769,821201962,4028193,1.5051229,0.0054911906,-2.2741404,17.394783,0.033034902
822110039,821965087,4028193,1.5023315,0.0054853503,-2.1637573,17.573124,0.029602312
822518245,822397102,4028193,1.5008144,0.0054825223,-2.4023485,17.651814,0.03632789
822926334,822771618,4028193,1.499458,0.0054796305,-2.2266827,17.726404,0.03107803
823334327,823203505,4028193,1.4980072,0.0054768384,-2.291751,17.787382,0.03280804
823742522,823635534,4028193,1.4964997,0.005474057,-2.4734583,17.825077,0.03813601
824528737,824391509,4028193,1.4936972,0.0054683667,-2.3120527,17.848696,0.033277176
824927037,824823561,4028193,1.4922223,0.005465604,-2.4389052,17.867628,0.03698967
825325749,825205088,4028193,1.4908509,0.0054627866,-2.365812,17.90084,0.03474118
825723127,825579518,4028193,1.4893758,0.0054599596,-2.3644307,17.93415,0.03463617
826529493,826385936,4028193,1.486306,0.0054544155,-2.2971282,17.996273,0.03257957
826927598,826817930,4028193,1.4847883,0.0054517016,-2.5442848,18.04429,0.039861087
827335576,827199485,4028193,1.4832138,0.0054489356,-2.6947308,18.087677,0.044607252
827743723,827631512,4028193,1.4816114,0.0054462445,-2.6369169,18.136074,0.042599753
828520015,828387513,4028193,1.478281,0.0054407334,-2.7742076,18.116682,0.0472016
828938040,828819482,4028193,1.4765283,0.005438054,-2.9686172,18.136066,0.053991176
829326272,829193886,4028193,1.474829,0.005435301,-2.8539217,18.179794,0.04977974
830122592,830007490,4028193,1.4713221,0.005429937,-2.9412932,18.297197,0.0525351
830530624,830389101,4028193,1.4694428,0.005427246,-3.2446632,18.366213,0.06369086
830919002,830763537,4028193,1.4675337,0.005424556,-3.1632502,18.485443,0.060144335
831346800,831195518,4028193,1.465686,0.005421975,-3.208116,18.620953,0.06141235
831735027,831627501,4028193,1.4639708,0.0054193996,-2.8936038,18.57059,0.050096795
832531328,832383489,4028193,1.4608606,0.0054140408,-2.5431278,18.272625,0.03932719
832929393,832815496,4028193,1.4593185,0.005411412,-2.6441739,18.22855,0.042617247
833317559,833197121,4028193,1.4578229,0.005408718,-2.4907794,18.204132,0.03786675
834124021,834003487,4028193,1.4550323,0.0054033594,-2.4573123,18.092463,0.037083484
834521919,834377946,4028193,1.453665,0.005400622,-2.2841384,18.00101,0.032203678
834920132,834809937,4028193,1.4523699,0.005397951,-2.1607504,17.87704,0.029018238
835318246,835191550,4028193,1.451072,0.0053951964,-2.135708,17.754421,0.02854531
836114495,836005089,4028193,1.4487028,0.0053897006,-1.925465,17.559202,0.023459781
836523258,836379548,4028193,1.4473579,0.0053868857,-2.1398048,17.499489,0.029072374
836930703,836811500,4028193,1.445941,0.0053841514,-2.3863811,17.476612,0.036205944
837338688,837185888,4028193,1.4442848,0.0053813355,-2.8110666,17.472038,0.05025233
837736859,837617932,4028193,1.4426903,0.005378604,-2.3487139,17.458342,0.0351087
838543079,838431523,4028193,1.4398602,0.0053731096,-2.2863817,17.609972,0.032983467
838990938,838863549,4028193,1.4383392,0.0053704428,-2.5341744,17.801397,0.040084496
839369212,839245090,4028193,1.4365941,0.005367745,-2.6972342,17.953138,0.045025073
839787505,839677090,4028193,1.4350152,0.0053651393,-2.70459,18.092424,0.04492247
840573528,840425909,4028193,1.4318988,0.0053598303,-2.6034346,18.297127,0.0411593
840972245,840857912,4028193,1.4301226,0.0053572874,-3.2470298,18.385937,0.063715376
841369865,841239510,4028193,1.4283986,0.0053546997,-3.0922105,18.480381,0.05748899
841787864,841671484,4028193,1.4266931,0.0053521954,-2.7690542,18.590643,0.045827482
842554356,842427600,4028193,1.4236315,0.0053470945,-2.5448942,18.737465,0.038404856
842952427,842801879,4028193,1.4220989,0.005344549,-2.7146602,18.773157,0.04361653
843350584,843233905,4028193,1.420428,0.0053420984,-2.9389672,18.829441,0.050969403
843778573,843665939,4028193,1.4187249,0.0053396598,-2.9622898,18.891117,0.051612504
844564822,844429171,4028193,1.4154105,0.0053345794,-3.0124557,18.385914,0.05484204
844963053,844861159,4028193,1.41368,0.005332043,-3.0867562,18.18943,0.05820269
845560308,845451502,4028193,1.4106437,0.0053281114,-3.5740004,17.929255,0.07915975
845968347,845825887,4028193,1.4084039,0.0053254087,-3.703648,17.642368,0.08638932
846545654,846423482,4028193,1.4046465,0.005321355,-4.160988,17.421852,0.11042212
846953710,846805143,4028193,1.4021605,0.005318622,-4.0537,17.39461,0.10496537
847561420,847453111,4028193,1.3986367,0.0053146333,-3.8584263,17.453716,0.09477417
847958909,847827518,4028193,1.3962406,0.005311902,-3.9226723,17.47654,0.097828664
848566087,848417889,4028193,1.3926316,0.005307866,-3.9115667,17.536114,0.09694504
848964228,848849905,4028193,1.3901755,0.0053052446,-4.128638,17.586788,0.10769227
849561440,849447486,4028193,1.3865188,0.0053012823,-4.116539,17.716873,0.10627593
849970052,849829092,4028193,1.3841141,0.005298645,-4.053108,17.815464,0.102455854
850566675,850419550,4028193,1.3805352,0.005294739,-4.2278843,17.962618,0.11056917
850964996,850851535,4028193,1.3782797,0.0052922117,-3.729153,18.03451,0.08567883
851572043,851441893,4028193,1.3746681,0.005288365,-4.191724,18.135916,0.10764735
851960308,851823515,4028193,1.3724074,0.005285815,-4.0022144,18.238203,0.09758345
852577306,852471522,4028193,1.3690578,0.0052821366,-3.7069416,18.470333,0.08266359
852965446,852853175,4028193,1.3670114,0.0052796574,-3.586711,18.630907,0.076721355
853373651,853227487,4028193,1.3648636,0.0052771852,-3.858799,18.778196,0.08810649
853960784,853817879,4028193,1.3618207,0.0052735577,-3.5961227,18.927166,0.075917326
854557999,854415604,4028193,1.3588568,0.005269992,-3.6288452,19.103962,0.07658981
854956130,854847533,4028193,1.3569697,0.0052676834,-3.5835161,19.219591,0.07423899
855553415,855445142,4028193,1.3540186,0.0052641905,-3.7262707,19.373491,0.07963397
855752442,855603509,4028193,1.3529916,0.0052629733,-3.7898698,19.426949,0.08214886
856559119,856409882,4028193,1.3490326,0.0052584135,-3.503092,19.735485,0.069089614
856956644,856841890,4028193,1.3469976,0.0052561983,-3.7792892,19.730015,0.080435984
857553883,857439504,4028193,1.3439084,0.0052527715,-3.8521893,19.432297,0.084849365
857961966,857821091,4028193,1.3417069,0.0052504367,-4.1440516,19.283052,0.09895369
858569154,858411511,4028193,1.33838,0.005246912,-3.9598072,19.030859,0.091547646
858987133,858843534,4028193,1.3360915,0.005244575,-4.036199,18.773056,0.096420124
859564482,859433911,4028193,1.3324549,0.005240924,-4.281842,18.460325,0.11035181
859962847,859815541,4028193,1.3300781,0.005238449,-4.24194,18.297005,0.10927141
860559884,860413087,4028193,1.3266302,0.0052347295,-3.800857,18.077805,0.08879221
860968426,860845101,4028193,1.3243259,0.0052322713,-3.945758,17.98647,0.09617728
861395854,861277147,4028193,1.3221079,0.0052298023,-3.8220122,17.910116,0.090624005
861793926,861651506,4028193,1.3210288,0.0052287797,-3.7019992,17.943457,0.0848641
862580266,862457880,4028193,1.317747,0.0052252896,-3.828167,17.853184,0.09120604
862978433,862839625,4028193,1.3154907,0.005222728,-3.8614209,17.660849,0.09380807
863565641,863437338,4028193,1.3122038,0.0052188537,-3.7981186,17.36282,0.09231543
863794590,863653416,4028193,1.311066,0.0052175676,-3.7604203,17.250444,0.09108146
864570879,864459697,4028193,1.3077159,0.005213876,-3.751759,16.99019,0.09205113
864979049,864834126,4028193,1.3053586,0.005211154,-3.7927055,16.817709,0.09503617
865576815,865431693,4028193,1.3015262,0.005207078,-4.18683,16.560835,0.11761046
865974433,865863790,4028193,1.2989501,0.005204359,-4.049921,16.363935,0.11136863
866581587,866461479,4028193,1.2947812,0.005200168,-4.4479837,16.183525,0.1358347
866979632,866836005,4028193,1.2920249,0.005197323,-4.3817306,16.143984,0.13214116
867567042,867426401,4028193,1.2877005,0.0051930947,-4.500368,16.112492,0.13966605
867974895,867858512,4028193,1.2848516,0.0051903278,-4.4094467,16.081127,0.1343412
868572140,868456087,4028193,1.2805263,0.005186117,-4.516667,16.069397,0.1410568
868980200,868837683,4028193,1.2774818,0.005183289,-4.8563347,16.049889,0.1632686
869577346,869428111,4028193,1.2728184,0.005179061,-4.8451285,16.042097,0.16259491
869956193,869802509,4028193,1.2695496,0.0051762215,-5.1685457,16.057678,0.1848466
870572701,870450485,4028193,1.2647161,0.0051721036,-5.1096425,16.100697,0.18017472
870980761,870832102,4028193,1.2614168,0.005169308,-5.123573,16.132132,0.18080549
871588052,871480112,4028193,1.2564245,0.005165216,-5.302195,16.112463,0.19386837
871976132,871861688,4028193,1.253071,0.005162426,-5.2239165,16.108532,0.18823223
872563405,872452126,4028193,1.2480521,0.005158259,-5.22682,16.104605,0.18848749
872981335,872826521,4028193,1.2447488,0.005155456,-5.0969973,16.088923,0.17941524
873578577,873474480,4028193,1.2397667,0.0051513733,-5.100155,16.053755,0.18003112
873966744,873856292,4028193,1.2363924,0.0051485873,-5.111858,16.034286,0.18107787
874573900,874453922,4028193,1.231289,0.0051444382,-5.4899244,16.007114,0.20920748
874972122,874828328,4028193,1.2279222,0.00514163,-5.1860876,15.976185,0.18705276
875579350,875476308,4028193,1.2229282,0.0051375474,-5.1625767,15.995496,0.18513684
875798158,875692337,4028193,1.2213037,0.005136191,-5.0623765,16.010983,0.17784774
876575082,876448299,4028193,1.2165493,0.005132282,-4.9923882,16.018734,0.1728805
876972632,876829941,4028193,1.2135459,0.0051295073,-4.687178,15.96846,0.15286827
877579821,877477936,4028193,1.2089622,0.0051254244,-4.7652884,15.884152,0.15884438
877977888,877852299,4028193,1.2059098,0.0051226183,-4.8774734,15.880341,0.16645142
878575067,878442684,4028193,1.2013519,0.005118445,-4.8046355,15.812117,0.16221401
878963854,878824319,4028193,1.1981745,0.005115646,-4.9118395,15.763247,0.17005922
879570350,879421920,4028193,1.193445,0.0051114717,-4.8997655,15.72961,0.16958605
879968633,879853971,4028193,1.1903152,0.00510874,-4.833633,15.76324,0.16468702
880565693,880444339,4028193,1.1855452,0.0051045865,-4.8374405,15.83477,0.16420145
880974135,880818742,4028193,1.1823611,0.005101796,-4.8001037,15.823424,0.16179246
881401748,881250778,4028193,1.1791023,0.0050990833,-5.0644684,15.770726,0.1807064
881969062,881848371,4028193,1.175834,0.0050966004,-5.0098343,15.763227,0.17691272
882576271,882445995,4028193,1.1710752,0.0050924597,-4.7512317,15.699831,0.15976253
882964368,882820513,4028193,1.167983,0.005089658,-4.7233667,15.688701,0.1580061
883581492,883468505,4028193,1.1636074,0.0050855847,-4.453346,15.688696,0.14045703
883790580,883684555,4028193,1.1621748,0.0050842282,-4.417902,15.684991,0.13826281
884576839,884440726,4028193,1.1579463,0.0050803176,-4.455227,15.699819,0.14047612
884984927,884872720,4028193,1.1551052,0.005077619,-4.5146484,15.725848,0.14400953
885562822,885412768,4028193,1.1509444,0.0050734365,-4.2191563,15.733301,0.1257155
885960369,885844810,4028193,1.1482749,0.005070749,-4.273706,15.7258415,0.12904847
886567453,886435095,4028193,1.1441554,0.005066644,-4.1592445,15.744492,0.122083716
886955625,886816732,4028193,1.1414026,0.0050639072,-4.385326,15.75945,0.13558766
887562737,887414381,4028193,1.1370877,0.0050598574,-4.4016657,15.8385105,0.13591808
887970827,887846350,4028193,1.1342075,0.0050572185,-4.4799323,15.899341,0.14025594
888568011,888436687,4028193,1.1298201,0.0050532203,-4.737858,16.053656,0.15536301
888976231,888868737,4028193,1.12688,0.005050641,-4.819142,16.163582,0.15964648
889563455,889459104,4028193,1.1224052,0.005046718,-4.6490216,16.239065,0.14788346
889972180,889840753,4028193,1.1195077,0.005044108,-4.6879187,16.271063,0.15007271
890558723,890438336,4028193,1.1149651,0.005040239,-4.979294,16.295141,0.16905768
890966722,890812725,4028193,1.1116793,0.005037619,-5.3828945,16.251041,0.19811074
891564046,891460717,4028193,1.1068051,0.0050338013,-5.2627745,16.215136,0.18978699
891971992,891835138,4028193,1.1033992,0.0050311824,-5.5074053,16.23905,0.20753482
892569169,892432703,4028193,1.0982411,0.0050273277,-5.4636126,16.271048,0.20384581
892977262,892864765,4028193,1.0947552,0.0050248066,-5.7244606,16.267035,0.22382997
893574447,893462304,4028193,1.0894645,0.005020954,-5.608331,16.183346,0.21595162
893813348,893678299,4028193,1.0876157,0.005019688,-5.9541926,16.171463,0.24358691
894570343,894427118,4028193,1.0820627,0.005016035,-6.042148,16.223082,0.25003847
894978005,894859160,4028193,1.0783024,0.0050135185,-5.915882,16.219095,0.23975621
895575142,895456710,4028193,1.0727955,0.0050096833,-5.994747,16.207155,0.24637261
895804020,895672678,4028193,1.0708942,0.005008427,-6.1504426,16.207155,0.25933638
896580549,896428735,4028193,1.0650809,0.005004826,-6.3109155,16.26301,0.272108
896789945,896644691,4028193,1.0630794,0.0050035776,-6.5017223,16.259007,0.2888819
897575670,897451167,4028193,1.0570586,0.0050000683,-6.5163536,16.331362,0.2888979
897804592,897667148,4028193,1.0550741,0.0049988297,-6.48123,16.331362,0.2857919
898391827,898264816,4028193,1.0510923,0.004996598,-6.4478807,16.404367,0.28159955
898800316,898696814,4028193,1.049128,0.004995666,-6.468775,16.457499,0.28251252
899566412,899452725,4028193,1.0431304,0.004992152,-6.569458,16.461596,0.2913028
899795216,899668729,4028193,1.0411289,0.004990928,-6.5882564,16.432928,0.29348338
900571572,900424730,4028193,1.0350126,0.0049874,-6.777902,16.367775,0.31185913
900959761,900856720,4028193,1.030852,0.004984937,-6.950492,16.303131,0.32924375
901576779,901454301,4028193,1.0245109,0.00498118,-6.770219,16.299103,0.31246346
901974951,901828741,4028193,1.0200993,0.0049786377,-7.084907,16.291061,0.3423548
902562097,902419071,4028193,1.0136379,0.0049748695,-7.064095,16.295076,0.34026256
902970360,902851170,4028193,1.0092196,0.004972417,-7.2262006,16.27901,0.3564097
903557472,903448705,4028193,1.0027007,0.0049686735,-6.9707866,16.279007,0.33166003
903965563,903830307,4028193,0.9984687,0.004966167,-7.039829,16.311163,0.33759558
904562844,904420687,4028193,0.9921036,0.004962438,-7.071237,16.375866,0.33926886
904960951,904852706,4028193,0.9878476,0.004960022,-6.9006777,16.424725,0.3221387
905558572,905443142,4028193,0.9816148,0.004956336,-6.7552614,16.486208,0.30755377
905956187,905824770,4028193,0.97748286,0.0049538855,-6.8909283,16.539856,0.31899306
906563248,906422297,4028193,0.97128826,0.0049502677,-6.9750924,16.635601,0.32495177
906961458,906854319,4028193,0.96719164,0.004947914,-6.8674,16.685974,0.31404412
907548705,907444744,4028193,0.9610954,0.004944321,-6.8588023,16.753588,0.31199402
907957428,907819091,4028193,0.9570521,0.00494191,-6.8202314,16.791843,0.307792
908573945,908467089,4028193,0.95102453,0.0049384385,-6.9713964,16.86455,0.3202007
908792894,908683131,4028193,0.94904995,0.004937287,-6.751241,16.886044,0.29991406
909559165,909446295,4028193,0.94349015,0.004934039,-6.4555964,17.068573,0.27128953
909947671,909820708,4028193,0.9397794,0.0049316967,-6.357502,17.130198,0.26216102
910544532,910411099,4028193,0.9344858,0.0049282513,-6.0834417,17.245687,0.23843811
910942613,910792731,4028193,0.9310076,0.0049259695,-6.1221414,17.348976,0.24004373
911539847,911390292,4028193,0.9260899,0.0049226186,-6.0050383,17.531136,0.22854885
911947897,911822339,4028193,0.92285377,0.004920454,-5.77019,17.660545,0.20947565
912505355,912355094,4028193,0.9182766,0.004917233,-5.714965,18.534956,0.19579116
913092498,912952733,4028193,0.9137722,0.0049141506,-5.492784,18.6457,0.17978929
913500799,913384740,4028193,0.91093236,0.004912153,-5.4274282,18.711596,0.17491814
914097966,913982318,4028193,0.90679055,0.0049091303,-5.2879124,18.937134,0.16406341
914506512,914356731,4028193,0.9040608,0.0049071005,-5.33518,19.067009,0.16587198
915113065,915004724,4028193,0.8998902,0.004904204,-5.4350696,19.166548,0.17124733
915501154,915379146,4028193,0.8971932,0.0049022017,-5.2657084,19.213947,0.16034468
916098348,915976693,4028193,0.8932703,0.004899272,-5.0901136,19.272102,0.14937687
916506419,916358285,4028193,0.8905931,0.004897309,-5.279147,19.33582,0.16014834
917113648,917006301,4028193,0.8866568,0.0048944894,-5.0091076,19.512533,0.14287773
917501719,917380708,4028193,0.8840988,0.004892545,-5.0992637,19.598995,0.14741395
918098970,917971131,4028193,0.88023067,0.0048896894,-5.292378,19.702332,0.15795797
918507129,918403087,4028193,0.8777535,0.004887858,-4.9651723,19.81739,0.1382228
919114916,919000708,4028193,0.8740467,0.0048850668,-4.8752384,19.872488,0.13289143
919512283,919382315,4028193,0.8715818,0.0048831855,-5.0235453,19.855936,0.14121725
919910398,919756717,4028193,0.86918205,0.00488129,-4.8654137,19.900108,0.13217264
920557328,920404959,4028193,0.86559343,0.004878572,-4.8464274,19.839396,0.13154444
920965415,920836895,4028193,0.8632806,0.00487675,-4.695145,19.756998,0.12397513
921512887,921376906,4028193,0.8598356,0.0048738527,-4.4777393,19.561085,0.113889106
922110026,921974516,4028193,0.8567435,0.0048710085,-4.0209904,19.437271,0.09242474
922359015,922240902,4028193,0.85571563,0.0048701386,-4.08568,19.362429,0.09579137
922756949,922622542,4028193,0.8538324,0.004868198,-3.6948938,19.235035,0.07886212
923554149,923428898,4028193,0.8500157,0.0048643327,-3.6341815,19.087862,0.076880015
923961355,923803292,4028193,0.8481165,0.0048623574,-3.6508343,19.103554,0.07752247
924359426,924235319,4028193,0.84631294,0.0048604687,-3.4883711,19.114023,0.07073767
924767549,924616933,4028193,0.8445909,0.0048585148,-3.4672623,19.077404,0.07001831
925564184,925430510,4028193,0.84117305,0.004854671,-3.4548402,19.087852,0.06947944
925951896,925804903,4028193,0.8394007,0.0048527108,-3.5039303,19.161238,0.07119424
926360010,926236970,4028193,0.8376405,0.004850847,-3.4826112,19.256168,0.06998382
926778174,926668968,4028193,0.8358462,0.0048489976,-3.539479,19.34642,0.07195079
927544495,927424893,4028193,0.8320542,0.0048451843,-3.9605534,19.480192,0.08946971
927953139,927806500,4028193,0.8302024,0.004843303,-3.657265,19.555649,0.075997286
928370752,928238548,4028193,0.8282158,0.004841497,-4.070008,19.631498,0.09375502
928788581,928670503,4028193,0.8262114,0.004839693,-4.118466,19.636932,0.09597427
929565006,929419407,4028193,0.8231526,0.004837156,-4.245914,19.87244,0.10079725
929793967,929693112,4028193,0.8221029,0.004836358,-4.325447,19.933279,0.10428954
930570161,930449228,4028193,0.818943,0.004833916,-4.483689,20.286392,0.1101092
930968362,930830890,4028193,0.8171018,0.0048321113,-3.9112165,20.033354,0.084845245
931366472,931262911,4028193,0.8152992,0.00483036,-3.690875,19.961008,0.075828716
931784506,931637300,4028193,0.8134503,0.0048285266,-3.7818599,19.98879,0.079502694
932560824,932443747,4028193,0.8100624,0.004824937,-3.3830554,19.866907,0.06400965
932968976,932825320,4028193,0.80838007,0.004823101,-3.4189227,19.691355,0.065956935
933376988,933257305,4028193,0.80682904,0.004821304,-2.8252392,19.47479,0.04554022
933775051,933638933,4028193,0.8053869,0.004819423,-2.7842083,19.298536,0.044630993
934572074,934445286,4028193,0.8023452,0.0048156776,-3.0088878,19.21386,0.0523546
934949592,934819683,4028193,0.80088186,0.0048137596,-3.0403512,19.145441,0.053646278
935367562,935251814,4028193,0.79934776,0.0048119207,-3.0118113,19.103502,0.052759416
935785735,935683885,4028193,0.79778224,0.0048100753,-3.0478518,19.030422,0.05423714
936571869,936447175,4028193,0.7952009,0.0048062364,-2.3424783,18.926697,0.032213196
936960089,936821528,4028193,0.7940038,0.0048042987,-2.2383173,18.942202,0.02938802
937358335,937253709,4028193,0.79287565,0.004802454,-2.1692119,19.009607,0.02750352
937756285,937628284,4028193,0.7917475,0.0048005404,-2.3521562,19.113962,0.032161705
938562558,938441992,4028193,0.7896104,0.004796864,-2.1502416,19.341043,0.026561469
938951138,938823504,4028193,0.78851944,0.004795015,-2.2033627,19.437197,0.027752101
939358996,939255532,4028193,0.78745884,0.0047932407,-2.0866547,19.50166,0.024807734
939776779,939629913,4028193,0.78639466,0.0047913943,-2.111594,19.588058,0.025292218
940553239,940436341,4028193,0.7842031,0.0047878246,-2.4106195,19.789816,0.032626692
940961164,940817944,4028193,0.78312093,0.0047860374,-2.3127484,19.877909,0.0298981
941360112,941249905,4028193,0.7819742,0.004784326,-2.4809637,19.966516,0.034252793
941757482,941631479,4028193,0.7808025,0.004782562,-2.4316442,20.044466,0.032776535
942553698,942437889,4028193,0.77862126,0.0047791004,-2.300157,20.128418,0.029205378
942951928,942812295,4028193,0.77755827,0.004777333,-2.1132312,20.122803,0.024658294
943360217,943244281,4028193,0.7765222,0.004775643,-2.0716984,20.044458,0.023791194
943778025,943676325,4028193,0.7754764,0.0047739507,-2.2252238,20.011002,0.027493883
944564327,944439501,4028193,0.7734198,0.004770428,-2.3297505,19.927673,0.030263541
944962389,944813891,4028193,0.7723499,0.004768642,-2.158961,19.877892,0.026054142
945559916,945404303,4028193,0.77081925,0.004766,-2.268649,19.822767,0.028848806
945967626,945836302,4028193,0.7697719,0.004764283,-2.1725368,19.691296,0.02663284
946365752,946217915,4028193,0.7686944,0.0047624805,-2.2271962,19.46936,0.028308885
946773897,946649927,4028193,0.7675166,0.004760715,-2.392489,19.240213,0.033055786
947570195,947463496,4028193,0.7650719,0.004757063,-2.537949,18.92665,0.037813734
948197100,948053914,4028193,0.7637751,0.0047554495,-2.5959296,18.741966,0.039951045
948784342,948644318,4028193,0.7624904,0.0047538094,-2.5548735,18.52978,0.03914047
949162536,949025975,4028193,0.76128113,0.00475188,-2.2154224,18.415077,0.029613998
949560932,949457893,4028193,0.7601015,0.0047500045,-2.374815,18.330976,0.034184676
950168507,950055505,4028193,0.758897,0.0047483537,-2.149069,18.311272,0.02802462
950556051,950429889,4028193,0.7577474,0.004746385,-2.250628,18.227884,0.03087654
950974013,950861881,4028193,0.7566752,0.0047444906,-2.002534,18.149931,0.024549477
951402048,951293940,4028193,0.75559455,0.004742584,-1.9640028,18.029154,0.023772035
951969383,951833971,4028193,0.754557,0.004740816,-1.8888793,17.95251,0.022082116
952377972,952265910,4028193,0.7535317,0.0047388785,-1.9048274,17.78194,0.022671986
952974683,952863509,4028193,0.75219196,0.0047358777,-1.6363609,17.563154,0.01693999
953561989,953453899,4028193,0.7510995,0.004732805,-1.3971233,17.312737,0.012527409
954368105,954260374,4028193,0.7497664,0.004728681,-1.2258328,17.112347,0.009756868
955174292,955023482,4028193,0.7486224,0.0047244662,-0.899556,16.92897,0.005311086
956159660,956045885,4028193,0.7475158,0.004719219,-0.6792433,16.77885,0.003055245
957373893,957233921,4028193,0.74639547,0.004712832,-0.60266405,16.647932,0.0024240846
958777312,958637881,4028193,0.74539024,0.004706798,-0.351614,16.907356,0.00081248267
960160802,960041908,4028193,0.7442433,0.0046995785,-0.6782194,16.959263,0.003013637
961395769,961287709,4028193,0.743103,0.0046934523,-0.60032755,16.907343,0.0023684197
962768527,962634144,4028193,0.7420373,0.0046887766,-0.5917507,16.8901,0.0023035773
964380934,964254136,4028193,0.74097294,0.0046818187,-0.4794013,16.753325,0.0015242454
966142698,966039924,4028193,0.7398985,0.004672376,-0.48476338,16.502396,0.0015822318
967565916,967436913,4028193,0.73874813,0.004664973,-0.57819736,16.347195,0.0022723041
969377366,969222547,4028193,0.7377002,0.0046553495,-0.21809804,16.163185,0.0003269897
976792869,976674682,4028193,0.738839,0.004619993,0.8238861,15.967951,0.0047232686
978185907,978078759,4028193,0.74006116,0.004615221,0.8504798,15.983378,0.00502825
979171930,979050762,4028193,0.74123293,0.0046111997,1.1144423,15.967942,0.008642188
979927734,979806888,4028193,0.74227405,0.00460823,1.1910796,15.998835,0.009852597
980514929,980397392,4028193,0.74341935,0.0046050353,1.4692552,15.933331,0.015053774
981122062,980995085,4028193,0.74446315,0.004601848,1.2087673,15.872208,0.010228349
981729146,981592754,4028193,0.7456704,0.0045986455,1.5951799,15.785241,0.017911239
982326351,982183200,4028193,0.746992,0.004595407,1.5648246,15.699333,0.01733036
