timestamp,timestamp_sample,q[0],q[1],q[2],q[3],delta_q_reset[0],delta_q_reset[1],delta_q_reset[2],delta_q_reset[3],quat_reset_counter
539826816,539826518,0.044619337,0.01659813,0.006376402,0.9988458,0.999974,-3.1708112e-09,5.37358e-09,0.007217818,4
540329505,540329225,0.045241088,0.016987335,0.006491827,0.99881065,0.999974,-3.1708112e-09,5.37358e-09,0.007217818,4
540827217,540826955,0.045936957,0.015725845,0.0061817872,0.9988014,0.999974,-3.1708112e-09,5.37358e-09,0.007217818,4
541324946,541324686,0.04658652,0.015671076,0.006710215,0.9987688,0.999974,-3.1708112e-09,5.37358e-09,0.007217818,4
541822770,541822416,0.046976566,0.016246581,0.0067192656,0.99874127,0.999974,-3.1708112e-09,5.37358e-09,0.007217818,4
542325416,542325124,0.047153395,0.01719131,0.0068637272,0.9987162,0.999974,-3.1708112e-09,5.37358e-09,0.007217818,4
542828302,542827831,0.047409397,0.016678125,0.006913702,0.99871236,0.999974,-3.1708112e-09,5.37358e-09,0.007217818,4
543325823,543325562,0.047723304,0.016255697,0.006692002,0.9987059,0.999974,-3.1708112e-09,5.37358e-09,0.007217818,4
543828530,543828269,0.04793901,0.015513566,0.0058569983,0.99871266,0.999974,-3.1708112e-09,5.37358e-09,0.007217818,4
544326272,544326000,0.048094638,0.015724692,0.0055775153,0.9987035,0.999974,-3.1708112e-09,5.37358e-09,0.007217818,4
544823990,544823731,0.04819109,0.016092194,0.0059869615,0.9986906,0.999974,-3.1708112e-09,5.37358e-09,0.007217818,4
545326736,545326439,0.048344623,0.016072163,0.0060206484,0.99868333,0.999974,-3.1708112e-09,5.37358e-09,0.007217818,4
545824428,545824169,0.048460517,0.015685532,0.005860229,0.9986848,0.999974,-3.1708112e-09,5.37358e-09,0.007217818,4
546327137,546326877,0.048696917,0.01580651,0.005915689,0.99867105,0.999974,-3.1708112e-09,5.37358e-09,0.007217818,4
546824901,546824608,0.048973374,0.016964378,0.0054715453,0.998641,0.999974,-3.1708112e-09,5.37358e-09,0.007217818,4
547327728,547327316,0.04913632,0.017158436,0.0048574223,0.9986329,0.999974,-3.1708112e-09,5.37358e-09,0.007217818,4
547825332,547825047,0.049295753,0.017026903,0.0048135915,0.99862754,0.999974,-3.1708112e-09,5.37358e-09,0.007217818,4
548323040,548322778,0.049517345,0.016584592,0.0053281016,0.9986214,0.999974,-3.1708112e-09,5.37358e-09,0.007217818,4
548825747,548825486,0.04963305,0.016569722,0.0052635325,0.9986163,0.999974,-3.1708112e-09,5.37358e-09,0.007217818,4
549323480,549323217,0.04974874,0.016905077,0.0052602408,0.99860483,0.999974,-3.1708112e-09,5.37358e-09,0.007217818,4
549826189,549825926,0.05011667,0.01686958,0.005614379,0.9985851,0.999974,-3.1708112e-09,5.37358e-09,0.007217818,4
550328920,550328634,0.050504953,0.016321186,0.0055930438,0.9985748,0.999974,-3.1708112e-09,5.37358e-09,0.007217818,4
550826632,550826365,0.050921883,0.016961515,0.005440266,0.9985438,0.999974,-3.1708112e-09,5.37358e-09,0.007217818,4
551329357,551329074,0.05143393,0.017253842,0.0055201696,0.99851215,0.999974,-3.1708112e-09,5.37358e-09,0.007217818,4
551827223,551826805,0.051781125,0.01665607,0.00588507,0.9985022,0.999974,-3.1708112e-09,5.37358e-09,0.007217818,4
552324797,552324536,0.051906254,0.016404005,0.0060962057,0.9984987,0.999974,-3.1708112e-09,5.37358e-09,0.007217818,4
552827502,552827245,0.05217668,0.016449727,0.006001763,0.9984844,0.999974,-3.1708112e-09,5.37358e-09,0.007217818,4
553325235,553324976,0.052470524,0.016661974,0.0057814945,0.9984668,0.999974,-3.1708112e-09,5.37358e-09,0.007217818,4
553827947,553827685,0.052706458,0.015955526,0.006065129,0.99846417,0.999974,-3.1708112e-09,5.37358e-09,0.007217818,4
554325686,554325417,0.0529819,0.015776355,0.005800756,0.9984541,0.999974,-3.1708112e-09,5.37358e-09,0.007217818,4
554823431,554823148,0.053249963,0.015717488,0.0058958298,0.99844015,0.999974,-3.1708112e-09,5.37358e-09,0.007217818,4
555326137,555325857,0.053482905,0.016553482,0.005800506,0.9984147,0.999974,-3.1708112e-09,5.37358e-09,0.007217818,4
555823970,555823589,0.053691015,0.017102053,0.0062620468,0.9983915,0.999974,-3.1708112e-09,5.37358e-09,0.007217818,4
556327149,556326298,0.053996604,0.016631793,0.0063462416,0.9983825,0.999974,-3.1708112e-09,5.37358e-09,0.007217818,4
556824289,556824030,0.05414402,0.016609278,0.006093326,0.9983764,0.999974,-3.1708112e-09,5.37358e-09,0.007217818,4
557327004,557326739,0.054287802,0.01642211,0.0055241836,0.998375,0.999974,-3.1708112e-09,5.37358e-09,0.007217818,4
557824729,557824471,0.054443374,0.017267907,0.0056735654,0.9983515,0.999974,-3.1708112e-09,5.37358e-09,0.007217818,4
558327444,558327180,0.054525405,0.018452527,0.0057429634,0.99832535,0.999974,-3.1708112e-09,5.37358e-09,0.007217818,4
558825171,558824912,0.054538522,0.018229011,0.0059268503,0.99832773,0.999974,-3.1708112e-09,5.37358e-09,0.007217818,4
559322906,559322644,0.054709338,0.01694471,0.006068442,0.9983402,0.999974,-3.1708112e-09,5.37358e-09,0.007217818,4
559825632,559825353,0.05491899,0.017488608,0.006000659,0.9983196,0.999974,-3.1708112e-09,5.37358e-09,0.007217818,4
560328348,560328063,0.055011105,0.018098263,0.005712845,0.99830544,0.999974,-3.1708112e-09,5.37358e-09,0.007217818,4
560826227,560825795,0.0552144,0.017993592,0.005751498,0.99829584,0.999974,-3.1708112e-09,5.37358e-09,0.007217818,4
561328763,561328505,0.05539445,0.017441684,0.0058497996,0.99829507,0.999974,-3.1708112e-09,5.37358e-09,0.007217818,4
561826528,561826237,0.05554088,0.016809497,0.0057561384,0.9982984,0.999974,-3.1708112e-09,5.37358e-09,0.007217818,4
562324229,562323969,0.05570008,0.017083677,0.0064719305,0.99828047,0.999974,-3.1708112e-09,5.37358e-09,0.007217818,4
562826947,562826679,0.05587979,0.017524019,0.0062509454,0.99826413,0.999974,-3.1708112e-09,5.37358e-09,0.007217818,4
563324676,563324411,0.056055818,0.017300785,0.006181869,0.9982586,0.999974,-3.1708112e-09,5.37358e-09,0.007217818,4
563827381,563827121,0.056285102,0.017213363,0.0059724296,0.99824846,0.999974,-3.1708112e-09,5.37358e-09,0.007217818,4
564325112,564324854,0.05658778,0.016902493,0.005395936,0.99824,0.999974,-3.1708112e-09,5.37358e-09,0.007217818,4
564827845,564827564,0.05684086,0.015355065,0.005603601,0.9982495,0.999974,-3.1708112e-09,5.37358e-09,0.007217818,4
565325847,565325296,0.05705167,0.017059358,0.0057024937,0.9982092,0.999974,-3.1708112e-09,5.37358e-09,0.007217818,4
565823319,565823029,0.05743259,0.017437855,0.006372755,0.99817675,0.999974,-3.1708112e-09,5.37358e-09,0.007217818,4
566326001,566325739,0.05770259,0.01710032,0.0067839506,0.9981643,0.999974,-3.1708112e-09,5.37358e-09,0.007217818,4
566823730,566823473,0.05789897,0.015306544,0.0060069165,0.99818707,0.999974,-3.1708112e-09,5.37358e-09,0.007217818,4
567326461,567326181,0.05816254,0.01702682,0.005954756,0.9981442,0.999974,-3.1708112e-09,5.37358e-09,0.007217818,4
567824175,567823914,0.058377024,0.016134547,0.0054343813,0.9981495,0.999974,-3.1708112e-09,5.37358e-09,0.007217818,4
568326885,568326624,0.058502395,0.015627544,0.0056781317,0.99814886,0.999974,-3.1708112e-09,5.37358e-09,0.007217818,4
568829612,568829336,0.058710918,0.0161433,0.006239579,0.998125,0.999974,-3.1708112e-09,5.37358e-09,0.007217818,4
569322427,569322089,0.0589373,0.016646054,0.0068011885,0.99809974,0.999974,-3.1708112e-09,5.37358e-09,0.007217818,4
569825201,569824799,0.059238654,0.015865907,0.007025172,0.9980931,0.999974,-3.1708112e-09,5.37358e-09,0.007217818,4
570327770,570327509,0.059461568,0.015746372,0.006779909,0.9980834,0.999974,-3.1708112e-09,5.37358e-09,0.007217818,4
570825505,570825242,0.059651345,0.017284537,0.007295446,0.998043,0.999974,-3.1708112e-09,5.37358e-09,0.007217818,4
571328210,571327952,0.059881732,0.016959768,0.0073424624,0.9980344,0.999974,-3.1708112e-09,5.37358e-09,0.007217818,4
571825947,571825684,0.06002157,0.016976869,0.00816739,0.9980193,0.999974,-3.1708112e-09,5.37358e-09,0.007217818,4
572328657,572328394,0.06024349,0.01679521,0.009140344,0.99800056,0.999974,-3.1708112e-09,5.37358e-09,0.007217818,4
572826389,572826127,0.060527306,0.016399309,0.008800071,0.99799305,0.999974,-3.1708112e-09,5.37358e-09,0.007217818,4
573324121,573323862,0.060709056,0.016679928,0.010898182,0.9979567,0.999974,-3.1708112e-09,5.37358e-09,0.007217818,4
573826879,573826570,0.06087001,0.016411249,0.015027881,0.9978976,0.999974,-3.1708112e-09,5.37358e-09,0.007217818,4
574324709,574324305,0.06179158,0.017821427,0.04169999,0.9970584,0.999974,-3.1708112e-09,5.37358e-09,0.007217818,4
574827271,574827013,0.061683916,0.017653497,0.04307298,0.9970097,0.999974,-3.1708112e-09,5.37358e-09,0.007217818,4
575325027,575324745,0.061384913,0.017584683,0.044152897,0.9969821,0.999974,-3.1708112e-09,5.37358e-09,0.007217818,4
575827721,575827455,0.06122294,0.017300785,0.044275403,0.99699163,0.999974,-3.1708112e-09,5.37358e-09,0.007217818,4
576325447,576325188,0.06086975,0.017418925,0.04345097,0.9970474,0.999974,-3.1708112e-09,5.37358e-09,0.007217818,4
576823183,576822920,0.060305722,0.017290419,0.043060593,0.9971009,0.999974,-3.1708112e-09,5.37358e-09,0.007217818,4
577325926,577325630,0.060037006,0.01752936,0.04323609,0.99710524,0.999974,-3.1708112e-09,5.37358e-09,0.007217818,4
577823625,577823363,0.05990247,0.017370833,0.043415736,0.9971084,0.999974,-3.1708112e-09,5.37358e-09,0.007217818,4
578326361,578326073,0.05960705,0.01680334,0.043332446,0.9971394,0.999974,-3.1708112e-09,5.37358e-09,0.007217818,4
578829070,578828782,0.05926919,0.016796716,0.043489937,0.99715286,0.999974,-3.1708112e-09,5.37358e-09,0.007217818,4
579326779,579326515,0.058974966,0.016830398,0.04264622,0.9972061,0.999974,-3.1708112e-09,5.37358e-09,0.007217818,4
579824531,579824247,0.058662437,0.01634989,0.042236444,0.99725,0.999974,-3.1708112e-09,5.37358e-09,0.007217818,4
580327223,580326957,0.057714015,0.013527248,0.044827487,0.99723446,0.999974,-3.1708112e-09,5.37358e-09,0.007217818,4
580824953,580824689,0.05737226,0.014725633,0.043068975,0.9973147,0.999974,-3.1708112e-09,5.37358e-09,0.007217818,4
581327659,581327399,0.05660891,0.0151404,0.04393009,0.9973146,0.999974,-3.1708112e-09,5.37358e-09,0.007217818,4
581825396,581825131,0.056306828,0.015976548,0.04289914,0.9973635,0.999974,-3.1708112e-09,5.37358e-09,0.007217818,4
582328122,582327840,0.05653116,0.016387278,0.042365715,0.997367,0.999974,-3.1708112e-09,5.37358e-09,0.007217818,4
582825855,582825572,0.05588529,0.015646886,0.043301173,0.9973751,0.999974,-3.1708112e-09,5.37358e-09,0.007217818,4
583324001,583323306,0.055832904,0.015133422,0.043089665,0.99739516,0.999974,-3.1708112e-09,5.37358e-09,0.007217818,4
583826309,583826013,0.05585024,0.015697561,0.042739008,0.99740046,0.999974,-3.1708112e-09,5.37358e-09,0.007217818,4
584324012,584323745,0.055377774,0.018582491,0.04178859,0.99741757,0.999974,-3.1708112e-09,5.37358e-09,0.007217818,4
584826750,584826455,0.055071875,0.019905923,0.041160174,0.9974351,0.999974,-3.1708112e-09,5.37358e-09,0.007217818,4
585324465,585324186,0.0545622,0.020352721,0.041064646,0.99745804,0.999974,-3.1708112e-09,5.37358e-09,0.007217818,4
585827154,585826895,0.05390938,0.021560267,0.04074456,0.9974813,0.999974,-3.1708112e-09,5.37358e-09,0.007217818,4
586329872,586329604,0.053303037,0.022156138,0.039818235,0.9975382,0.999974,-3.1708112e-09,5.37358e-09,0.007217818,4
586822627,586822358,0.052839343,0.021502202,0.04020487,0.9975617,0.999974,-3.1708112e-09,5.37358e-09,0.007217818,4
587325353,587325067,0.052232258,0.020034863,0.040995523,0.99759203,0.999974,-3.1708112e-09,5.37358e-09,0.007217818,4
587828063,587827776,0.051714364,0.019332312,0.041178804,0.9976253,0.999974,-3.1708112e-09,5.37358e-09,0.007217818,4
588325767,588325507,0.050885644,0.019857485,0.042778376,0.9975903,0.999974,-3.1708112e-09,5.37358e-09,0.007217818,4
588828484,588828216,0.050358593,0.019933661,0.041609682,0.997665,0.999974,-3.1708112e-09,5.37358e-09,0.007217818,4
589326210,589325948,0.04960556,0.01914016,0.04143793,0.99772537,0.999974,-3.1708112e-09,5.37358e-09,0.007217818,4
589828948,589828655,0.04918695,0.020251099,0.040443018,0.997765,0.999974,-3.1708112e-09,5.37358e-09,0.007217818,4
590326652,590326386,0.04858927,0.02070387,0.03971908,0.99781406,0.999974,-3.1708112e-09,5.37358e-09,0.007217818,4
590824377,590824117,0.048304427,0.019822894,0.039305255,0.9978621,0.999974,-3.1708112e-09,5.37358e-09,0.007217818,4
591327088,591326825,0.048201397,0.019850194,0.04002184,0.99783814,0.999974,-3.1708112e-09,5.37358e-09,0.007217818,4
591824839,591824556,0.048319142,0.020951044,0.04033716,0.9977972,0.999974,-3.1708112e-09,5.37358e-09,0.007217818,4
592327583,592327263,0.049341045,0.03021521,0.05830773,0.9966207,0.999974,-3.1708112e-09,5.37358e-09,0.007217818,4
592825253,592824994,0.047516998,0.024607884,0.049245372,0.9973523,0.999974,-3.1708112e-09,5.37358e-09,0.007217818,4
593327964,593327702,0.047871377,0.026937515,0.053737476,0.99704313,0.999974,-3.1708112e-09,5.37358e-09,0.007217818,4
593825699,593825432,0.04786243,0.025798947,0.05093082,0.99722105,0.999974,-3.1708112e-09,5.37358e-09,0.007217818,4
594323423,594323162,0.047878016,0.02725435,0.050071407,0.99722505,0.999974,-3.1708112e-09,5.37358e-09,0.007217818,4
594826164,594825869,0.047935195,0.028847415,0.0495268,0.9972047,0.999974,-3.1708112e-09,5.37358e-09,0.007217818,4
595323884,595323599,0.047958173,0.027426701,0.049387306,0.99725056,0.999974,-3.1708112e-09,5.37358e-09,0.007217818,4
595826568,595826306,0.047782484,0.025746655,0.049266957,0.99730974,0.999974,-3.1708112e-09,5.37358e-09,0.007217818,4
596329291,596329014,0.047721997,0.024911452,0.049041055,0.99734503,0.999974,-3.1708112e-09,5.37358e-09,0.007217818,4
596827042,596826743,0.0475799,0.023734761,0.048222374,0.9974204,0.999974,-3.1708112e-09,5.37358e-09,0.007217818,4
597324733,597324472,0.04712097,0.02559149,0.047666155,0.99742305,0.999974,-3.1708112e-09,5.37358e-09,0.007217818,4
597827439,597827179,0.04666052,0.026802277,0.04727866,0.9974313,0.999974,-3.1708112e-09,5.37358e-09,0.007217818,4
598325174,598324908,0.0463499,0.027417023,0.04648188,0.99746656,0.999974,-3.1708112e-09,5.37358e-09,0.007217818,4
598827939,598827615,0.04609633,0.02710878,0.04627484,0.99749637,0.999974,-3.1708112e-09,5.37358e-09,0.007217818,4
599325607,599325344,0.04573067,0.02690296,0.046044353,0.9975294,0.999974,-3.1708112e-09,5.37358e-09,0.007217818,4
599828315,599828050,0.04553066,0.026504233,0.045853198,0.99755806,0.999974,-3.1708112e-09,5.37358e-09,0.007217818,4
600326066,600325779,0.04551927,0.026168408,0.04564414,0.99757695,0.999974,-3.1708112e-09,5.37358e-09,0.007217818,4
600823790,600823507,0.045514457,0.025072275,0.046109438,0.99758404,0.999974,-3.1708112e-09,5.37358e-09,0.007217818,4
601326516,601326213,0.04547346,0.020152407,0.04825167,0.9975961,0.999974,-3.1708112e-09,5.37358e-09,0.007217818,4
601824226,601823941,0.045695033,0.02035424,0.04902654,0.99754405,0.999974,-3.1708112e-09,5.37358e-09,0.007217818,4
602326909,602326647,0.046275508,0.024245447,0.046140112,0.99756795,0.999974,-3.1708112e-09,5.37358e-09,0.007217818,4
602824641,602824375,0.04638107,0.024217336,0.04625229,0.9975586,0.999974,-3.1708112e-09,5.37358e-09,0.007217818,4
603327339,603327080,0.046511225,0.024773128,0.04618124,0.99754214,0.999974,-3.1708112e-09,5.37358e-09,0.007217818,4
603830047,603829785,0.046803944,0.022788007,0.04721666,0.99752736,0.999974,-3.1708112e-09,5.37358e-09,0.007217818,4
604322799,604322536,0.047686968,0.023326606,0.04811241,0.9974302,0.999974,-3.1708112e-09,5.37358e-09,0.007217818,4
604825505,604825240,0.049576245,0.025228767,0.055442065,0.99691117,0.999974,-3.1708112e-09,5.37358e-09,0.007217818,4
605323270,605322968,0.04822145,0.01964305,0.052627683,0.9972558,0.999974,-3.1708112e-09,5.37358e-09,0.007217818,4
605825990,605825672,0.04817262,0.01967396,0.051232837,0.99733025,0.999974,-3.1708112e-09,5.37358e-09,0.007217818,4
606328639,606328377,0.048203908,0.021244952,0.04845141,0.9974355,0.999974,-3.1708112e-09,5.37358e-09,0.007217818,4
606826368,606826104,0.048181288,0.021710034,0.04786857,0.9974547,0.999974,-3.1708112e-09,5.37358e-09,0.007217818,4
607329090,607328808,0.048285488,0.021578388,0.047559444,0.9974673,0.999974,-3.1708112e-09,5.37358e-09,0.007217818,4
607826798,607826535,0.048197974,0.021972887,0.047629725,0.99745965,0.999974,-3.1708112e-09,5.37358e-09,0.007217818,4
608324558,608324261,0.04827413,0.021778377,0.04718584,0.9974813,0.999974,-3.1708112e-09,5.37358e-09,0.007217818,4
608827225,608826965,0.0483065,0.021403952,0.047432788,0.9974761,0.999974,-3.1708112e-09,5.37358e-09,0.007217818,4
609324972,609324692,0.04815494,0.02091,0.0465923,0.99753356,0.999974,-3.1708112e-09,5.37358e-09,0.007217818,4
609827660,609827395,0.04777421,0.020562636,0.046509944,0.9975629,0.999974,-3.1708112e-09,5.37358e-09,0.007217818,4
610325465,610325121,0.04744877,0.020330597,0.047887307,0.997518,0.999974,-3.1708112e-09,5.37358e-09,0.007217818,4
610828086,610827824,0.047555264,0.020661395,0.04743772,0.99752766,0.999974,-3.1708112e-09,5.37358e-09,0.007217818,4
611325843,611325550,0.047525443,0.02058357,0.048271053,0.99749064,0.999974,-3.1708112e-09,5.37358e-09,0.007217818,4
611823538,611823276,0.047649384,0.019122463,0.0498982,0.9974337,0.999974,-3.1708112e-09,5.37358e-09,0.007217818,4
612326239,612325978,0.047925077,0.019083753,0.05089598,0.9973709,0.999974,-3.1708112e-09,5.37358e-09,0.007217818,4
612823993,612823704,0.049779423,0.023745522,0.057467896,0.9968228,0.999974,-3.1708112e-09,5.37358e-09,0.007217818,4
613326669,613326406,0.049024586,0.020305734,0.0489595,0.9973902,0.999974,-3.1708112e-09,5.37358e-09,0.007217818,4
613829396,613829109,0.049636293,0.022075148,0.049227178,0.99730927,0.999974,-3.1708112e-09,5.37358e-09,0.007217818,4
614327104,614326833,0.049322564,0.021831857,0.047863435,0.99739647,0.999974,-3.1708112e-09,5.37358e-09,0.007217818,4
614824894,614824558,0.049646936,0.019745328,0.04864156,0.9973862,0.999974,-3.1708112e-09,5.37358e-09,0.007217818,4
615327525,615327260,0.04951295,0.013382362,0.05287963,0.9972829,0.999974,-3.1708112e-09,5.37358e-09,0.007217818,4
615825247,615824985,0.049513232,0.013180926,0.05298471,0.99727994,0.999974,-3.1708112e-09,5.37358e-09,0.007217818,4
616327945,616327686,0.049590256,0.009918296,0.052497994,0.9973397,0.999974,-3.1708112e-09,5.37358e-09,0.007217818,4
616825693,616825410,0.0503145,0.00960324,0.05150417,0.9973583,0.999974,-3.1708112e-09,5.37358e-09,0.007217818,4
617328413,617328112,0.050818257,0.008999219,0.050617035,0.99738383,0.999974,-3.1708112e-09,5.37358e-09,0.007217818,4
617826139,617825836,0.050959688,0.010993288,0.049970187,0.99738926,0.999974,-3.1708112e-09,5.37358e-09,0.007217818,4
618323823,618323560,0.051266722,0.01227261,0.049237665,0.99739504,0.999974,-3.1708112e-09,5.37358e-09,0.007217818,4
618826518,618826260,0.051301345,0.01392195,0.048759013,0.9973951,0.999974,-3.1708112e-09,5.37358e-09,0.007217818,4
619324287,619323984,0.052247755,0.018053904,0.054958526,0.9969573,0.999974,-3.1708112e-09,5.37358e-09,0.007217818,4
619826946,619826684,0.052267082,0.018032191,0.05253327,0.9970874,0.999974,-3.1708112e-09,5.37358e-09,0.007217818,4
620324677,620324407,0.052449632,0.017569374,0.04899421,0.9972663,0.999974,-3.1708112e-09,5.37358e-09,0.007217818,4
620827399,620827108,0.052909885,0.01865781,0.047827765,0.9972788,0.999974,-3.1708112e-09,5.37358e-09,0.007217818,4
621330066,621329808,0.053002454,0.01506744,0.04915816,0.99726987,0.999974,-3.1708112e-09,5.37358e-09,0.007217818,4
621822812,621822553,0.05333922,0.011677431,0.05038529,0.9972362,0.999974,-3.1708112e-09,5.37358e-09,0.007217818,4
622325557,622325253,0.053814057,0.011635422,0.04862656,0.9972984,0.999974,-3.1708112e-09,5.37358e-09,0.007217818,4
622823235,622822976,0.054281246,0.008950244,0.047600493,0.99735034,0.999974,-3.1708112e-09,5.37358e-09,0.007217818,4
623325949,623325675,0.054726955,0.006459384,0.046906117,0.9973782,0.999974,-3.1708112e-09,5.37358e-09,0.007217818,4
623829040,623828374,0.054476596,0.0054237116,0.04925738,0.99728465,0.999974,-3.1708112e-09,5.37358e-09,0.007217818,4
624326362,624326096,0.05444478,0.005483933,0.049810823,0.99725854,0.999974,-3.1708112e-09,5.37358e-09,0.007217818,4
624829057,624828799,0.054698795,0.006762631,0.049457293,0.99725443,0.999974,-3.1708112e-09,5.37358e-09,0.007217818,4
625326781,625326517,0.05484772,0.00965804,0.04795658,0.9972957,0.999974,-3.1708112e-09,5.37358e-09,0.007217818,4
625824499,625824239,0.055060387,0.010209338,0.047751114,0.99728835,0.999974,-3.1708112e-09,5.37358e-09,0.007217818,4
626327200,626326937,0.055340808,0.010194141,0.047872733,0.9972672,0.999974,-3.1708112e-09,5.37358e-09,0.007217818,4
626824918,626824658,0.055418853,0.009537058,0.0480233,0.997262,0.999974,-3.1708112e-09,5.37358e-09,0.007217818,4
627327619,627327357,0.055658344,0.00946793,0.047332536,0.99728245,0.999974,-3.1708112e-09,5.37358e-09,0.007217818,4
627825352,627825078,0.05588288,0.00956438,0.04679305,0.99729437,0.999974,-3.1708112e-09,5.37358e-09,0.007217818,4
628328337,628327776,0.055986222,0.00966043,0.046768013,0.9972888,0.999974,-3.1708112e-09,5.37358e-09,0.007217818,4
628825756,628825496,0.05601561,0.009550572,0.04716822,0.99726945,0.999974,-3.1708112e-09,5.37358e-09,0.007217818,4
629323477,629323217,0.0562078,0.008735508,0.04783729,0.9972342,0.999974,-3.1708112e-09,5.37358e-09,0.007217818,4
629826174,629825914,0.05634425,0.008013606,0.047869805,0.99723095,0.999974,-3.1708112e-09,5.37358e-09,0.007217818,4
630323900,630323634,0.056381363,0.00840314,0.04720911,0.99725723,0.999974,-3.1708112e-09,5.37358e-09,0.007217818,4
630826592,630826331,0.056503955,0.008761345,0.04609942,0.9972991,0.999974,-3.1708112e-09,5.37358e-09,0.007217818,4
631329288,631329029,0.05658714,0.008609506,0.04581169,0.9973089,0.999974,-3.1708112e-09,5.37358e-09,0.007217818,4
631827019,631826750,0.05654933,0.00904891,0.04589981,0.9973032,0.999974,-3.1708112e-09,5.37358e-09,0.007217818,4
632324728,632324468,0.056560468,0.0091174,0.04676842,0.9972615,0.999974,-3.1708112e-09,5.37358e-09,0.007217818,4
632827830,632827164,0.056792166,0.009485506,0.04776639,0.9971976,0.999974,-3.1708112e-09,5.37358e-09,0.007217818,4
633325155,633324884,0.05693352,0.00894656,0.047342535,0.99721473,0.999974,-3.1708112e-09,5.37358e-09,0.007217818,4
633827843,633827580,0.057122543,0.0081466725,0.04666017,0.997243,0.999974,-3.1708112e-09,5.37358e-09,0.007217818,4
634325562,634325299,0.057438277,0.0081851715,0.045723837,0.99726784,0.999974,-3.1708112e-09,5.37358e-09,0.007217818,4
634828282,634827997,0.05749235,0.007897227,0.046296045,0.99724066,0.999974,-3.1708112e-09,5.37358e-09,0.007217818,4
635325974,635325713,0.0574879,0.007114109,0.047325145,0.9971985,0.999974,-3.1708112e-09,5.37358e-09,0.007217818,4
635823700,635823432,0.0575972,0.00731524,0.046764515,0.9972172,0.999974,-3.1708112e-09,5.37358e-09,0.007217818,4
636326389,636326127,0.057589527,0.007863384,0.046399992,0.9972305,0.999974,-3.1708112e-09,5.37358e-09,0.007217818,4
636824106,636823846,0.057475764,0.007901585,0.04493297,0.99730396,0.999974,-3.1708112e-09,5.37358e-09,0.007217818,4
637327101,637326541,0.057499494,0.007672538,0.04513485,0.9972953,0.999974,-3.1708112e-09,5.37358e-09,0.007217818,4
637824520,637824259,0.057492744,0.0077247606,0.04402284,0.99734503,0.999974,-3.1708112e-09,5.37358e-09,0.007217818,4
638327215,638326954,0.05740292,0.005635653,0.04592677,0.9972782,0.999974,-3.1708112e-09,5.37358e-09,0.007217818,4
638829914,638829649,0.057394125,0.0059108944,0.046503328,0.9972505,0.999974,-3.1708112e-09,5.37358e-09,0.007217818,4
639322650,639322389,0.057244286,0.0060918373,0.044801142,0.9973359,0.999974,-3.1708112e-09,5.37358e-09,0.007217818,4
639825345,639825083,0.057029,0.0057694335,0.04023486,0.99754477,0.999974,-3.1708112e-09,5.37358e-09,0.007217818,4
640328041,640327778,0.05718005,0.005322379,0.041248783,0.99749726,0.999974,-3.1708112e-09,5.37358e-09,0.007217818,4
640825808,640825494,0.057417426,0.0061035394,0.04034061,0.9975162,0.999974,-3.1708112e-09,5.37358e-09,0.007217818,4
641328447,641328189,0.057389304,0.005960634,0.039957337,0.9975342,0.999974,-3.1708112e-09,5.37358e-09,0.007217818,4
641826187,641825905,0.057570964,0.0056153717,0.042325016,0.99742806,0.999974,-3.1708112e-09,5.37358e-09,0.007217818,4
642328886,642328599,0.057759304,0.007066039,0.042058166,0.9974192,0.999974,-3.1708112e-09,5.37358e-09,0.007217818,4
642826612,642826316,0.05788708,0.007250775,0.04071623,0.9974662,0.999974,-3.1708112e-09,5.37358e-09,0.007217818,4
643324295,643324031,0.05802864,0.0074349623,0.03999891,0.99748564,0.999974,-3.1708112e-09,5.37358e-09,0.007217818,4
643826988,643826725,0.058296047,0.006566696,0.0409648,0.99743694,0.999974,-3.1708112e-09,5.37358e-09,0.007217818,4
644324706,644324441,0.058346376,0.0063950117,0.042798977,0.997358,0.999974,-3.1708112e-09,5.37358e-09,0.007217818,4
644827392,644827134,0.058372192,0.0062719374,0.0437952,0.99731416,0.999974,-3.1708112e-09,5.37358e-09,0.007217818,4
645325128,645324849,0.058558747,0.0062691104,0.043122496,0.9973325,0.999974,-3.1708112e-09,5.37358e-09,0.007217818,4
645827805,645827542,0.05875521,0.006805761,0.04200103,0.99736524,0.999974,-3.1708112e-09,5.37358e-09,0.007217818,4
646325517,646325257,0.05885012,0.0069435094,0.041298416,0.9973881,0.999974,-3.1708112e-09,5.37358e-09,0.007217818,4
646823296,646822973,0.05914334,0.006360697,0.041883107,0.9973502,0.999974,-3.1708112e-09,5.37358e-09,0.007217818,4
647325925,647325664,0.05948043,0.0065439804,0.042735346,0.9972929,0.999974,-3.1708112e-09,5.37358e-09,0.007217818,4
647823661,647823379,0.060188454,0.006780552,0.042713713,0.9972497,0.999974,-3.1708112e-09,5.37358e-09,0.007217818,4
648326339,648326071,0.061047405,0.006470206,0.04196416,0.9972314,0.999974,-3.1708112e-09,5.37358e-09,0.007217818,4
648829018,648828762,0.062224176,0.0065880236,0.041664127,0.99717045,0.999974,-3.1708112e-09,5.37358e-09,0.007217818,4
649326825,649326477,0.063496314,0.006701932,0.041976057,0.99707645,0.999974,-3.1708112e-09,5.37358e-09,0.007217818,4
649824450,649824191,0.0648851,0.006565191,0.042195823,0.99697864,0.999974,-3.1708112e-09,5.37358e-09,0.007217818,4
650327162,650326882,0.06640433,0.0050532185,0.042127006,0.99689037,0.999974,-3.1708112e-09,5.37358e-09,0.007217818,4
650824856,650824596,0.06788082,0.004856967,0.0419909,0.99679756,0.999974,-3.1708112e-09,5.37358e-09,0.007217818,4
651327576,651327287,0.06929318,0.0058475905,0.04207926,0.9966914,0.999974,-3.1708112e-09,5.37358e-09,0.007217818,4
651825267,651825000,0.0707009,0.007982109,0.042172205,0.9965738,0.999974,-3.1708112e-09,5.37358e-09,0.007217818,4
652327954,652327691,0.07263587,0.007551108,0.042418104,0.9964275,0.999974,-3.1708112e-09,5.37358e-09,0.007217818,4
652825698,652825404,0.07493564,0.0075698295,0.04206002,0.9962722,0.999974,-3.1708112e-09,5.37358e-09,0.007217818,4
653323379,653323117,0.07757292,0.0077936943,0.041746538,0.9960818,0.999974,-3.1708112e-09,5.37358e-09,0.007217818,4
653826072,653825807,0.08032878,0.00837556,0.042185467,0.99584013,0.999974,-3.1708112e-09,5.37358e-09,0.007217818,4
654323789,654323520,0.08299921,0.008943796,0.04244303,0.99560523,0.999974,-3.1708112e-09,5.37358e-09,0.007217818,4
654826475,654826209,0.085905194,0.0084026735,0.042067964,0.9953794,0.999974,-3.1708112e-09,5.37358e-09,0.007217818,4
655324207,655323921,0.08878736,0.008162993,0.041746654,0.99514186,0.999974,-3.1708112e-09,5.37358e-09,0.007217818,4
655826900,655826610,0.0914666,0.00855811,0.042067926,0.9948824,0.999974,-3.1708112e-09,5.37358e-09,0.007217818,4
656329606,656329299,0.09403381,0.0090894755,0.04234071,0.9946267,0.999974,-3.1708112e-09,5.37358e-09,0.007217818,4
656822304,656822034,0.096609876,0.009277913,0.04253289,0.9943699,0.999974,-3.1708112e-09,5.37358e-09,0.007217818,4
657324985,657324723,0.099116005,0.00968498,0.04234016,0.9941276,0.999974,-3.1708112e-09,5.37358e-09,0.007217818,4
657827689,657827412,0.10168902,0.009473663,0.04180289,0.9938925,0.999974,-3.1708112e-09,5.37358e-09,0.007217818,4
658325416,658325123,0.10419515,0.009451571,0.041449614,0.9936479,0.999974,-3.1708112e-09,5.37358e-09,0.007217818,4
658828099,658827811,0.10656232,0.01002646,0.042011853,0.99336755,0.999974,-3.1708112e-09,5.37358e-09,0.007217818,4
659325786,659325522,0.108672865,0.010538804,0.04339161,0.99307424,0.999974,-3.1708112e-09,5.37358e-09,0.007217818,4
659828469,659828210,0.11084658,0.010856997,0.043570258,0.9928227,0.999974,-3.1708112e-09,5.37358e-09,0.007217818,4
660326215,660325921,0.112977386,0.010838723,0.042972572,0.99260867,0.999974,-3.1708112e-09,5.37358e-09,0.007217818,4
660823980,660823631,0.11509029,0.010438648,0.04248315,0.99239135,0.999974,-3.1708112e-09,5.37358e-09,0.007217818,4
661326599,661326319,0.117138065,0.010711334,0.043169506,0.9921192,0.999974,-3.1708112e-09,5.37358e-09,0.007217818,4
661824357,661824029,0.119047314,0.011553415,0.043600023,0.99186355,0.999974,-3.1708112e-09,5.37358e-09,0.007217818,4
662327002,662326716,0.12088578,0.011617711,0.043512255,0.9916443,0.999974,-3.1708112e-09,5.37358e-09,0.007217818,4
662824687,662824426,0.12283135,0.011339125,0.04284464,0.9914375,0.999974,-3.1708112e-09,5.37358e-09,0.007217818,4
663327375,663327113,0.124741346,0.01153505,0.042718872,0.9912021,0.999974,-3.1708112e-09,5.37358e-09,0.007217818,4
663825084,663824822,0.12646496,0.011626643,0.043284878,0.9909581,0.999974,-3.1708112e-09,5.37358e-09,0.007217818,4
664322795,664322531,0.12815928,0.011632568,0.043339487,0.990738,0.999974,-3.1708112e-09,5.37358e-09,0.007217818,4
664825513,664825218,0.12981126,0.012508734,0.042793807,0.99053586,0.999974,-3.1708112e-09,5.37358e-09,0.007217818,4
665328186,665327904,0.13096063,0.012731908,0.04270957,0.99038535,0.999974,-3.1708112e-09,5.37358e-09,0.007217818,4
665825879,665825612,0.13129492,0.012086038,0.043140315,0.9903305,0.999974,-3.1708112e-09,5.37358e-09,0.007217818,4
666328559,666328298,0.13131797,0.01150131,0.04387801,0.9903021,0.999974,-3.1708112e-09,5.37358e-09,0.007217818,4
666826269,666826007,0.13118373,0.012162169,0.0443633,0.9902903,0.999974,-3.1708112e-09,5.37358e-09,0.007217818,4
667323975,667323715,0.13074273,0.012349897,0.043458484,0.99038637,0.999974,-3.1708112e-09,5.37358e-09,0.007217818,4
667826665,667826400,0.13042618,0.011694069,0.042870183,0.9904617,0.999974,-3.1708112e-09,5.37358e-09,0.007217818,4
668324370,668324108,0.12940942,0.011745826,0.043608803,0.99056226,0.999974,-3.1708112e-09,5.37358e-09,0.007217818,4
668827052,668826793,0.12817292,0.011649671,0.04476196,0.99067277,0.999974,-3.1708112e-09,5.37358e-09,0.007217818,4
669324760,669324500,0.1271678,0.011452015,0.04447103,0.9908176,0.999974,-3.1708112e-09,5.37358e-09,0.007217818,4
669827557,669827185,0.12621064,0.010974716,0.043308303,0.9909969,0.999974,-3.1708112e-09,5.37358e-09,0.007217818,4
670325150,670324892,0.12503684,0.011011389,0.042794935,0.9911676,0.999974,-3.1708112e-09,5.37358e-09,0.007217818,4
670822861,670822599,0.123973824,0.011069438,0.043302912,0.99127835,0.999974,-3.1708112e-09,5.37358e-09,0.007217818,4
671325542,671325283,0.12298592,0.011367124,0.0439032,0.99137175,0.999974,-3.1708112e-09,5.37358e-09,0.007217818,4
671823248,671822989,0.12195938,0.011427294,0.043884102,0.99149865,0.999974,-3.1708112e-09,5.37358e-09,0.007217818,4
672325937,672325673,0.121016055,0.011953278,0.04302276,0.9916458,0.999974,-3.1708112e-09,5.37358e-09,0.007217818,4
672828621,672828356,0.1201792,0.011811265,0.043174043,0.9917427,0.999974,-3.1708112e-09,5.37358e-09,0.007217818,4
673326347,673326062,0.11917737,0.012148816,0.044051684,0.99182093,0.999974,-3.1708112e-09,5.37358e-09,0.007217818,4
673829036,673828745,0.11828036,0.012469703,0.044257764,0.9919151,0.999974,-3.1708112e-09,5.37358e-09,0.007217818,4
674326830,674326451,0.11750771,0.011876202,0.04364788,0.99204123,0.999974,-3.1708112e-09,5.37358e-09,0.007217818,4
674824416,674824156,0.11657306,0.011593606,0.043154795,0.9921765,0.999974,-3.1708112e-09,5.37358e-09,0.007217818,4
675327118,675326839,0.11565217,0.011553415,0.043683607,0.9922615,0.999974,-3.1708112e-09,5.37358e-09,0.007217818,4
675824800,675824544,0.11514745,0.011060184,0.04424825,0.9923008,0.999974,-3.1708112e-09,5.37358e-09,0.007217818,4
676327492,676327226,0.11472993,0.010853998,0.0440417,0.99236065,0.999974,-3.1708112e-09,5.37358e-09,0.007217818,4
676825196,676824931,0.11414228,0.011669575,0.043244414,0.99245423,0.999974,-3.1708112e-09,5.37358e-09,0.007217818,4
677327877,677327613,0.11356877,0.01198149,0.043163028,0.9925198,0.999974,-3.1708112e-09,5.37358e-09,0.007217818,4
677825595,677825317,0.11273013,0.01179414,0.043809857,0.99258935,0.999974,-3.1708112e-09,5.37358e-09,0.007217818,4
678323278,678323021,0.1118356,0.010896082,0.04393072,0.9926954,0.999974,-3.1708112e-09,5.37358e-09,0.007217818,4
678826056,678825703,0.110940926,0.011347229,0.04308905,0.9928277,0.999974,-3.1708112e-09,5.37358e-09,0.007217818,4
679323670,679323406,0.110102236,0.011923656,0.04265133,0.9929332,0.999974,-3.1708112e-09,5.37358e-09,0.007217818,4
679826377,679826087,0.10937737,0.010266072,0.043168303,0.99300945,0.999974,-3.1708112e-09,5.37358e-09,0.007217818,4
680329049,680328768,0.108635,0.008526419,0.043128416,0.9931091,0.999974,-3.1708112e-09,5.37358e-09,0.007217818,4
680826757,680826471,0.10793671,0.008888288,0.042577703,0.9932059,0.999974,-3.1708112e-09,5.37358e-09,0.007217818,4
681324433,681324174,0.10703767,0.009768094,0.042360127,0.99330413,0.999974,-3.1708112e-09,5.37358e-09,0.007217818,4
681827118,681826854,0.106215715,0.011056166,0.042083144,0.9933907,0.999974,-3.1708112e-09,5.37358e-09,0.007217818,4
682324818,682324557,0.105652764,0.011310557,0.042049885,0.9934493,0.999974,-3.1708112e-09,5.37358e-09,0.007217818,4
682827504,682827237,0.10497654,0.010617155,0.042390235,0.9935142,0.999974,-3.1708112e-09,5.37358e-09,0.007217818,4
683325225,683324940,0.10423499,0.01075735,0.04273117,0.9935761,0.999974,-3.1708112e-09,5.37358e-09,0.007217818,4
683827913,683827619,0.10363762,0.0102507435,0.04264431,0.99364763,0.999974,-3.1708112e-09,5.37358e-09,0.007217818,4
684325582,684325321,0.102929965,0.010957818,0.042095356,0.9937371,0.999974,-3.1708112e-09,5.37358e-09,0.007217818,4
684823280,684823023,0.102209635,0.011205191,0.042446617,0.9937938,0.999974,-3.1708112e-09,5.37358e-09,0.007217818,4
685325968,685325702,0.10147103,0.0129096545,0.04283942,0.9938319,0.999974,-3.1708112e-09,5.37358e-09,0.007217818,4
685823671,685823404,0.1007844,0.013538708,0.04267984,0.99390024,0.999974,-3.1708112e-09,5.37358e-09,0.007217818,4
686326344,686326082,0.10014512,0.013024024,0.042274218,0.9939891,0.999974,-3.1708112e-09,5.37358e-09,0.007217818,4
686829027,686828761,0.09948286,0.013048071,0.042022992,0.9940659,0.999974,-3.1708112e-09,5.37358e-09,0.007217818,4
687326728,687326462,0.09898443,0.012288262,0.04192407,0.9941296,0.999974,-3.1708112e-09,5.37358e-09,0.007217818,4
687829393,687829140,0.09816902,0.012894134,0.042429842,0.9941813,0.999974,-3.1708112e-09,5.37358e-09,0.007217818,4
688322151,688321864,0.09765546,0.014040503,0.04314877,0.9941853,0.999974,-3.1708112e-09,5.37358e-09,0.007217818,4
688824803,688824541,0.09739955,0.014687604,0.0431438,0.99420136,0.999974,-3.1708112e-09,5.37358e-09,0.007217818,4
689327485,689327219,0.09695892,0.013675061,0.04252806,0.9942854,0.999974,-3.1708112e-09,5.37358e-09,0.007217818,4
689825210,689824919,0.096436515,0.012764014,0.042229965,0.99436104,0.999974,-3.1708112e-09,5.37358e-09,0.007217818,4
690327862,690327596,0.095987156,0.013255585,0.04264487,0.9943803,0.999974,-3.1708112e-09,5.37358e-09,0.007217818,4
690825611,690825296,0.09549406,0.013326147,0.043707196,0.9943807,0.999974,-3.1708112e-09,5.37358e-09,0.007217818,4
691328232,691327973,0.09529827,0.012537737,0.044086605,0.994393,0.999974,-3.1708112e-09,5.37358e-09,0.007217818,4
691825946,691825673,0.09525777,0.012444454,0.04331363,0.9944321,0.999974,-3.1708112e-09,5.37358e-09,0.007217818,4
692323639,692323372,0.09509791,0.012378368,0.04302133,0.9944608,0.999974,-3.1708112e-09,5.37358e-09,0.007217818,4
692826339,692826048,0.0950673,0.012217659,0.043670475,0.99443746,0.999974,-3.1708112e-09,5.37358e-09,0.007217818,4
693324008,693323748,0.095088124,0.012190585,0.04410382,0.9944167,0.999974,-3.1708112e-09,5.37358e-09,0.007217818,4
693826692,693826424,0.094963975,0.012815484,0.04401172,0.9944248,0.999974,-3.1708112e-09,5.37358e-09,0.007217818,4
694329366,694329099,0.09492297,0.012958164,0.043843377,0.9944343,0.999974,-3.1708112e-09,5.37358e-09,0.007217818,4
694827061,694826798,0.094807886,0.0127895195,0.04382797,0.9944482,0.999974,-3.1708112e-09,5.37358e-09,0.007217818,4
695324756,695324497,0.09465308,0.012908783,0.04397659,0.99445474,0.999974,-3.1708112e-09,5.37358e-09,0.007217818,4
695827436,695827172,0.0942599,0.013729579,0.044055767,0.9944776,0.999974,-3.1708112e-09,5.37358e-09,0.007217818,4
696325132,696324870,0.09407703,0.013682436,0.044171024,0.9944905,0.999974,-3.1708112e-09,5.37358e-09,0.007217818,4
696827804,696827545,0.09382865,0.013219559,0.043873947,0.99453336,0.999974,-3.1708112e-09,5.37358e-09,0.007217818,4
697325540,697325243,0.09350792,0.013105971,0.044102088,0.99455494,0.999974,-3.1708112e-09,5.37358e-09,0.007217818,4
697828389,697827918,0.0931427,0.012818035,0.04400917,0.9945971,0.999974,-3.1708112e-09,5.37358e-09,0.007217818,4
698325883,698325615,0.092895806,0.012757361,0.043550044,0.99464124,0.999974,-3.1708112e-09,5.37358e-09,0.007217818,4
698823584,698823312,0.0931374,0.012956236,0.043388236,0.99462306,0.999974,-3.1708112e-09,5.37358e-09,0.007217818,4
699326251,699325987,0.09366893,0.0133846095,0.043495912,0.99456275,0.999974,-3.1708112e-09,5.37358e-09,0.007217818,4
699823945,699823684,0.09428881,0.013050994,0.043269314,0.9945185,0.999974,-3.1708112e-09,5.37358e-09,0.007217818,4
700326627,700326358,0.09549595,0.013372348,0.04296349,0.99441236,0.999974,-3.1708112e-09,5.37358e-09,0.007217818,4
700824335,700824054,0.096894264,0.013678985,0.042687137,0.9942848,0.999974,-3.1708112e-09,5.37358e-09,0.007217818,4
701326991,701326728,0.098581575,0.013725342,0.043071985,0.99410164,0.999974,-3.1708112e-09,5.37358e-09,0.007217818,4
701829689,701829402,0.10032823,0.013679968,0.04350651,0.99390864,0.999974,-3.1708112e-09,5.37358e-09,0.007217818,4
702322467,702322121,0.10194039,0.0136802085,0.043555837,0.9937424,0.999974,-3.1708112e-09,5.37358e-09,0.007217818,4
702825053,702824794,0.103583746,0.013246127,0.043372814,0.99358636,0.999974,-3.1708112e-09,5.37358e-09,0.007217818,4
703327730,703327467,0.1045941,0.012949427,0.043089807,0.9934968,0.999974,-3.1708112e-09,5.37358e-09,0.007217818,4
703825428,703825163,0.10553684,0.013176487,0.042600892,0.9934151,0.999974,-3.1708112e-09,5.37358e-09,0.007217818,4
704328097,704327835,0.107126065,0.013385992,0.042677887,0.9932389,0.999974,-3.1708112e-09,5.37358e-09,0.007217818,4
704825808,704825531,0.10861315,0.013519286,0.043419067,0.9930435,0.999974,-3.1708112e-09,5.37358e-09,0.007217818,4
705328460,705328203,0.11004592,0.013797498,0.04360816,0.99287355,0.999974,-3.1708112e-09,5.37358e-09,0.007217818,4
705826161,705825899,0.11159629,0.013864369,0.043750823,0.9926933,0.999974,-3.1708112e-09,5.37358e-09,0.007217818,4
706323880,706323594,0.11305488,0.015500231,0.043838795,0.9925001,0.999974,-3.1708112e-09,5.37358e-09,0.007217818,4
706826934,706826266,0.11425203,0.015932864,0.044050455,0.9923469,0.999974,-3.1708112e-09,5.37358e-09,0.007217818,4
707324220,707323960,0.11475214,0.015760863,0.04390934,0.9922981,0.999974,-3.1708112e-09,5.37358e-09,0.007217818,4
707826895,707826632,0.11488213,0.015753003,0.043749623,0.9922903,0.999974,-3.1708112e-09,5.37358e-09,0.007217818,4
708329574,708329303,0.11504142,0.01596684,0.043332443,0.99228674,0.999974,-3.1708112e-09,5.37358e-09,0.007217818,4
708827263,708826998,0.115022756,0.015601519,0.04298839,0.9923097,0.999974,-3.1708112e-09,5.37358e-09,0.007217818,4
709324956,709324692,0.11507289,0.015872922,0.044146124,0.9922487,0.999974,-3.1708112e-09,5.37358e-09,0.007217818,4
709822651,709822386,0.11519421,0.013703297,0.044366986,0.9922571,0.999974,-3.1708112e-09,5.37358e-09,0.007217818,4
710325319,710325057,0.11515328,0.013125765,0.0448268,0.99224895,0.999974,-3.1708112e-09,5.37358e-09,0.007217818,4
710827991,710827727,0.1150139,0.013769553,0.045196705,0.99223965,0.999974,-3.1708112e-09,5.37358e-09,0.007217818,4
711325706,711325424,0.11504055,0.013455346,0.045180432,0.99224156,0.999974,-3.1708112e-09,5.37358e-09,0.007217818,4
711828404,711828091,0.11468561,0.013687176,0.04447061,0.9923116,0.999974,-3.1708112e-09,5.37358e-09,0.007217818,4
712326048,712325785,0.11375918,0.014692945,0.044064447,0.992422,0.999974,-3.1708112e-09,5.37358e-09,0.007217818,4
712823759,712823481,0.1128242,0.015111202,0.04425072,0.9925141,0.999974,-3.1708112e-09,5.37358e-09,0.007217818,4
713326410,713326148,0.11178679,0.013820677,0.043488737,0.99268395,0.999974,-3.1708112e-09,5.37358e-09,0.007217818,4
713824104,713823843,0.11053768,0.014097924,0.043611318,0.99281454,0.999974,-3.1708112e-09,5.37358e-09,0.007217818,4
714326773,714326510,0.10968635,0.013258463,0.044073187,0.99290013,0.999974,-3.1708112e-09,5.37358e-09,0.007217818,4
714824463,714824203,0.10869714,0.013047416,0.044899307,0.99297476,0.999974,-3.1708112e-09,5.37358e-09,0.007217818,4
715327141,715326872,0.10762273,0.012549606,0.045373876,0.99307656,0.999974,-3.1708112e-09,5.37358e-09,0.007217818,4
715829826,715829541,0.106691696,0.012441937,0.045387167,0.9931778,0.999974,-3.1708112e-09,5.37358e-09,0.007217818,4
716322560,716322256,0.10584665,0.012880755,0.04502542,0.99327916,0.999974,-3.1708112e-09,5.37358e-09,0.007217818,4
716825284,716824925,0.10485741,0.012387003,0.044762243,0.9934021,0.999974,-3.1708112e-09,5.37358e-09,0.007217818,4
717327883,717327594,0.10391915,0.012556519,0.044608686,0.9935056,0.999974,-3.1708112e-09,5.37358e-09,0.007217818,4
717825548,717825286,0.10305671,0.012855638,0.04470506,0.9935872,0.999974,-3.1708112e-09,5.37358e-09,0.007217818,4
718328232,718327954,0.102061965,0.01300519,0.0452067,0.9936652,0.999974,-3.1708112e-09,5.37358e-09,0.007217818,4
718825906,718825646,0.10111839,0.011797983,0.045709785,0.9937538,0.999974,-3.1708112e-09,5.37358e-09,0.007217818,4
719328573,719328314,0.10022632,0.011298433,0.045451403,0.9938618,0.999974,-3.1708112e-09,5.37358e-09,0.007217818,4
719826269,719826005,0.09921557,0.011806222,0.045011014,0.99397737,0.999974,-3.1708112e-09,5.37358e-09,0.007217818,4
720323967,720323696,0.09823624,0.01203143,0.044807993,0.994081,0.999974,-3.1708112e-09,5.37358e-09,0.007217818,4
720826655,720826364,0.09743136,0.012233494,0.044874866,0.99415475,0.999974,-3.1708112e-09,5.37358e-09,0.007217818,4
721324424,721324055,0.09651,0.012155943,0.045238063,0.9942292,0.999974,-3.1708112e-09,5.37358e-09,0.007217818,4
721826985,721826722,0.09564117,0.01213174,0.04558288,0.9942977,0.999974,-3.1708112e-09,5.37358e-09,0.007217818,4
722324678,722324412,0.09509752,0.011491828,0.045831308,0.994346,0.999974,-3.1708112e-09,5.37358e-09,0.007217818,4
722827341,722827080,0.0944378,0.011333213,0.04551924,0.994425,0.999974,-3.1708112e-09,5.37358e-09,0.007217818,4
723325028,723324770,0.09368367,0.011531174,0.045066327,0.9945147,0.999974,-3.1708112e-09,5.37358e-09,0.007217818,4
723822719,723822460,0.093120866,0.011845092,0.04474347,0.9945784,0.999974,-3.1708112e-09,5.37358e-09,0.007217818,4
724325388,724325127,0.09251203,0.011828583,0.044886876,0.99462897,0.999974,-3.1708112e-09,5.37358e-09,0.007217818,4
724828050,724827794,0.09180203,0.012129133,0.045251466,0.9946747,0.999974,-3.1708112e-09,5.37358e-09,0.007217818,4
725325745,725325483,0.09075275,0.012353048,0.044645593,0.9947955,0.999974,-3.1708112e-09,5.37358e-09,0.007217818,4
725828497,725828150,0.08252494,0.009017979,0.045809545,0.9954947,0.999974,-3.1708112e-09,5.37358e-09,0.007217818,4
726326112,726325839,0.070008144,-0.0057887044,0.048345536,0.9963574,0.999974,-3.1708112e-09,5.37358e-09,0.007217818,4
726823789,726823528,0.054589566,0.009143135,0.03833236,0.99773103,0.999974,-3.1708112e-09,5.37358e-09,0.007217818,4
727326451,727326194,0.046798002,0.012283387,0.0390294,0.99806607,0.999974,-3.1708112e-09,5.37358e-09,0.007217818,4
727824144,727823884,0.04932093,0.01153238,0.04303461,0.99778885,0.999974,-3.1708112e-09,5.37358e-09,0.007217818,4
728326818,728326549,0.05039267,0.010857031,0.043598406,0.99771833,0.999974,-3.1708112e-09,5.37358e-09,0.007217818,4
728824500,728824238,0.04947221,0.009740548,0.04562876,0.99768513,0.999974,-3.1708112e-09,5.37358e-09,0.007217818,4
729327183,729326904,0.051065892,0.009892435,0.04582413,0.9975945,0.999974,-3.1708112e-09,5.37358e-09,0.007217818,4
729829829,729829569,0.05140401,0.010068209,0.044856768,0.9976192,0.999974,-3.1708112e-09,5.37358e-09,0.007217818,4
730322886,730322281,0.05115108,0.008870043,0.0447152,0.99765,0.999974,-3.1708112e-09,5.37358e-09,0.007217818,4
730825204,730824946,0.05262007,0.00867397,0.045299288,0.997549,0.999974,-3.1708112e-09,5.37358e-09,0.007217818,4
731327869,731327611,0.054213222,0.009472408,0.044594064,0.9974882,0.999974,-3.1708112e-09,5.37358e-09,0.007217818,4
731825557,731825299,0.054145712,0.00901259,0.045133736,0.99747187,0.999974,-3.1708112e-09,5.37358e-09,0.007217818,4
732328228,732327964,0.054232616,0.010528726,0.045727186,0.99742526,0.999974,-3.1708112e-09,5.37358e-09,0.007217818,4
732825912,732825652,0.055001274,0.010096771,0.046284355,0.99736196,0.999974,-3.1708112e-09,5.37358e-09,0.007217818,4
733328576,733328317,0.054303642,0.010133306,0.04520424,0.9974493,0.999974,-3.1708112e-09,5.37358e-09,0.007217818,4
733826266,733826004,0.054280095,0.010395188,0.044150654,0.99749506,0.999974,-3.1708112e-09,5.37358e-09,0.007217818,4
734323987,734323692,0.05519647,0.009608962,0.04438375,0.99744236,0.999974,-3.1708112e-09,5.37358e-09,0.007217818,4
734826759,734826356,0.055191547,0.009271032,0.045297053,0.9974047,0.999974,-3.1708112e-09,5.37358e-09,0.007217818,4
735324345,735324043,0.054815914,0.010114745,0.046043504,0.997383,0.999974,-3.1708112e-09,5.37358e-09,0.007217818,4
735826966,735826707,0.055185143,0.009780567,0.046426438,0.9973483,0.999974,-3.1708112e-09,5.37358e-09,0.007217818,4
736324655,736324394,0.054873105,0.009896549,0.04562473,0.9974014,0.999974,-3.1708112e-09,5.37358e-09,0.007217818,4
736827319,736827058,0.05439356,0.009653621,0.044404533,0.99748504,0.999974,-3.1708112e-09,5.37358e-09,0.007217818,4
737325005,737324745,0.05457596,0.010229397,0.043621723,0.99750394,0.999974,-3.1708112e-09,5.37358e-09,0.007217818,4
737822698,737822432,0.055937238,0.009753171,0.04428117,0.9974042,0.999974,-3.1708112e-09,5.37358e-09,0.007217818,4
738325359,738325095,0.057940133,0.008606213,0.045225564,0.99725807,0.999974,-3.1708112e-09,5.37358e-09,0.007217818,4
738828022,738827759,0.060388684,0.008462129,0.045170587,0.9971165,0.999974,-3.1708112e-09,5.37358e-09,0.007217818,4
739325713,739325445,0.062155187,0.009621544,0.044959735,0.99700695,0.999974,-3.1708112e-09,5.37358e-09,0.007217818,4
739828424,739828108,0.06297508,0.01028648,0.04468362,0.9969613,0.999974,-3.1708112e-09,5.37358e-09,0.007217818,4
740326081,740325794,0.06366666,0.012439267,0.043719918,0.9969355,0.999974,-3.1708112e-09,5.37358e-09,0.007217818,4
740823782,740823483,0.06419225,0.012595584,0.0435601,0.9969068,0.999974,-3.1708112e-09,5.37358e-09,0.007217818,4
741326404,741326143,0.06480268,0.012776307,0.044199087,0.99683696,0.999974,-3.1708112e-09,5.37358e-09,0.007217818,4
741824094,741823829,0.06556119,0.013497039,0.044713736,0.99675494,0.999974,-3.1708112e-09,5.37358e-09,0.007217818,4
742326752,742326492,0.06697561,0.013638366,0.044458263,0.99667037,0.999974,-3.1708112e-09,5.37358e-09,0.007217818,4
742824517,742824177,0.06796851,0.012617022,0.043922603,0.9966404,0.999974,-3.1708112e-09,5.37358e-09,0.007217818,4
743327178,743326840,0.06866237,0.012548716,0.043295793,0.9966211,0.999974,-3.1708112e-09,5.37358e-09,0.007217818,4
743829837,743829502,0.06951077,0.012732164,0.04306848,0.99656975,0.999974,-3.1708112e-09,5.37358e-09,0.007217818,4
744322505,744322211,0.07015303,0.012795383,0.043269504,0.9965152,0.999974,-3.1708112e-09,5.37358e-09,0.007217818,4
744825154,744824872,0.070574954,0.012672291,0.043521445,0.9964761,0.999974,-3.1708112e-09,5.37358e-09,0.007217818,4
745327807,745327534,0.071284674,0.013186636,0.043796543,0.99640685,0.999974,-3.1708112e-09,5.37358e-09,0.007217818,4
745825507,745825219,0.07192013,0.01301898,0.043689147,0.9963681,0.999974,-3.1708112e-09,5.37358e-09,0.007217818,4
746328187,746327881,0.07257089,0.012362848,0.043839507,0.99632263,0.999974,-3.1708112e-09,5.37358e-09,0.007217818,4
746825822,746825566,0.073326126,0.012164721,0.04335909,0.99629086,0.999974,-3.1708112e-09,5.37358e-09,0.007217818,4
747328500,747328227,0.07428849,0.011994283,0.042838544,0.9962441,0.999974,-3.1708112e-09,5.37358e-09,0.007217818,4
747826170,747825912,0.075021,0.012932461,0.0429615,0.99617213,0.999974,-3.1708112e-09,5.37358e-09,0.007217818,4
748323859,748323596,0.07568193,0.012961362,0.04342272,0.99610186,0.999974,-3.1708112e-09,5.37358e-09,0.007217818,4
748826515,748826258,0.076645456,0.0128412405,0.04436753,0.995988,0.999974,-3.1708112e-09,5.37358e-09,0.007217818,4
749324303,749323942,0.07686885,0.0123503385,0.044355385,0.9959775,0.999974,-3.1708112e-09,5.37358e-09,0.007217818,4
749826878,749826603,0.07628408,0.012366035,0.043351036,0.9960665,0.999974,-3.1708112e-09,5.37358e-09,0.007217818,4
750329526,750329264,0.07585565,0.012633394,0.04226038,0.99614275,0.999974,-3.1708112e-09,5.37358e-09,0.007217818,4
750827205,750826947,0.07516802,0.013202899,0.04266162,0.99617046,0.999974,-3.1708112e-09,5.37358e-09,0.007217818,4
751324892,751324631,0.074391045,0.0130410325,0.04413437,0.9961667,0.999974,-3.1708112e-09,5.37358e-09,0.007217818,4
751827569,751827292,0.074109815,0.012669241,0.045104202,0.996149,0.999974,-3.1708112e-09,5.37358e-09,0.007217818,4
752325235,752324975,0.073800065,0.011714772,0.044794504,0.99619764,0.999974,-3.1708112e-09,5.37358e-09,0.007217818,4
752827890,752827636,0.074010946,0.010742815,0.043923162,0.9962318,0.999974,-3.1708112e-09,5.37358e-09,0.007217818,4
753325577,753325319,0.074903876,0.010952963,0.04309854,0.9961988,0.999974,-3.1708112e-09,5.37358e-09,0.007217818,4
753828256,753827979,0.07556182,0.011127347,0.043136805,0.9961455,0.999974,-3.1708112e-09,5.37358e-09,0.007217818,4
754326003,754325662,0.07549252,0.011160326,0.044272892,0.9961006,0.999974,-3.1708112e-09,5.37358e-09,0.007217818,4
754823647,754823347,0.07540595,0.010240088,0.045058653,0.9960817,0.999974,-3.1708112e-09,5.37358e-09,0.007217818,4
755326264,755326005,0.075370416,0.010385396,0.04471896,0.9960982,0.999974,-3.1708112e-09,5.37358e-09,0.007217818,4
755823956,755823688,0.0750034,0.010256049,0.0442864,0.9961466,0.999974,-3.1708112e-09,5.37358e-09,0.007217818,4
756326632,756326347,0.07473284,0.010406502,0.0441418,0.9961718,0.999974,-3.1708112e-09,5.37358e-09,0.007217818,4
756824289,756824030,0.07472749,0.010096758,0.043842465,0.9961886,0.999974,-3.1708112e-09,5.37358e-09,0.007217818,4
757326947,757326689,0.07453497,0.00974632,0.043692406,0.9962131,0.999974,-3.1708112e-09,5.37358e-09,0.007217818,4
757829607,757829348,0.07430239,0.010083754,0.04395847,0.9962154,0.999974,-3.1708112e-09,5.37358e-09,0.007217818,4
758322313,758322054,0.07432911,0.010460027,0.044494558,0.9961858,0.999974,-3.1708112e-09,5.37358e-09,0.007217818,4
758825000,758824712,0.07418705,0.010470493,0.044879466,0.996179,0.999974,-3.1708112e-09,5.37358e-09,0.007217818,4
759327675,759327371,0.073909804,0.010750235,0.04453076,0.9962123,0.999974,-3.1708112e-09,5.37358e-09,0.007217818,4
759825313,759825053,0.07400796,0.009744859,0.04363068,0.9962551,0.999974,-3.1708112e-09,5.37358e-09,0.007217818,4
760327973,760327712,0.07403684,0.009768487,0.04362633,0.996253,0.999974,-3.1708112e-09,5.37358e-09,0.007217818,4
760825656,760825393,0.074046396,0.008778785,0.044517707,0.996222,0.999974,-3.1708112e-09,5.37358e-09,0.007217818,4
761328319,761328052,0.07510931,0.009248085,0.045142084,0.99611014,0.999974,-3.1708112e-09,5.37358e-09,0.007217818,4
761825989,761825733,0.07645829,0.009934732,0.045153864,0.99600035,0.999974,-3.1708112e-09,5.37358e-09,0.007217818,4
762323696,762323415,0.07768033,0.012193167,0.04422909,0.9959222,0.999974,-3.1708112e-09,5.37358e-09,0.007217818,4
762826335,762826073,0.07839616,0.011798383,0.044111043,0.9958761,0.999974,-3.1708112e-09,5.37358e-09,0.007217818,4
763324046,763323754,0.07847174,0.012097811,0.04481203,0.9958352,0.999974,-3.1708112e-09,5.37358e-09,0.007217818,4
763826824,763826412,0.07869532,0.012600681,0.0451366,0.9957966,0.999974,-3.1708112e-09,5.37358e-09,0.007217818,4
764329325,764329069,0.07826738,0.013192964,0.04587827,0.9957889,0.999974,-3.1708112e-09,5.37358e-09,0.007217818,4
764827010,764826750,0.078018576,0.013012977,0.04513504,0.9958447,0.999974,-3.1708112e-09,5.37358e-09,0.007217818,4
765324711,765324431,0.07795842,0.012217868,0.044654537,0.9958811,0.999974,-3.1708112e-09,5.37358e-09,0.007217818,4
765827329,765827088,0.07787604,0.012143359,0.044898678,0.9958775,0.999974,-3.1708112e-09,5.37358e-09,0.007217818,4
766325046,766324769,0.07787067,0.01161002,0.04568806,0.99584836,0.999974,-3.1708112e-09,5.37358e-09,0.007217818,4
766827690,766827426,0.077389196,0.012434829,0.046247013,0.99585015,0.999974,-3.1708112e-09,5.37358e-09,0.007217818,4
767325367,767325107,0.07680523,0.012576114,0.04568423,0.9959196,0.999974,-3.1708112e-09,5.37358e-09,0.007217818,4
767828048,767827764,0.07648484,0.012388976,0.04519436,0.9959689,0.999974,-3.1708112e-09,5.37358e-09,0.007217818,4
768326312,768325444,0.076328285,0.012131884,0.045445707,0.9959727,0.999974,-3.1708112e-09,5.37358e-09,0.007217818,4
768823378,768823124,0.07590753,0.012292598,0.04633235,0.99596196,0.999974,-3.1708112e-09,5.37358e-09,0.007217818,4
769326079,769325781,0.07598928,0.012489471,0.04649831,0.99594563,0.999974,-3.1708112e-09,5.37358e-09,0.007217818,4
769823727,769823465,0.07625513,0.012273783,0.04612844,0.99594516,0.999974,-3.1708112e-09,5.37358e-09,0.007217818,4
770326373,770326117,0.076297075,0.0121496525,0.04607756,0.9959459,0.999974,-3.1708112e-09,5.37358e-09,0.007217818,4
770829033,770828773,0.07635142,0.011871374,0.04619968,0.9959393,0.999974,-3.1708112e-09,5.37358e-09,0.007217818,4
771326751,771326452,0.07649282,0.011679266,0.04646863,0.9959182,0.999974,-3.1708112e-09,5.37358e-09,0.007217818,4
771829364,771829109,0.076287635,0.011798985,0.04664001,0.9959246,0.999974,-3.1708112e-09,5.37358e-09,0.007217818,4
772327054,772326788,0.07631566,0.011519608,0.04626862,0.99594307,0.999974,-3.1708112e-09,5.37358e-09,0.007217818,4
772825101,772824467,0.07661327,0.010867361,0.046400953,0.9959213,0.999974,-3.1708112e-09,5.37358e-09,0.007217818,4
773327413,773327123,0.076707624,0.0112255085,0.04679417,0.99589175,0.999974,-3.1708112e-09,5.37358e-09,0.007217818,4
773825140,773824802,0.07673053,0.011748485,0.046973683,0.9958754,0.999974,-3.1708112e-09,5.37358e-09,0.007217818,4
774327749,774327458,0.07701384,0.011933913,0.046760507,0.9958615,0.999974,-3.1708112e-09,5.37358e-09,0.007217818,4
774825400,774825136,0.07722105,0.012047111,0.046338253,0.9958638,0.999974,-3.1708112e-09,5.37358e-09,0.007217818,4
775328064,775327792,0.07737029,0.011847969,0.04635414,0.9958538,0.999974,-3.1708112e-09,5.37358e-09,0.007217818,4
775825731,775825470,0.077551074,0.012654246,0.04666268,0.99581546,0.999974,-3.1708112e-09,5.37358e-09,0.007217818,4
776323430,776323149,0.07764787,0.013254965,0.046580896,0.99580395,0.999974,-3.1708112e-09,5.37358e-09,0.007217818,4
776826060,776825804,0.07767598,0.013035834,0.046255443,0.99581975,0.999974,-3.1708112e-09,5.37358e-09,0.007217818,4
777323748,777323488,0.07797153,0.012949383,0.045795634,0.9958191,0.999974,-3.1708112e-09,5.37358e-09,0.007217818,4
777826427,777826137,0.07823139,0.012706283,0.04605904,0.9957897,0.999974,-3.1708112e-09,5.37358e-09,0.007217818,4
778329069,778328793,0.07829109,0.012978137,0.046371646,0.995767,0.999974,-3.1708112e-09,5.37358e-09,0.007217818,4
778826733,778826471,0.07839093,0.013116644,0.046150204,0.9957676,0.999974,-3.1708112e-09,5.37358e-09,0.007217818,4
779324437,779324148,0.07868946,0.012881749,0.04559768,0.9957726,0.999974,-3.1708112e-09,5.37358e-09,0.007217818,4
779827065,779826805,0.0788523,0.012529856,0.04530077,0.99577767,0.999974,-3.1708112e-09,5.37358e-09,0.007217818,4
780324742,780324481,0.07902336,0.012579035,0.045515716,0.9957537,0.999974,-3.1708112e-09,5.37358e-09,0.007217818,4
780827397,780827135,0.07926184,0.013185666,0.045831256,0.99571246,0.999974,-3.1708112e-09,5.37358e-09,0.007217818,4
781325072,781324813,0.07962855,0.0127260685,0.0453799,0.9957099,0.999974,-3.1708112e-09,5.37358e-09,0.007217818,4
781827758,781827467,0.079969294,0.012907352,0.045362525,0.9956809,0.999974,-3.1708112e-09,5.37358e-09,0.007217818,4
782325430,782325144,0.080516554,0.013112545,0.045442816,0.9956305,0.999974,-3.1708112e-09,5.37358e-09,0.007217818,4
782823292,782822822,0.08090996,0.013595387,0.045564868,0.99558663,0.999974,-3.1708112e-09,5.37358e-09,0.007217818,4
783325733,783325475,0.081331015,0.0133791305,0.045556273,0.99555564,0.999974,-3.1708112e-09,5.37358e-09,0.007217818,4
783823410,783823153,0.081843734,0.01336928,0.045786366,0.9955032,0.999974,-3.1708112e-09,5.37358e-09,0.007217818,4
784326103,784325806,0.08224422,0.013396292,0.045680877,0.9954746,0.999974,-3.1708112e-09,5.37358e-09,0.007217818,4
784828720,784828460,0.0825065,0.013763381,0.045743275,0.995445,0.999974,-3.1708112e-09,5.37358e-09,0.007217818,4
785326394,785326137,0.08294855,0.013524684,0.045819197,0.99540806,0.999974,-3.1708112e-09,5.37358e-09,0.007217818,4
785829050,785828790,0.083389245,0.013445105,0.04575093,0.99537545,0.999974,-3.1708112e-09,5.37358e-09,0.007217818,4
786326733,786326467,0.08362347,0.013545844,0.04563761,0.9953597,0.999974,-3.1708112e-09,5.37358e-09,0.007217818,4
786824410,786824144,0.08393142,0.013776519,0.04549757,0.995337,0.999974,-3.1708112e-09,5.37358e-09,0.007217818,4
787327137,787326798,0.08438812,0.013873176,0.04550275,0.9952968,0.999974,-3.1708112e-09,5.37358e-09,0.007217818,4
787824731,787824473,0.08469078,0.014013597,0.04540877,0.9952735,0.999974,-3.1708112e-09,5.37358e-09,0.007217818,4
788327390,788327126,0.08508938,0.0141099645,0.045210835,0.99524707,0.999974,-3.1708112e-09,5.37358e-09,0.007217818,4
788825091,788824802,0.08550015,0.013309447,0.045234542,0.99522185,0.999974,-3.1708112e-09,5.37358e-09,0.007217818,4
789327717,789327455,0.085646026,0.013202276,0.045505576,0.9951983,0.999974,-3.1708112e-09,5.37358e-09,0.007217818,4
789825388,789825131,0.08579472,0.012971048,0.045492034,0.99518925,0.999974,-3.1708112e-09,5.37358e-09,0.007217818,4
790323130,790322807,0.086106345,0.012661988,0.04542482,0.9951693,0.999974,-3.1708112e-09,5.37358e-09,0.007217818,4
790825722,790825460,0.086401254,0.012785251,0.04521492,0.9951518,0.999974,-3.1708112e-09,5.37358e-09,0.007217818,4
791328369,791328112,0.086804904,0.013646838,0.045210235,0.99510545,0.999974,-3.1708112e-09,5.37358e-09,0.007217818,4
791826045,791825788,0.08728696,0.013407762,0.04526807,0.99506384,0.999974,-3.1708112e-09,5.37358e-09,0.007217818,4
792328732,792328440,0.08777235,0.013243805,0.045580823,0.99500906,0.999974,-3.1708112e-09,5.37358e-09,0.007217818,4
792826374,792826116,0.08821876,0.013211506,0.045838337,0.99495816,0.999974,-3.1708112e-09,5.37358e-09,0.007217818,4
793324056,793323791,0.08875254,0.012929135,0.045549486,0.99492776,0.999974,-3.1708112e-09,5.37358e-09,0.007217818,4
793826703,793826443,0.089325055,0.013048767,0.044940602,0.9949026,0.999974,-3.1708112e-09,5.37358e-09,0.007217818,4
794324377,794324118,0.08961067,0.01292283,0.04480116,0.9948848,0.999974,-3.1708112e-09,5.37358e-09,0.007217818,4
794827035,794826770,0.0897691,0.012606566,0.045166302,0.9948581,0.999974,-3.1708112e-09,5.37358e-09,0.007217818,4
795324725,795324445,0.08999572,0.012539024,0.045273513,0.9948336,0.999974,-3.1708112e-09,5.37358e-09,0.007217818,4
795827360,795827097,0.0900978,0.012878336,0.045165934,0.99482495,0.999974,-3.1708112e-09,5.37358e-09,0.007217818,4
796330011,796329749,0.090256475,0.012522396,0.044777717,0.9948327,0.999974,-3.1708112e-09,5.37358e-09,0.007217818,4
796822749,796822447,0.09050033,0.012643642,0.044785704,0.99480855,0.999974,-3.1708112e-09,5.37358e-09,0.007217818,4
797325358,797325098,0.090702824,0.01244063,0.0448688,0.99478894,0.999974,-3.1708112e-09,5.37358e-09,0.007217818,4
797828010,797827749,0.090869494,0.012219508,0.045009978,0.99477017,0.999974,-3.1708112e-09,5.37358e-09,0.007217818,4
798325686,798325424,0.09114771,0.012417737,0.04505217,0.9947403,0.999974,-3.1708112e-09,5.37358e-09,0.007217818,4
798828333,798828075,0.091348045,0.012598804,0.045075595,0.9947186,0.999974,-3.1708112e-09,5.37358e-09,0.007217818,4
