timestamp,timestamp_sample,q[0],q[1],q[2],q[3],delta_q_reset[0],delta_q_reset[1],delta_q_reset[2],delta_q_reset[3],quat_reset_counter
539823246,539823124,0.2887344,0.021754092,0.019194454,0.9569696,0.9999287,-1.1851299e-09,-7.1174604e-09,0.011941393,4
540323186,540323066,0.28875852,0.022018733,0.019200899,0.9569561,0.9999287,-1.1851299e-09,-7.1174604e-09,0.011941393,4
540823130,540823009,0.2889884,0.02058957,0.019184774,0.95691895,0.9999287,-1.1851299e-09,-7.1174604e-09,0.011941393,4
541323070,541322951,0.28921735,0.020645795,0.019602079,0.9568401,0.9999287,-1.1851299e-09,-7.1174604e-09,0.011941393,4
541823043,541822897,0.2893133,0.021193925,0.019447673,0.95680225,0.9999287,-1.1851299e-09,-7.1174604e-09,0.011941393,4
542322956,542322837,0.28960192,0.022234695,0.019434683,0.9566915,0.9999287,-1.1851299e-09,-7.1174604e-09,0.011941393,4
542822909,542822779,0.28986803,0.02177992,0.019719461,0.95661557,0.9999287,-1.1851299e-09,-7.1174604e-09,0.011941393,4
543322848,543322722,0.28996924,0.021387856,0.019755334,0.956593,0.9999287,-1.1851299e-09,-7.1174604e-09,0.011941393,4
543822783,543822664,0.2901636,0.020640092,0.019203061,0.9565618,0.9999287,-1.1851299e-09,-7.1174604e-09,0.011941393,4
544322727,544322607,0.29050365,0.02073051,0.01887176,0.9564632,0.9999287,-1.1851299e-09,-7.1174604e-09,0.011941393,4
544822668,544822550,0.29059032,0.021247534,0.019086761,0.95642126,0.9999287,-1.1851299e-09,-7.1174604e-09,0.011941393,4
545322611,545322493,0.2907192,0.021311486,0.019051507,0.9563813,0.9999287,-1.1851299e-09,-7.1174604e-09,0.011941393,4
545822556,545822436,0.29110262,0.020960996,0.019060655,0.95627224,0.9999287,-1.1851299e-09,-7.1174604e-09,0.011941393,4
546322499,546322378,0.29134005,0.021261929,0.018921196,0.9561961,0.9999287,-1.1851299e-09,-7.1174604e-09,0.011941393,4
546822439,546822321,0.29142344,0.022336258,0.018128261,0.95616156,0.9999287,-1.1851299e-09,-7.1174604e-09,0.011941393,4
547322393,547322264,0.29169533,0.022427144,0.01732595,0.95609134,0.9999287,-1.1851299e-09,-7.1174604e-09,0.011941393,4
547822328,547822207,0.2918096,0.022371814,0.017223742,0.9560597,0.9999287,-1.1851299e-09,-7.1174604e-09,0.011941393,4
548322266,548322150,0.29173693,0.021987032,0.017700542,0.9560821,0.9999287,-1.1851299e-09,-7.1174604e-09,0.011941393,4
548822209,548822093,0.29189882,0.02190302,0.017551083,0.9560373,0.9999287,-1.1851299e-09,-7.1174604e-09,0.011941393,4
549322154,549322036,0.29193565,0.0221338,0.017539885,0.956021,0.9999287,-1.1851299e-09,-7.1174604e-09,0.011941393,4
549822099,549821980,0.29189667,0.022055758,0.017965809,0.9560268,0.9999287,-1.1851299e-09,-7.1174604e-09,0.011941393,4
550322042,550321923,0.2920476,0.021392806,0.01813482,0.9559926,0.9999287,-1.1851299e-09,-7.1174604e-09,0.011941393,4
550822001,550821866,0.29217997,0.022017578,0.017864538,0.95594305,0.9999287,-1.1851299e-09,-7.1174604e-09,0.011941393,4
551321926,551321810,0.2921485,0.022256907,0.017764997,0.955949,0.9999287,-1.1851299e-09,-7.1174604e-09,0.011941393,4
551821882,551821753,0.2921909,0.021662427,0.018200085,0.9559415,0.9999287,-1.1851299e-09,-7.1174604e-09,0.011941393,4
552321812,552321696,0.2922866,0.021474179,0.018323386,0.95591414,0.9999287,-1.1851299e-09,-7.1174604e-09,0.011941393,4
552821758,552821640,0.29219046,0.021509029,0.01820051,0.9559451,0.9999287,-1.1851299e-09,-7.1174604e-09,0.011941393,4
553324227,553321583,0.2922221,0.021706605,0.017920172,0.95593625,0.9999287,-1.1851299e-09,-7.1174604e-09,0.011941393,4
553821646,553821527,0.29234788,0.02108164,0.018369718,0.95590323,0.9999287,-1.1851299e-09,-7.1174604e-09,0.011941393,4
554321608,554321470,0.29233676,0.020844772,0.018318914,0.95591277,0.9999287,-1.1851299e-09,-7.1174604e-09,0.011941393,4
554826684,554826413,0.29231185,0.020906147,0.018520992,0.95591515,0.9999287,-1.1851299e-09,-7.1174604e-09,0.011941393,4
555321529,555321358,0.29246795,0.02180554,0.018417688,0.95584935,0.9999287,-1.1851299e-09,-7.1174604e-09,0.011941393,4
555821419,555821301,0.29251912,0.022164455,0.0189212,0.95581555,0.9999287,-1.1851299e-09,-7.1174604e-09,0.011941393,4
556321402,556321245,0.29238394,0.021728056,0.018995319,0.9558655,0.9999287,-1.1851299e-09,-7.1174604e-09,0.011941393,4
556821304,556821189,0.29256198,0.021644406,0.018704467,0.95581865,0.9999287,-1.1851299e-09,-7.1174604e-09,0.011941393,4
557321249,557321133,0.29272404,0.021431386,0.01815595,0.9557843,0.9999287,-1.1851299e-09,-7.1174604e-09,0.011941393,4
557821228,557821077,0.29268995,0.022292284,0.01798404,0.9557784,0.9999287,-1.1851299e-09,-7.1174604e-09,0.011941393,4
558326247,558326020,0.29266483,0.023573842,0.017723037,0.95576024,0.9999287,-1.1851299e-09,-7.1174604e-09,0.011941393,4
558821083,558820965,0.2927559,0.023366708,0.01785316,0.95573497,0.9999287,-1.1851299e-09,-7.1174604e-09,0.011941393,4
559321027,559320909,0.2927975,0.021947071,0.018296618,0.95574754,0.9999287,-1.1851299e-09,-7.1174604e-09,0.011941393,4
559820980,559820853,0.29288143,0.022463813,0.0181619,0.9557124,0.9999287,-1.1851299e-09,-7.1174604e-09,0.011941393,4
560320915,560320799,0.2931164,0.023011219,0.01770248,0.95563585,0.9999287,-1.1851299e-09,-7.1174604e-09,0.011941393,4
560820875,560820741,0.29334623,0.022867244,0.017959565,0.955564,0.9999287,-1.1851299e-09,-7.1174604e-09,0.011941393,4
561325905,561325685,0.2935213,0.022325432,0.018248836,0.95551753,0.9999287,-1.1851299e-09,-7.1174604e-09,0.011941393,4
561825849,561825629,0.293804,0.021782473,0.018352535,0.95544124,0.9999287,-1.1851299e-09,-7.1174604e-09,0.011941393,4
562320695,562320574,0.29398653,0.022290824,0.018940262,0.95536196,0.9999287,-1.1851299e-09,-7.1174604e-09,0.011941393,4
562820665,562820520,0.2933875,0.022706365,0.01848758,0.9555451,0.9999287,-1.1851299e-09,-7.1174604e-09,0.011941393,4
563320586,563320462,0.29271564,0.022390388,0.018480651,0.95575875,0.9999287,-1.1851299e-09,-7.1174604e-09,0.011941393,4
563820523,563820407,0.29209352,0.02219137,0.018230144,0.95595855,0.9999287,-1.1851299e-09,-7.1174604e-09,0.011941393,4
564325607,564325351,0.2914555,0.021745281,0.017838754,0.9561708,0.9999287,-1.1851299e-09,-7.1174604e-09,0.011941393,4
564825515,564825295,0.2908058,0.020284355,0.01833694,0.9563913,0.9999287,-1.1851299e-09,-7.1174604e-09,0.011941393,4
565325655,565325239,0.29014808,0.022029791,0.018148331,0.956556,0.9999287,-1.1851299e-09,-7.1174604e-09,0.011941393,4
565820303,565820184,0.2894895,0.022524033,0.01881881,0.95673114,0.9999287,-1.1851299e-09,-7.1174604e-09,0.011941393,4
566320245,566320129,0.28898767,0.02223695,0.019252475,0.9568809,0.9999287,-1.1851299e-09,-7.1174604e-09,0.011941393,4
566820191,566820073,0.2884216,0.020229708,0.018994154,0.9571014,0.9999287,-1.1851299e-09,-7.1174604e-09,0.011941393,4
567320133,567320018,0.28767645,0.022002487,0.018499423,0.95729613,0.9999287,-1.1851299e-09,-7.1174604e-09,0.011941393,4
567825202,567824962,0.28702843,0.021298848,0.01800712,0.957516,0.9999287,-1.1851299e-09,-7.1174604e-09,0.011941393,4
568325158,568324906,0.28638655,0.021059304,0.018412707,0.9577057,0.9999287,-1.1851299e-09,-7.1174604e-09,0.011941393,4
568825089,568824852,0.28568023,0.021571927,0.018809773,0.95789754,0.9999287,-1.1851299e-09,-7.1174604e-09,0.011941393,4
569319973,569319796,0.28518263,0.022175,0.01945655,0.95801914,0.9999287,-1.1851299e-09,-7.1174604e-09,0.011941393,4
569819885,569819741,0.28472957,0.02130907,0.019644812,0.9581697,0.9999287,-1.1851299e-09,-7.1174604e-09,0.011941393,4
570319819,570319686,0.2841798,0.021179771,0.01933702,0.95834196,0.9999287,-1.1851299e-09,-7.1174604e-09,0.011941393,4
570824859,570824630,0.28362456,0.022665152,0.019460162,0.95847005,0.9999287,-1.1851299e-09,-7.1174604e-09,0.011941393,4
571324795,571324574,0.28305903,0.022313492,0.019486383,0.95864487,0.9999287,-1.1851299e-09,-7.1174604e-09,0.011941393,4
571824824,571824519,0.2825991,0.022295535,0.020310093,0.9587639,0.9999287,-1.1851299e-09,-7.1174604e-09,0.011941393,4
572324753,572324464,0.28204915,0.022195235,0.021424137,0.9589039,0.9999287,-1.1851299e-09,-7.1174604e-09,0.011941393,4
572819526,572819409,0.28144288,0.021677326,0.021103801,0.959101,0.9999287,-1.1851299e-09,-7.1174604e-09,0.011941393,4
573319473,573319354,0.28096712,0.022311833,0.023230102,0.9591768,0.9999287,-1.1851299e-09,-7.1174604e-09,0.011941393,4
573824603,573824298,0.2804335,0.022824114,0.027329143,0.9592129,0.9999287,-1.1851299e-09,-7.1174604e-09,0.011941393,4
574324532,574324242,0.28055346,0.030082375,0.05284413,0.95791036,0.9999287,-1.1851299e-09,-7.1174604e-09,0.011941393,4
574824412,574824187,0.27981004,0.03006528,0.054185595,0.95805347,0.9999287,-1.1851299e-09,-7.1174604e-09,0.011941393,4
575324356,575324132,0.2789792,0.030159604,0.05509803,0.95824075,0.9999287,-1.1851299e-09,-7.1174604e-09,0.011941393,4
575824298,575824076,0.27813748,0.029929573,0.055197746,0.95848686,0.9999287,-1.1851299e-09,-7.1174604e-09,0.011941393,4
576319195,576319021,0.27719676,0.029722478,0.05425025,0.9588198,0.9999287,-1.1851299e-09,-7.1174604e-09,0.011941393,4
576819085,576818966,0.2761194,0.029414998,0.053867865,0.95916176,0.9999287,-1.1851299e-09,-7.1174604e-09,0.011941393,4
577324292,577323910,0.27530605,0.029452693,0.05380324,0.959398,0.9999287,-1.1851299e-09,-7.1174604e-09,0.011941393,4
577824107,577823854,0.2744825,0.029208142,0.053825334,0.95964015,0.9999287,-1.1851299e-09,-7.1174604e-09,0.011941393,4
578324035,578323799,0.27369007,0.028793091,0.053570934,0.9598932,0.9999287,-1.1851299e-09,-7.1174604e-09,0.011941393,4
578824038,578823743,0.27264157,0.028725294,0.05351334,0.9601968,0.9999287,-1.1851299e-09,-7.1174604e-09,0.011941393,4
579323915,579323688,0.27131298,0.028483678,0.05243764,0.96063954,0.9999287,-1.1851299e-09,-7.1174604e-09,0.011941393,4
579818750,579818633,0.2702774,0.027672842,0.051830214,0.9609881,0.9999287,-1.1851299e-09,-7.1174604e-09,0.011941393,4
580323816,580323577,0.26859263,0.02517194,0.054971695,0.9613545,0.9999287,-1.1851299e-09,-7.1174604e-09,0.011941393,4
580823767,580823522,0.26724532,0.025929524,0.052734442,0.9618351,0.9999287,-1.1851299e-09,-7.1174604e-09,0.011941393,4
581323696,581323466,0.26563823,0.026454533,0.053257167,0.96223706,0.9999287,-1.1851299e-09,-7.1174604e-09,0.011941393,4
581823668,581823410,0.26441222,0.026957696,0.05216317,0.9626207,0.9999287,-1.1851299e-09,-7.1174604e-09,0.011941393,4
582323596,582323355,0.26377013,0.027090339,0.051319346,0.96283835,0.9999287,-1.1851299e-09,-7.1174604e-09,0.011941393,4
582823525,582823299,0.26245463,0.026348116,0.052479375,0.96315587,0.9999287,-1.1851299e-09,-7.1174604e-09,0.011941393,4
583323684,583323243,0.26161313,0.025497073,0.052234266,0.963421,0.9999287,-1.1851299e-09,-7.1174604e-09,0.011941393,4
583823448,583823187,0.2607721,0.02575324,0.051669378,0.96367264,0.9999287,-1.1851299e-09,-7.1174604e-09,0.011941393,4
584323537,584323131,0.25980574,0.02816866,0.05012429,0.9639477,0.9999287,-1.1851299e-09,-7.1174604e-09,0.011941393,4
584823300,584823075,0.2588316,0.029269094,0.049131047,0.96422803,0.9999287,-1.1851299e-09,-7.1174604e-09,0.011941393,4
585323241,585323019,0.25771,0.029704642,0.04898158,0.9645228,0.9999287,-1.1851299e-09,-7.1174604e-09,0.011941393,4
585823186,585822963,0.25673294,0.030766245,0.048477065,0.96477544,0.9999287,-1.1851299e-09,-7.1174604e-09,0.011941393,4
586323179,586322907,0.25565562,0.03116321,0.04751049,0.9650969,0.9999287,-1.1851299e-09,-7.1174604e-09,0.011941393,4
586823080,586822851,0.25451615,0.030762397,0.048048105,0.9653842,0.9999287,-1.1851299e-09,-7.1174604e-09,0.011941393,4
587323044,587322795,0.2535522,0.029590614,0.049187414,0.96561706,0.9999287,-1.1851299e-09,-7.1174604e-09,0.011941393,4
587823124,587822738,0.25258252,0.029015867,0.049688358,0.96586305,0.9999287,-1.1851299e-09,-7.1174604e-09,0.011941393,4
588322905,588322682,0.25126398,0.029734647,0.051300403,0.9661007,0.9999287,-1.1851299e-09,-7.1174604e-09,0.011941393,4
588822848,588822626,0.25035575,0.02963816,0.05027218,0.9663935,0.9999287,-1.1851299e-09,-7.1174604e-09,0.011941393,4
589322819,589322569,0.2491833,0.02889943,0.0503413,0.96671516,0.9999287,-1.1851299e-09,-7.1174604e-09,0.011941393,4
589822735,589822512,0.24808472,0.029741002,0.04923461,0.9670292,0.9999287,-1.1851299e-09,-7.1174604e-09,0.011941393,4
590322700,590322456,0.24722713,0.030305827,0.048437957,0.96727145,0.9999287,-1.1851299e-09,-7.1174604e-09,0.011941393,4
590822654,590822399,0.24680606,0.029469917,0.048173137,0.9674181,0.9999287,-1.1851299e-09,-7.1174604e-09,0.011941393,4
591322599,591322343,0.24628922,0.029600091,0.048976045,0.96750546,0.9999287,-1.1851299e-09,-7.1174604e-09,0.011941393,4
591822506,591822286,0.24599782,0.030946953,0.04913477,0.9675294,0.9999287,-1.1851299e-09,-7.1174604e-09,0.011941393,4
592322535,592322229,0.24667731,0.04264141,0.0643623,0.96601737,0.9999287,-1.1851299e-09,-7.1174604e-09,0.011941393,4
592822448,592822172,0.24421312,0.035823546,0.05743894,0.96735597,0.9999287,-1.1851299e-09,-7.1174604e-09,0.011941393,4
593322385,593322115,0.24332835,0.03878263,0.061521776,0.96721375,0.9999287,-1.1851299e-09,-7.1174604e-09,0.011941393,4
593822280,593822058,0.24211873,0.03694563,0.058764253,0.96776056,0.9999287,-1.1851299e-09,-7.1174604e-09,0.011941393,4
594319643,594317001,0.24134701,0.037925147,0.057473313,0.9679929,0.9999287,-1.1851299e-09,-7.1174604e-09,0.011941393,4
594822190,594821943,0.24035984,0.03906857,0.05652636,0.9682487,0.9999287,-1.1851299e-09,-7.1174604e-09,0.011941393,4
595322139,595321886,0.23959316,0.03760173,0.05607861,0.96852285,0.9999287,-1.1851299e-09,-7.1174604e-09,0.011941393,4
595822057,595821829,0.23874089,0.035739474,0.05567045,0.96882725,0.9999287,-1.1851299e-09,-7.1174604e-09,0.011941393,4
596322010,596321771,0.23780489,0.03484572,0.055083293,0.96912354,0.9999287,-1.1851299e-09,-7.1174604e-09,0.011941393,4
596821999,596821713,0.23690918,0.03335361,0.053972237,0.9694579,0.9999287,-1.1851299e-09,-7.1174604e-09,0.011941393,4
597321887,597321656,0.23583029,0.035111275,0.052667603,0.9697306,0.9999287,-1.1851299e-09,-7.1174604e-09,0.011941393,4
597821825,597821598,0.23488149,0.036069214,0.051694293,0.9699781,0.9999287,-1.1851299e-09,-7.1174604e-09,0.011941393,4
598321795,598321540,0.23387404,0.03645135,0.050577182,0.97026604,0.9999287,-1.1851299e-09,-7.1174604e-09,0.011941393,4
598821740,598821482,0.2329548,0.03595477,0.050204087,0.97052515,0.9999287,-1.1851299e-09,-7.1174604e-09,0.011941393,4
599321702,599321424,0.23211256,0.035585515,0.049760133,0.9707633,0.9999287,-1.1851299e-09,-7.1174604e-09,0.011941393,4
599821646,599821366,0.23116817,0.034985628,0.049434192,0.9710271,0.9999287,-1.1851299e-09,-7.1174604e-09,0.011941393,4
600326517,600326307,0.23026602,0.03459173,0.04903309,0.9712758,0.9999287,-1.1851299e-09,-7.1174604e-09,0.011941393,4
600821526,600821249,0.22962181,0.03358856,0.04949289,0.9714403,0.9999287,-1.1851299e-09,-7.1174604e-09,0.011941393,4
601321510,601321191,0.2288425,0.029415358,0.05250299,0.9716015,0.9999287,-1.1851299e-09,-7.1174604e-09,0.011941393,4
601821356,601821133,0.22810571,0.029877946,0.053422954,0.9717104,0.9999287,-1.1851299e-09,-7.1174604e-09,0.011941393,4
602321297,602321074,0.22781019,0.03316116,0.04977552,0.9718669,0.9999287,-1.1851299e-09,-7.1174604e-09,0.011941393,4
602821251,602821016,0.22708577,0.03316851,0.04979757,0.97203505,0.9999287,-1.1851299e-09,-7.1174604e-09,0.011941393,4
603321179,603320957,0.22652599,0.033464864,0.049515072,0.97216994,0.9999287,-1.1851299e-09,-7.1174604e-09,0.011941393,4
603826017,603825897,0.22596194,0.03156921,0.050906718,0.9722927,0.9999287,-1.1851299e-09,-7.1174604e-09,0.011941393,4
604321059,604320839,0.22576956,0.032237265,0.051616915,0.97227806,0.9999287,-1.1851299e-09,-7.1174604e-09,0.011941393,4
604821052,604820780,0.22678353,0.03529674,0.058163874,0.971566,0.9999287,-1.1851299e-09,-7.1174604e-09,0.011941393,4
605320941,605320721,0.22437137,0.029269768,0.056460027,0.9724264,0.9999287,-1.1851299e-09,-7.1174604e-09,0.011941393,4
605820951,605820662,0.22332901,0.02887617,0.05492792,0.9727658,0.9999287,-1.1851299e-09,-7.1174604e-09,0.011941393,4
606320825,606320602,0.22245467,0.029945448,0.05181951,0.9731043,0.9999287,-1.1851299e-09,-7.1174604e-09,0.011941393,4
606825661,606825542,0.2215309,0.030221047,0.05092463,0.97335374,0.9999287,-1.1851299e-09,-7.1174604e-09,0.011941393,4
607325604,607325483,0.22068752,0.029834796,0.050464325,0.9735812,0.9999287,-1.1851299e-09,-7.1174604e-09,0.011941393,4
607820648,607820424,0.2198545,0.03011177,0.050343595,0.9737674,0.9999287,-1.1851299e-09,-7.1174604e-09,0.011941393,4
608320630,608320364,0.21914366,0.029892134,0.049931355,0.9739556,0.9999287,-1.1851299e-09,-7.1174604e-09,0.011941393,4
608820554,608820304,0.2183588,0.029586963,0.050201207,0.9741273,0.9999287,-1.1851299e-09,-7.1174604e-09,0.011941393,4
609325411,609325244,0.21772997,0.02884823,0.049472008,0.9743275,0.9999287,-1.1851299e-09,-7.1174604e-09,0.011941393,4
609825330,609825184,0.21691929,0.028423078,0.049488515,0.97451997,0.9999287,-1.1851299e-09,-7.1174604e-09,0.011941393,4
610325447,610325125,0.21596606,0.028180366,0.051023517,0.9746595,0.9999287,-1.1851299e-09,-7.1174604e-09,0.011941393,4
610825180,610825063,0.21523435,0.028399844,0.050763313,0.9748286,0.9999287,-1.1851299e-09,-7.1174604e-09,0.011941393,4
611320231,611320004,0.2143162,0.028445398,0.051713403,0.9749796,0.9999287,-1.1851299e-09,-7.1174604e-09,0.011941393,4
611820169,611819944,0.21343544,0.027280565,0.05374214,0.9750964,0.9999287,-1.1851299e-09,-7.1174604e-09,0.011941393,4
612320103,612319883,0.21268134,0.027571479,0.05479621,0.97519433,0.9999287,-1.1851299e-09,-7.1174604e-09,0.011941393,4
612824941,612824822,0.21366352,0.033137932,0.060565956,0.9744648,0.9999287,-1.1851299e-09,-7.1174604e-09,0.011941393,4
613324879,613324761,0.21184343,0.028298354,0.052667882,0.9754731,0.9999287,-1.1851299e-09,-7.1174604e-09,0.011941393,4
613824836,613824701,0.21173796,0.029839532,0.052464366,0.975461,0.9999287,-1.1851299e-09,-7.1174604e-09,0.011941393,4
614324758,614324640,0.21092564,0.029406447,0.05138311,0.9757077,0.9999287,-1.1851299e-09,-7.1174604e-09,0.011941393,4
614819870,614819579,0.21069242,0.027331943,0.05265048,0.9757508,0.9999287,-1.1851299e-09,-7.1174604e-09,0.011941393,4
615319787,615319518,0.210004,0.021758756,0.057969116,0.97573787,0.9999287,-1.1851299e-09,-7.1174604e-09,0.011941393,4
615819682,615819457,0.20936024,0.02147966,0.0581189,0.97587353,0.9999287,-1.1851299e-09,-7.1174604e-09,0.011941393,4
616324516,616324395,0.20874389,0.018286878,0.058116306,0.9760708,0.9999287,-1.1851299e-09,-7.1174604e-09,0.011941393,4
616824452,616824334,0.20836928,0.017706307,0.057203732,0.9762155,0.9999287,-1.1851299e-09,-7.1174604e-09,0.011941393,4
617324389,617324272,0.20792547,0.016889205,0.056507204,0.97636515,0.9999287,-1.1851299e-09,-7.1174604e-09,0.011941393,4
617824326,617824211,0.20723432,0.018644396,0.05542579,0.9765421,0.9999287,-1.1851299e-09,-7.1174604e-09,0.011941393,4
618319404,618319150,0.2066727,0.019707166,0.054477178,0.9766936,0.9999287,-1.1851299e-09,-7.1174604e-09,0.011941393,4
618819309,618819088,0.20618314,0.021237278,0.053635284,0.9768115,0.9999287,-1.1851299e-09,-7.1174604e-09,0.011941393,4
619324428,619324025,0.20656578,0.02613006,0.058994517,0.97630304,0.9999287,-1.1851299e-09,-7.1174604e-09,0.011941393,4
619824080,619823963,0.20568858,0.025570633,0.056600895,0.9766446,0.9999287,-1.1851299e-09,-7.1174604e-09,0.011941393,4
620324020,620323901,0.20503716,0.024394719,0.053028803,0.9770121,0.9999287,-1.1851299e-09,-7.1174604e-09,0.011941393,4
620823962,620823843,0.20505802,0.025167713,0.051673718,0.97706074,0.9999287,-1.1851299e-09,-7.1174604e-09,0.011941393,4
621323904,621323777,0.20467624,0.021611555,0.05363365,0.97712034,0.9999287,-1.1851299e-09,-7.1174604e-09,0.011941393,4
621818986,621818715,0.20413037,0.01843436,0.05535056,0.9772038,0.9999287,-1.1851299e-09,-7.1174604e-09,0.011941393,4
622323771,622323652,0.20397815,0.01817599,0.05354652,0.977341,0.9999287,-1.1851299e-09,-7.1174604e-09,0.011941393,4
622823710,622823589,0.20370883,0.015429143,0.05277564,0.9774863,0.9999287,-1.1851299e-09,-7.1174604e-09,0.011941393,4
623323649,623323527,0.20395774,0.012897635,0.0523724,0.9774928,0.9999287,-1.1851299e-09,-7.1174604e-09,0.011941393,4
623823723,623823465,0.20376831,0.012125476,0.054953776,0.9774005,0.9999287,-1.1851299e-09,-7.1174604e-09,0.011941393,4
624323546,624323401,0.20354873,0.012162499,0.05549831,0.97741497,0.9999287,-1.1851299e-09,-7.1174604e-09,0.011941393,4
624823501,624823337,0.20351866,0.013210293,0.05503795,0.9774336,0.9999287,-1.1851299e-09,-7.1174604e-09,0.011941393,4
625323399,625323274,0.20360263,0.015846958,0.053185567,0.9774795,0.9999287,-1.1851299e-09,-7.1174604e-09,0.011941393,4
625823334,625823211,0.203604,0.016263574,0.052953467,0.97748494,0.9999287,-1.1851299e-09,-7.1174604e-09,0.011941393,4
626323265,626323148,0.203418,0.01619152,0.05322318,0.9775102,0.9999287,-1.1851299e-09,-7.1174604e-09,0.011941393,4
626823226,626823084,0.20333725,0.015480874,0.053666215,0.9775143,0.9999287,-1.1851299e-09,-7.1174604e-09,0.011941393,4
627323167,627323024,0.20320001,0.015258927,0.053108606,0.9775768,0.9999287,-1.1851299e-09,-7.1174604e-09,0.011941393,4
627823094,627822958,0.20295224,0.015151742,0.0526998,0.9776521,0.9999287,-1.1851299e-09,-7.1174604e-09,0.011941393,4
628323130,628322893,0.20289963,0.0153468875,0.052740842,0.9776578,0.9999287,-1.1851299e-09,-7.1174604e-09,0.011941393,4
628822945,628822829,0.20275502,0.015240528,0.053230036,0.977663,0.9999287,-1.1851299e-09,-7.1174604e-09,0.011941393,4
629322882,629322765,0.20261699,0.014501008,0.054179233,0.9776506,0.9999287,-1.1851299e-09,-7.1174604e-09,0.011941393,4
629822877,629822701,0.2025907,0.013881298,0.05452315,0.97764593,0.9999287,-1.1851299e-09,-7.1174604e-09,0.011941393,4
630322753,630322637,0.20264386,0.014185316,0.054048408,0.9776569,0.9999287,-1.1851299e-09,-7.1174604e-09,0.011941393,4
630822692,630822572,0.20261672,0.014397423,0.053192366,0.9777064,0.9999287,-1.1851299e-09,-7.1174604e-09,0.011941393,4
631322631,631322508,0.20252259,0.014332885,0.053199507,0.97772646,0.9999287,-1.1851299e-09,-7.1174604e-09,0.011941393,4
631822609,631822443,0.20239079,0.014697066,0.05352629,0.97773045,0.9999287,-1.1851299e-09,-7.1174604e-09,0.011941393,4
632322505,632322378,0.20234516,0.014637371,0.054562006,0.97768354,0.9999287,-1.1851299e-09,-7.1174604e-09,0.011941393,4
632822532,632822314,0.20243698,0.015101379,0.055674,0.97759485,0.9999287,-1.1851299e-09,-7.1174604e-09,0.011941393,4
633322400,633322249,0.20242685,0.014664879,0.05553077,0.9776117,0.9999287,-1.1851299e-09,-7.1174604e-09,0.011941393,4
633822300,633822184,0.20244525,0.013779432,0.055071082,0.97764677,0.9999287,-1.1851299e-09,-7.1174604e-09,0.011941393,4
634322238,634322118,0.20245528,0.013821923,0.054378677,0.9776828,0.9999287,-1.1851299e-09,-7.1174604e-09,0.011941393,4
634822169,634822053,0.20247515,0.013682282,0.055141278,0.97763807,0.9999287,-1.1851299e-09,-7.1174604e-09,0.011941393,4
635322112,635321988,0.20248067,0.0131805455,0.05625138,0.97758055,0.9999287,-1.1851299e-09,-7.1174604e-09,0.011941393,4
635822039,635821922,0.20229818,0.013197999,0.056062333,0.97762895,0.9999287,-1.1851299e-09,-7.1174604e-09,0.011941393,4
636322006,636321857,0.20243895,0.01363328,0.055796538,0.97760904,0.9999287,-1.1851299e-09,-7.1174604e-09,0.011941393,4
636821926,636821791,0.2026908,0.01338487,0.05446945,0.97763515,0.9999287,-1.1851299e-09,-7.1174604e-09,0.011941393,4
637321902,637321729,0.20285143,0.013170598,0.054754786,0.9775888,0.9999287,-1.1851299e-09,-7.1174604e-09,0.011941393,4
637821797,637821660,0.2029976,0.013073701,0.053721827,0.9776171,0.9999287,-1.1851299e-09,-7.1174604e-09,0.011941393,4
638321710,638321593,0.20318228,0.011322825,0.056252338,0.9774582,0.9999287,-1.1851299e-09,-7.1174604e-09,0.011941393,4
638821653,638821527,0.20328473,0.0116871875,0.05687125,0.9773968,0.9999287,-1.1851299e-09,-7.1174604e-09,0.011941393,4
639321579,639321461,0.20330538,0.011638586,0.05511064,0.9774939,0.9999287,-1.1851299e-09,-7.1174604e-09,0.011941393,4
639821511,639821395,0.20331632,0.010678669,0.050730847,0.9777397,0.9999287,-1.1851299e-09,-7.1174604e-09,0.011941393,4
640321446,640321328,0.20366994,0.010293041,0.051749025,0.9776169,0.9999287,-1.1851299e-09,-7.1174604e-09,0.011941393,4
640821385,640821262,0.20397803,0.010967288,0.05091694,0.977589,0.9999287,-1.1851299e-09,-7.1174604e-09,0.011941393,4
641321311,641321195,0.20424145,0.010924069,0.050797198,0.9775407,0.9999287,-1.1851299e-09,-7.1174604e-09,0.011941393,4
641821255,641821129,0.20458429,0.010977096,0.053553015,0.97732127,0.9999287,-1.1851299e-09,-7.1174604e-09,0.011941393,4
642326368,642326061,0.20467395,0.012318798,0.053354066,0.9772974,0.9999287,-1.1851299e-09,-7.1174604e-09,0.011941393,4
642821112,642820994,0.20485203,0.012220777,0.052218784,0.97732264,0.9999287,-1.1851299e-09,-7.1174604e-09,0.011941393,4
643321065,643320927,0.20509063,0.01220419,0.05173846,0.9772983,0.9999287,-1.1851299e-09,-7.1174604e-09,0.011941393,4
643821001,643820861,0.20527591,0.011346033,0.053071,0.9771983,0.9999287,-1.1851299e-09,-7.1174604e-09,0.011941393,4
644320944,644320793,0.2054228,0.011564725,0.05520118,0.97704685,0.9999287,-1.1851299e-09,-7.1174604e-09,0.011941393,4
644820889,644820725,0.2055931,0.011786632,0.056328066,0.9769441,0.9999287,-1.1851299e-09,-7.1174604e-09,0.011941393,4
645325908,645325657,0.20567033,0.011874264,0.055939108,0.97694916,0.9999287,-1.1851299e-09,-7.1174604e-09,0.011941393,4
645825811,645825589,0.20587882,0.012460898,0.054909356,0.97695637,0.9999287,-1.1851299e-09,-7.1174604e-09,0.011941393,4
646320705,646320522,0.20614652,0.012511949,0.05437392,0.9769291,0.9999287,-1.1851299e-09,-7.1174604e-09,0.011941393,4
646820579,646820454,0.20644218,0.012038378,0.055105332,0.9768317,0.9999287,-1.1851299e-09,-7.1174604e-09,0.011941393,4
647320502,647320386,0.20666617,0.012347961,0.05599907,0.9767297,0.9999287,-1.1851299e-09,-7.1174604e-09,0.011941393,4
647820440,647820318,0.20709158,0.012707375,0.056069568,0.97663087,0.9999287,-1.1851299e-09,-7.1174604e-09,0.011941393,4
648325487,648325249,0.20742953,0.012285007,0.055672996,0.9765873,0.9999287,-1.1851299e-09,-7.1174604e-09,0.011941393,4
648825433,648825180,0.20768906,0.012375241,0.055583175,0.97653604,0.9999287,-1.1851299e-09,-7.1174604e-09,0.011941393,4
649325336,649325112,0.20794228,0.012426141,0.056022197,0.97645646,0.9999287,-1.1851299e-09,-7.1174604e-09,0.011941393,4
649820164,649820044,0.20823255,0.01236379,0.056313906,0.97637856,0.9999287,-1.1851299e-09,-7.1174604e-09,0.011941393,4
650320107,650319975,0.2084575,0.010914445,0.056516908,0.9763362,0.9999287,-1.1851299e-09,-7.1174604e-09,0.011941393,4
650820038,650819906,0.20874636,0.010611604,0.056365,0.9762866,0.9999287,-1.1851299e-09,-7.1174604e-09,0.011941393,4
651320133,651319837,0.2090498,0.011693995,0.056350365,0.97621006,0.9999287,-1.1851299e-09,-7.1174604e-09,0.011941393,4
651825019,651824767,0.2092557,0.013904605,0.056218512,0.97614455,0.9999287,-1.1851299e-09,-7.1174604e-09,0.011941393,4
652324918,652324698,0.20958656,0.0134204,0.056704152,0.97605234,0.9999287,-1.1851299e-09,-7.1174604e-09,0.011941393,4
652824931,652824629,0.20990014,0.013326633,0.056592293,0.9759926,0.9999287,-1.1851299e-09,-7.1174604e-09,0.011941393,4
653319682,653319560,0.21011877,0.013447161,0.056312554,0.97596014,0.9999287,-1.1851299e-09,-7.1174604e-09,0.011941393,4
653819609,653819490,0.21034689,0.013917248,0.05664909,0.9758849,0.9999287,-1.1851299e-09,-7.1174604e-09,0.011941393,4
654319541,654319421,0.21060123,0.014295055,0.056892436,0.97581047,0.9999287,-1.1851299e-09,-7.1174604e-09,0.011941393,4
654824655,654824350,0.21089613,0.0136002675,0.056761894,0.9757644,0.9999287,-1.1851299e-09,-7.1174604e-09,0.011941393,4
655324528,655324280,0.21107298,0.013255035,0.05655288,0.975743,0.9999287,-1.1851299e-09,-7.1174604e-09,0.011941393,4
655824536,655824210,0.21136683,0.013592742,0.05668397,0.9756671,0.9999287,-1.1851299e-09,-7.1174604e-09,0.011941393,4
656324379,656324140,0.21145758,0.01416714,0.056764968,0.9756345,0.9999287,-1.1851299e-09,-7.1174604e-09,0.011941393,4
656819186,656819070,0.21152392,0.014413002,0.056854527,0.9756114,0.9999287,-1.1851299e-09,-7.1174604e-09,0.011941393,4
657319115,657319000,0.21165216,0.014708897,0.056611106,0.97559327,0.9999287,-1.1851299e-09,-7.1174604e-09,0.011941393,4
657824204,657823929,0.21180521,0.014307875,0.05604825,0.9755985,0.9999287,-1.1851299e-09,-7.1174604e-09,0.011941393,4
658324079,658323859,0.21193008,0.014132378,0.055673547,0.9755955,0.9999287,-1.1851299e-09,-7.1174604e-09,0.011941393,4
658824066,658823788,0.21217509,0.014689013,0.05628039,0.97549915,0.9999287,-1.1851299e-09,-7.1174604e-09,0.011941393,4
659323993,659323717,0.21234949,0.015173676,0.05773232,0.9753689,0.9999287,-1.1851299e-09,-7.1174604e-09,0.011941393,4
659823884,659823646,0.21232396,0.01543348,0.05795832,0.975357,0.9999287,-1.1851299e-09,-7.1174604e-09,0.011941393,4
660318790,660318575,0.21239464,0.0152806025,0.057499226,0.9753712,0.9999287,-1.1851299e-09,-7.1174604e-09,0.011941393,4
660823743,660823504,0.21259715,0.01459216,0.056974504,0.97536844,0.9999287,-1.1851299e-09,-7.1174604e-09,0.011941393,4
661323675,661323432,0.21260102,0.014841332,0.057639197,0.9753247,0.9999287,-1.1851299e-09,-7.1174604e-09,0.011941393,4
661823585,661823361,0.21254098,0.015545851,0.057923224,0.97531,0.9999287,-1.1851299e-09,-7.1174604e-09,0.011941393,4
662323520,662323289,0.21261947,0.015588294,0.057683516,0.97530645,0.9999287,-1.1851299e-09,-7.1174604e-09,0.011941393,4
662823474,662823217,0.21271472,0.015297295,0.05703119,0.9753287,0.9999287,-1.1851299e-09,-7.1174604e-09,0.011941393,4
663323373,663323146,0.2128038,0.015295286,0.05696609,0.97531307,0.9999287,-1.1851299e-09,-7.1174604e-09,0.011941393,4
663823295,663823074,0.21286918,0.015378188,0.057586513,0.975261,0.9999287,-1.1851299e-09,-7.1174604e-09,0.011941393,4
664323288,664323002,0.21290506,0.01542267,0.057585165,0.9752525,0.9999287,-1.1851299e-09,-7.1174604e-09,0.011941393,4
664823178,664822930,0.21267085,0.016141752,0.05692739,0.9753306,0.9999287,-1.1851299e-09,-7.1174604e-09,0.011941393,4
665323174,665322857,0.21256681,0.01628404,0.056402847,0.97538143,0.9999287,-1.1851299e-09,-7.1174604e-09,0.011941393,4
665823062,665822785,0.21248557,0.015549979,0.056759715,0.97539043,0.9999287,-1.1851299e-09,-7.1174604e-09,0.011941393,4
666322952,666322712,0.21238753,0.015061422,0.057481233,0.97537726,0.9999287,-1.1851299e-09,-7.1174604e-09,0.011941393,4
666822900,666822640,0.21248098,0.015972232,0.057784777,0.97532445,0.9999287,-1.1851299e-09,-7.1174604e-09,0.011941393,4
667322790,667322567,0.21270095,0.016135123,0.056691445,0.975338,0.9999287,-1.1851299e-09,-7.1174604e-09,0.011941393,4
667822770,667822494,0.21284182,0.015520694,0.055947386,0.97536016,0.9999287,-1.1851299e-09,-7.1174604e-09,0.011941393,4
668322646,668322421,0.21295889,0.015622994,0.056464374,0.9753032,0.9999287,-1.1851299e-09,-7.1174604e-09,0.011941393,4
668822634,668822348,0.21301505,0.015637955,0.057545334,0.97522753,0.9999287,-1.1851299e-09,-7.1174604e-09,0.011941393,4
669322495,669322274,0.2131877,0.0153807895,0.05714408,0.9752174,0.9999287,-1.1851299e-09,-7.1174604e-09,0.011941393,4
669822512,669822200,0.21340267,0.014723026,0.055963952,0.97524905,0.9999287,-1.1851299e-09,-7.1174604e-09,0.011941393,4
670322386,670322127,0.21365349,0.014683813,0.055403978,0.97522664,0.9999287,-1.1851299e-09,-7.1174604e-09,0.011941393,4
670822326,670822053,0.21373212,0.014930257,0.055902038,0.9751772,0.9999287,-1.1851299e-09,-7.1174604e-09,0.011941393,4
671322206,671321979,0.2137137,0.01543747,0.056454096,0.97514164,0.9999287,-1.1851299e-09,-7.1174604e-09,0.011941393,4
671822127,671821905,0.21382132,0.015419341,0.056210935,0.97513235,0.9999287,-1.1851299e-09,-7.1174604e-09,0.011941393,4
672322204,672321831,0.21390536,0.01599593,0.055181943,0.97516346,0.9999287,-1.1851299e-09,-7.1174604e-09,0.011941393,4
672819378,672816757,0.21391788,0.015816152,0.055373956,0.9751527,0.9999287,-1.1851299e-09,-7.1174604e-09,0.011941393,4
673321976,673321682,0.21406193,0.016369507,0.05608629,0.9750713,0.9999287,-1.1851299e-09,-7.1174604e-09,0.011941393,4
673821830,673821608,0.21419567,0.01684318,0.056297734,0.97502166,0.9999287,-1.1851299e-09,-7.1174604e-09,0.011941393,4
674321962,674321533,0.21436681,0.016233535,0.05569832,0.9750288,0.9999287,-1.1851299e-09,-7.1174604e-09,0.011941393,4
674821700,674821458,0.2144781,0.016012922,0.055198316,0.9750364,0.9999287,-1.1851299e-09,-7.1174604e-09,0.011941393,4
675321606,675321383,0.21468258,0.016130866,0.055660058,0.9749632,0.9999287,-1.1851299e-09,-7.1174604e-09,0.011941393,4
675821545,675821308,0.21481562,0.01560294,0.056124996,0.9749158,0.9999287,-1.1851299e-09,-7.1174604e-09,0.011941393,4
676321483,676321233,0.21492901,0.015237357,0.05582448,0.9749139,0.9999287,-1.1851299e-09,-7.1174604e-09,0.011941393,4
676821388,676821157,0.21507205,0.015958376,0.05496828,0.9749194,0.9999287,-1.1851299e-09,-7.1174604e-09,0.011941393,4
677321302,677321082,0.2150694,0.016257437,0.054977674,0.9749145,0.9999287,-1.1851299e-09,-7.1174604e-09,0.011941393,4
677821230,677821006,0.2150977,0.01628058,0.055530585,0.9748765,0.9999287,-1.1851299e-09,-7.1174604e-09,0.011941393,4
678321151,678320931,0.21524431,0.01558161,0.055643234,0.9748492,0.9999287,-1.1851299e-09,-7.1174604e-09,0.011941393,4
678821205,678820854,0.21528064,0.016196731,0.05459035,0.9748907,0.9999287,-1.1851299e-09,-7.1174604e-09,0.011941393,4
679321021,679320779,0.21528372,0.016686115,0.054042302,0.97491235,0.9999287,-1.1851299e-09,-7.1174604e-09,0.011941393,4
679820926,679820702,0.21560477,0.0149460565,0.054791775,0.9748277,0.9999287,-1.1851299e-09,-7.1174604e-09,0.011941393,4
680325745,680325625,0.21580283,0.013128037,0.054883186,0.974805,0.9999287,-1.1851299e-09,-7.1174604e-09,0.011941393,4
680825676,680825549,0.21580943,0.013416953,0.054370042,0.97482836,0.9999287,-1.1851299e-09,-7.1174604e-09,0.011941393,4
681320716,681320473,0.21581249,0.014190168,0.054134455,0.97482985,0.9999287,-1.1851299e-09,-7.1174604e-09,0.011941393,4
681820622,681820396,0.21584402,0.015544447,0.05382464,0.9748193,0.9999287,-1.1851299e-09,-7.1174604e-09,0.011941393,4
682320573,682320320,0.21590258,0.015689475,0.053735666,0.9748089,0.9999287,-1.1851299e-09,-7.1174604e-09,0.011941393,4
682820507,682820242,0.21603964,0.015086189,0.054169696,0.9747641,0.9999287,-1.1851299e-09,-7.1174604e-09,0.011941393,4
683325284,683325167,0.21613254,0.015314588,0.05441127,0.97472644,0.9999287,-1.1851299e-09,-7.1174604e-09,0.011941393,4
683825212,683825088,0.21623458,0.014883919,0.05434756,0.9747141,0.9999287,-1.1851299e-09,-7.1174604e-09,0.011941393,4
684325144,684325010,0.21633962,0.015720192,0.053793237,0.9747083,0.9999287,-1.1851299e-09,-7.1174604e-09,0.011941393,4
684820158,684819934,0.21655616,0.016190842,0.054244347,0.97462755,0.9999287,-1.1851299e-09,-7.1174604e-09,0.011941393,4
685320131,685319856,0.21654373,0.01793986,0.054541234,0.9745832,0.9999287,-1.1851299e-09,-7.1174604e-09,0.011941393,4
685822558,685819778,0.21645878,0.018533887,0.054387264,0.9745995,0.9999287,-1.1851299e-09,-7.1174604e-09,0.011941393,4
686324817,686324700,0.21661516,0.018079773,0.05415475,0.97458625,0.9999287,-1.1851299e-09,-7.1174604e-09,0.011941393,4
686824738,686824622,0.21671733,0.017941786,0.053827647,0.9745842,0.9999287,-1.1851299e-09,-7.1174604e-09,0.011941393,4
687324664,687324544,0.21670516,0.017148994,0.053940553,0.9745949,0.9999287,-1.1851299e-09,-7.1174604e-09,0.011941393,4
687824586,687824466,0.21675178,0.017793017,0.054297622,0.9745532,0.9999287,-1.1851299e-09,-7.1174604e-09,0.011941393,4
688319793,688319390,0.2167514,0.01911379,0.05503647,0.9744868,0.9999287,-1.1851299e-09,-7.1174604e-09,0.011941393,4
688819540,688819310,0.21674751,0.019842276,0.054985143,0.97447604,0.9999287,-1.1851299e-09,-7.1174604e-09,0.011941393,4
689324356,689324231,0.21690388,0.019080989,0.054411918,0.97448856,0.9999287,-1.1851299e-09,-7.1174604e-09,0.011941393,4
689824271,689824152,0.21708232,0.018323183,0.05409104,0.9744813,0.9999287,-1.1851299e-09,-7.1174604e-09,0.011941393,4
690324192,690324073,0.21713181,0.018931758,0.05432285,0.9744457,0.9999287,-1.1851299e-09,-7.1174604e-09,0.011941393,4
690824111,690823994,0.2171955,0.019041857,0.055335965,0.97437245,0.9999287,-1.1851299e-09,-7.1174604e-09,0.011941393,4
691324055,691323915,0.21731125,0.018227369,0.05572697,0.9743399,0.9999287,-1.1851299e-09,-7.1174604e-09,0.011941393,4
691819146,691818837,0.21737236,0.0179717,0.055060387,0.9743689,0.9999287,-1.1851299e-09,-7.1174604e-09,0.011941393,4
692323925,692323757,0.21740168,0.017822824,0.054703142,0.97438514,0.9999287,-1.1851299e-09,-7.1174604e-09,0.011941393,4
692823885,692823677,0.21741185,0.017749965,0.05537402,0.9743464,0.9999287,-1.1851299e-09,-7.1174604e-09,0.011941393,4
693323715,693323598,0.21744491,0.017783929,0.05583742,0.97431195,0.9999287,-1.1851299e-09,-7.1174604e-09,0.011941393,4
693823638,693823518,0.21746048,0.018375246,0.055659406,0.9743076,0.9999287,-1.1851299e-09,-7.1174604e-09,0.011941393,4
694323560,694323443,0.21746415,0.018624276,0.055361915,0.9743191,0.9999287,-1.1851299e-09,-7.1174604e-09,0.011941393,4
694823478,694823359,0.2174832,0.018402863,0.055260383,0.9743248,0.9999287,-1.1851299e-09,-7.1174604e-09,0.011941393,4
695323412,695323278,0.21753752,0.018658137,0.05537038,0.9743015,0.9999287,-1.1851299e-09,-7.1174604e-09,0.011941393,4
695823318,695823198,0.21752857,0.01963358,0.055279724,0.97428954,0.9999287,-1.1851299e-09,-7.1174604e-09,0.011941393,4
696323235,696323118,0.21771981,0.019628543,0.055363026,0.9742422,0.9999287,-1.1851299e-09,-7.1174604e-09,0.011941393,4
696823156,696823038,0.21779256,0.019342056,0.055105615,0.97424626,0.9999287,-1.1851299e-09,-7.1174604e-09,0.011941393,4
697323073,697322957,0.2179244,0.019240744,0.055300046,0.9742077,0.9999287,-1.1851299e-09,-7.1174604e-09,0.011941393,4
697823003,697822876,0.21801846,0.018761497,0.05510547,0.97420704,0.9999287,-1.1851299e-09,-7.1174604e-09,0.011941393,4
698322912,698322795,0.21793494,0.01856624,0.05469226,0.9742528,0.9999287,-1.1851299e-09,-7.1174604e-09,0.011941393,4
698822831,698822715,0.2179663,0.018785113,0.054515302,0.9742515,0.9999287,-1.1851299e-09,-7.1174604e-09,0.011941393,4
699322752,699322634,0.21802561,0.019210761,0.05467869,0.97422075,0.9999287,-1.1851299e-09,-7.1174604e-09,0.011941393,4
699820389,699817553,0.21807088,0.018997118,0.05452113,0.9742236,0.9999287,-1.1851299e-09,-7.1174604e-09,0.011941393,4
700322590,700322471,0.21809955,0.019306915,0.05429413,0.9742238,0.9999287,-1.1851299e-09,-7.1174604e-09,0.011941393,4
700822511,700822390,0.2180574,0.019631842,0.053991396,0.9742435,0.9999287,-1.1851299e-09,-7.1174604e-09,0.011941393,4
701322448,701322309,0.2180712,0.019589152,0.054331068,0.9742224,0.9999287,-1.1851299e-09,-7.1174604e-09,0.011941393,4
701822346,701822227,0.21804142,0.019548122,0.05480727,0.9742033,0.9999287,-1.1851299e-09,-7.1174604e-09,0.011941393,4
702322448,702322145,0.2181336,0.019407377,0.05475333,0.9741885,0.9999287,-1.1851299e-09,-7.1174604e-09,0.011941393,4
702822181,702822063,0.21818385,0.018810375,0.05459602,0.97419775,0.9999287,-1.1851299e-09,-7.1174604e-09,0.011941393,4
703322097,703321981,0.2182557,0.01835144,0.05441824,0.9742004,0.9999287,-1.1851299e-09,-7.1174604e-09,0.011941393,4
703822015,703821899,0.21836254,0.018495515,0.05396927,0.9741987,0.9999287,-1.1851299e-09,-7.1174604e-09,0.011941393,4
704321951,704321817,0.21833031,0.018672414,0.054122627,0.974194,0.9999287,-1.1851299e-09,-7.1174604e-09,0.011941393,4
704821854,704821735,0.21824652,0.01886315,0.054819085,0.97417015,0.9999287,-1.1851299e-09,-7.1174604e-09,0.011941393,4
705321772,705321652,0.21815544,0.019155098,0.05498743,0.97417545,0.9999287,-1.1851299e-09,-7.1174604e-09,0.011941393,4
705821690,705821571,0.21815595,0.019270591,0.055071343,0.9741683,0.9999287,-1.1851299e-09,-7.1174604e-09,0.011941393,4
706321609,706321487,0.21799596,0.020738287,0.05499878,0.9741781,0.9999287,-1.1851299e-09,-7.1174604e-09,0.011941393,4
706821614,706821404,0.21790104,0.021225292,0.055129413,0.97418135,0.9999287,-1.1851299e-09,-7.1174604e-09,0.011941393,4
707321448,707321321,0.21794406,0.021174978,0.05506077,0.9741768,0.9999287,-1.1851299e-09,-7.1174604e-09,0.011941393,4
707821358,707821238,0.21807411,0.021109633,0.054906685,0.9741578,0.9999287,-1.1851299e-09,-7.1174604e-09,0.011941393,4
708321271,708321155,0.21819237,0.0213543,0.05445105,0.9741515,0.9999287,-1.1851299e-09,-7.1174604e-09,0.011941393,4
708826328,708826071,0.21826628,0.020835916,0.0540318,0.9741696,0.9999287,-1.1851299e-09,-7.1174604e-09,0.011941393,4
709321109,709320989,0.21825182,0.02118419,0.054993726,0.9741115,0.9999287,-1.1851299e-09,-7.1174604e-09,0.011941393,4
709821027,709820906,0.21838042,0.018983858,0.055255476,0.97411317,0.9999287,-1.1851299e-09,-7.1174604e-09,0.011941393,4
710320950,710320822,0.21848986,0.018384833,0.05564947,0.9740777,0.9999287,-1.1851299e-09,-7.1174604e-09,0.011941393,4
710820855,710820738,0.21840042,0.019209407,0.055771105,0.97407496,0.9999287,-1.1851299e-09,-7.1174604e-09,0.011941393,4
711320806,711320655,0.2184755,0.018879017,0.05578634,0.9740637,0.9999287,-1.1851299e-09,-7.1174604e-09,0.011941393,4
711825866,711825570,0.21855903,0.019156095,0.05491746,0.9740889,0.9999287,-1.1851299e-09,-7.1174604e-09,0.011941393,4
712325715,712325488,0.21855694,0.020261265,0.054315116,0.97410077,0.9999287,-1.1851299e-09,-7.1174604e-09,0.011941393,4
712820558,712820403,0.21848899,0.020771202,0.054321595,0.9741049,0.9999287,-1.1851299e-09,-7.1174604e-09,0.011941393,4
713320436,713320319,0.21860936,0.019280009,0.053458385,0.9741563,0.9999287,-1.1851299e-09,-7.1174604e-09,0.011941393,4
713820356,713820235,0.21855195,0.019510692,0.053505633,0.974162,0.9999287,-1.1851299e-09,-7.1174604e-09,0.011941393,4
714320268,714320150,0.21853559,0.018703565,0.05402902,0.97415257,0.9999287,-1.1851299e-09,-7.1174604e-09,0.011941393,4
714825304,714825065,0.21844913,0.018488457,0.05465438,0.97414124,0.9999287,-1.1851299e-09,-7.1174604e-09,0.011941393,4
715325199,715324980,0.21840866,0.018046109,0.055011217,0.97413844,0.9999287,-1.1851299e-09,-7.1174604e-09,0.011941393,4
715825169,715824896,0.21832672,0.018032925,0.05493224,0.97416157,0.9999287,-1.1851299e-09,-7.1174604e-09,0.011941393,4
716320084,716319812,0.21827827,0.018387876,0.054295767,0.9742015,0.9999287,-1.1851299e-09,-7.1174604e-09,0.011941393,4
716819845,716819727,0.2183064,0.017860942,0.05396966,0.9742231,0.9999287,-1.1851299e-09,-7.1174604e-09,0.011941393,4
717319760,717319642,0.21826553,0.01815522,0.053793073,0.97423655,0.9999287,-1.1851299e-09,-7.1174604e-09,0.011941393,4
717824830,717824556,0.2181935,0.018590473,0.053805258,0.9742438,0.9999287,-1.1851299e-09,-7.1174604e-09,0.011941393,4
718324701,718324471,0.21823455,0.018827636,0.054330803,0.9742009,0.9999287,-1.1851299e-09,-7.1174604e-09,0.011941393,4
718824638,718824386,0.21829355,0.0176964,0.05498746,0.9741721,0.9999287,-1.1851299e-09,-7.1174604e-09,0.011941393,4
719324552,719324300,0.21829765,0.01723448,0.05474751,0.9741929,0.9999287,-1.1851299e-09,-7.1174604e-09,0.011941393,4
719819338,719819216,0.21846683,0.017621929,0.054217316,0.9741777,0.9999287,-1.1851299e-09,-7.1174604e-09,0.011941393,4
720324389,720324129,0.21841305,0.017800502,0.053918038,0.97420317,0.9999287,-1.1851299e-09,-7.1174604e-09,0.011941393,4
720824313,720824045,0.21835302,0.017878463,0.054031596,0.97420895,0.9999287,-1.1851299e-09,-7.1174604e-09,0.011941393,4
721324192,721323958,0.21836439,0.017841723,0.054352824,0.97418916,0.9999287,-1.1851299e-09,-7.1174604e-09,0.011941393,4
721824093,721823872,0.21838455,0.018029634,0.054631952,0.97416556,0.9999287,-1.1851299e-09,-7.1174604e-09,0.011941393,4
722324051,722323786,0.21846053,0.017587585,0.054879606,0.9741427,0.9999287,-1.1851299e-09,-7.1174604e-09,0.011941393,4
722823952,722823700,0.21855588,0.017308168,0.054612253,0.9741413,0.9999287,-1.1851299e-09,-7.1174604e-09,0.011941393,4
723318734,723318615,0.2186483,0.017504504,0.05406324,0.9741477,0.9999287,-1.1851299e-09,-7.1174604e-09,0.011941393,4
723823763,723823528,0.21866362,0.017732648,0.053707622,0.97415984,0.9999287,-1.1851299e-09,-7.1174604e-09,0.011941393,4
724323788,724323442,0.21867415,0.017601343,0.053869426,0.9741509,0.9999287,-1.1851299e-09,-7.1174604e-09,0.011941393,4
724823594,724823355,0.21878614,0.017949658,0.05444159,0.9740876,0.9999287,-1.1851299e-09,-7.1174604e-09,0.011941393,4
725323511,725323269,0.21874274,0.018308217,0.054923464,0.9740636,0.9999287,-1.1851299e-09,-7.1174604e-09,0.011941393,4
725823605,725823182,0.21872556,0.017732827,0.05537872,0.9740523,0.9999287,-1.1851299e-09,-7.1174604e-09,0.011941393,4
726323368,726323095,0.21867388,0.017252052,0.0550365,0.97409195,0.9999287,-1.1851299e-09,-7.1174604e-09,0.011941393,4
726823230,726823009,0.2187777,0.017306216,0.054044228,0.97412324,0.9999287,-1.1851299e-09,-7.1174604e-09,0.011941393,4
727323161,727322922,0.21885091,0.017710686,0.053651802,0.9741213,0.9999287,-1.1851299e-09,-7.1174604e-09,0.011941393,4
727823058,727822835,0.21937563,0.018083522,0.053911537,0.973982,0.9999287,-1.1851299e-09,-7.1174604e-09,0.011941393,4
728322998,728322748,0.22003978,0.017938871,0.054635912,0.97379446,0.9999287,-1.1851299e-09,-7.1174604e-09,0.011941393,4
728822881,728822660,0.22076038,0.017898044,0.055547073,0.9735806,0.9999287,-1.1851299e-09,-7.1174604e-09,0.011941393,4
729322798,729322573,0.2213667,0.018438572,0.05580135,0.9734183,0.9999287,-1.1851299e-09,-7.1174604e-09,0.011941393,4
729822716,729822486,0.22202684,0.01815294,0.054997098,0.973319,0.9999287,-1.1851299e-09,-7.1174604e-09,0.011941393,4
730322737,730322398,0.22281885,0.017579162,0.05416784,0.9731951,0.9999287,-1.1851299e-09,-7.1174604e-09,0.011941393,4
730822603,730822311,0.22338814,0.017958237,0.053954363,0.9730695,0.9999287,-1.1851299e-09,-7.1174604e-09,0.011941393,4
731322460,731322223,0.22400264,0.017965855,0.054335475,0.9729068,0.9999287,-1.1851299e-09,-7.1174604e-09,0.011941393,4
731822392,731822136,0.22465311,0.017304024,0.055012736,0.9727308,0.9999287,-1.1851299e-09,-7.1174604e-09,0.011941393,4
732322344,732322048,0.22519925,0.018168237,0.055786435,0.9725447,0.9999287,-1.1851299e-09,-7.1174604e-09,0.011941393,4
732822204,732821960,0.22566026,0.018364424,0.055988826,0.9724225,0.9999287,-1.1851299e-09,-7.1174604e-09,0.011941393,4
733322095,733321872,0.22629574,0.018243268,0.05512211,0.9723266,0.9999287,-1.1851299e-09,-7.1174604e-09,0.011941393,4
733822038,733821785,0.22685201,0.018291533,0.054080617,0.9722545,0.9999287,-1.1851299e-09,-7.1174604e-09,0.011941393,4
734321919,734321697,0.22741845,0.017944282,0.053993553,0.9721335,0.9999287,-1.1851299e-09,-7.1174604e-09,0.011941393,4
734821914,734821608,0.22804359,0.017987313,0.05463479,0.9719504,0.9999287,-1.1851299e-09,-7.1174604e-09,0.011941393,4
735321961,735321520,0.22863176,0.018674068,0.05552264,0.97174895,0.9999287,-1.1851299e-09,-7.1174604e-09,0.011941393,4
735821656,735821432,0.22910935,0.018314669,0.05614594,0.97160757,0.9999287,-1.1851299e-09,-7.1174604e-09,0.011941393,4
736321594,736321344,0.22972271,0.01808393,0.055707157,0.97149223,0.9999287,-1.1851299e-09,-7.1174604e-09,0.011941393,4
736826374,736826255,0.23029979,0.017738331,0.054432306,0.97143424,0.9999287,-1.1851299e-09,-7.1174604e-09,0.011941393,4
737321447,737321167,0.23065044,0.017975174,0.053875823,0.9713778,0.9999287,-1.1851299e-09,-7.1174604e-09,0.011941393,4
737821301,737821078,0.23116298,0.017687667,0.054476406,0.97122765,0.9999287,-1.1851299e-09,-7.1174604e-09,0.011941393,4
738321460,738320990,0.23163214,0.016874718,0.055441976,0.9710758,0.9999287,-1.1851299e-09,-7.1174604e-09,0.011941393,4
738821175,738820901,0.23204647,0.016640097,0.05541658,0.9709823,0.9999287,-1.1851299e-09,-7.1174604e-09,0.011941393,4
739321048,739320812,0.23240773,0.017560385,0.05507352,0.97089916,0.9999287,-1.1851299e-09,-7.1174604e-09,0.011941393,4
739825974,739825722,0.23290972,0.018550469,0.054391846,0.97079897,0.9999287,-1.1851299e-09,-7.1174604e-09,0.011941393,4
740325753,740325633,0.23342726,0.020499721,0.05332337,0.97069466,0.9999287,-1.1851299e-09,-7.1174604e-09,0.011941393,4
740820773,740820545,0.23387954,0.020714598,0.05335781,0.9705794,0.9999287,-1.1851299e-09,-7.1174604e-09,0.011941393,4
741320829,741320456,0.23452099,0.021013733,0.05416182,0.97037363,0.9999287,-1.1851299e-09,-7.1174604e-09,0.011941393,4
741820635,741820367,0.23503096,0.021768356,0.054643705,0.9702065,0.9999287,-1.1851299e-09,-7.1174604e-09,0.011941393,4
742320497,742320277,0.23548529,0.022048183,0.054425463,0.97010237,0.9999287,-1.1851299e-09,-7.1174604e-09,0.011941393,4
742825333,742825187,0.23608416,0.020919664,0.054038316,0.97000337,0.9999287,-1.1851299e-09,-7.1174604e-09,0.011941393,4
743325230,743325098,0.23663296,0.021033198,0.05350964,0.96989655,0.9999287,-1.1851299e-09,-7.1174604e-09,0.011941393,4
743825133,743825008,0.23698117,0.021184655,0.053417392,0.9698132,0.9999287,-1.1851299e-09,-7.1174604e-09,0.011941393,4
744320155,744319919,0.23742771,0.021402739,0.053648833,0.96968645,0.9999287,-1.1851299e-09,-7.1174604e-09,0.011941393,4
744820116,744819829,0.23797698,0.021354651,0.053970467,0.96953505,0.9999287,-1.1851299e-09,-7.1174604e-09,0.011941393,4
745320205,745319740,0.2382837,0.02196373,0.054158285,0.96943563,0.9999287,-1.1851299e-09,-7.1174604e-09,0.011941393,4
745824770,745824649,0.23865019,0.021709275,0.05408703,0.9693551,0.9999287,-1.1851299e-09,-7.1174604e-09,0.011941393,4
746324678,746324559,0.23922156,0.02109313,0.054379757,0.9692116,0.9999287,-1.1851299e-09,-7.1174604e-09,0.011941393,4
746824587,746824469,0.23971885,0.020788133,0.05393097,0.9691203,0.9999287,-1.1851299e-09,-7.1174604e-09,0.011941393,4
747324496,747324379,0.2400208,0.020434722,0.053604204,0.9690712,0.9999287,-1.1851299e-09,-7.1174604e-09,0.011941393,4
747819543,747819290,0.24030435,0.02156528,0.05350458,0.96898204,0.9999287,-1.1851299e-09,-7.1174604e-09,0.011941393,4
748324330,748324199,0.24059628,0.02158201,0.05407681,0.9688774,0.9999287,-1.1851299e-09,-7.1174604e-09,0.011941393,4
748824229,748824109,0.2406944,0.021544004,0.054989472,0.96880245,0.9999287,-1.1851299e-09,-7.1174604e-09,0.011941393,4
749324274,749324018,0.24093649,0.021009324,0.054872334,0.9687607,0.9999287,-1.1851299e-09,-7.1174604e-09,0.011941393,4
749824047,749823928,0.24126656,0.020879498,0.05377725,0.96874285,0.9999287,-1.1851299e-09,-7.1174604e-09,0.011941393,4
750323962,750323837,0.24145283,0.020945018,0.052511614,0.9687644,0.9999287,-1.1851299e-09,-7.1174604e-09,0.011941393,4
750823869,750823746,0.24173318,0.021720724,0.05286356,0.9686582,0.9999287,-1.1851299e-09,-7.1174604e-09,0.011941393,4
751318909,751318657,0.24203405,0.021877,0.05423258,0.96850395,0.9999287,-1.1851299e-09,-7.1174604e-09,0.011941393,4
751823681,751823565,0.24217683,0.021692114,0.055229437,0.968416,0.9999287,-1.1851299e-09,-7.1174604e-09,0.011941393,4
752323593,752323474,0.24237761,0.0206491,0.055175632,0.96839166,0.9999287,-1.1851299e-09,-7.1174604e-09,0.011941393,4
752823511,752823383,0.24286962,0.019443488,0.054334044,0.9683409,0.9999287,-1.1851299e-09,-7.1174604e-09,0.011941393,4
753323412,753323292,0.24309547,0.019388027,0.053367246,0.9683391,0.9999287,-1.1851299e-09,-7.1174604e-09,0.011941393,4
753823344,753823201,0.24317674,0.01949724,0.053194746,0.96832603,0.9999287,-1.1851299e-09,-7.1174604e-09,0.011941393,4
754323277,754323109,0.24337792,0.019754697,0.054214936,0.96821374,0.9999287,-1.1851299e-09,-7.1174604e-09,0.011941393,4
754823138,754823018,0.24355598,0.018996498,0.055015806,0.96813893,0.9999287,-1.1851299e-09,-7.1174604e-09,0.011941393,4
755323044,755322927,0.24375875,0.019070838,0.05462127,0.9681088,0.9999287,-1.1851299e-09,-7.1174604e-09,0.011941393,4
755822956,755822838,0.24402967,0.018963812,0.054137908,0.96806973,0.9999287,-1.1851299e-09,-7.1174604e-09,0.011941393,4
756322872,756322743,0.2441332,0.019244926,0.05388693,0.9680521,0.9999287,-1.1851299e-09,-7.1174604e-09,0.011941393,4
756822774,756822652,0.24428725,0.01882878,0.05362667,0.9680358,0.9999287,-1.1851299e-09,-7.1174604e-09,0.011941393,4
757322694,757322560,0.24454314,0.01841782,0.053522367,0.967985,0.9999287,-1.1851299e-09,-7.1174604e-09,0.011941393,4
757822588,757822468,0.24473578,0.01871064,0.053800117,0.9679153,0.9999287,-1.1851299e-09,-7.1174604e-09,0.011941393,4
758322506,758322376,0.24480721,0.01913567,0.054332413,0.96785915,0.9999287,-1.1851299e-09,-7.1174604e-09,0.011941393,4
758822541,758822284,0.24488544,0.019122647,0.054786813,0.96781397,0.9999287,-1.1851299e-09,-7.1174604e-09,0.011941393,4
759322317,759322192,0.24504188,0.01947318,0.054393124,0.96778965,0.9999287,-1.1851299e-09,-7.1174604e-09,0.011941393,4
759822223,759822100,0.24511644,0.018205691,0.05356037,0.96784186,0.9999287,-1.1851299e-09,-7.1174604e-09,0.011941393,4
760322141,760322008,0.24515088,0.01833975,0.053321805,0.96784383,0.9999287,-1.1851299e-09,-7.1174604e-09,0.011941393,4
760822043,760821916,0.2452315,0.01752931,0.0542858,0.96778476,0.9999287,-1.1851299e-09,-7.1174604e-09,0.011941393,4
761321960,761321823,0.24511883,0.018082222,0.05478585,0.967775,0.9999287,-1.1851299e-09,-7.1174604e-09,0.011941393,4
761821849,761821731,0.24506404,0.018774245,0.054675534,0.9677819,0.9999287,-1.1851299e-09,-7.1174604e-09,0.011941393,4
762321770,762321638,0.24502973,0.020721348,0.053451683,0.96781915,0.9999287,-1.1851299e-09,-7.1174604e-09,0.011941393,4
762821681,762821546,0.24499883,0.020264274,0.053384714,0.96784043,0.9999287,-1.1851299e-09,-7.1174604e-09,0.011941393,4
763321587,763321457,0.24488509,0.020775476,0.054085225,0.9678195,0.9999287,-1.1851299e-09,-7.1174604e-09,0.011941393,4
763821491,763821360,0.24490619,0.021268826,0.05443444,0.96778387,0.9999287,-1.1851299e-09,-7.1174604e-09,0.011941393,4
764321399,764321268,0.2449108,0.02196085,0.05482527,0.9677451,0.9999287,-1.1851299e-09,-7.1174604e-09,0.011941393,4
764826424,764826174,0.24454771,0.021562163,0.053975172,0.9678938,0.9999287,-1.1851299e-09,-7.1174604e-09,0.011941393,4
765321212,765321082,0.24431284,0.02067144,0.05363649,0.96799135,0.9999287,-1.1851299e-09,-7.1174604e-09,0.011941393,4
765821138,765820989,0.2440021,0.020705663,0.053789906,0.96806043,0.9999287,-1.1851299e-09,-7.1174604e-09,0.011941393,4
766321024,766320896,0.24361648,0.020347996,0.054540128,0.9681232,0.9999287,-1.1851299e-09,-7.1174604e-09,0.011941393,4
766820936,766820802,0.24326494,0.021279735,0.054817136,0.9681758,0.9999287,-1.1851299e-09,-7.1174604e-09,0.011941393,4
767325930,767325708,0.243048,0.021299746,0.053999852,0.9682758,0.9999287,-1.1851299e-09,-7.1174604e-09,0.011941393,4
767825855,767825615,0.2426869,0.021001888,0.05351483,0.9683998,0.9999287,-1.1851299e-09,-7.1174604e-09,0.011941393,4
768326014,768325522,0.24246155,0.020661063,0.053714365,0.9684526,0.9999287,-1.1851299e-09,-7.1174604e-09,0.011941393,4
768820569,768820429,0.242439,0.020833153,0.054419976,0.96841514,0.9999287,-1.1851299e-09,-7.1174604e-09,0.011941393,4
769320467,769320335,0.24260873,0.021026604,0.054582186,0.9683593,0.9999287,-1.1851299e-09,-7.1174604e-09,0.011941393,4
769820360,769820241,0.24284725,0.02073941,0.05434661,0.968319,0.9999287,-1.1851299e-09,-7.1174604e-09,0.011941393,4
770320266,770320148,0.24310008,0.02061109,0.054267664,0.9682627,0.9999287,-1.1851299e-09,-7.1174604e-09,0.011941393,4
770825327,770825053,0.24333294,0.020268293,0.05434495,0.96820706,0.9999287,-1.1851299e-09,-7.1174604e-09,0.011941393,4
771325184,771324959,0.24351889,0.020170184,0.054567136,0.96814996,0.9999287,-1.1851299e-09,-7.1174604e-09,0.011941393,4
771825117,771824865,0.24370305,0.020397631,0.054587014,0.9680977,0.9999287,-1.1851299e-09,-7.1174604e-09,0.011941393,4
772319893,772319772,0.24399027,0.02000327,0.054176297,0.9680567,0.9999287,-1.1851299e-09,-7.1174604e-09,0.011941393,4
772819812,772819678,0.24427095,0.019425316,0.05446832,0.9679812,0.9999287,-1.1851299e-09,-7.1174604e-09,0.011941393,4
773319723,773319583,0.2446005,0.019988187,0.054865424,0.96786416,0.9999287,-1.1851299e-09,-7.1174604e-09,0.011941393,4
773824721,773824488,0.24478419,0.02045894,0.055073153,0.96779597,0.9999287,-1.1851299e-09,-7.1174604e-09,0.011941393,4
774324619,774324394,0.24494824,0.020661598,0.05503497,0.96775234,0.9999287,-1.1851299e-09,-7.1174604e-09,0.011941393,4
774824522,774824300,0.24519753,0.020595578,0.054761466,0.9677062,0.9999287,-1.1851299e-09,-7.1174604e-09,0.011941393,4
775324564,775324205,0.24548997,0.020399543,0.05482837,0.96763235,0.9999287,-1.1851299e-09,-7.1174604e-09,0.011941393,4
775819235,775819112,0.24566591,0.021209361,0.054960992,0.96756274,0.9999287,-1.1851299e-09,-7.1174604e-09,0.011941393,4
776324375,776324020,0.24582826,0.021783162,0.054831743,0.9675161,0.9999287,-1.1851299e-09,-7.1174604e-09,0.011941393,4
776824147,776823921,0.24605632,0.021572579,0.0546837,0.96747124,0.9999287,-1.1851299e-09,-7.1174604e-09,0.011941393,4
777321455,777318828,0.24630196,0.02155729,0.05418519,0.9674372,0.9999287,-1.1851299e-09,-7.1174604e-09,0.011941393,4
777824122,777823732,0.246544,0.02143389,0.05462231,0.9673537,0.9999287,-1.1851299e-09,-7.1174604e-09,0.011941393,4
778323927,778323637,0.24669768,0.021924378,0.054811496,0.9672927,0.9999287,-1.1851299e-09,-7.1174604e-09,0.011941393,4
778823771,778823542,0.2468326,0.022126375,0.054565515,0.9672677,0.9999287,-1.1851299e-09,-7.1174604e-09,0.011941393,4
779323676,779323449,0.24698922,0.021754365,0.054130238,0.9672606,0.9999287,-1.1851299e-09,-7.1174604e-09,0.011941393,4
779823577,779823352,0.24729194,0.021466702,0.053791884,0.96720856,0.9999287,-1.1851299e-09,-7.1174604e-09,0.011941393,4
780323537,780323257,0.24747078,0.021593511,0.0539698,0.96715003,0.9999287,-1.1851299e-09,-7.1174604e-09,0.011941393,4
780823381,780823162,0.24756096,0.022142272,0.054125413,0.9671059,0.9999287,-1.1851299e-09,-7.1174604e-09,0.011941393,4
781323443,781323066,0.24783732,0.021707043,0.053701997,0.96706855,0.9999287,-1.1851299e-09,-7.1174604e-09,0.011941393,4
781823209,781822971,0.24796826,0.021942995,0.05360351,0.9670352,0.9999287,-1.1851299e-09,-7.1174604e-09,0.011941393,4
782323278,782322876,0.24812503,0.022143569,0.053581357,0.96699154,0.9999287,-1.1851299e-09,-7.1174604e-09,0.011941393,4
782823118,782822780,0.24822025,0.022736778,0.053614356,0.96695155,0.9999287,-1.1851299e-09,-7.1174604e-09,0.011941393,4
783323094,783322684,0.24853586,0.022477346,0.053649023,0.9668746,0.9999287,-1.1851299e-09,-7.1174604e-09,0.011941393,4
783822850,783822589,0.24870577,0.0225698,0.053921774,0.96681356,0.9999287,-1.1851299e-09,-7.1174604e-09,0.011941393,4
784322977,784322493,0.24887906,0.02259274,0.053925145,0.96676826,0.9999287,-1.1851299e-09,-7.1174604e-09,0.011941393,4
784822627,784822397,0.2491724,0.022844112,0.05401166,0.966682,0.9999287,-1.1851299e-09,-7.1174604e-09,0.011941393,4
785322723,785322302,0.24928431,0.022558015,0.054120377,0.9666538,0.9999287,-1.1851299e-09,-7.1174604e-09,0.011941393,4
785822483,785822206,0.24938673,0.022534084,0.05411101,0.9666285,0.9999287,-1.1851299e-09,-7.1174604e-09,0.011941393,4
786322468,786322110,0.24945474,0.022552656,0.054007392,0.9666162,0.9999287,-1.1851299e-09,-7.1174604e-09,0.011941393,4
786822273,786822014,0.24950157,0.022674067,0.053736936,0.9666164,0.9999287,-1.1851299e-09,-7.1174604e-09,0.011941393,4
787322415,787321918,0.2494686,0.0228307,0.053864766,0.9666141,0.9999287,-1.1851299e-09,-7.1174604e-09,0.011941393,4
787822063,787821821,0.24955288,0.023073604,0.053829484,0.9665886,0.9999287,-1.1851299e-09,-7.1174604e-09,0.011941393,4
788322009,788321725,0.24963723,0.023321766,0.053635832,0.96657157,0.9999287,-1.1851299e-09,-7.1174604e-09,0.011941393,4
788821898,788821629,0.24976258,0.02263217,0.05372051,0.9665509,0.9999287,-1.1851299e-09,-7.1174604e-09,0.011941393,4
789321895,789321532,0.24996716,0.02233075,0.05390115,0.966495,0.9999287,-1.1851299e-09,-7.1174604e-09,0.011941393,4
789821708,789821436,0.2501056,0.02211145,0.053915165,0.96646345,0.9999287,-1.1851299e-09,-7.1174604e-09,0.011941393,4
790321744,790321340,0.25016218,0.021667287,0.054094817,0.9664487,0.9999287,-1.1851299e-09,-7.1174604e-09,0.011941393,4
790821529,790821243,0.25029513,0.021653939,0.053763904,0.96643317,0.9999287,-1.1851299e-09,-7.1174604e-09,0.011941393,4
791321374,791321146,0.25028187,0.022482296,0.05368841,0.9664218,0.9999287,-1.1851299e-09,-7.1174604e-09,0.011941393,4
