timestamp,rollspeed_integ,pitchspeed_integ,yawspeed_integ,additional_integ1
592093762,-0.00055890146,0.00014136721,-1.9068848e-05,0.0
592098623,-0.0005238401,0.00011833629,-1.8165587e-05,0.0
592293010,-0.0007752047,0.0002168746,-1.4912618e-05,0.0
592496805,-0.00039194018,2.5077612e-05,-9.0319336e-05,0.0
592695899,-0.00057118805,0.00011112421,-3.564744e-05,0.0
592895047,-0.00059928553,0.00018621857,-2.1181688e-05,0.0
593094084,-0.0005596789,5.8080823e-05,-0.0001319378,0.0
593293190,-0.00049976463,0.0001838721,-4.9243583e-05,0.0
593492684,-0.00070102466,0.00012946661,-3.693444e-05,0.0
593696476,-0.00064916105,0.00018529744,-2.5488713e-05,0.0
593895567,-0.00062032696,0.00021454252,-2.6709578e-05,0.0
594094712,-0.00065952784,0.00022382509,-2.5613674e-05,0.0
594293756,-0.0006654095,0.00021789118,-2.7832666e-05,0.0
594492810,-0.0006344151,0.00022851815,-2.8334101e-05,0.0
594691998,-0.00066323974,0.00023423797,-2.9595582e-05,0.0
594895894,-0.000620363,0.00021019734,-2.8821087e-05,0.0
595094952,-0.0006194431,0.00019122,-2.6245043e-05,0.0
595294045,-0.00060562923,0.00017627362,-2.2385253e-05,0.0
595493137,-0.000625767,0.0001640722,-2.4447983e-05,0.0
595692355,-0.0006364807,0.0001766729,-2.440053e-05,0.0
595891328,-0.0006026182,0.00017339732,-2.20062e-05,0.0
596090443,-0.0006128379,0.00018181541,-2.4712293e-05,0.0
596294664,-0.0006405907,0.0001726129,-2.1845042e-05,0.0
596493686,-0.00063237426,0.00015334855,-1.9748728e-05,0.0
596692782,-0.00062157196,0.00016936216,-2.299201e-05,0.0
596892170,-0.0006527544,0.00016879909,-2.3092884e-05,0.0
597095835,-0.00059576554,0.00020106042,-2.3994628e-05,0.0
597294925,-0.00058901776,0.00019994819,-2.4093963e-05,0.0
597494048,-0.00059275725,0.00019319757,-2.3582925e-05,0.0
597698215,-0.000620003,0.00021880458,-2.6393793e-05,0.0
597897273,-0.00062116806,0.0002262021,-2.6954198e-05,0.0
598096372,-0.0006089423,0.00021744399,-2.875225e-05,0.0
598295511,-0.0006079403,0.00021252618,-2.5279163e-05,0.0
598494577,-0.00061604305,0.00021443158,-2.5478692e-05,0.0
598693696,-0.0006198718,0.00020820033,-2.7495333e-05,0.0
598892782,-0.00060585927,0.00022522197,-2.4275067e-05,0.0
599096793,-0.00055651384,0.00019115991,-2.3295777e-05,0.0
599295794,-0.00057554437,0.00019702378,-2.3065206e-05,0.0
599494882,-0.00057103194,0.00019665505,-2.2418388e-05,0.0
599694016,-0.00057630125,0.00019884345,-2.5110585e-05,0.0
599893070,-0.00055632775,0.00020008479,-2.2888538e-05,0.0
600092196,-0.0005721766,0.00019483155,-2.358136e-05,0.0
600291255,-0.0005646023,0.00018243644,-2.3308254e-05,0.0
600495452,-0.0005929224,0.00020115283,-2.4596286e-05,0.0
600694513,-0.0006218741,0.00015881179,-2.4429375e-05,0.0
600893880,-0.0006226871,0.00020292183,-2.2754492e-05,0.0
601092708,-0.0005684716,0.00021060582,-1.8626597e-05,0.0
601291842,-0.0008159455,-0.00013748545,-1.0743853e-06,0.0
601490935,-0.0006915201,0.00015517719,-1.6728625e-05,0.0
601694848,-0.00055218395,6.6247725e-05,-4.0820247e-05,0.0
601893962,-0.00058580836,0.00016113643,-1.5820622e-05,0.0
602093028,-0.00056823477,0.00020443239,-1.9677183e-05,0.0
602297201,-0.0006120713,0.0001951169,-2.2699585e-05,0.0
602496571,-0.000641766,0.00015970938,-2.7491245e-05,0.0
602695383,-0.00062383665,0.00017341589,-1.9345676e-05,0.0
602894476,-0.0006178432,0.0001874435,-2.2780434e-05,0.0
603093680,-0.00064438814,0.00023675601,-1.9857802e-05,0.0
603292664,-0.00061327673,0.00018285966,-2.8217124e-05,0.0
603496642,-0.00059695804,0.00017091823,-2.4065215e-05,0.0
603695710,-0.00070506905,-4.282582e-06,-2.390683e-05,0.0
603894822,-0.0005994371,0.00022305446,-8.692363e-06,0.0
604093897,-0.00063854497,0.00015748716,-2.7354341e-05,0.0
604293008,-0.00043927087,0.00023540916,-1.4048505e-05,0.0
604492073,-0.0006683166,0.00014732215,-1.5552418e-05,0.0
604696437,-0.0008249539,0.00012156786,-8.677761e-07,0.0
604895340,-0.00068713457,0.0001620301,-3.6977675e-05,0.0
605094460,-0.0006570218,6.7161694e-05,-4.5910598e-05,0.0
605293551,-0.0006549111,9.822418e-05,-2.492588e-05,0.0
605492624,-0.00073743396,0.00013730541,-3.688717e-06,0.0
605691764,-0.00061084033,0.00017026105,-2.8407187e-05,0.0
605891129,-0.0006581163,0.00017493882,-1.873382e-05,0.0
606089899,-0.00063712505,0.00014317087,-2.3386167e-05,0.0
606293846,-0.0005854822,0.00015603783,-1.9488753e-05,0.0
606492939,-0.0006054914,0.0001464599,-2.1409043e-05,0.0
606692035,-0.0005851103,0.000165439,-1.7689155e-05,0.0
606896248,-0.0006193741,0.00016402219,-2.093018e-05,0.0
607095374,-0.00063316076,0.00014583439,-1.9867624e-05,0.0
607294400,-0.00060123,0.00015612067,-1.893041e-05,0.0
607493480,-0.000615494,0.00014593704,-1.838395e-05,0.0
607697434,-0.0005838612,0.00015987863,-2.0654683e-05,0.0
607896540,-0.0005915225,0.00015354382,-1.8752418e-05,0.0
608095703,-0.0005577665,0.00013884465,-1.6355609e-05,0.0
608294748,-0.0005778433,0.00014238228,-1.9141966e-05,0.0
608493850,-0.0005888636,0.00015858085,-2.0966389e-05,0.0
608692927,-0.00059866783,0.0001338666,-1.9389865e-05,0.0
608897091,-0.0006127998,0.00012064381,-1.8032553e-05,0.0
609096195,-0.0005935543,0.00014112401,-1.6760603e-05,0.0
609295270,-0.00061036233,0.00013968667,-1.9801217e-05,0.0
609494358,-0.0006117863,0.00014488642,-1.9004736e-05,0.0
609693425,-0.00060192466,0.00013619063,-1.8185812e-05,0.0
609892550,-0.0005780502,0.00014888187,-1.7476408e-05,0.0
610091629,-0.0006166502,0.00013813566,-2.6184473e-05,0.0
610295575,-0.00065004133,5.4696156e-05,-2.5156149e-05,0.0
610494692,-0.0006210475,0.00016282355,-1.980288e-05,0.0
610693766,-0.0005968189,0.000121869605,-1.7999815e-05,0.0
610892879,-0.0006036863,0.00012536021,-2.0652578e-05,0.0
611091932,-0.00061325316,0.00011680046,-2.0930343e-05,0.0
611291073,-0.0006090401,0.00011563562,-1.8632896e-05,0.0
611495455,-0.00069715537,6.4313674e-05,-1.9720366e-05,0.0
611694284,-0.00062893296,0.00012376787,-1.6050304e-05,0.0
611893393,-0.0006438458,0.00011464107,-1.9081057e-05,0.0
612092509,-0.0007602767,0.00016752961,-2.255202e-06,0.0
612296425,-0.000622196,9.2100054e-05,-2.2074852e-05,0.0
612495519,-0.0006106236,9.076448e-05,-1.574922e-05,0.0
612694635,-0.00079542864,0.00026387296,1.720532e-05,0.0
612893770,-0.000725226,0.000266423,-2.3576727e-05,0.0
613097902,-0.0003788385,3.6089346e-05,-7.335431e-05,0.0
613297186,-0.00065752154,8.823185e-05,-1.9995181e-05,0.0
613496195,-0.0006149157,0.00012653568,-2.0510282e-05,0.0
613695204,-0.0006097411,0.000112067944,-2.236624e-05,0.0
613894356,-0.00054211234,4.072755e-05,-6.052485e-05,0.0
614093519,-0.0005796626,0.0001150714,-3.1919437e-05,0.0
614292440,-0.0006423603,0.00014102635,-2.304227e-05,0.0
614496402,-0.00059420743,8.20842e-05,-1.2764644e-05,0.0
614695455,-0.00061313045,9.697306e-05,-1.8560699e-05,0.0
614894552,-0.00058745674,2.0519712e-05,-1.5693066e-05,0.0
615093650,-0.0010200281,-0.0006155832,-1.930443e-05,0.0
615292733,-0.0005831067,0.00016254265,1.527922e-06,0.0
615491834,-0.000652243,2.24493e-05,-2.5367699e-05,0.0
615690919,-0.0007133649,-8.509862e-05,-2.067325e-05,0.0
615890049,-0.0006531223,2.2868891e-05,-6.9714333e-06,0.0
616094372,-0.00070777326,-2.6104797e-05,-3.09302e-05,0.0
616293272,-0.00068177585,-2.46033e-05,-6.095153e-06,0.0
616492390,-0.00064607046,2.4450323e-05,-7.573676e-07,0.0
616691472,-0.00064981874,1.1470487e-05,-6.4469423e-06,0.0
616895406,-0.0006211168,-1.6499607e-05,-1.8512834e-06,0.0
617094575,-0.00056858634,5.239619e-06,8.8887003e-07,0.0
617293582,-0.0006256898,-1.8501563e-06,-9.3302515e-07,0.0
617492711,-0.00066970696,-4.7244313e-05,-1.3165665e-05,0.0
617696916,-0.0006264657,3.912641e-05,-4.84814e-06,0.0
617895972,-0.0006549595,-2.3911805e-06,-4.3258765e-06,0.0
618095030,-0.0006178598,3.0320336e-05,-7.840812e-06,0.0
618294114,-0.00063021143,7.3962576e-05,-6.9486496e-06,0.0
618493204,-0.0006147138,6.6060355e-05,-1.0931294e-05,0.0
618697163,-0.0005826681,8.6954075e-05,-7.0667347e-06,0.0
618896257,-0.0010507095,0.00034766505,2.9146939e-05,0.0
619095377,-0.00062297465,3.902128e-05,-2.7917635e-05,0.0
619294460,-0.00060128735,1.830048e-05,-3.5289253e-05,0.0
619493525,-0.00073628087,0.00016524426,8.679073e-06,0.0
619692612,-0.0007451451,0.00018466411,-1.431267e-05,0.0
619891750,-0.00060394156,5.686711e-05,-2.0243808e-05,0.0
620090788,-0.0006083687,7.563237e-05,-1.7730428e-05,0.0
620295130,-0.00067776337,7.330024e-05,-1.9652949e-05,0.0
620494140,-0.0005513007,9.539813e-05,-1.7423079e-05,0.0
620693235,-0.00064365694,0.0001841224,-1.2105973e-05,0.0
620892240,-0.00063251646,7.292644e-05,-1.770607e-05,0.0
621091337,-0.00065774616,5.903865e-05,-1.35906375e-05,0.0
621290491,-0.0006640306,3.270301e-05,-1.7812605e-05,0.0
621494367,-0.00065067783,-5.2966534e-05,-9.167886e-06,0.0
621693475,-0.000668695,-2.2708484e-05,-1.5492908e-06,0.0
621892545,-0.0005418627,0.00010846489,-2.4287348e-07,0.0
622096720,-0.000672053,-8.482702e-06,-1.4185485e-05,0.0
622295853,-0.0006815709,3.147061e-05,-2.7479132e-06,0.0
622495108,-0.00060167466,9.672283e-06,-8.128881e-06,0.0
622694063,-0.00061733037,3.4337274e-05,8.1831314e-07,0.0
622897947,-0.00042345966,-6.3073305e-05,-4.1854227e-07,0.0
623097047,-0.0005621499,-4.2471525e-05,3.165158e-06,0.0
623296152,-0.00059344736,9.552019e-06,3.7750488e-06,0.0
623495258,-0.0006415842,-2.6325053e-05,4.519726e-06,0.0
623694295,-0.0005847502,-1.8387207e-05,-6.572282e-07,0.0
623893408,-0.00058373384,-6.7032546e-05,-6.4426677e-06,0.0
624092512,-0.000631335,-8.1597434e-05,2.754058e-08,0.0
624291566,-0.0006304053,-4.37198e-05,4.2800184e-07,0.0
624495740,-0.00065954484,-9.054487e-06,3.1879335e-06,0.0
624694959,-0.0006589498,-1.4161598e-05,4.5523357e-06,0.0
624893917,-0.00063380663,2.4973453e-05,-2.2779143e-06,0.0
625093036,-0.00062391435,4.9392518e-05,-3.2401003e-06,0.0
625292131,-0.00062057766,2.8994398e-05,-3.0344859e-06,0.0
625491240,-0.0006318683,2.1562335e-05,-5.6214085e-06,0.0
625695170,-0.0005999462,1.7007576e-05,-4.2243664e-06,0.0
625894228,-0.0005836024,3.0485491e-05,-5.3543395e-06,0.0
626093401,-0.0005690621,1.1044013e-05,-4.2853385e-06,0.0
626292443,-0.00060061394,1.1358715e-05,-3.2016833e-06,0.0
626491497,-0.0005871044,1.2952139e-05,-3.926383e-06,0.0
626695710,-0.0006344306,3.9792676e-06,-4.5753886e-06,0.0
626894972,-0.0006244641,1.9837187e-05,-4.2683046e-06,0.0
627093852,-0.0006168065,5.158831e-06,-3.4294533e-06,0.0
627292963,-0.0006103934,3.0518675e-06,-5.613422e-06,0.0
627496926,-0.0005699698,-1.03705925e-05,-2.0782045e-06,0.0
627695991,-0.00057934574,1.0284915e-05,-3.9202423e-06,0.0
627895075,-0.0005717985,6.7272226e-06,-2.6216455e-06,0.0
628094155,-0.00057657453,2.5659449e-05,-7.30513e-06,0.0
628293273,-0.0005712604,1.3693826e-06,-3.5231774e-06,0.0
628497419,-0.00060438697,1.4274562e-05,-3.8047e-06,0.0
628696695,-0.0006308935,1.0612595e-05,-5.6748645e-06,0.0
628895816,-0.0006363204,-4.0116693e-06,-5.3886297e-06,0.0
629094872,-0.0006365446,-8.7973e-06,-1.808424e-06,0.0
629293921,-0.00063631404,-3.560535e-06,-2.0135817e-06,0.0
629493100,-0.0006473855,-1.6825823e-05,-1.6571603e-06,0.0
629691953,-0.00061518454,-2.0094898e-05,2.652515e-07,0.0
629895924,-0.00058287353,-1.3596327e-05,-1.1624e-06,0.0
630095034,-0.0005892196,-6.4428277e-06,-1.887984e-06,0.0
630294092,-0.0005696159,-1.0870414e-05,-2.247528e-06,0.0
630493172,-0.00051005866,-5.388087e-08,-2.7627393e-06,0.0
630692263,-0.00054245815,-1.48121035e-05,-3.4260054e-06,0.0
630891378,-0.00057426916,6.002638e-06,-1.850047e-06,0.0
631090450,-0.0005580946,-3.9747792e-05,-5.2891587e-06,0.0
631294762,-0.00060244784,-3.699498e-05,-2.2608942e-06,0.0
631493840,-0.0006095547,-3.7531358e-06,-3.558593e-06,0.0
631693049,-0.0005844979,-3.184375e-06,-5.4735333e-06,0.0
631892024,-0.0006200198,-2.4812789e-05,-4.8619636e-06,0.0
632095837,-0.0005690984,1.1280393e-05,-1.69873e-06,0.0
632294964,-0.00060040306,7.2491125e-06,-1.195351e-06,0.0
632494013,-0.00058766745,-5.1075767e-06,-1.3995544e-06,0.0
632698414,-0.0006421813,5.159462e-06,-4.43745e-06,0.0
632898007,-0.00072847214,-1.2759311e-05,-2.100271e-06,0.0
633096656,-0.00065232924,-3.6806108e-07,-2.1171743e-06,0.0
633295638,-0.00062326406,3.9715196e-06,-1.3251541e-06,0.0
633494525,-0.0006039637,-1.18201615e-05,-2.7998756e-06,0.0
633693691,-0.000606944,-2.1295513e-05,-2.3134783e-06,0.0
633892896,-0.0006122968,-9.3597455e-06,-1.8712575e-06,0.0
634096690,-0.00056009076,-9.416762e-06,-8.3751695e-07,0.0
634295747,-0.0005475486,-2.2378996e-05,-6.7362424e-07,0.0
634494876,-0.00057051633,-3.5052344e-05,-3.706984e-06,0.0
634693940,-0.0005731166,-1.6945649e-05,-3.4732506e-07,0.0
634893036,-0.00057180796,-1.2809117e-05,-1.0834799e-06,0.0
635092206,-0.0005776147,-2.0012818e-05,-6.996364e-08,0.0
635291219,-0.00058370136,-4.433121e-05,-4.25953e-06,0.0
635490281,-0.00057427667,-4.5395802e-05,-5.1845745e-06,0.0
635694464,-0.0006001775,-1.1858471e-05,-4.0324237e-09,0.0
635893747,-0.0006154236,1.3713443e-06,-3.94035e-07,0.0
636092813,-0.0006117783,-1.4052537e-05,-7.4336816e-07,0.0
636291883,-0.00065536343,-2.6041796e-05,1.0902235e-06,0.0
636490965,-0.00060486037,-1.3927252e-05,-1.0846419e-06,0.0
636694749,-0.0005821779,-2.4071926e-05,2.3651205e-06,0.0
636893872,-0.0005546026,-8.127237e-06,-7.662429e-07,0.0
637092927,-0.0005645359,-2.0383898e-06,1.3164664e-06,0.0
637297897,-0.00065387593,-1.688142e-05,-2.0959437e-06,0.0
637496179,-0.00059088203,-1.1485404e-05,1.3809452e-06,0.0
637695273,-0.0005750651,-7.146028e-06,-1.2048752e-06,0.0
637894390,-0.0006215747,-5.089087e-05,6.629753e-06,0.0
638093447,-0.0006031346,-6.6307584e-05,3.972203e-07,0.0
638297426,-0.0005627348,-5.7806385e-05,-7.8541126e-07,0.0
638496522,-0.00057294045,-2.9284854e-05,-2.8529325e-07,0.0
638695619,-0.0005770257,-3.133685e-05,1.5147168e-06,0.0
638894701,-0.00057768996,-4.2033924e-05,3.6855322e-08,0.0
639093761,-0.0005097816,-4.1195606e-05,-3.2631913e-06,0.0
639292831,-0.0005700785,-2.2730777e-05,-6.972131e-07,0.0
639491935,-0.0005500037,-3.878368e-05,-2.2761294e-06,0.0
639696262,-0.0004621943,-5.984629e-05,-7.948647e-06,0.0
639895381,-0.00055028027,-1.36558365e-05,1.4843389e-06,0.0
640094465,-0.00061001105,-4.287883e-05,8.024709e-06,0.0
640293362,-0.00051678775,-5.17054e-05,-1.3166194e-06,0.0
640492681,-0.00042421534,-4.234003e-05,-2.5942654e-06,0.0
640691804,-0.00055539777,-5.4162043e-05,2.6039893e-06,0.0
640890631,-0.0005396413,-3.178301e-05,3.5154405e-06,0.0
641094582,-0.0004952256,-4.395147e-05,-1.295313e-06,0.0
641293693,-0.00051120453,-2.2361222e-05,1.5969371e-06,0.0
641492749,-0.0005582601,-3.433944e-05,4.6713376e-06,0.0
641691840,-0.0005089032,-3.1868654e-05,3.2053308e-06,0.0
641896022,-0.00056661776,-3.896974e-05,8.80612e-07,0.0
642095091,-0.0005398102,-6.8947893e-06,6.2176576e-07,0.0
642294182,-0.00053705426,-1.751031e-05,-2.1093686e-06,0.0
642498149,-0.00051204854,-2.3401391e-05,-5.8012166e-08,0.0
642697221,-0.000492624,-1.2138952e-05,9.805851e-07,0.0
642896537,-0.00050406216,-5.671265e-06,-1.0754078e-06,0.0
643095406,-0.0004951324,-1.1128832e-05,-2.3622454e-06,0.0
643294554,-0.0005085328,-2.5518259e-05,-3.880866e-07,0.0
643493628,-0.00050356326,-2.6861917e-05,-1.554565e-06,0.0
643692657,-0.0005180745,-3.535706e-05,1.3852205e-06,0.0
643896830,-0.00054750027,-2.814935e-05,4.992318e-07,0.0
644096216,-0.0005926727,-2.4476758e-05,-5.0134224e-07,0.0
644294995,-0.0005686151,-2.8561484e-05,2.2639485e-06,0.0
644494084,-0.0005827079,-3.133321e-05,-2.6547973e-09,0.0
644693167,-0.0005689069,-2.8489694e-05,5.354848e-07,0.0
644892297,-0.0005990138,-3.1155763e-05,1.0960265e-06,0.0
645091338,-0.00054934097,-3.238133e-05,9.805342e-07,0.0
645295316,-0.0005206968,-3.0097717e-05,1.0711822e-06,0.0
645494437,-0.00051516347,-2.6240177e-05,2.6978541e-06,0.0
645693488,-0.00052065076,-1.8791427e-05,4.0989386e-07,0.0
645892567,-0.0005113136,-1.4999852e-05,-9.822471e-07,0.0
646091646,-0.00051331037,-2.6564367e-05,1.7967486e-07,0.0
646290820,-0.0004967476,-2.407826e-05,-1.627339e-07,0.0
646494896,-0.0005399019,-2.2338867e-05,-2.0907623e-07,0.0
646694037,-0.00055883644,-3.80919e-05,-1.0706185e-07,0.0
646893137,-0.00055608095,-3.180768e-05,8.982269e-07,0.0
647097032,-0.000545567,-2.2605185e-05,1.8213074e-06,0.0
647296261,-0.00052461674,-2.7030186e-05,-1.5029873e-07,0.0
647495216,-0.00053748477,-2.4049157e-05,-3.3810434e-07,0.0
647694308,-0.00053009565,-2.9515779e-05,1.3555682e-06,0.0
647893374,-0.00051638007,-2.5012952e-05,5.891898e-07,0.0
648097565,-0.00054942636,-3.6009056e-05,5.1830983e-07,0.0
648296631,-0.00054051355,-3.1535015e-05,5.873799e-07,0.0
648495910,-0.00056386634,-2.996084e-05,1.7318195e-07,0.0
648694802,-0.00054183643,-2.7730308e-05,-4.400875e-08,0.0
648893890,-0.000550903,-3.093583e-05,1.1185952e-06,0.0
649093010,-0.0005491073,-2.8396802e-05,4.935625e-07,0.0
649292053,-0.00055273203,-2.569178e-05,3.4046528e-07,0.0
649496025,-0.0005214556,-2.8425988e-05,-2.0954023e-07,0.0
649695119,-0.0005224186,-2.9475472e-05,1.155566e-06,0.0
649894184,-0.0005225122,-4.322502e-05,3.3487993e-06,0.0
650093292,-0.0005308019,-5.6885678e-05,4.803856e-06,0.0
650292354,-0.0005144155,-5.4421813e-05,3.5529088e-06,0.0
650491436,-0.0005109077,-5.8044254e-05,4.2495753e-06,0.0
650690526,-0.00052405783,-5.20102e-05,3.1353095e-06,0.0
650894752,-0.00055227184,-3.0879095e-05,7.0178334e-07,0.0
651093815,-0.000549557,-3.4138684e-05,2.371793e-06,0.0
651292872,-0.00055722013,-3.3524306e-05,2.6397831e-06,0.0
651491946,-0.0005432618,5.398827e-07,-1.2931329e-06,0.0
651695936,-0.0005323676,-6.503463e-06,-2.9408818e-06,0.0
651895274,-0.0005494537,-2.8477956e-05,1.0378234e-06,0.0
652094100,-0.0005285239,-3.0185152e-05,5.735548e-07,0.0
652293165,-0.0005353014,-2.210734e-05,1.2897907e-06,0.0
652497365,-0.00054925994,-3.3145025e-05,2.6765663e-06,0.0
652696459,-0.0005510328,-2.8980885e-05,1.2320868e-06,0.0
652895582,-0.0005555005,-2.8475528e-05,2.8936645e-06,0.0
653094640,-0.00055310415,-2.3622455e-05,9.10813e-07,0.0
653293695,-0.0005468078,-1.7229386e-05,-1.1286223e-06,0.0
653492836,-0.00056411704,-1.49386615e-05,1.2842628e-06,0.0
653696717,-0.0005334495,-1.5005064e-05,5.4361426e-08,0.0
653895817,-0.00054259767,-2.7805518e-05,-1.2055364e-07,0.0
654095041,-0.0005460059,-9.195955e-06,-4.7236068e-07,0.0
654293983,-0.00053658296,-1.3855162e-05,-2.9567335e-07,0.0
654493065,-0.00053767447,-2.2245888e-05,6.3268936e-07,0.0
654692170,-0.00051986217,-2.7798818e-05,2.3432099e-06,0.0
654891223,-0.0005235499,-2.2492824e-05,1.1035185e-06,0.0
655090309,-0.00051796896,-2.5075127e-05,2.5759314e-06,0.0
655294827,-0.00057565275,-2.9315623e-05,3.5452647e-06,0.0
655493607,-0.0005557868,-1.8975943e-05,9.1742106e-07,0.0
655692711,-0.0005617409,-1.7292274e-05,7.917118e-07,0.0
655891758,-0.0005560374,-1.7827833e-05,3.733987e-07,0.0
656090826,-0.0005565851,-1.4401549e-05,-5.094531e-07,0.0
656294818,-0.00054030126,-1.526696e-05,-3.364454e-07,0.0
656493858,-0.0005397266,-1.9564792e-05,-6.9451096e-07,0.0
656692943,-0.0005339333,-1.5228616e-05,-7.0819095e-07,0.0
656897111,-0.0005620774,-1.0021512e-05,8.310107e-07,0.0
657096229,-0.0005630393,-1.1018165e-05,-4.6289148e-07,0.0
657295285,-0.0005574828,-1.2472553e-05,5.4445036e-07,0.0
657494709,-0.0005793566,-2.400984e-05,1.5266223e-06,0.0
657693478,-0.000546841,-2.1214093e-05,1.0788677e-06,0.0
657897414,-0.000526558,-1.978132e-05,1.1687492e-06,0.0
658096525,-0.0005219089,-1.8300985e-05,1.3067088e-06,0.0
658295610,-0.00052413513,-1.6789165e-05,6.791372e-07,0.0
658494702,-0.00053782825,-1.0142889e-05,-5.8743097e-08,0.0
658693764,-0.0005253963,-1.1149198e-05,-1.0038989e-06,0.0
658892892,-0.00054809375,-7.678988e-06,-8.08686e-07,0.0
659091954,-0.00055853504,-8.009004e-06,1.5976896e-07,0.0
659296112,-0.00058377086,-6.657854e-06,-3.2476382e-07,0.0
659495160,-0.0005855859,-5.0353588e-06,-2.2082084e-07,0.0
659694405,-0.00059046934,-6.02896e-06,-3.9878068e-07,0.0
659893337,-0.0005750199,-1.1824683e-06,-1.5209679e-06,0.0
660092414,-0.00055993616,-8.343179e-06,-2.23475e-07,0.0
660291622,-0.0005701632,-8.414942e-06,8.3638827e-07,0.0
660490584,-0.0005523241,-1.1912164e-05,6.184776e-07,0.0
660694544,-0.0005360608,-1.1973554e-05,8.223833e-07,0.0
660894009,-0.0005566706,-2.737859e-05,2.7341173e-06,0.0
661092713,-0.00054030906,-1.585431e-05,-4.8334704e-07,0.0
661291795,-0.0005621717,1.5973549e-06,-4.6158266e-07,0.0
661496116,-0.0005947536,2.1644844e-07,-1.7814863e-06,0.0
661695106,-0.00058770645,-3.9222555e-06,-1.0350592e-06,0.0
661894288,-0.0005936008,2.830646e-08,-2.4629903e-06,0.0
662093269,-0.000589457,7.727343e-06,-9.0908355e-07,0.0
662297189,-0.0005380001,-4.695423e-06,6.3088976e-07,0.0
662496246,-0.000542286,-4.5423285e-06,-1.2388084e-06,0.0
662695330,-0.0005405184,-8.7028275e-06,2.8324004e-07,0.0
662894424,-0.0005421946,-8.037637e-06,-9.371509e-07,0.0
663093781,-0.00057144125,-6.689544e-06,-6.7450077e-07,0.0
663292606,-0.00054482644,2.1496578e-06,-4.6585637e-07,0.0
663496758,-0.00057575485,-2.051479e-06,-8.505491e-07,0.0
663695876,-0.00057916634,-3.1653854e-06,-3.7866343e-07,0.0
663894918,-0.00057332363,-7.4849095e-06,1.924758e-07,0.0
664094039,-0.0005789707,-7.067927e-06,-2.1778726e-06,0.0
664293382,-0.00061287143,-2.9697662e-06,-2.7754393e-06,0.0
664492222,-0.0005800054,1.8912959e-06,-2.7263316e-06,0.0
664691260,-0.0005720832,9.667917e-06,-2.1116027e-06,0.0
664895208,-0.00053602236,2.6765565e-05,-2.344e-06,0.0
665094293,-0.00054276426,2.2879887e-05,-3.480123e-06,0.0
665293406,-0.0005413681,2.7676701e-06,-1.8243381e-06,0.0
665492491,-0.00053630664,3.8213554e-07,-1.3633891e-06,0.0
665691574,-0.0005480065,-2.5286595e-06,-1.4572549e-06,0.0
665890682,-0.0005467175,-7.639405e-06,-2.502349e-06,0.0
666094826,-0.00057637104,-1.4606309e-05,-2.7681057e-07,0.0
666293883,-0.00058705284,-1.1799303e-05,6.5301116e-08,0.0
666493435,-0.0006363356,-1.8616237e-06,-3.4316898e-07,0.0
666696922,-0.00056583836,4.295117e-06,-2.5753304e-06,0.0
666896004,-0.00055924285,-1.5957578e-06,-1.6799635e-06,0.0
667095090,-0.0005377535,3.5044795e-06,-7.132497e-07,0.0
667294165,-0.0005365053,2.108668e-06,-1.1856417e-06,0.0
667493256,-0.0005403209,4.9570616e-08,-4.793301e-07,0.0
667692327,-0.0005345081,-8.839207e-06,-4.3572626e-07,0.0
667896532,-0.00057494314,-7.569625e-06,-4.4144804e-07,0.0
668095581,-0.000569714,-1.0180727e-05,-1.8020773e-07,0.0
668294670,-0.0005959488,-1.4913868e-06,-2.7070192e-07,0.0
668493786,-0.00059551327,-6.898535e-06,-9.841718e-07,0.0
668693015,-0.00061853527,-8.373511e-06,-2.0929199e-06,0.0
668891921,-0.00059689645,-9.328744e-06,-1.6329378e-07,0.0
669095874,-0.00056378264,-6.7241526e-06,1.3581486e-07,0.0
669294995,-0.00054901384,-9.28101e-06,6.2432855e-07,0.0
669494035,-0.0005484913,-1.4627502e-05,2.5736545e-06,0.0
669693177,-0.0005389782,-1.1449914e-05,7.2756706e-07,0.0
669892272,-0.0005238435,-7.934929e-06,8.817361e-08,0.0
670091278,-0.0005282555,-2.0098885e-05,2.842386e-06,0.0
670290409,-0.00055268814,-1.5831245e-05,6.942585e-07,0.0
670494580,-0.0005687226,-8.561754e-06,-9.281837e-08,0.0
670693626,-0.00058075174,-1.0569225e-05,9.806558e-07,0.0
670892706,-0.000585316,-1.4144418e-05,-7.1039966e-07,0.0
671091791,-0.0005820558,-2.3644648e-06,-1.5701931e-07,0.0
671295739,-0.00056210696,-8.140209e-06,-4.3021305e-07,0.0
671494851,-0.0005616756,-8.27599e-06,8.082476e-07,0.0
671693898,-0.00055171107,-7.0973147e-06,3.4331973e-07,0.0
671892984,-0.0005411413,1.1521147e-05,5.6055217e-07,0.0
672097278,-0.00055080175,6.022781e-06,-2.51205e-06,0.0
672296245,-0.0005635129,-3.6848285e-06,1.2466195e-07,0.0
672495334,-0.0005686392,-2.5869135e-06,-1.8975976e-06,0.0
672694519,-0.0005826761,-3.1985219e-06,-9.168784e-07,0.0
672893501,-0.00058364536,2.94869e-06,-1.9557456e-06,0.0
673092564,-0.0005864282,5.2422597e-06,-1.682216e-06,0.0
673296515,-0.0005533546,5.77687e-06,-2.5179238e-06,0.0
673495597,-0.00055904244,1.5303555e-06,-1.8278719e-06,0.0
673694700,-0.00056489994,1.074926e-05,-3.3618213e-07,0.0
673893794,-0.0005471205,8.979093e-06,-3.4861828e-06,0.0
674092865,-0.0005479913,1.6742516e-07,2.6172648e-08,0.0
674292106,-0.0005617582,-3.621777e-06,-6.959138e-07,0.0
674491033,-0.0005371626,-3.4719145e-07,-8.708622e-07,0.0
674695197,-0.000572729,-5.8121414e-06,-3.0770522e-07,0.0
674894283,-0.0005680692,7.2825906e-06,-3.951002e-07,0.0
675093350,-0.0005842385,2.756457e-06,-1.1127407e-06,0.0
675292479,-0.0005874994,-4.27361e-06,9.1227776e-08,0.0
675491851,-0.00060949486,-5.659168e-06,-4.0340112e-07,0.0
675695455,-0.0005625316,-1.1164561e-05,-1.0048448e-07,0.0
675894531,-0.000555984,-1.0178305e-05,3.5179312e-08,0.0
676093614,-0.00055749755,-6.0175935e-06,-4.6126228e-08,0.0
676292700,-0.00055422605,-9.3231965e-06,-3.3957394e-07,0.0
676496867,-0.0005655524,-2.7004396e-07,-7.952567e-07,0.0
676695976,-0.000576309,7.2163893e-06,-1.7942793e-06,0.0
676895033,-0.00056956324,5.6322465e-06,-7.927398e-07,0.0
677094106,-0.000569171,4.9647942e-06,-4.5033948e-07,0.0
677293218,-0.0005789991,6.539387e-06,-1.754696e-06,0.0
677497147,-0.00055836904,4.1064613e-06,-1.5436137e-06,0.0
677696307,-0.00053569005,1.3890289e-06,-9.604083e-07,0.0
677895313,-0.0005572902,9.044779e-07,-6.9806975e-07,0.0
678094390,-0.00055290636,-6.7475617e-06,-1.2971547e-07,0.0
678293497,-0.0005494384,-1.102876e-05,1.7419787e-06,0.0
678492553,-0.00053864514,-9.341994e-06,-5.2075285e-07,0.0
678691639,-0.0005489555,9.821354e-06,-1.387751e-06,0.0
678895874,-0.00056383124,1.2717306e-06,-1.0095806e-06,0.0
679094890,-0.0005658286,1.7876444e-05,-4.5927354e-06,0.0
679293990,-0.0005719334,-7.928168e-06,-5.552619e-07,0.0
679493191,-0.00057547673,-1.2880474e-05,1.6869975e-06,0.0
679692162,-0.0005766227,-2.0863396e-05,1.9061329e-06,0.0
679891364,-0.0005809726,-3.7811576e-05,2.4580247e-06,0.0
680090358,-0.0005746569,-3.4943514e-05,2.6455084e-06,0.0
680294279,-0.0005382106,-4.3128457e-05,3.8552807e-06,0.0
680493476,-0.0005451252,-2.4064515e-05,4.859919e-07,0.0
680692404,-0.0005272239,-1.6755774e-05,1.9318857e-06,0.0
680896591,-0.0005631998,-1.6471302e-05,2.675082e-07,0.0
681095789,-0.0005650849,-6.805215e-06,1.3165301e-06,0.0
681294734,-0.0005635618,-1.3055143e-05,-1.5603464e-06,0.0
681493814,-0.00054691924,1.1565366e-05,-2.2378683e-06,0.0
681697760,-0.0005403073,6.5866075e-06,-3.7605918e-07,0.0
681896840,-0.00052792253,3.9321495e-07,4.4857327e-08,0.0
682095942,-0.00053479115,1.4342157e-05,-1.1829756e-06,0.0
682295009,-0.00053079455,3.8729277e-06,-6.0401493e-07,0.0
682494087,-0.00053875253,-3.670242e-06,7.5221914e-07,0.0
682693208,-0.00054158125,-1.0699114e-05,-1.7834884e-07,0.0
682892250,-0.0005361027,-1.0924583e-05,1.2313155e-06,0.0
683096414,-0.00056598574,-4.700499e-06,-1.7690636e-06,0.0
683295577,-0.000548166,4.53334e-06,1.2475997e-06,0.0
683494621,-0.00056964124,-2.7586168e-06,-7.6031307e-07,0.0
683693678,-0.0005637412,-1.5024028e-05,1.4748924e-06,0.0
683892795,-0.00056029897,-4.0449945e-06,-1.0079762e-06,0.0
684091868,-0.00056029594,3.6848267e-06,-6.83839e-07,0.0
684290903,-0.0005582745,7.352322e-06,-8.550118e-07,0.0
684494853,-0.00053576665,3.3825816e-06,-1.8637705e-07,0.0
684693930,-0.0005389644,-2.67463e-06,5.84132e-07,0.0
684893048,-0.00054966385,4.877664e-05,-5.5103155e-06,0.0
685092092,-0.0005252673,1.8411693e-05,1.3556264e-06,0.0
685291186,-0.0005495248,1.4057718e-05,-1.5592752e-06,0.0
685495365,-0.0005476106,2.2867469e-05,-3.25436e-06,0.0
685694475,-0.0005758802,3.9989693e-05,-3.525496e-06,0.0
685893500,-0.0005635094,3.8232152e-05,-3.0395252e-06,0.0
686097478,-0.00053332443,1.8340246e-05,-1.3119593e-07,0.0
686296537,-0.00053298677,1.8612578e-05,-2.464867e-06,0.0
686495613,-0.00053519657,2.0060681e-05,-3.4904276e-06,0.0
686694731,-0.0004950484,2.849197e-05,-4.036435e-06,0.0
686893770,-0.0005306922,2.3782162e-05,-3.3679487e-06,0.0
687092854,-0.00053342915,5.8369565e-06,-5.3481206e-09,0.0
687297018,-0.00055916817,1.9993005e-05,-5.872499e-07,0.0
687496168,-0.00057400065,3.416186e-05,-4.193589e-06,0.0
687695177,-0.0005687292,2.844655e-05,-3.3347642e-06,0.0
687894258,-0.00058319245,3.5916586e-05,-3.069147e-06,0.0
688093369,-0.0005840138,4.9442868e-05,-4.8727343e-06,0.0
688292423,-0.0005776808,3.8575163e-05,-4.8318866e-06,0.0
688491503,-0.0005824197,5.6143585e-05,-6.0580483e-06,0.0
688690614,-0.00057730696,4.8224905e-05,-6.0536127e-06,0.0
688894659,-0.0005171127,4.01873e-05,-4.1123208e-06,0.0
689093663,-0.00054663734,3.2089658e-05,-2.4579767e-06,0.0
689292691,-0.00053701445,3.1581654e-05,-2.8415761e-06,0.0
689491809,-0.00053421693,1.9045108e-05,-2.1782932e-06,0.0
689690887,-0.00055048976,1.4969919e-05,-4.034553e-06,0.0
689895049,-0.000563105,2.5989799e-05,-2.3730802e-06,0.0
690094220,-0.0005763204,3.8918195e-05,-2.6479945e-06,0.0
690293236,-0.0005746363,4.5621007e-05,-5.8568203e-06,0.0
690497154,-0.00055860344,3.858913e-05,-4.708117e-06,0.0
690696229,-0.0005574292,4.1587893e-05,-3.8132646e-06,0.0
690895310,-0.0005549668,2.5563568e-05,-2.0431767e-06,0.0
691094375,-0.00054355257,1.4697347e-05,-2.2759684e-06,0.0
691293448,-0.00055661227,1.3149896e-05,-1.4012403e-06,0.0
691497604,-0.0005745597,2.0381736e-05,-2.418079e-06,0.0
691696752,-0.00057090056,1.9109886e-05,-3.5590103e-06,0.0
691895820,-0.00056693656,1.3912528e-05,-2.680784e-06,0.0
692094846,-0.00056539767,2.302684e-05,-2.5903132e-06,0.0
692294030,-0.0005535126,2.0679856e-05,-2.6274386e-06,0.0
692493062,-0.0005857139,1.824486e-05,-1.5430605e-06,0.0
692692101,-0.00058221497,1.6820484e-05,-7.367457e-07,0.0
692896044,-0.0005638629,2.2960721e-05,-3.1730895e-06,0.0
693095113,-0.000542127,9.893801e-06,-1.4662264e-06,0.0
693294201,-0.00055748026,1.0053432e-05,-2.437792e-06,0.0
693493275,-0.000554272,1.7544891e-05,-3.2585212e-06,0.0
693692377,-0.00055396155,3.063989e-05,-2.577018e-06,0.0
693891434,-0.0005476725,2.784261e-05,-1.9647853e-06,0.0
694090535,-0.0005522152,2.080186e-05,-2.7198087e-06,0.0
694294732,-0.0005837232,2.8533559e-05,-3.0241195e-06,0.0
694493858,-0.0005604541,2.8276258e-05,-3.0552594e-06,0.0
694692846,-0.0005804353,2.2517346e-05,-2.4288324e-06,0.0
694891943,-0.0005816386,2.0945201e-05,-2.4723913e-06,0.0
695095956,-0.0005593133,1.864359e-05,-2.1128542e-06,0.0
695294949,-0.0005611561,3.4223423e-05,-3.7586651e-06,0.0
695494021,-0.00055543304,3.1363797e-05,-3.5619098e-06,0.0
695698190,-0.00057881564,3.562937e-05,-4.052957e-06,0.0
695897265,-0.0005858617,4.1377014e-05,-3.4535392e-06,0.0
696096352,-0.00058396254,3.6883608e-05,-3.465623e-06,0.0
696295453,-0.00058125745,3.1616295e-05,-3.876494e-06,0.0
696494508,-0.0005831619,2.370618e-05,-1.4935994e-06,0.0
696693583,-0.0005645662,2.3836528e-05,-2.4991655e-07,0.0
696892695,-0.0005891961,2.6553831e-05,-3.392559e-06,0.0
697096621,-0.0005621361,2.6772981e-05,-1.0256321e-06,0.0
697295722,-0.0005600283,2.499054e-05,-2.0711775e-06,0.0
697494774,-0.0005567843,1.9807456e-05,-3.0768429e-06,0.0
697693852,-0.00055454293,2.4191224e-05,-2.7226606e-06,0.0
697892967,-0.0005270342,2.2530263e-05,-3.552536e-06,0.0
698092017,-0.00053701224,2.353871e-05,-2.2285935e-06,0.0
698291082,-0.000544102,2.5274581e-05,-2.3414202e-06,0.0
698495249,-0.000565684,3.0458044e-05,-2.376561e-06,0.0
698694383,-0.0005823324,3.1364216e-05,-4.3055793e-06,0.0
698893434,-0.0005771403,2.4756866e-05,-3.8989524e-06,0.0
699092571,-0.0005921241,3.465031e-05,-5.0208782e-06,0.0
699291621,-0.0005858007,3.048059e-05,-3.8668713e-06,0.0
699495519,-0.00055686384,2.4436687e-05,-2.620303e-06,0.0
699694592,-0.00054469466,2.5381527e-05,-2.4692577e-06,0.0
699893677,-0.00054297544,2.8102235e-05,-2.842649e-06,0.0
700092837,-0.0005230584,2.6900858e-05,-2.5553952e-06,0.0
700296937,-0.0005499191,2.0738318e-05,3.5336633e-08,0.0
700495992,-0.0005718756,3.7915263e-05,-5.7868897e-06,0.0
700695129,-0.0005674258,3.6654576e-05,-3.7324924e-06,0.0
700894178,-0.00057776953,2.5979374e-05,-6.0740667e-06,0.0
701093251,-0.0005795217,3.4130702e-05,-4.1095886e-06,0.0
701297171,-0.0005558109,2.8866827e-05,-2.3153593e-06,0.0
701496254,-0.00055284885,2.7525108e-05,-3.5129576e-06,0.0
701695347,-0.00056631165,3.8973663e-05,-4.3715554e-06,0.0
701894418,-0.0005556862,3.2053278e-05,-3.3827775e-06,0.0
702093513,-0.00056114077,4.0501815e-05,-6.1769288e-06,0.0
702292568,-0.0005321468,2.7287406e-05,-3.4307686e-06,0.0
702491656,-0.00055469427,3.1315216e-05,-4.3785144e-06,0.0
702695870,-0.0005822388,2.0693735e-05,-1.682775e-06,0.0
702894916,-0.0005780565,1.9575635e-05,-2.569786e-06,0.0
703093967,-0.0005712827,2.1334534e-05,-2.4172648e-06,0.0
703293116,-0.00057937566,2.2348013e-05,-1.1569332e-06,0.0
703492236,-0.00054319925,2.7423195e-05,-4.0058126e-06,0.0
703691200,-0.00057261833,3.6786365e-05,-4.2525717e-06,0.0
703890349,-0.0005713079,-1.371729e-05,3.9168972e-07,0.0
704094226,-0.0005433595,3.958751e-05,-2.4910826e-06,0.0
704293336,-0.0005556931,2.9055716e-05,-3.061273e-06,0.0
704492386,-0.0005589243,3.3938082e-05,-2.9614064e-06,0.0
704696558,-0.0005764519,2.5344667e-05,-4.016223e-06,0.0
704895683,-0.0005849365,2.5342873e-05,-3.8020423e-06,0.0
705094733,-0.0005813728,3.3713422e-05,-3.4056354e-06,0.0
705293798,-0.00059432746,3.3783544e-05,-3.664436e-06,0.0
705497739,-0.00054500974,2.9161867e-05,-2.6488797e-06,0.0
705697199,-0.00059050473,2.7301036e-05,-2.6782616e-06,0.0
705895888,-0.00056650327,3.6306574e-05,-3.3566096e-06,0.0
706094965,-0.000542321,4.4010812e-05,-7.578048e-06,0.0
706294077,-0.0005648602,6.757108e-05,-6.9629164e-06,0.0
706493160,-0.00056812924,6.190919e-05,-6.229512e-06,0.0
706692194,-0.00055415236,4.308748e-05,-4.30466e-06,0.0
706896364,-0.00059499533,5.702201e-05,-6.607817e-06,0.0
707095469,-0.0005814102,5.379608e-05,-4.3879036e-06,0.0
707294521,-0.0005922566,4.3997075e-05,-6.175601e-06,0.0
707493594,-0.00059019786,5.1214185e-05,-5.025008e-06,0.0
707692722,-0.000589161,4.9340248e-05,-5.4769116e-06,0.0
707891750,-0.00055944076,5.3465803e-05,-5.559605e-06,0.0
708090830,-0.00057982287,5.9173257e-05,-5.194573e-06,0.0
708294777,-0.0005472147,4.737904e-05,-3.7985549e-06,0.0
708493885,-0.0005452874,4.142531e-05,-4.823295e-06,0.0
708692930,-0.0005471172,4.4703316e-05,-5.996331e-06,0.0
708892009,-0.0005476628,5.1848143e-05,-5.3111376e-06,0.0
709096549,-0.00064633344,4.759111e-05,-6.0975653e-06,0.0
709295264,-0.00061167596,6.578605e-05,-1.1190753e-05,0.0
709494321,-0.00058177003,-5.422961e-06,-1.8662388e-06,0.0
709693455,-0.00059808587,5.543547e-06,-2.2044601e-07,0.0
709897350,-0.0005540514,3.1810207e-05,-2.871041e-06,0.0
710096434,-0.00057025725,2.3991524e-05,-7.6634177e-07,0.0
710295507,-0.0005673808,7.0624224e-06,-1.3095546e-06,0.0
710494604,-0.00057590555,1.4883388e-05,-1.4013788e-06,0.0
710693663,-0.0005778164,3.3059125e-05,-4.6786477e-06,0.0
710892746,-0.00057538506,3.1302094e-05,-3.5679543e-06,0.0
711096976,-0.0006076877,2.1671634e-05,-3.4815112e-06,0.0
711296316,-0.0006278015,1.4701576e-05,-1.6453665e-06,0.0
711495055,-0.00058921444,8.536174e-06,-1.087798e-06,0.0
711694226,-0.0005970769,3.2760898e-05,-4.481889e-06,0.0
711893318,-0.0005950361,4.2409738e-05,-4.905684e-06,0.0
712092287,-0.0005841573,4.2377436e-05,-3.8488365e-06,0.0
712291413,-0.00059472135,4.3456886e-05,-2.1040303e-06,0.0
712495310,-0.0005571045,3.465511e-05,-4.755347e-06,0.0
712694407,-0.0005741445,5.2904863e-05,-4.662279e-06,0.0
712893463,-0.0005531157,2.2156728e-05,-2.9522384e-06,0.0
713092555,-0.00054278894,1.2524845e-05,-3.347268e-06,0.0
713291623,-0.000554463,2.8166309e-05,-2.4519175e-06,0.0
713495915,-0.00059752964,4.5340534e-05,-6.6739776e-06,0.0
713694859,-0.000578545,3.7971993e-05,-4.741359e-06,0.0
713893932,-0.000580835,1.8815048e-05,-1.5986216e-06,0.0
714093036,-0.0005891517,1.4288329e-05,-1.4785427e-06,0.0
714296968,-0.0005623588,2.6808606e-05,-3.4340167e-06,0.0
714496075,-0.0005723433,2.534325e-05,-3.1736297e-06,0.0
714695134,-0.00055437855,1.5654878e-05,-1.3919274e-06,0.0
714894187,-0.0005747074,1.6320271e-05,-2.6671726e-06,0.0
715093261,-0.00055805355,1.4455231e-05,-2.3557673e-06,0.0
715297465,-0.0006110667,1.250088e-05,3.1270912e-07,0.0
715496548,-0.0006013825,1.4780516e-05,-2.5500024e-06,0.0
715695634,-0.00059885194,1.3418607e-05,-2.1065478e-06,0.0
715894716,-0.00059949834,1.019437e-05,-3.5086543e-07,0.0
716093787,-0.0005925979,2.4515582e-05,-1.2006622e-06,0.0
716292812,-0.00058771117,2.7256128e-05,-5.746134e-07,0.0
716491937,-0.00058422016,1.5752754e-05,-1.1311784e-06,0.0
716695841,-0.0005654828,8.448505e-06,-7.4916215e-07,0.0
716895249,-0.00058416976,9.027349e-06,-3.1233054e-07,0.0
717094020,-0.0005578422,1.5350586e-05,-2.0036907e-06,0.0
717293119,-0.0005672854,1.4047805e-05,-2.0089174e-06,0.0
717492162,-0.0005621455,1.360435e-05,-2.0520508e-06,0.0
717691294,-0.0005710914,2.1643726e-05,-3.0376193e-06,0.0
717890310,-0.00057600695,3.2477437e-05,-2.6559037e-06,0.0
718094466,-0.00060282304,2.8523425e-05,-2.4103167e-06,0.0
718293555,-0.00060364936,1.0751702e-05,-2.252443e-06,0.0
718492727,-0.00061400136,-4.9538846e-07,-1.7699193e-09,0.0
718696659,-0.0005915457,2.45016e-06,-1.0856875e-06,0.0
718895642,-0.0005731944,3.2848445e-06,-2.005072e-06,0.0
719094905,-0.00058130326,-1.7186045e-06,6.7871025e-07,0.0
719293793,-0.000569713,1.309993e-07,-1.4289684e-07,0.0
719492866,-0.00056819804,8.07143e-06,-9.2446874e-07,0.0
719697051,-0.0005900852,1.5718582e-05,-1.3853868e-06,0.0
719896131,-0.00059240626,2.028407e-05,-3.271893e-06,0.0
720095194,-0.0005934401,1.5287236e-05,-1.0382875e-06,0.0
720294547,-0.0006215845,1.4528608e-05,-1.9036878e-06,0.0
720493356,-0.0005934218,2.065178e-05,-2.000766e-06,0.0
720692432,-0.0005993388,1.6792264e-05,-2.144665e-06,0.0
720896356,-0.0005659586,1.5720441e-05,-1.8459423e-06,0.0
721095437,-0.0005710947,1.215799e-05,-1.971054e-06,0.0
721294540,-0.0005709554,1.4848772e-05,-9.4586795e-07,0.0
721493597,-0.0005744251,1.3630553e-05,-1.8976722e-06,0.0
721692660,-0.0005762906,1.2054288e-05,-1.8931004e-06,0.0
721891740,-0.0005758105,9.592514e-06,-7.570097e-07,0.0
722090810,-0.00057113735,4.66803e-06,1.0512421e-06,0.0
722294973,-0.00060013565,4.3091068e-06,1.1230759e-07,0.0
722494422,-0.0006346356,3.4517038e-06,9.4598045e-07,0.0
722693191,-0.0005996986,-8.2379347e-07,1.5764402e-07,0.0
722892196,-0.00059052365,4.5851243e-06,-1.4229059e-06,0.0
723091304,-0.0005941251,7.091286e-06,-1.6982157e-06,0.0
723295231,-0.0005676934,3.5340943e-06,-3.7480405e-07,0.0
723494298,-0.0005645064,1.27289695e-05,-1.0895252e-06,0.0
723693375,-0.0005638796,1.8241644e-05,-1.607354e-06,0.0
723897542,-0.0005923182,1.5423848e-05,-3.089358e-07,0.0
724096678,-0.0005981321,1.2626456e-05,-2.5772586e-06,0.0
724295688,-0.0005919887,1.1115353e-05,-1.4381588e-06,0.0
724494778,-0.00060348393,1.9172046e-05,-2.906591e-06,0.0
724694098,-0.000626328,1.3827222e-05,-5.8756076e-08,0.0
724892908,-0.00059871754,1.2942779e-05,-6.3221705e-07,0.0
725096856,-0.0005684486,1.552778e-05,-2.2933957e-06,0.0
725295978,-0.0005689969,2.1714188e-05,-2.7033782e-06,0.0
725495015,-0.00056673324,2.2239541e-05,-2.383181e-06,0.0
725694082,-0.00057565235,-9.688155e-06,2.7357166e-06,0.0
725893156,-0.00052653824,-5.484358e-05,8.92029e-06,0.0
726092235,-0.00054631534,-0.00013014206,1.3638957e-05,0.0
726291319,-0.0005329684,-0.00022682462,2.4296334e-05,0.0
726495474,-0.00052969286,-0.00018552964,1.8847411e-05,0.0
726694577,-0.0004913091,-2.8129336e-05,3.916836e-06,0.0
726893653,-0.0005133062,4.390869e-05,-2.8281645e-06,0.0
727092786,-0.00053487555,3.669683e-05,-2.2943782e-06,0.0
727291838,-0.0005354027,7.104012e-05,-5.5093287e-06,0.0
727490912,-0.0005480118,6.529026e-05,4.1002268e-06,0.0
727694819,-0.00053569075,3.5755267e-05,8.450249e-06,0.0
727893909,-0.0005697414,2.9479856e-05,1.3135764e-05,0.0
728093302,-0.00058132363,2.8082819e-05,1.9326499e-05,0.0
728297124,-0.000580704,2.5840418e-05,2.2774086e-05,0.0
728496187,-0.0006013179,2.4515475e-05,2.5138286e-05,0.0
728695321,-0.0006060158,2.1387687e-05,2.6542393e-05,0.0
728894338,-0.0006022304,1.5733116e-05,2.7972597e-05,0.0
729093407,-0.0005973648,1.6875176e-05,2.8723704e-05,0.0
729297348,-0.0005752133,1.820433e-05,2.752381e-05,0.0
729496432,-0.0005561071,6.331707e-06,2.7251692e-05,0.0
729695501,-0.0005618112,1.2134323e-05,2.831858e-05,0.0
729894580,-0.0005463461,1.372391e-05,2.642552e-05,0.0
730093662,-0.0005515302,9.740818e-06,2.6752328e-05,0.0
730292922,-0.0005683134,1.0276065e-05,2.7583146e-05,0.0
730491808,-0.00055122346,6.8009117e-06,2.7637641e-05,0.0
730695990,-0.00058279233,4.156036e-06,2.7907692e-05,0.0
730895121,-0.0005924229,-1.6968297e-06,2.8583294e-05,0.0
731094127,-0.0005844151,-4.2696947e-06,2.6539768e-05,0.0
731293222,-0.0005899558,-7.800177e-07,2.7874605e-05,0.0
731492619,-0.0006348146,-4.8616207e-06,2.8467604e-05,0.0
731691342,-0.00057229283,-3.5930932e-06,2.5987463e-05,0.0
731890412,-0.0005994338,6.4484534e-06,2.5434323e-05,0.0
732094372,-0.0005692927,1.2435754e-05,2.3232153e-05,0.0
732293436,-0.00057945243,2.515121e-05,2.1770433e-05,0.0
732492548,-0.00058834127,2.6544021e-05,2.0428053e-05,0.0
732696754,-0.0006144942,1.4161274e-05,2.281969e-05,0.0
732895744,-0.0005909472,1.1092899e-05,2.2506996e-05,0.0
733094857,-0.0005860807,1.0246099e-05,2.2005359e-05,0.0
733293975,-0.0005903823,1.4733067e-05,2.163948e-05,0.0
733497838,-0.00055365375,1.8822484e-05,1.8607947e-05,0.0
733697008,-0.000522542,1.8955438e-05,1.7791192e-05,0.0
733896026,-0.00054473546,1.9662326e-05,1.8276434e-05,0.0
734095096,-0.0005577872,5.9716135e-06,2.0531166e-05,0.0
734294185,-0.0005461254,7.3975752e-06,1.9484463e-05,0.0
734493264,-0.0005555758,7.1890363e-06,1.7052882e-05,0.0
734692364,-0.00056517957,3.2420467e-06,1.6608474e-05,0.0
734896486,-0.0005988617,8.470978e-06,1.64324e-05,0.0
735095533,-0.00060881855,1.5560114e-05,1.654245e-05,0.0
735294605,-0.000604972,1.56932e-05,1.8097786e-05,0.0
735493687,-0.0006150257,6.5626286e-06,1.6927046e-05,0.0
735692756,-0.000608397,-2.335934e-07,1.5798492e-05,0.0
735892249,-0.0006419757,5.443468e-06,1.8990122e-05,0.0
736090896,-0.0005978918,2.5965783e-05,1.3281055e-05,0.0
736294850,-0.0005501309,1.2176597e-05,1.5226037e-05,0.0
736493955,-0.0005507973,1.2792097e-05,1.320812e-05,0.0
736692991,-0.0005416434,6.0394354e-06,1.3928375e-05,0.0
736892066,-0.0005445207,-7.923924e-06,1.6016455e-05,0.0
737096315,-0.0005797106,7.4986683e-06,1.6286e-05,0.0
737295449,-0.0005913405,2.1814441e-05,1.5348929e-05,0.0
737494410,-0.00057609915,8.527828e-07,1.5471667e-05,0.0
737693507,-0.0005880993,8.47075e-06,1.3965075e-05,0.0
737897407,-0.00056849775,-6.0071047e-06,1.4512588e-05,0.0
738096464,-0.00054773537,-1.04342935e-05,1.3620517e-05,0.0
738295543,-0.0005794353,-1.0326293e-05,1.6417629e-05,0.0
738494627,-0.00055760285,-1.6172462e-05,1.2934511e-05,0.0
738693727,-0.0005709142,-6.7671813e-06,1.36494045e-05,0.0
738892772,-0.00056262757,-2.2262771e-05,1.4676982e-05,0.0
739096921,-0.0005881909,2.6032246e-06,1.3762287e-05,0.0
739296090,-0.0005660613,3.7265938e-05,9.610472e-06,0.0
739495144,-0.0005853745,4.5214914e-05,7.523529e-06,0.0
739694170,-0.0005868353,1.3440737e-05,1.3513715e-05,0.0
739893293,-0.0005655186,2.2850338e-05,7.0047604e-06,0.0
740092443,-0.0005807499,5.1810344e-05,8.8377965e-06,0.0
740291414,-0.00057782716,4.1450152e-05,7.7503255e-06,0.0
740495382,-0.0005492672,1.804791e-05,9.374147e-06,0.0
740694438,-0.00054576533,3.8894934e-05,7.719785e-06,0.0
740893496,-0.0005641361,4.7699705e-05,6.0792727e-06,0.0
741092543,-0.0005647842,3.2748256e-05,7.779656e-06,0.0
741291621,-0.0005479222,3.6421552e-05,7.3143888e-06,0.0
741491022,-0.00058776926,4.6581485e-05,5.236951e-06,0.0
741694853,-0.000602426,4.4927856e-05,6.240961e-06,0.0
741893922,-0.00059227966,5.4732984e-05,5.2426035e-06,0.0
742093066,-0.00059787475,5.3090644e-05,4.6259684e-06,0.0
742296938,-0.00055866654,4.4705645e-05,5.690969e-06,0.0
742496016,-0.00055986585,4.281423e-05,6.7336596e-06,0.0
742695126,-0.0005600112,3.1101357e-05,6.546937e-06,0.0
742894215,-0.0005575298,3.38795e-05,6.698352e-06,0.0
743093248,-0.00055458513,3.4314766e-05,6.056152e-06,0.0
743297399,-0.0005699376,4.000532e-05,7.1079303e-06,0.0
743496496,-0.0005706523,3.6450947e-05,6.4227897e-06,0.0
743695538,-0.00056941365,3.7063983e-05,5.7300526e-06,0.0
743894622,-0.00057792285,4.7103185e-05,4.3319515e-06,0.0
744093726,-0.00058202044,4.2721123e-05,5.278015e-06,0.0
744292801,-0.0005766228,3.905294e-05,4.6819664e-06,0.0
744491871,-0.000586474,3.5660003e-05,5.461077e-06,0.0
744695806,-0.0005594123,3.6064706e-05,4.845313e-06,0.0
744894906,-0.0005183767,4.031797e-05,2.9839587e-06,0.0
745093959,-0.00056125195,4.7049045e-05,3.342743e-06,0.0
745293008,-0.0005653288,4.4671422e-05,3.1858497e-06,0.0
745492080,-0.0005508763,3.2882286e-05,5.3591625e-06,0.0
745691182,-0.0005556711,4.1995427e-05,3.4765999e-06,0.0
745890260,-0.0005533548,3.778515e-05,4.4597414e-06,0.0
746094421,-0.00059111434,3.1444863e-05,6.419002e-06,0.0
746293548,-0.0005793484,2.8294879e-05,4.7428784e-06,0.0
746492573,-0.0005756124,2.9922172e-05,5.0621584e-06,0.0
746696518,-0.00054586097,3.042218e-05,5.9898275e-06,0.0
746895547,-0.0005390061,2.4172003e-05,5.2796972e-06,0.0
747094738,-0.00051816244,2.2585362e-05,4.965422e-06,0.0
747293707,-0.00054155063,3.1580606e-05,4.8676934e-06,0.0
747492771,-0.00053481926,5.5003162e-05,2.1416854e-06,0.0
747696965,-0.00058186025,3.8954877e-05,3.5187725e-06,0.0
747896003,-0.0005700133,3.257723e-05,3.865021e-06,0.0
748095135,-0.0005910059,3.9214527e-05,1.6656062e-06,0.0
748294188,-0.00058643945,3.8184906e-05,2.0011032e-06,0.0
748493226,-0.0005939508,3.3507527e-05,2.6133441e-06,0.0
748692301,-0.0005988075,3.109706e-05,3.986228e-06,0.0
748896253,-0.00057209725,2.815733e-05,2.6055977e-06,0.0
749095315,-0.0005646056,2.7800981e-05,4.501189e-06,0.0
749294433,-0.0005405263,3.4100107e-05,2.2460413e-06,0.0
749493471,-0.00055581937,3.4538134e-05,2.6112782e-06,0.0
749692547,-0.00054790435,2.9059409e-05,4.5309384e-06,0.0
749891666,-0.00054145575,3.1373747e-05,3.146664e-06,0.0
750090716,-0.00052799325,3.5252106e-05,3.1425604e-06,0.0
750294875,-0.00056328514,4.0600462e-05,3.1556317e-06,0.0
750494085,-0.0005906519,4.5735273e-05,2.1023045e-06,0.0
750693010,-0.0005743889,4.3058604e-05,2.1965818e-06,0.0
750892093,-0.0005856495,5.292031e-05,8.090302e-07,0.0
751096006,-0.00056309806,4.152627e-05,6.2878473e-07,0.0
751295075,-0.00057554373,3.367762e-05,9.248065e-07,0.0
751494147,-0.0005658414,2.916229e-05,1.7524977e-06,0.0
751693230,-0.0005760519,3.540258e-05,2.4378885e-06,0.0
751897457,-0.00060133624,2.922429e-05,2.2492748e-06,0.0
752096497,-0.0005963479,1.9123348e-05,4.766054e-06,0.0
752295528,-0.0005806435,1.2452016e-05,4.6115606e-06,0.0
752494657,-0.0005851641,1.3736316e-05,5.88138e-06,0.0
752693766,-0.0005470637,1.2553144e-05,4.8706365e-06,0.0
752892797,-0.0005702181,9.092359e-06,5.093726e-06,0.0
753096697,-0.00053591724,1.6371103e-05,2.7121166e-06,0.0
753295774,-0.00053524453,2.1531016e-05,3.1495933e-06,0.0
753494842,-0.00053899665,2.538882e-05,2.469072e-06,0.0
753693915,-0.00053741946,1.80825e-05,2.133582e-06,0.0
753892983,-0.0005504292,1.1722887e-05,4.899498e-06,0.0
754092063,-0.00056008337,1.7647848e-05,2.7629435e-06,0.0
754291140,-0.00055176276,1.9091744e-05,4.3616524e-06,0.0
754495328,-0.0005884635,9.46963e-06,3.845833e-06,0.0
754694420,-0.00058891485,-5.3526232e-06,6.6900043e-06,0.0
754893566,-0.0005617695,-5.460303e-07,4.8528236e-06,0.0
755092510,-0.00058186974,8.360018e-06,4.017687e-06,0.0
755291585,-0.0005798263,8.566762e-06,4.1813937e-06,0.0
755495564,-0.00055186206,3.5814408e-06,4.8129446e-06,0.0
755694598,-0.000551596,4.507602e-06,4.9014634e-06,0.0
755893807,-0.000563383,9.548351e-06,3.079664e-06,0.0
756092747,-0.0005180647,9.811531e-06,3.4343907e-06,0.0
756296900,-0.0005720918,8.402873e-06,3.4514305e-06,0.0
756495978,-0.00056945154,1.2711666e-06,5.018836e-06,0.0
756695045,-0.00056937337,3.985815e-06,3.804974e-06,0.0
756894130,-0.0005693973,1.659683e-07,4.054938e-06,0.0
757093194,-0.00056606525,-8.363367e-06,3.6254562e-06,0.0
757297141,-0.00054881966,1.4122213e-06,5.2138453e-06,0.0
757496216,-0.00054420374,4.587616e-06,3.98875e-06,0.0
757695306,-0.0005459211,6.8627373e-06,4.0833966e-06,0.0
757894357,-0.0005535633,2.078047e-06,3.9982206e-06,0.0
758093430,-0.0005600792,7.915772e-06,3.2677556e-06,0.0
758292582,-0.0005328168,1.0277234e-05,2.1572394e-06,0.0
758491578,-0.0005536413,1.0334467e-05,5.0407125e-06,0.0
758695788,-0.0006007113,1.8750641e-05,1.4598089e-06,0.0
758894853,-0.00059772853,2.8652375e-05,4.898271e-07,0.0
759093919,-0.0005941954,1.4383021e-05,5.9988736e-07,0.0
759293007,-0.00057768845,1.0175012e-05,2.8980683e-06,0.0
759492038,-0.00057016034,-3.6564456e-06,4.8468423e-06,0.0
759691086,-0.0005592406,-2.9185162e-06,3.6635065e-06,0.0
759895041,-0.0005354779,7.373855e-06,3.8623198e-06,0.0
760094129,-0.0005402238,2.734248e-06,2.5152497e-06,0.0
760293184,-0.0005487678,2.6150249e-06,3.2524076e-06,0.0
760492346,-0.0005163135,4.411554e-06,2.7318836e-06,0.0
760696416,-0.0005903286,-3.000453e-05,6.539168e-06,0.0
760895511,-0.0005875896,-3.9781257e-06,4.02212e-06,0.0
761094614,-0.0005911728,-4.247299e-06,6.0788507e-06,0.0
761293688,-0.00059520133,-1.0334278e-06,4.346487e-06,0.0
761497604,-0.0005574689,1.1680651e-07,3.8652956e-06,0.0
761696656,-0.00055756257,4.8750467e-06,2.9368282e-06,0.0
761895723,-0.0005482678,2.6872824e-05,1.9357694e-06,0.0
762094793,-0.0005647606,3.80384e-05,-3.609818e-07,0.0
762293860,-0.00053336134,3.3970115e-05,1.8397078e-07,0.0
762492933,-0.00054453366,1.28213305e-05,4.898278e-07,0.0
762692003,-0.0005538047,2.4502131e-05,2.1682895e-06,0.0
762896163,-0.0005693648,1.7137163e-05,9.154769e-07,0.0
763095234,-0.0006136631,1.7233053e-05,4.9785234e-07,0.0
763294348,-0.0005897516,3.470825e-05,-3.908132e-07,0.0
763493405,-0.0005976217,2.6067957e-05,3.6994635e-07,0.0
763692498,-0.00061311276,2.9757724e-05,1.1599923e-06,0.0
763891615,-0.0005715059,4.404566e-05,-2.993691e-06,0.0
764090602,-0.00061116164,4.7490743e-05,-4.4275676e-08,0.0
764294541,-0.00056678336,3.7224e-05,-4.3349306e-07,0.0
764493628,-0.0005620681,3.488059e-05,-4.3747488e-07,0.0
764692706,-0.0005710126,4.0421095e-05,-1.2016117e-06,0.0
764896917,-0.000588806,2.622077e-05,9.442719e-07,0.0
765096007,-0.00058579224,6.2276056e-05,-3.8719586e-06,0.0
765294986,-0.00058151846,2.0912832e-05,2.2163954e-06,0.0
765494149,-0.00059126545,2.7943037e-05,-1.19028655e-07,0.0
765698003,-0.00055434695,1.8552688e-05,1.507052e-06,0.0
765897075,-0.0005678607,1.6807142e-05,9.649899e-07,0.0
766096431,-0.00059328414,1.1825906e-05,1.298812e-06,0.0
766295214,-0.0005701959,2.0782645e-05,5.7237156e-07,0.0
766494310,-0.00058432267,3.4233333e-05,-4.525106e-07,0.0
766693409,-0.0005765381,3.247942e-05,-1.6299093e-06,0.0
766892435,-0.0005646315,2.9353052e-05,1.2432331e-07,0.0
767096591,-0.0006000275,3.376332e-05,-3.1564772e-07,0.0
767295686,-0.00059073715,3.4247238e-05,-1.7926701e-06,0.0
767494759,-0.000594614,3.084865e-05,-1.3129429e-06,0.0
767693839,-0.000586768,3.0133548e-05,-6.679558e-07,0.0
767892909,-0.0005851685,2.8426073e-05,1.4794512e-06,0.0
768091950,-0.0005900938,2.5572343e-05,-3.7049102e-07,0.0
768291052,-0.00058433507,1.6500871e-05,-8.929323e-07,0.0
768494964,-0.00057641295,2.3543122e-05,-6.1052475e-07,0.0
768694050,-0.00058328256,2.926582e-05,-1.0189583e-06,0.0
768893146,-0.0005828179,3.1191972e-05,-9.365561e-07,0.0
769092209,-0.0005831583,2.7338303e-05,-2.7653364e-06,0.0
769291248,-0.00057717017,2.4240077e-05,-1.1746729e-06,0.0
769495718,-0.0006307481,2.6873957e-05,-6.695618e-07,0.0
769694482,-0.0005971481,2.2746357e-05,-3.0896888e-07,0.0
769893559,-0.0005929308,1.7663433e-05,-1.1585407e-06,0.0
770097501,-0.0005780209,1.6321143e-05,3.9255193e-07,0.0
770296569,-0.00057378516,2.8382428e-05,-7.9512887e-07,0.0
770495821,-0.0005905656,2.3414506e-05,2.3357813e-07,0.0
770694711,-0.00057497394,1.4175416e-05,1.5274473e-07,0.0
770893784,-0.0005769594,1.1799522e-05,2.802138e-07,0.0
771092972,-0.00058112683,1.2956945e-05,-6.410211e-07,0.0
771291971,-0.0005766576,1.4913908e-05,4.2478183e-07,0.0
771496084,-0.00060612184,1.7895969e-05,-1.0571339e-06,0.0
771695600,-0.0006443102,2.2437842e-05,-1.2949653e-06,0.0
771894261,-0.0006065362,1.5802427e-05,1.2026156e-06,0.0
772093324,-0.0006022099,1.1617991e-05,1.8014073e-06,0.0
772292461,-0.00060669356,1.44903825e-05,-2.531713e-07,0.0
772491476,-0.00060403394,1.2200619e-05,1.5740649e-06,0.0
772695387,-0.00057595293,-7.5524923e-07,2.3670816e-06,0.0
772894458,-0.0005718151,-3.928711e-07,2.0370037e-06,0.0
773093532,-0.0005742862,1.0581098e-05,6.684907e-07,0.0
773292591,-0.0005849901,1.352462e-05,8.9946417e-07,0.0
773491666,-0.00057085714,1.5355212e-05,-1.4754382e-07,0.0
773690754,-0.00058215216,1.7649294e-05,-3.092605e-08,0.0
773895146,-0.00063116924,2.3574556e-05,2.6821553e-07,0.0
774094006,-0.00060574984,1.5436015e-05,7.9122685e-07,0.0
774293073,-0.0006012863,1.1782527e-05,1.9084423e-06,0.0
774497037,-0.00056029717,1.6871081e-05,2.8116725e-07,0.0
774696066,-0.0005740512,1.4722929e-05,1.1230007e-06,0.0
774895153,-0.00057815574,1.2213209e-05,6.412186e-07,0.0
775094193,-0.00057381886,1.1765533e-05,7.905932e-07,0.0
775293268,-0.00058154244,1.780881e-05,7.9666273e-07,0.0
775492335,-0.00058489776,2.6357206e-05,-1.177153e-06,0.0
775696490,-0.0006154334,2.9254355e-05,-1.6951453e-06,0.0
775895628,-0.0006207989,3.1089876e-05,-2.0274e-06,0.0
776094683,-0.0006180391,3.746114e-05,-1.7012641e-06,0.0
776293722,-0.0006092099,3.6364636e-05,-2.487887e-06,0.0
776492815,-0.00061320676,2.8860506e-05,-1.2552823e-06,0.0
776691879,-0.000594973,2.7334127e-05,-2.5721688e-06,0.0
776895786,-0.00057056214,3.3391534e-05,-3.065695e-07,0.0
777094887,-0.00057470205,3.223965e-05,-5.986936e-07,0.0
777293980,-0.0005654664,2.3325525e-05,-9.213992e-07,0.0
777493041,-0.00058155647,2.0873475e-05,-8.327844e-07,0.0
777692072,-0.00057692715,2.7556951e-05,-2.3262895e-07,0.0
777891143,-0.0005759975,2.5363386e-05,-5.060983e-07,0.0
778090214,-0.0005831778,2.6660253e-05,-1.0302391e-06,0.0
778294377,-0.00061085634,2.86162e-05,-1.5199847e-06,0.0
778493520,-0.0006237492,3.376322e-05,-1.6552691e-06,0.0
778692515,-0.0006073817,3.3748966e-05,-1.9148629e-06,0.0
778896484,-0.0005738796,2.991034e-05,-1.6952607e-06,0.0
779095600,-0.000563299,2.9420786e-05,-1.6386421e-06,0.0
779294637,-0.00057103415,2.4630363e-05,-1.6054199e-06,0.0
779494005,-0.00058898696,2.4582961e-05,-2.4202163e-07,0.0
779697829,-0.00059764023,2.7896584e-05,-1.1924309e-06,0.0
779896929,-0.000603537,2.5282678e-05,2.838918e-07,0.0
780096012,-0.00060322566,2.348914e-05,-4.0002192e-07,0.0
780295042,-0.00059737725,3.164305e-05,-1.8866548e-06,0.0
780494105,-0.0005989517,3.454604e-05,-2.4838812e-06,0.0
780693180,-0.0006057785,4.2515923e-05,-2.3573002e-06,0.0
780892269,-0.0005987303,3.0218433e-05,-1.3117809e-06,0.0
781096189,-0.00056901225,2.3301733e-05,-1.6125799e-06,0.0
781295260,-0.0005624855,2.5546648e-05,6.953788e-07,0.0
781494335,-0.000574526,3.484089e-05,-2.8075974e-06,0.0
781693451,-0.00057236716,3.1534288e-05,-7.7646166e-07,0.0
781892544,-0.0005656538,2.3988952e-05,-3.3490954e-07,0.0
782091540,-0.0005698305,2.9845594e-05,-5.562107e-07,0.0
782290643,-0.0005713,3.8186394e-05,-1.4698959e-06,0.0
782494780,-0.000599139,4.172774e-05,-1.6716548e-06,0.0
782693855,-0.0006016527,4.0228842e-05,-8.315323e-07,0.0
782893256,-0.0006375541,4.1566193e-05,-1.6217515e-06,0.0
783091983,-0.00059426547,3.3041128e-05,-1.1578384e-06,0.0
783295923,-0.00056644494,2.7875652e-05,1.834084e-07,0.0
783495006,-0.0005726923,2.7737726e-05,-6.848114e-07,0.0
783694066,-0.0005763764,3.3068107e-05,4.977282e-07,0.0
783898220,-0.0005895623,3.4599605e-05,-9.5325044e-07,0.0
784097364,-0.0006111924,3.147316e-05,-2.5187944e-06,0.0
784296397,-0.00060408254,3.7153048e-05,-1.9485967e-06,0.0
784495445,-0.0006034157,4.182127e-05,-2.6628202e-06,0.0
784694581,-0.0006084514,4.1913754e-05,-3.6499107e-06,0.0
784893602,-0.00060650444,3.2627813e-05,-2.0182965e-06,0.0
785092935,-0.0006256864,3.0016492e-05,-5.131211e-07,0.0
785296583,-0.0005585808,3.664195e-05,-2.0947105e-06,0.0
785495690,-0.0005743461,3.194813e-05,-2.982868e-06,0.0
785694729,-0.0005740568,3.0405075e-05,-7.8180165e-07,0.0
785893796,-0.00056083547,2.8797585e-05,-6.1002635e-07,0.0
786092874,-0.00057690777,3.6008183e-05,-2.9861253e-06,0.0
786291956,-0.0005761078,3.6213405e-05,-1.3514513e-06,0.0
786491006,-0.00057235017,4.0684212e-05,-3.3678643e-06,0.0
786690109,-0.0005731187,3.12586e-05,-2.2066126e-06,0.0
786894237,-0.0005974984,3.6557332e-05,-2.3351872e-06,0.0
787093318,-0.0006022772,3.9806237e-05,-2.357461e-06,0.0
787292700,-0.00063993834,4.160498e-05,-1.2133518e-06,0.0
787491449,-0.0005975111,3.816047e-05,-2.8849877e-06,0.0
787695384,-0.00057577016,3.7255097e-05,-1.9625347e-06,0.0
787894499,-0.00057508185,4.1315227e-05,-2.795945e-06,0.0
788093530,-0.0005764749,4.1159343e-05,-4.0457203e-06,0.0
788297689,-0.0005973738,3.407892e-05,-1.1784133e-06,0.0
788496795,-0.0006012943,3.2431122e-05,-8.4671814e-07,0.0
788695852,-0.0005991231,2.490718e-05,-9.196607e-07,0.0
788894920,-0.00059688074,4.343861e-05,-3.367418e-06,0.0
789093961,-0.00060110836,3.255116e-05,-2.934073e-06,0.0
789293064,-0.0005961619,2.4229694e-05,-8.539347e-07,0.0
789492140,-0.00060438237,2.4455036e-05,-5.851223e-07,0.0
789696047,-0.00056902244,2.4901732e-05,-2.0891264e-07,0.0
789895120,-0.0005694046,2.2813543e-05,-9.256328e-07,0.0
790094218,-0.0005774356,2.2027087e-05,-1.5824155e-06,0.0
790293288,-0.0005604096,2.0674284e-05,-8.150858e-07,0.0
790492349,-0.0005684643,2.6432026e-05,-1.3899144e-07,0.0
790691949,-0.00061677065,3.068426e-05,-1.8391405e-06,0.0
790895678,-0.0006012198,5.584536e-05,-3.5090686e-06,0.0
791094630,-0.0005753833,5.549131e-05,-1.4424912e-06,0.0
791293739,-0.0005889642,4.3093765e-05,-8.1035154e-07,0.0
791492823,-0.00060002017,2.3642517e-05,-2.100895e-06,0.0
791691835,-0.0006000245,3.4089226e-05,-3.1534114e-07,0.0
791890904,-0.0006011531,3.6068923e-05,-3.1047891e-06,0.0
792094841,-0.0005685648,3.0107936e-05,-9.84184e-07,0.0
792293915,-0.00056953705,2.7166276e-05,-1.2925603e-06,0.0
792492981,-0.0005773034,2.9803068e-05,-1.6951079e-06,0.0
792697204,-0.00060693297,3.268201e-05,-8.468029e-07,0.0
792896321,-0.000574481,2.8821494e-05,-8.8890977e-07,0.0
793095294,-0.0005920874,2.8326946e-05,-9.145337e-07,0.0
793294352,-0.0005923634,2.466036e-05,-1.4252322e-06,0.0
793493468,-0.00058902433,2.8984103e-05,-1.5046841e-06,0.0
793697359,-0.00055928715,2.9405119e-05,-1.5828158e-06,0.0
793896424,-0.000560795,2.8321903e-05,-1.297191e-06,0.0
794095591,-0.0005677805,2.6752283e-05,-2.6427208e-06,0.0
794294568,-0.00056311226,2.4520616e-05,-1.7748471e-06,0.0
794493669,-0.00057218596,2.405587e-05,-8.487985e-07,0.0
794692708,-0.00056241144,1.9977784e-05,-9.551198e-07,0.0
794891834,-0.0005777747,2.5359224e-05,-9.737652e-07,0.0
795095955,-0.0005811702,2.2076381e-05,-6.002057e-08,0.0
795295008,-0.00059389404,1.9784238e-05,-5.651397e-07,0.0
795494071,-0.00059130293,3.1580843e-05,-1.647054e-06,0.0
795693174,-0.0005932459,3.0528387e-05,-2.3205453e-06,0.0
795892213,-0.0005919235,2.9658995e-05,-1.204918e-06,0.0
796091332,-0.0005910458,2.4216832e-05,-1.1087868e-06,0.0
796290644,-0.0006105305,2.4155766e-05,-9.707653e-07,0.0
796494288,-0.0005622854,2.5583451e-05,-2.9320004e-06,0.0
796693359,-0.00056697417,2.5742163e-05,-8.6364236e-07,0.0
796892464,-0.0005634679,2.4834886e-05,-1.1245228e-06,0.0
797096689,-0.0005956581,1.8800394e-05,-1.9724862e-07,0.0
797295652,-0.0005867873,2.173298e-05,-5.7124055e-07,0.0
797494774,-0.0005970387,2.1672004e-05,-8.1658965e-07,0.0
797693848,-0.00059205835,1.4737255e-05,-1.3538391e-07,0.0
797897747,-0.0005624481,1.7285323e-05,-4.1707477e-07,0.0
798096801,-0.000558889,2.2924565e-05,-7.162511e-07,0.0
798295867,-0.00055173173,2.1877371e-05,5.84599e-07,0.0
798494990,-0.0005520274,2.1799488e-05,7.849508e-08,0.0
798694013,-0.00056133716,2.164214e-05,-9.805519e-07,0.0
798893085,-0.00056275073,1.8585617e-05,-1.0663865e-06,0.0
799092188,-0.00056660053,1.519826e-05,-1.5395202e-06,0.0
799296307,-0.0005897489,2.1139005e-05,1.0433098e-06,0.0
799495407,-0.00059612497,2.403421e-05,2.1957726e-07,0.0
799694452,-0.0005923105,2.0991762e-05,-7.423217e-07,0.0
799893540,-0.00058952667,2.4919156e-05,-7.7606865e-07,0.0
800092615,-0.0005907274,3.2884782e-05,-1.966431e-06,0.0
800291742,-0.00059588,3.461628e-05,3.4872537e-07,0.0
800490759,-0.0005967882,2.9871311e-05,-1.4242735e-06,0.0
800690101,-0.00063117937,2.7768285e-05,-2.3613115e-06,0.0
800893737,-0.0005721806,1.9523895e-05,-1.3105504e-06,0.0
801092806,-0.0005697477,1.8423467e-05,3.1962313e-07,0.0
801291897,-0.00056108326,1.8762976e-05,-6.21252e-07,0.0
801496056,-0.0005990263,1.9297931e-05,3.9139528e-07,0.0
801695130,-0.00059340213,1.86072e-05,-9.800232e-07,0.0
801894199,-0.0005913744,1.2380048e-05,1.6635413e-07,0.0
802098138,-0.0005652757,2.2641818e-05,-1.8322944e-06,0.0
802297196,-0.0005557837,2.3052435e-05,-2.3132504e-06,0.0
802496239,-0.0005605595,1.6108648e-05,-7.224805e-07,0.0
802695313,-0.0005650133,1.0656457e-05,-1.2636123e-06,0.0
802894430,-0.0005790335,8.3705993e-07,7.2972654e-07,0.0
803093503,-0.000563541,-1.4682369e-05,6.721441e-07,0.0
