timestamp,timestamp_sample,ref_timestamp,ref_lat,ref_lon,x,y,z,delta_xy[0],delta_xy[1],delta_z,vx,vy,vz,z_deriv,delta_vxy[0],delta_vxy[1],delta_vz,ax,ay,az,heading,delta_heading,ref_alt,dist_bottom,eph,epv,evh,evv,vxy_max,vz_max,hagl_min,hagl_max,xy_valid,z_valid,v_xy_valid,v_z_valid,xy_reset_counter,z_reset_counter,vxy_reset_counter,vz_reset_counter,heading_reset_counter,heading_good_for_control,xy_global,z_global,dist_bottom_valid,dist_bottom_sensor_bitfield
539792027,539791676,45936231,42.3585499,-71.08724959999999,3.5228918,-2.965403,5.3970246,47.302635,102.79922,-0.00024282932,0.058195144,0.024354327,0.022658233,0.01165232,10.28581,20.871662,-1.5133445,0.022864392,0.030949913,3.0305093e-05,3.0521445,0.01443576,5.8792663,0.101756096,0.6252761,0.46207702,0.20629792,0.12834045,inf,inf,inf,inf,1,1,1,1,16,85,16,100,4,0,1,1,1,0
540299768,540299361,45936231,42.3585499,-71.08724959999999,3.552547,-2.9891098,5.4031477,47.302635,102.79922,-0.00024282932,0.05482375,0.020854028,0.019822914,0.010648914,10.28581,20.871662,-1.5133445,0.027898334,-0.0076775756,-0.09926137,3.0509033,0.01443576,5.8792663,0.1,0.62724775,0.45826697,0.20153363,0.12687649,inf,inf,inf,inf,1,1,1,1,16,85,16,100,4,0,1,1,1,0
540797441,540797091,45936231,42.3585499,-71.08724959999999,3.5839825,-3.036883,5.3952594,47.302635,102.79922,-0.00024282932,0.053979445,0.006509682,0.014834551,-0.0014610105,10.28581,20.871662,-1.5133445,0.007396409,-0.036685307,0.050821345,3.049536,0.01443576,5.8792663,0.1,0.59326404,0.44903994,0.18027414,0.12171905,inf,inf,inf,inf,1,1,1,1,16,85,16,100,4,0,1,1,1,0
541295170,541294822,45936231,42.3585499,-71.08724959999999,3.5896833,-3.1122682,5.3788977,47.302635,102.79922,-0.00024282932,0.03838769,-0.017576983,0.010910962,-0.018268581,10.28581,20.871662,-1.5133445,0.0007171239,-0.03666002,-0.072931595,3.0481904,0.01443576,5.8792663,0.1,0.59650475,0.44903797,0.18191856,0.12177541,inf,inf,inf,inf,1,1,1,1,16,85,16,100,4,0,1,1,1,0
541793004,541792552,45936231,42.3585499,-71.08724959999999,3.601157,-3.1761518,5.3564997,47.302635,102.79922,-0.00024282932,0.02775583,-0.032400176,0.012697469,-0.025639078,10.28581,20.871662,-1.5133445,0.0020907088,-0.0045805303,0.048602793,3.047386,0.01443576,5.8792663,0.1,0.5828064,0.44761735,0.17950481,0.12112445,inf,inf,inf,inf,1,1,1,1,16,85,16,100,4,0,1,1,1,0
542290688,542290282,45936231,42.3585499,-71.08724959999999,3.619428,-3.2250779,5.3391294,47.302635,102.79922,-0.00024282932,0.026557185,-0.040454406,0.007242428,-0.034362953,10.28581,20.871662,-1.5133445,0.027729884,0.0036177416,-0.08655931,3.0469947,0.01443576,5.8792663,0.1,0.59526104,0.4481387,0.18885128,0.12286991,inf,inf,inf,inf,1,1,1,1,16,85,16,100,4,0,1,1,1,0
542798352,542797967,45936231,42.3585499,-71.08724959999999,3.6359813,-3.3121026,5.3047967,47.302635,102.79922,-0.00024282932,0.019075487,-0.06486982,-0.00073457765,-0.05120801,10.28581,20.871662,-1.5133445,0.024791012,-0.05172326,-0.092812285,3.0464945,0.01443576,5.8792663,0.1,0.584362,0.4484466,0.18624593,0.122583486,inf,inf,inf,inf,1,1,1,1,16,85,16,100,4,0,1,1,1,0
543296039,543295698,45936231,42.3585499,-71.08724959999999,3.6490476,-3.3560083,5.2756376,47.302635,102.79922,-0.00024282932,0.015615687,-0.06789755,-0.018074824,-0.06509824,10.28581,20.871662,-1.5133445,0.016399391,0.007743533,-0.062255476,3.0459049,0.01443576,5.8792663,0.10570383,0.593476,0.45092654,0.1911343,0.123736374,inf,inf,inf,inf,1,1,1,1,16,85,16,100,4,0,1,1,1,0
543793782,543793429,45936231,42.3585499,-71.08724959999999,3.652998,-3.3699653,5.2552443,47.302635,102.79922,-0.00024282932,0.010908649,-0.05804154,-0.018645408,-0.054673325,10.28581,20.871662,-1.5133445,-0.024228996,-0.006501681,0.050603908,3.0454967,0.01443576,5.8792663,0.1086154,0.5787022,0.44910717,0.18478946,0.1225067,inf,inf,inf,inf,1,1,1,1,16,85,16,100,4,0,1,1,1,0
544301491,544301114,45936231,42.3585499,-71.08724959999999,3.686825,-3.3756466,5.2395496,47.302635,102.79922,-0.00024282932,0.016881779,-0.044315338,-0.009141187,-0.03809538,10.28581,20.871662,-1.5133445,-0.022979023,-0.0057096104,0.019228555,3.0451572,0.01443576,5.8792663,0.1,0.5905782,0.4493794,0.1913519,0.123666026,inf,inf,inf,inf,1,1,1,1,16,85,16,100,4,0,1,1,1,0
544789237,544788889,45936231,42.3585499,-71.08724959999999,3.7085414,-3.367023,5.2328734,47.302635,102.79922,-0.00024282932,0.025365952,-0.028642992,-0.00931073,-0.0295145,10.28581,20.871662,-1.5133445,0.012288937,0.006868907,-0.05040745,3.0449855,0.01443576,5.8792663,0.10596371,0.5781381,0.44816634,0.18764777,0.1230258,inf,inf,inf,inf,1,1,1,1,16,85,16,100,4,0,1,1,1,0
545296922,545296575,45936231,42.3585499,-71.08724959999999,3.7449646,-3.373327,5.2224355,47.302635,102.79922,-0.00024282932,0.037197743,-0.023796963,-0.0069576385,-0.026547797,10.28581,20.871662,-1.5133445,0.0066885077,-0.07441136,-0.047120973,3.0446746,0.01443576,5.8792663,0.1,0.5964287,0.4543608,0.19812988,0.12567139,inf,inf,inf,inf,1,1,1,1,16,85,16,100,4,0,1,1,1,0
545794651,545794305,45936231,42.3585499,-71.08724959999999,3.7312303,-3.3926497,5.21966,47.302635,102.79922,-0.00024282932,0.02584339,-0.024801161,-0.0071542305,-0.019185215,10.28581,20.871662,-1.5133445,0.0031063783,0.11224607,0.14103295,3.0444484,0.01443576,5.8792663,0.10177708,0.5899016,0.45570678,0.19712253,0.12589772,inf,inf,inf,inf,1,1,1,1,16,85,16,100,4,0,1,1,1,0
546292440,546292036,45936231,42.3585499,-71.08724959999999,3.7400284,-3.404225,5.199867,47.302635,102.79922,-0.00024282932,0.029466461,-0.019081997,-0.01477507,-0.03476564,10.28581,20.871662,-1.5133445,-0.013353616,0.015857486,-0.07094782,3.0439944,0.01443576,5.8792663,0.1,0.60317916,0.4551245,0.20164387,0.12647347,inf,inf,inf,inf,1,1,1,1,16,85,16,100,4,0,1,1,1,0
546800145,546799722,45936231,42.3585499,-71.08724959999999,3.752421,-3.3875623,5.1920977,47.302635,102.79922,-0.00024282932,0.03149443,-0.007380396,-0.012764899,-0.02682016,10.28581,20.871662,-1.5133445,0.014176431,0.012102009,0.035631794,3.0433993,0.01443576,5.8792663,0.10783291,0.5994645,0.45796308,0.20120338,0.12699959,inf,inf,inf,inf,1,1,1,1,16,85,16,100,4,0,1,1,1,0
547297824,547297452,45936231,42.3585499,-71.08724959999999,3.7948298,-3.3496819,5.198015,47.302635,102.79922,-0.00024282932,0.04296592,0.015138167,0.0040417938,0.0026297986,10.28581,20.871662,-1.5133445,-2.5968973e-05,0.03624339,0.0055954116,3.0430849,0.01443576,5.8792663,0.10791254,0.6165826,0.4622646,0.20774831,0.1285178,inf,inf,inf,inf,1,1,1,1,16,85,16,100,4,0,1,1,1,0
547795587,547795183,45936231,42.3585499,-71.08724959999999,3.8225296,-3.3143563,5.2015905,47.302635,102.79922,-0.00024282932,0.04722673,0.0328689,0.00507704,0.005496156,10.28581,20.871662,-1.5133445,-0.002790495,0.008221444,0.15076123,3.0427687,0.01443576,5.8792663,0.1026454,0.6080938,0.4589679,0.20373452,0.1275529,inf,inf,inf,inf,1,1,1,1,16,85,16,100,4,0,1,1,1,0
548293312,548292914,45936231,42.3585499,-71.08724959999999,3.8514547,-3.303086,5.211585,47.302635,102.79922,-0.00024282932,0.04872784,0.036268447,0.011110826,0.016609797,10.28581,20.871662,-1.5133445,-0.011583402,0.020657225,0.05947477,3.0423298,0.01443576,5.8792663,0.1020484,0.61934197,0.4610887,0.20559034,0.12794651,inf,inf,inf,inf,1,1,1,1,16,85,16,100,4,0,1,1,1,0
548791004,548790645,45936231,42.3585499,-71.08724959999999,3.926853,-3.2576118,5.231219,47.302635,102.79922,-0.00024282932,0.07135705,0.05053728,0.01835905,0.028778914,10.28581,20.871662,-1.5133445,-0.0011041064,0.0016688032,-0.0017541216,3.0420845,0.01443576,5.8792663,0.1,0.6135535,0.46248037,0.203863,0.12797654,inf,inf,inf,inf,1,1,1,1,16,85,16,100,4,0,1,1,1,0
549298694,549298331,45936231,42.3585499,-71.08724959999999,3.9478903,-3.23017,5.246391,47.302635,102.79922,-0.00024282932,0.06472981,0.058037724,0.020627482,0.028584491,10.28581,20.871662,-1.5133445,0.018593617,0.019808663,-0.005170675,3.0418532,0.01443576,5.8792663,0.1,0.63297814,0.4674664,0.21099827,0.12954003,inf,inf,inf,inf,1,1,1,1,16,85,16,100,4,0,1,1,1,0
549796432,549796062,45936231,42.3585499,-71.08724959999999,3.9564872,-3.2300296,5.259463,47.302635,102.79922,-0.00024282932,0.05238503,0.054217044,0.028638974,0.03196444,10.28581,20.871662,-1.5133445,0.0033389286,0.008906329,0.008556323,3.0411463,0.01443576,5.8792663,0.1,0.61271214,0.4600798,0.19869038,0.12661137,inf,inf,inf,inf,1,1,1,1,16,85,16,100,4,0,1,1,1,0
550294261,550293793,45936231,42.3585499,-71.08724959999999,4.011609,-3.2501812,5.256306,47.302635,102.79922,-0.00024282932,0.06354292,0.040364005,0.02514272,0.013488745,10.28581,20.871662,-1.5133445,-0.012605505,0.00021681632,0.0030789506,3.0403814,0.01443576,5.8792663,0.1,0.6212779,0.46117967,0.20015185,0.1267403,inf,inf,inf,inf,1,1,1,1,16,85,16,100,4,0,1,1,1,0
550791893,550791524,45936231,42.3585499,-71.08724959999999,4.0219398,-3.2405808,5.2515907,47.302635,102.79922,-0.00024282932,0.0497734,0.042368,0.034800496,0.012207167,10.28581,20.871662,-1.5133445,0.014018237,0.015303053,0.029750293,3.0395389,0.01443576,5.8792663,0.1,0.6011012,0.45732197,0.18947573,0.124407224,inf,inf,inf,inf,1,1,1,1,16,85,16,100,4,0,1,1,1,0
551299668,551299210,45936231,42.3585499,-71.08724959999999,4.0295806,-3.2449868,5.232698,47.302635,102.79922,-0.00024282932,0.045907706,0.03705615,0.02666424,-0.01374013,10.28581,20.871662,-1.5133445,0.013996315,0.041205022,-0.022744339,3.0385084,0.01443576,5.8792663,0.1,0.6087758,0.45882612,0.19217314,0.12482326,inf,inf,inf,inf,1,1,1,1,16,85,16,100,4,0,1,1,1,0
551797390,551796941,45936231,42.3585499,-71.08724959999999,4.051012,-3.2589564,5.211424,47.302635,102.79922,-0.00024282932,0.04499178,0.028716875,0.02101003,-0.027909227,10.28581,20.871662,-1.5133445,-0.0015875819,-0.0120311305,0.04385954,3.0377882,0.01443576,5.8792663,0.1,0.591863,0.45209414,0.18550694,0.122728504,inf,inf,inf,inf,1,1,1,1,16,85,16,100,4,0,1,1,1,0
552295024,552294672,45936231,42.3585499,-71.08724959999999,4.0984282,-3.2729092,5.1973996,47.302635,102.79922,-0.00024282932,0.04993802,0.023816673,0.017676285,-0.03114727,10.28581,20.871662,-1.5133445,-0.008835787,0.028193548,0.0115108155,3.0375028,0.01443576,5.8792663,0.1,0.6022795,0.454431,0.19151029,0.12397365,inf,inf,inf,inf,1,1,1,1,16,85,16,100,4,0,1,1,1,0
552792812,552792404,45936231,42.3585499,-71.08724959999999,4.109819,-3.2856433,5.1830626,47.302635,102.79922,-0.00024282932,0.041004494,0.020019783,0.018586762,-0.028779317,10.28581,20.871662,-1.5133445,-0.0043201926,0.002456093,-0.016225312,3.0370183,0.01443576,5.8792663,0.1,0.5822424,0.4500808,0.18173628,0.12166801,inf,inf,inf,inf,1,1,1,1,16,85,16,100,4,0,1,1,1,0
553300482,553300090,45936231,42.3585499,-71.08724959999999,4.128062,-3.3082469,5.187407,47.302635,102.79922,-0.00024282932,0.03736059,0.014119611,0.026997708,-0.0070677325,10.28581,20.871662,-1.5133445,0.00043582264,-0.0138948,-0.040156823,3.0364113,0.01443576,5.8792663,0.10197163,0.5873968,0.45095134,0.18394077,0.12205247,inf,inf,inf,inf,1,1,1,1,16,85,16,100,4,0,1,1,1,0
553798203,553797821,45936231,42.3585499,-71.08724959999999,4.166183,-3.3614874,5.2040615,47.302635,102.79922,-0.00024282932,0.04683535,-0.006143989,0.032755073,0.014016721,10.28581,20.871662,-1.5133445,-0.014873202,0.03418855,-0.032795213,3.035934,0.01443576,5.8792663,0.1,0.5684025,0.44300598,0.17636837,0.119559474,inf,inf,inf,inf,1,1,1,1,16,85,16,100,4,0,1,1,1,0
554295898,554295553,45936231,42.3585499,-71.08724959999999,4.1645017,-3.3949726,5.198809,47.302635,102.79922,-0.00024282932,0.03640239,-0.01444097,0.028760925,0.001206784,10.28581,20.871662,-1.5133445,0.020505728,-0.008033621,0.04536246,3.0353856,0.01443576,5.8792663,0.1,0.5751245,0.44448757,0.18122418,0.12065343,inf,inf,inf,inf,1,1,1,1,16,85,16,100,4,0,1,1,1,0
554793687,554793284,45936231,42.3585499,-71.08724959999999,4.150276,-3.4071279,5.1856804,47.302635,102.79922,-0.00024282932,0.019039437,-0.013886609,0.034425095,-0.00406282,10.28581,20.871662,-1.5133445,0.006036262,-0.008841238,-0.051612537,3.0348606,0.01443576,5.8792663,0.1,0.5636146,0.44371352,0.1793969,0.12040727,inf,inf,inf,inf,1,1,1,1,16,85,16,100,4,0,1,1,1,0
555291360,555291016,45936231,42.3585499,-71.08724959999999,4.0954084,-3.3433497,5.168224,47.302635,102.79922,-0.00024282932,-0.0018302499,0.020154903,0.025935993,-0.020987138,10.28581,20.871662,-1.5133445,-0.00610061,0.024297634,-0.09808024,3.0343852,0.01443576,5.8792663,0.1,0.5727891,0.44643906,0.18539943,0.12196072,inf,inf,inf,inf,1,1,1,1,16,85,16,100,4,0,1,1,1,0
555799076,555798705,45936231,42.3585499,-71.08724959999999,4.061851,-3.3366623,5.148596,47.302635,102.79922,-0.00024282932,-0.017789615,0.019440325,0.02794053,-0.025625007,10.28581,20.871662,-1.5133445,-0.018392181,0.013912044,0.020534368,3.0339305,0.01443576,5.8792663,0.1,0.5521715,0.43819317,0.17357647,0.11867035,inf,inf,inf,inf,1,1,1,1,16,85,16,100,4,0,1,1,1,0
556296839,556296434,45936231,42.3585499,-71.08724959999999,4.0439014,-3.3171084,5.127109,47.302635,102.79922,-0.00024282932,-0.025379939,0.026705148,0.021158999,-0.03511866,10.28581,20.871662,-1.5133445,0.0057775388,0.022072615,0.070189565,3.033315,0.01443576,5.8792663,0.1,0.5637775,0.44235015,0.18280406,0.12109657,inf,inf,inf,inf,1,1,1,1,16,85,16,100,4,0,1,1,1,0
556794527,556794166,45936231,42.3585499,-71.08724959999999,4.067081,-3.3159423,5.1154714,47.302635,102.79922,-0.00024282932,-0.010219329,0.027251923,0.013143546,-0.034926012,10.28581,20.871662,-1.5133445,0.025400005,-0.0005033878,0.037511513,3.0330212,0.01443576,5.8792663,0.10373545,0.55058604,0.44088706,0.17819396,0.12022536,inf,inf,inf,inf,1,1,1,1,16,85,16,100,4,0,1,1,1,0
557292247,557291898,45936231,42.3585499,-71.08724959999999,4.0957036,-3.3144405,5.0961843,47.302635,102.79922,-0.00024282932,0.0027811727,0.025631491,0.0047380226,-0.04344048,10.28581,20.871662,-1.5133445,-0.029329855,0.0051631234,0.045372188,3.0327573,0.01443576,5.8792663,0.10206699,0.56788486,0.4471185,0.19046007,0.12346733,inf,inf,inf,inf,1,1,1,1,16,85,16,100,4,0,1,1,1,0
557799950,557799584,45936231,42.3585499,-71.08724959999999,4.113209,-3.3213959,5.0724845,47.302635,102.79922,-0.00024282932,0.0031496028,0.020746516,0.0053543127,-0.042598445,10.28581,20.871662,-1.5133445,0.011159317,-0.0073221326,-0.0035654944,3.0324314,0.01443576,5.8792663,0.10122442,0.563619,0.44625372,0.19110422,0.12376442,inf,inf,inf,inf,1,1,1,1,16,85,16,100,4,0,1,1,1,0
558297668,558297316,45936231,42.3585499,-71.08724959999999,4.135319,-3.316669,5.06582,47.302635,102.79922,-0.00024282932,0.00422409,0.020865114,0.003910664,-0.030784134,10.28581,20.871662,-1.5133445,0.029249497,-0.01913733,-0.05264023,3.0322208,0.01443576,5.8792663,0.11096287,0.5780342,0.45049942,0.19726095,0.1254436,inf,inf,inf,inf,1,1,1,1,16,85,16,100,4,0,1,1,1,0
558795410,558795048,45936231,42.3585499,-71.08724959999999,4.168292,-3.2974293,5.073437,47.302635,102.79922,-0.00024282932,0.013806997,0.025884485,0.00938004,-0.010930665,10.28581,20.871662,-1.5133445,0.00023444013,0.007408273,-0.055539172,3.03219,0.01443576,5.8792663,0.103217125,0.5660174,0.45000884,0.1910254,0.12452945,inf,inf,inf,inf,1,1,1,1,16,85,16,100,4,0,1,1,1,0
559293126,559292780,45936231,42.3585499,-71.08724959999999,4.1808205,-3.3391738,5.064369,47.302635,102.79922,-0.00024282932,0.016070155,0.0022388618,0.0059520137,-0.017823026,10.28581,20.871662,-1.5133445,-0.012312637,-0.0286371,0.03699354,3.0319083,0.01443576,5.8792663,0.1,0.57699364,0.45293248,0.19452053,0.12544724,inf,inf,inf,inf,1,1,1,1,16,85,16,100,4,0,1,1,1,0
559791016,559790512,45936231,42.3585499,-71.08724959999999,4.1876373,-3.345698,5.062659,47.302635,102.79922,-0.00024282932,0.01543125,-0.00062452926,0.0045726122,-0.012267446,10.28581,20.871662,-1.5133445,-0.033880483,-0.015445152,0.14280091,3.03146,0.01443576,5.8792663,0.10976839,0.56525326,0.44862464,0.18911357,0.12400924,inf,inf,inf,inf,1,1,1,1,16,85,16,100,4,0,1,1,1,0
560298568,560298199,45936231,42.3585499,-71.08724959999999,4.197543,-3.3294716,5.0759506,47.302635,102.79922,-0.00024282932,0.0169848,0.004911454,0.011260023,0.00794827,10.28581,20.871662,-1.5133445,-0.0031423285,-0.01844222,0.061683595,3.0312746,0.01443576,5.8792663,0.100979805,0.5793436,0.45297256,0.19493777,0.1254668,inf,inf,inf,inf,1,1,1,1,16,85,16,100,4,0,1,1,1,0
560796294,560795931,45936231,42.3585499,-71.08724959999999,4.218525,-3.3306246,5.078469,47.302635,102.79922,-0.00024282932,0.028424507,0.00090771343,0.0032253577,-0.0027619805,10.28581,20.871662,-1.5133445,0.013579998,0.011860641,0.030747296,3.0308886,0.01443576,5.8792663,0.10052109,0.57029843,0.45330784,0.19156049,0.12502992,inf,inf,inf,inf,1,1,1,1,16,85,16,100,4,0,1,1,1,0
561294057,561293663,45936231,42.3585499,-71.08724959999999,4.2374597,-3.3244662,5.081979,47.302635,102.79922,-0.00024282932,0.035855655,-0.0025559855,0.010652063,0.0052163154,10.28581,20.871662,-1.5133445,0.0029321802,-0.025421586,0.06001294,3.0305262,0.01443576,5.8792663,0.100803375,0.5845758,0.45703197,0.19732665,0.12636681,inf,inf,inf,inf,1,1,1,1,16,85,16,100,4,0,1,1,1,0
561801694,561801350,45936231,42.3585499,-71.08724959999999,4.214828,-3.3246045,5.0902658,47.302635,102.79922,-0.00024282932,0.026822422,-0.0064269598,0.010323857,0.008462847,10.28581,20.871662,-1.5133445,-0.008552124,-0.011620674,0.07246875,3.0302215,0.01443576,5.8792663,0.11135054,0.5749039,0.45371243,0.19252625,0.12515369,inf,inf,inf,inf,1,1,1,1,16,85,16,100,4,0,1,1,1,0
562289479,562289128,45936231,42.3585499,-71.08724959999999,4.194687,-3.2928908,5.111762,47.302635,102.79922,-0.00024282932,0.020740785,0.0037580694,0.031867776,0.03598788,10.28581,20.871662,-1.5133445,-0.026412776,0.002627442,0.041510742,3.0299017,0.01443576,5.8792663,0.1,0.57888204,0.4529206,0.19078368,0.12450434,inf,inf,inf,inf,1,1,1,1,16,85,16,100,4,0,1,1,1,0
562797160,562796815,45936231,42.3585499,-71.08724959999999,4.1918726,-3.2491848,5.1142964,47.302635,102.79922,-0.00024282932,0.022802122,0.014685288,0.027963767,0.020230789,10.28581,20.871662,-1.5133445,-0.1003741,-0.13909651,-0.57970256,3.0295382,0.01443576,5.8792663,0.1,0.5725498,0.45436344,0.189468,0.12452626,inf,inf,inf,inf,1,1,1,1,16,85,16,100,4,0,1,1,1,0
563294954,563294547,45936231,42.3585499,-71.08724959999999,4.1723285,-3.2225733,5.107601,47.302635,102.79922,-0.00024282932,0.015540012,0.013879441,0.023492698,0.003194246,10.28581,20.871662,-1.5133445,0.008599729,-0.013960062,0.005028796,3.0291944,0.01443576,5.8792663,0.1,0.5865913,0.4578513,0.19562197,0.12589724,inf,inf,inf,inf,1,1,1,1,16,85,16,100,4,0,1,1,1,0
563792634,563792280,45936231,42.3585499,-71.08724959999999,4.1505804,-3.1923306,5.108708,47.302635,102.79922,-0.00024282932,0.01239862,0.014449197,0.024463825,0.004483321,10.28581,20.871662,-1.5133445,-0.0025349583,0.015037535,0.0056852316,3.028745,0.01443576,5.8792663,0.1,0.576884,0.45396686,0.1923863,0.124897145,inf,inf,inf,inf,1,1,1,1,16,85,16,100,4,0,1,1,1,0
564300389,564299967,45936231,42.3585499,-71.08724959999999,4.1120124,-3.1628034,5.12267,47.302635,102.79922,-0.00024282932,0.006418095,0.0120806955,0.02169488,0.012857935,10.28581,20.871662,-1.5133445,0.0322389,-0.0047570905,-0.075972505,3.0281754,0.01443576,5.8792663,0.102303505,0.586727,0.45617953,0.19455576,0.12536544,inf,inf,inf,inf,1,1,1,1,16,85,16,100,4,0,1,1,1,0
564798078,564797700,45936231,42.3585499,-71.08724959999999,4.088516,-3.1671286,5.1260543,47.302635,102.79922,-0.00024282932,0.01427513,-0.0042108893,0.023802117,0.011460921,10.28581,20.871662,-1.5133445,-0.011057681,-0.01199664,0.009529928,3.0276654,0.01443576,5.8792663,0.1,0.5819659,0.4579225,0.19501767,0.12583536,inf,inf,inf,inf,1,1,1,1,16,85,16,100,4,0,1,1,1,0
565295953,565295432,45936231,42.3585499,-71.08724959999999,4.031042,-3.150558,5.132063,47.302635,102.79922,-0.00024282932,-7.470371e-07,-0.007989425,0.041447207,0.02392227,10.28581,20.871662,-1.5133445,0.02074489,-0.053933796,-0.037519753,3.0272145,0.01443576,5.8792663,0.1,0.60057735,0.45869958,0.20354614,0.12720363,inf,inf,inf,inf,1,1,1,1,16,85,16,100,4,0,1,1,1,0
565793511,565793165,45936231,42.3585499,-71.08724959999999,3.955117,-3.133356,5.135118,47.302635,102.79922,-0.00024282932,-0.009948603,-0.008930708,0.036717035,0.015092282,10.28581,20.871662,-1.5133445,0.014597007,0.023181882,0.12925783,3.0264218,0.01443576,5.8792663,0.1,0.58628345,0.45694932,0.19504476,0.12569393,inf,inf,inf,inf,1,1,1,1,16,85,16,100,4,0,1,1,1,0
566291237,566290897,45936231,42.3585499,-71.08724959999999,3.8786871,-3.109766,5.1446633,47.302635,102.79922,-0.00024282932,-0.020190544,-0.009523634,0.035274234,0.016155468,10.28581,20.871662,-1.5133445,0.03608587,-0.057864286,0.025648506,3.0258863,0.01443576,5.8792663,0.1,0.5966521,0.45857236,0.19715977,0.12608112,inf,inf,inf,inf,1,1,1,1,16,85,16,100,4,0,1,1,1,0
566798982,566798584,45936231,42.3585499,-71.08724959999999,3.7995882,-3.0464203,5.145129,47.302635,102.79922,-0.00024282932,-0.037963454,0.008874799,0.035664048,0.011233826,10.28581,20.871662,-1.5133445,-0.03290146,-0.030492844,0.09598516,3.025515,0.01443576,5.8792663,0.1,0.59337795,0.46094,0.19755675,0.12659037,inf,inf,inf,inf,1,1,1,1,16,85,16,100,4,0,1,1,1,0
567296669,567296317,45936231,42.3585499,-71.08724959999999,3.767193,-2.9537897,5.155762,47.302635,102.79922,-0.00024282932,-0.035545953,0.03574509,0.041091733,0.018169612,10.28581,20.871662,-1.5133445,-0.0072333873,0.0923071,0.19485168,3.02498,0.01443576,5.8792663,0.1,0.60977113,0.4604621,0.20374444,0.1273446,inf,inf,inf,inf,1,1,1,1,16,85,16,100,4,0,1,1,1,0
567794471,567794050,45936231,42.3585499,-71.08724959999999,3.766496,-2.8329508,5.1755505,47.302635,102.79922,-0.00024282932,-0.007260896,0.06943005,0.03683432,0.024492623,10.28581,20.871662,-1.5133445,0.009261215,0.019531867,0.07054895,3.0245652,0.01443576,5.8792663,0.10071659,0.6065529,0.4622306,0.20379455,0.12773052,inf,inf,inf,inf,1,1,1,1,16,85,16,100,4,0,1,1,1,0
568292133,568291782,45936231,42.3585499,-71.08724959999999,3.749524,-2.6977932,5.1953955,47.302635,102.79922,-0.00024282932,-0.00524075,0.1020474,0.054959692,0.04404089,10.28581,20.871662,-1.5133445,0.0209652,0.1540918,-0.11363709,3.0243201,0.01443576,5.8792663,0.1,0.6236605,0.4656512,0.20923904,0.12888892,inf,inf,inf,inf,1,1,1,1,16,85,16,100,4,0,1,1,1,0
568799844,568799470,45936231,42.3585499,-71.08724959999999,3.6618783,-2.6530888,5.2086344,47.302635,102.79922,-0.00024282932,-0.030032666,0.08825824,0.053452693,0.03590087,10.28581,20.871662,-1.5133445,0.019626932,-0.020761581,0.12755682,3.0238888,0.01443576,5.8792663,0.1,0.62223977,0.46425557,0.20924209,0.12878118,inf,inf,inf,inf,1,1,1,1,16,85,16,100,4,0,1,1,1,0
569297618,569297202,45936231,42.3585499,-71.08724959999999,3.5750327,-2.6537175,5.2227254,47.302635,102.79922,-0.00024282932,-0.046323214,0.06543565,0.060119838,0.038001213,10.28581,20.871662,-1.5133445,-0.0140362065,-0.12175679,-0.11834441,3.0234118,0.01443576,5.8792663,0.1,0.64005727,0.46757895,0.21432093,0.12981115,inf,inf,inf,inf,1,1,1,1,16,85,16,100,4,0,1,1,1,0
569795293,569794935,45936231,42.3585499,-71.08724959999999,3.5652034,-2.6539295,5.239686,47.302635,102.79922,-0.00024282932,-0.030860597,0.038891893,0.06636565,0.04262776,10.28581,20.871662,-1.5133445,-0.0019690823,0.032918856,0.090889364,3.0228126,0.01443576,5.8792663,0.1,0.6301692,0.46741617,0.2084614,0.12905596,inf,inf,inf,inf,1,1,1,1,16,85,16,100,4,0,1,1,1,0
570293019,570292668,45936231,42.3585499,-71.08724959999999,3.530678,-2.6005354,5.2515855,47.302635,102.79922,-0.00024282932,-0.031787638,0.042435348,0.06565797,0.033996258,10.28581,20.871662,-1.5133445,-0.02340588,0.0103084035,0.010740011,3.022368,0.01443576,5.8792663,0.1,0.65112907,0.47162282,0.2162275,0.13056765,inf,inf,inf,inf,1,1,1,1,16,85,16,100,4,0,1,1,1,0
570790758,570790400,45936231,42.3585499,-71.08724959999999,3.4964166,-2.5744214,5.2373633,47.302635,102.79922,-0.00024282932,-0.022662787,0.033153143,0.051695224,-0.0026309318,10.28581,20.871662,-1.5133445,0.031462226,0.0043215663,0.050103534,3.0219586,0.01443576,5.8792663,0.1,0.6546069,0.47530848,0.21990123,0.13172103,inf,inf,inf,inf,1,1,1,1,16,85,16,100,4,0,1,1,1,0
571298471,571298088,45936231,42.3585499,-71.08724959999999,3.5197785,-2.5184667,5.2259912,47.302635,102.79922,-0.00024282932,0.00091803074,0.039367862,0.050627828,-0.008381365,10.28581,20.871662,-1.5133445,0.027218383,-0.16480108,0.2719077,3.0214794,0.01443576,5.8792663,0.1,0.6806226,0.47647762,0.2285767,0.13273832,inf,inf,inf,inf,1,1,1,1,16,85,16,100,4,0,1,1,1,0
571796164,571795821,45936231,42.3585499,-71.08724959999999,3.5691411,-2.509115,5.225832,47.302635,102.79922,-0.00024282932,0.030305943,0.024919847,0.05471272,-0.0007830372,10.28581,20.871662,-1.5133445,0.011469122,-0.02012748,-0.06181185,3.0211637,0.01443576,5.8792663,0.1,0.6804892,0.47928882,0.22862637,0.13327757,inf,inf,inf,inf,1,1,1,1,16,85,16,100,4,0,1,1,1,0
572293906,572293553,45936231,42.3585499,-71.08724959999999,3.565186,-2.4925249,5.2237234,47.302635,102.79922,-0.00024282932,0.031639885,0.019319735,0.050857965,-0.004370647,10.28581,20.871662,-1.5133445,0.013954407,-0.06238231,0.03565372,3.0207188,0.01443576,5.8792663,0.1,0.7000144,0.48245543,0.23282927,0.1339894,inf,inf,inf,inf,1,1,1,1,16,85,16,100,4,0,1,1,1,0
572791629,572791286,45936231,42.3585499,-71.08724959999999,3.5447872,-2.46981,5.2184024,47.302635,102.79922,-0.00024282932,0.030699624,0.0149487415,0.051224586,-0.005494372,10.28581,20.871662,-1.5133445,0.010896729,-0.10728586,-0.05952719,3.020183,0.01443576,5.8792663,0.1,0.685233,0.48163486,0.2237474,0.13280478,inf,inf,inf,inf,1,1,1,1,16,85,16,100,4,0,1,1,1,0
573299318,573298973,45936231,42.3585499,-71.08724959999999,3.4822357,-2.4449162,5.206659,47.302635,102.79922,-0.00024282932,0.013713123,0.014755145,0.043073885,-0.018063977,10.28581,20.871662,-1.5133445,0.0026056713,-0.040035073,0.052242003,3.01969,0.01443576,5.8792663,0.1,0.7106156,0.48215663,0.23244941,0.13360934,inf,inf,inf,inf,1,1,1,1,16,85,16,100,4,0,1,1,1,0
573797109,573796706,45936231,42.3585499,-71.08724959999999,3.4136882,-2.4358907,5.2030296,47.302635,102.79922,-0.00024282932,-0.0018609145,0.002927151,0.044845365,-0.013717543,10.28581,20.871662,-1.5133445,4.7843096e-05,-0.0048972727,-0.13717894,3.019296,0.01443576,5.8792663,0.1,0.68400174,0.47832388,0.21771781,0.13122135,inf,inf,inf,inf,1,1,1,1,16,85,16,100,4,0,1,1,1,0
574294928,574294439,45936231,42.3585499,-71.08724959999999,3.3974533,-2.4178064,5.1825895,47.302635,102.79922,-0.00024282932,0.0019179299,-0.0052085784,0.0348509,-0.032868393,10.28581,20.871662,-1.5133445,-0.0074975444,0.16391164,-0.396505,3.0168333,0.01443576,5.8792663,0.1,0.6980277,0.48025608,0.22166508,0.13174146,inf,inf,inf,inf,1,1,1,1,16,85,16,100,4,0,1,1,1,0
574792515,574792171,45936231,42.3585499,-71.08724959999999,3.3501387,-2.3983626,5.1383495,47.302635,102.79922,-0.00024282932,-0.0071790353,-0.016682796,0.036241926,-0.053692497,10.28581,20.871662,-1.5133445,0.009464104,0.020012127,-0.028756302,3.0166028,0.01443576,5.8792663,0.1,0.6803402,0.47847396,0.21413448,0.1305137,inf,inf,inf,inf,1,1,1,1,16,85,16,100,4,0,1,1,1,0
575300349,575299859,45936231,42.3585499,-71.08724959999999,3.3334947,-2.3666222,5.1028376,47.302635,102.79922,-0.00024282932,-0.003583428,-0.017772531,0.029481841,-0.06430799,10.28581,20.871662,-1.5133445,0.29990402,-0.08881793,-0.022143269,3.0172284,0.01443576,5.8792663,0.10490751,0.6602246,0.47164622,0.20414357,0.12808365,inf,inf,inf,inf,1,1,1,1,16,85,16,100,4,0,1,1,1,0
575797933,575797591,45936231,42.3585499,-71.08724959999999,3.300272,-2.2976356,5.097883,47.302635,102.79922,-0.00024282932,-0.0009046242,-0.006002913,0.04209734,-0.031359,10.28581,20.871662,-1.5133445,0.022730019,0.06554204,-0.09556752,3.01759,0.01443576,5.8792663,0.1048646,0.6688654,0.47239894,0.20691827,0.12836988,inf,inf,inf,inf,1,1,1,1,16,85,16,100,4,0,1,1,1,0
576295675,576295324,45936231,42.3585499,-71.08724959999999,3.2788029,-2.2140512,5.1002703,47.302635,102.79922,-0.00024282932,0.003660445,0.014574687,0.044879243,-0.012755696,10.28581,20.871662,-1.5133445,0.08542932,0.20267479,0.281854,3.0182192,0.01443576,5.8792663,0.11652756,0.68303764,0.47483474,0.21369247,0.12951477,inf,inf,inf,inf,1,1,1,1,16,85,16,100,4,0,1,1,1,0
576793429,576793056,45936231,42.3585499,-71.08724959999999,3.2296407,-2.1685143,5.1159987,47.302635,102.79922,-0.00024282932,-0.005066864,0.011504275,0.042093877,0.002790641,10.28581,20.871662,-1.5133445,-0.09151269,-0.19484077,0.35829592,3.0194392,0.01443576,5.8792663,0.1,0.67341596,0.47093716,0.21277736,0.12896359,inf,inf,inf,inf,1,1,1,1,16,85,16,100,4,0,1,1,1,0
577291168,577290789,45936231,42.3585499,-71.08724959999999,3.1659467,-2.1477447,5.089128,47.302635,102.79922,-0.00024282932,-0.02220632,0.0022882067,0.029302977,-0.031274334,10.28581,20.871662,-1.5133445,-0.031979118,-0.18284923,-0.39040062,3.019955,0.01443576,5.8792663,0.1,0.6896132,0.47381556,0.21974206,0.1302168,inf,inf,inf,inf,1,1,1,1,16,85,16,100,4,0,1,1,1,0
577798819,577798476,45936231,42.3585499,-71.08724959999999,3.146971,-2.1137466,5.069336,47.302635,102.79922,-0.00024282932,-0.01750821,0.0019920936,0.021954896,-0.0384724,10.28581,20.871662,-1.5133445,0.012431105,-0.010852869,0.08756452,3.0202477,0.01443576,5.8792663,0.1,0.6856055,0.4763403,0.22090931,0.13092431,inf,inf,inf,inf,1,1,1,1,16,85,16,100,4,0,1,1,1,0
578296598,578296209,45936231,42.3585499,-71.08724959999999,3.1606557,-2.0070043,5.037689,47.302635,102.79922,-0.00024282932,-0.0011996783,0.03321147,0.012372724,-0.056442875,10.28581,20.871662,-1.5133445,-0.00072079984,-0.054567646,-0.045776937,3.020864,0.01443576,5.8792663,0.1,0.7022485,0.47909585,0.22666623,0.13196026,inf,inf,inf,inf,1,1,1,1,16,85,16,100,4,0,1,1,1,0
578794475,578793941,45936231,42.3585499,-71.08724959999999,3.1611636,-1.9607264,4.986787,47.302635,102.79922,-0.00024282932,0.005643578,0.033600442,0.006635451,-0.078719765,10.28581,20.871662,-1.5133445,0.012442195,0.012435673,0.049078837,3.0215344,0.01443576,5.8792663,0.1,0.6910397,0.47468305,0.22206385,0.13090862,inf,inf,inf,inf,1,1,1,1,16,85,16,100,4,0,1,1,1,0
579302044,579301628,45936231,42.3585499,-71.08724959999999,3.1236546,-1.9253176,4.9548554,47.302635,102.79922,-0.00024282932,-0.0070239576,0.03085715,0.0041764528,-0.07035611,10.28581,20.871662,-1.5133445,0.008960342,-0.024358723,-0.016171752,3.0221627,0.01443576,5.8792663,0.10866785,0.70413154,0.47705114,0.22442639,0.13142563,inf,inf,inf,inf,1,1,1,1,16,85,16,100,4,0,1,1,1,0
579789777,579789406,45936231,42.3585499,-71.08724959999999,3.0744605,-1.8976163,4.932449,47.302635,102.79922,-0.00024282932,-0.015460618,0.02616554,-0.0047908714,-0.06891539,10.28581,20.871662,-1.5133445,0.048532248,-0.15395504,-0.12009864,3.022877,0.01443576,5.8792663,0.109342575,0.69862205,0.47786313,0.22437032,0.13171431,inf,inf,inf,inf,1,1,1,1,16,85,16,100,4,0,1,1,1,0
580297434,580297093,45936231,42.3585499,-71.08724959999999,3.0151594,-1.9033482,4.9285226,47.302635,102.79922,-0.00024282932,-0.03303497,0.006984865,0.02340622,-0.023080908,10.28581,20.871662,-1.5133445,0.012673302,-0.0131372465,0.008191128,3.0249083,0.01443576,5.8792663,0.11280298,0.7232,0.4828948,0.23364776,0.13343789,inf,inf,inf,inf,1,1,1,1,16,85,16,100,4,0,1,1,1,0
580795250,580794825,45936231,42.3585499,-71.08724959999999,2.9785025,-1.8709671,4.9470997,47.302635,102.79922,-0.00024282932,-0.035722304,0.0067166444,0.036828868,0.013036137,10.28581,20.871662,-1.5133445,-0.011479813,-0.07759492,0.048900697,3.0255864,0.01443576,5.8792663,0.11233616,0.710953,0.47792098,0.22680968,0.13199763,inf,inf,inf,inf,1,1,1,1,16,85,16,100,4,0,1,1,1,0
581293067,581292557,45936231,42.3585499,-71.08724959999999,3.0154052,-1.8157439,4.9715657,47.302635,102.79922,-0.00024282932,-0.004039839,0.015271627,0.034867566,0.024628911,10.28581,20.871662,-1.5133445,0.005912798,-0.014300942,0.021767529,3.0269723,0.01443576,5.8792663,0.1160593,0.70896417,0.47991917,0.227217,0.13246349,inf,inf,inf,inf,1,1,1,1,16,85,16,100,4,0,1,1,1,0
581800586,581800244,45936231,42.3585499,-71.08724959999999,2.913128,-1.6822493,5.006061,47.302635,102.79922,-0.00024282932,-0.045895368,0.05266012,0.04984752,0.05440657,10.28581,20.871662,-1.5133445,-0.111985825,0.15717112,0.120837644,3.0276556,0.01443576,5.8792663,0.109733105,0.7267847,0.48317763,0.2309655,0.13319857,inf,inf,inf,inf,1,1,1,1,16,85,16,100,4,0,1,1,1,0
582298381,582297976,45936231,42.3585499,-71.08724959999999,2.8678377,-1.5714828,5.044965,47.302635,102.79922,-0.00024282932,-0.051777706,0.07611713,0.048245374,0.058903668,10.28581,20.871662,-1.5133445,0.011278372,0.020343883,0.09436615,3.0270925,0.01443576,5.8792663,0.10045481,0.73626494,0.4837342,0.23022503,0.13298374,inf,inf,inf,inf,1,1,1,1,16,85,16,100,4,0,1,1,1,0
582796106,582795708,45936231,42.3585499,-71.08724959999999,2.8116925,-1.5790199,5.0729933,47.302635,102.79922,-0.00024282932,-0.061200388,0.05259333,0.051831912,0.05592274,10.28581,20.871662,-1.5133445,0.020025944,0.016033381,-0.0049098027,3.0284665,0.01443576,5.8792663,0.1,0.7216126,0.4780378,0.22374442,0.13138598,inf,inf,inf,inf,1,1,1,1,16,85,16,100,4,0,1,1,1,0
583293801,583293442,45936231,42.3585499,-71.08724959999999,2.772525,-1.6124009,5.074098,47.302635,102.79922,-0.00024282932,-0.061189838,0.02687352,0.0387389,0.021522567,10.28581,20.871662,-1.5133445,-0.024759963,-0.014930019,-0.05157389,3.0285575,0.01443576,5.8792663,0.1,0.74064183,0.48113677,0.23057424,0.1325002,inf,inf,inf,inf,1,1,1,1,16,85,16,100,4,0,1,1,1,0
583791586,583791172,45936231,42.3585499,-71.08724959999999,2.7288387,-1.6438675,5.0485735,47.302635,102.79922,-0.00024282932,-0.06381197,0.010026563,0.03933058,-0.005624134,10.28581,20.871662,-1.5133445,-0.02609871,0.029101454,0.06003839,3.0286171,0.01443576,5.8792663,0.1,0.7212263,0.479094,0.22109623,0.13112892,inf,inf,inf,inf,1,1,1,1,16,85,16,100,4,0,1,1,1,0
584299236,584298859,45936231,42.3585499,-71.08724959999999,2.6491356,-1.6740344,5.0265136,47.302635,102.79922,-0.00024282932,-0.0826171,-0.0077161756,0.035585623,-0.022710312,10.28581,20.871662,-1.5133445,0.013869345,-0.021549508,-0.066259205,3.029269,0.01443576,5.8792663,0.1,0.7396155,0.47827622,0.22812338,0.1316751,inf,inf,inf,inf,1,1,1,1,16,85,16,100,4,0,1,1,1,0
584796969,584796591,45936231,42.3585499,-71.08724959999999,2.605098,-1.7172816,5.0026703,47.302635,102.79922,-0.00024282932,-0.07776166,-0.023631727,0.036939878,-0.029955987,10.28581,20.871662,-1.5133445,0.031989206,-0.032782257,-0.13849385,3.0297527,0.01443576,5.8792663,0.1,0.71474904,0.47468904,0.2157636,0.129667,inf,inf,inf,inf,1,1,1,1,16,85,16,100,4,0,1,1,1,0
585294673,585294322,45936231,42.3585499,-71.08724959999999,2.5317285,-1.7743211,4.992369,47.302635,102.79922,-0.00024282932,-0.090284176,-0.043703455,0.037952017,-0.023647677,10.28581,20.871662,-1.5133445,-0.01533936,-0.026843373,0.0052668196,3.030703,0.01443576,5.8792663,0.1,0.73321766,0.478113,0.22462562,0.13116844,inf,inf,inf,inf,1,1,1,1,16,85,16,100,4,0,1,1,1,0
585792434,585792054,45936231,42.3585499,-71.08724959999999,2.4158769,-1.8088143,4.9926267,47.302635,102.79922,-0.00024282932,-0.12231108,-0.05506124,0.046386596,-0.0056706234,10.28581,20.871662,-1.5133445,-0.029593982,-0.0030086967,0.023942674,3.0319161,0.01443576,5.8792663,0.103957176,0.7252642,0.47929233,0.22463208,0.13148871,inf,inf,inf,inf,1,1,1,1,16,85,16,100,4,0,1,1,1,0
586300150,586299740,45936231,42.3585499,-71.08724959999999,2.3188345,-1.8249975,5.0034013,47.302635,102.79922,-0.00024282932,-0.13856801,-0.055804413,0.042988222,0.0032568437,10.28581,20.871662,-1.5133445,-0.015608762,-0.015614453,-0.006180758,3.033091,0.01443576,5.8792663,0.10806942,0.745927,0.47927898,0.23340356,0.132381,inf,inf,inf,inf,1,1,1,1,16,85,16,100,4,0,1,1,1,0
586797815,586797472,45936231,42.3585499,-71.08724959999999,2.2831852,-1.8031089,5.02513,47.302635,102.79922,-0.00024282932,-0.12798469,-0.040949747,0.03974965,0.017205145,10.28581,20.871662,-1.5133445,-0.0142154405,-0.0063356627,-0.0003484365,3.0341103,0.01443576,5.8792663,0.10431576,0.72690696,0.47788167,0.2248572,0.1313023,inf,inf,inf,inf,1,1,1,1,16,85,16,100,4,0,1,1,1,0
587295676,587295203,45936231,42.3585499,-71.08724959999999,2.2906063,-1.7559884,5.044814,47.302635,102.79922,-0.00024282932,-0.10262131,-0.019295275,0.030591113,0.017005349,10.28581,20.871662,-1.5133445,-0.043344706,0.013841339,-0.016531032,3.035406,0.01443576,5.8792663,0.1,0.74645346,0.4814589,0.2334218,0.13270615,inf,inf,inf,inf,1,1,1,1,16,85,16,100,4,0,1,1,1,0
587793296,587792935,45936231,42.3585499,-71.08724959999999,2.332858,-1.7219608,5.0632496,47.302635,102.79922,-0.00024282932,-0.07349841,-0.0066796173,0.03034477,0.02568248,10.28581,20.871662,-1.5133445,-0.010827842,-0.0014758919,0.07302524,3.0365252,0.01443576,5.8792663,0.11256313,0.7116924,0.4752852,0.21318236,0.12933409,inf,inf,inf,inf,1,1,1,1,16,85,16,100,4,0,1,1,1,0
588291009,588290666,45936231,42.3585499,-71.08724959999999,2.33238,-1.7252247,5.103441,47.302635,102.79922,-0.00024282932,-0.06426664,-0.010561567,0.031846493,0.04515846,10.28581,20.871662,-1.5133445,0.020333545,0.014755295,-0.06408855,3.0379915,0.01443576,5.8792663,0.10440397,0.7187847,0.47561055,0.21467619,0.12941287,inf,inf,inf,inf,1,1,1,1,16,85,16,100,4,0,1,1,1,0
588798703,588798352,45936231,42.3585499,-71.08724959999999,2.332093,-1.6985735,5.120648,47.302635,102.79922,-0.00024282932,-0.050591152,-0.00081610074,0.037669074,0.04354567,10.28581,20.871662,-1.5133445,-0.00940086,-0.0022913236,-0.010620166,3.0391555,0.01443576,5.8792663,0.1,0.7070368,0.47140646,0.2119976,0.12850909,inf,inf,inf,inf,1,1,1,1,16,85,16,100,4,0,1,1,1,0
589296425,589296083,45936231,42.3585499,-71.08724959999999,2.3248327,-1.6721392,5.1405663,47.302635,102.79922,-0.00024282932,-0.03826874,0.005285914,0.05414841,0.054133806,10.28581,20.871662,-1.5133445,-0.029983332,-0.018180378,0.0562884,3.0407147,0.01443576,5.8792663,0.1,0.71648616,0.47243127,0.21518005,0.12897861,inf,inf,inf,inf,1,1,1,1,16,85,16,100,4,0,1,1,1,0
589794196,589793814,45936231,42.3585499,-71.08724959999999,2.3317988,-1.6463246,5.153327,47.302635,102.79922,-0.00024282932,-0.016570935,0.00889546,0.07030927,0.053949244,10.28581,20.871662,-1.5133445,0.025468698,-0.0017560602,0.06386922,3.0415032,0.01443576,5.8792663,0.1,0.70577645,0.47229865,0.21300276,0.12881778,inf,inf,inf,inf,1,1,1,1,16,85,16,100,4,0,1,1,1,0
590291887,590291545,45936231,42.3585499,-71.08724959999999,2.3056407,-1.6010394,5.170183,47.302635,102.79922,-0.00024282932,-0.010208761,0.021125138,0.07951591,0.054526683,10.28581,20.871662,-1.5133445,0.035945415,-0.01883585,-0.052282445,3.0427163,0.01443576,5.8792663,0.1,0.7232073,0.47576648,0.22129767,0.13037224,inf,inf,inf,inf,1,1,1,1,16,85,16,100,4,0,1,1,1,0
590799575,590799230,45936231,42.3585499,-71.08724959999999,2.316337,-1.5200231,5.1923957,47.302635,102.79922,-0.00024282932,0.0086651,0.04493069,0.091589175,0.05987155,10.28581,20.871662,-1.5133445,0.003724297,-0.030105922,-0.0042728283,3.0434232,0.01443576,5.8792663,0.1,0.7276694,0.47613397,0.22841904,0.13148648,inf,inf,inf,inf,1,1,1,1,16,85,16,100,4,0,1,1,1,0
591297302,591296961,45936231,42.3585499,-71.08724959999999,2.314068,-1.4760414,5.207713,47.302635,102.79922,-0.00024282932,0.017077588,0.05106866,0.08673596,0.045968194,10.28581,20.871662,-1.5133445,0.0031534168,-0.012105033,-0.08448072,3.0436013,0.01443576,5.8792663,0.1,0.7516657,0.4807486,0.23840438,0.13325864,inf,inf,inf,inf,1,1,1,1,16,85,16,100,4,0,1,1,1,0
591795066,591794692,45936231,42.3585499,-71.08724959999999,2.3064272,-1.4102372,5.204869,47.302635,102.79922,-0.00024282932,0.025989216,0.06367868,0.071881026,0.013628509,10.28581,20.871662,-1.5133445,-0.028007092,0.014617221,-0.13043936,3.0433047,0.01443576,5.8792663,0.1,0.73447263,0.47981736,0.22931735,0.13225155,inf,inf,inf,inf,1,1,1,1,16,85,16,100,4,0,1,1,1,0
592292935,592292422,45936231,42.3585499,-71.08724959999999,2.261863,-1.3842582,5.183872,47.302635,102.79922,-0.00024282932,0.0162967,0.05671086,0.050654836,-0.023923375,10.28581,20.871662,-1.5133445,0.002163704,-0.037954558,0.07267914,3.0406084,0.01443576,5.8792663,0.1,0.76006496,0.48025727,0.24047244,0.13343525,inf,inf,inf,inf,1,1,1,1,16,85,16,100,4,0,1,1,1,0
592800450,592800107,45936231,42.3585499,-71.08724959999999,2.194413,-1.3891138,5.1593776,47.302635,102.79922,-0.00024282932,-0.0029059707,0.041687973,0.04176766,-0.038633827,10.28581,20.871662,-1.5133445,-0.102878444,0.24423444,-0.15245585,3.0442722,0.01443576,5.8792663,0.1,0.74742734,0.48113078,0.23433661,0.13298191,inf,inf,inf,inf,1,1,1,1,16,85,16,100,4,0,1,1,1,0
593298185,593297838,45936231,42.3585499,-71.08724959999999,2.1186445,-1.4409916,5.137047,47.302635,102.79922,-0.00024282932,-0.022339378,0.010453907,0.028369384,-0.046990357,10.28581,20.871662,-1.5133445,-0.0031248422,-0.032527164,0.037995033,3.0428596,0.01443576,5.8792663,0.10033417,0.7745555,0.4860495,0.24541731,0.13471705,inf,inf,inf,inf,1,1,1,1,16,85,16,100,4,0,1,1,1,0
593795965,593795568,45936231,42.3585499,-71.08724959999999,2.0586913,-1.4526157,5.1253223,47.302635,102.79922,-0.00024282932,-0.027106289,0.0050840275,0.024272436,-0.038777433,10.28581,20.871662,-1.5133445,0.030280987,0.015892256,0.043968074,3.0432224,0.01443576,5.8792663,0.10849476,0.7635377,0.4865514,0.23956065,0.13424248,inf,inf,inf,inf,1,1,1,1,16,85,16,100,4,0,1,1,1,0
594293682,594293298,45936231,42.3585499,-71.08724959999999,1.9947035,-1.4943566,5.11006,47.302635,102.79922,-0.00024282932,-0.041666,-0.016848892,0.037860125,-0.024035769,10.28581,20.871662,-1.5133445,0.025512228,-0.0116307745,0.0021118869,3.0430746,0.01443576,5.8792663,0.1,0.79201233,0.48645642,0.25001922,0.13504826,inf,inf,inf,inf,1,1,1,1,16,85,16,100,4,0,1,1,1,0
594791415,594791028,45936231,42.3585499,-71.08724959999999,1.8273339,-1.6008767,5.087152,47.302635,102.79922,-0.00024282932,-0.091681965,-0.05904222,0.033155072,-0.03492048,10.28581,20.871662,-1.5133445,0.025373941,-0.00013019214,0.03436256,3.04284,0.01443576,5.8792663,0.1,0.79269856,0.48928168,0.25138745,0.13565505,inf,inf,inf,inf,1,1,1,1,16,85,16,100,4,0,1,1,1,0
595299058,595298713,45936231,42.3585499,-71.08724959999999,1.6979346,-1.6558325,5.097324,47.302635,102.79922,-0.00024282932,-0.11419657,-0.07328559,0.032615922,-0.012263528,10.28581,20.871662,-1.5133445,0.0075439825,-0.015683727,0.23710534,3.0429099,0.01443576,5.8792663,0.1068449,0.80923843,0.49190682,0.25267312,0.13590276,inf,inf,inf,inf,1,1,1,1,16,85,16,100,4,0,1,1,1,0
595796790,595796443,45936231,42.3585499,-71.08724959999999,1.6677165,-1.7181735,5.113843,47.302635,102.79922,-0.00024282932,-0.09893108,-0.0896311,0.038545955,0.010838445,10.28581,20.871662,-1.5133445,2.9731376e-05,-0.012634181,0.006916687,3.0434685,0.01443576,5.8792663,0.10699797,0.7943819,0.49153408,0.24493647,0.13510205,inf,inf,inf,inf,1,1,1,1,16,85,16,100,4,0,1,1,1,0
596294585,596294172,45936231,42.3585499,-71.08724959999999,1.6954768,-1.7875828,5.115342,47.302635,102.79922,-0.00024282932,-0.06979465,-0.10471333,0.031678244,0.0014225473,10.28581,20.871662,-1.5133445,0.025871946,-0.032567672,0.049938116,3.0436819,0.01443576,5.8792663,0.1,0.8123843,0.48887053,0.24870184,0.13478634,inf,inf,inf,inf,1,1,1,1,16,85,16,100,4,0,1,1,1,0
596802332,596801857,45936231,42.3585499,-71.08724959999999,1.715012,-1.8101597,5.114701,47.302635,102.79922,-0.00024282932,-0.048061095,-0.09759564,0.031263404,-0.0014143961,10.28581,20.871662,-1.5133445,0.010463183,-0.025663162,0.0068411035,3.0441322,0.01443576,5.8792663,0.1,0.79768115,0.48908538,0.24141121,0.13410683,inf,inf,inf,inf,1,1,1,1,16,85,16,100,4,0,1,1,1,0
597289991,597289631,45936231,42.3585499,-71.08724959999999,1.70561,-1.8301928,5.1189737,47.302635,102.79922,-0.00024282932,-0.037251435,-0.0951692,0.035111442,0.0040493673,10.28581,20.871662,-1.5133445,0.004448221,-0.023150763,-0.046422426,3.044852,0.01443576,5.8792663,0.1,0.8115319,0.4896953,0.24421538,0.13427027,inf,inf,inf,inf,1,1,1,1,16,85,16,100,4,0,1,1,1,0
597797660,597797315,45936231,42.3585499,-71.08724959999999,1.701692,-1.834247,5.107269,47.302635,102.79922,-0.00024282932,-0.025590355,-0.08390481,0.028459312,-0.01162318,10.28581,20.871662,-1.5133445,0.011287668,0.009166286,-0.09015286,3.0456653,0.01443576,5.8792663,0.1,0.79328376,0.4888864,0.23551257,0.13326223,inf,inf,inf,inf,1,1,1,1,16,85,16,100,4,0,1,1,1,0
598295435,598295045,45936231,42.3585499,-71.08724959999999,1.6647986,-1.8377613,5.0913763,47.302635,102.79922,-0.00024282932,-0.026487172,-0.076457046,0.020022454,-0.026373709,10.28581,20.871662,-1.5133445,0.016378632,-0.014285431,-0.021055168,3.046291,0.01443576,5.8792663,0.1,0.8154839,0.48723528,0.24402761,0.13370521,inf,inf,inf,inf,1,1,1,1,16,85,16,100,4,0,1,1,1,0
598793163,598792774,45936231,42.3585499,-71.08724959999999,1.6771334,-1.8386985,5.0646734,47.302635,102.79922,-0.00024282932,-0.008438296,-0.06738358,0.02362251,-0.032962874,10.28581,20.871662,-1.5133445,0.006806523,-0.013359352,0.0033066426,3.0468063,0.01443576,5.8792663,0.100241184,0.8036973,0.48719344,0.2396006,0.13333423,inf,inf,inf,inf,1,1,1,1,16,85,16,100,4,0,1,1,1,0
599300804,599300457,45936231,42.3585499,-71.08724959999999,1.6507565,-1.8184884,5.061931,47.302635,102.79922,-0.00024282932,-0.0077981506,-0.052843537,0.026987989,-0.018339856,10.28581,20.871662,-1.5133445,0.012915129,0.014339438,-0.035979338,3.047601,0.01443576,5.8792663,0.10248089,0.82058084,0.48976058,0.2439274,0.13400243,inf,inf,inf,inf,1,1,1,1,16,85,16,100,4,0,1,1,1,0
599798554,599798186,45936231,42.3585499,-71.08724959999999,1.6045855,-1.7896253,5.0457635,47.302635,102.79922,-0.00024282932,-0.01407676,-0.034987174,0.014714676,-0.033986304,10.28581,20.871662,-1.5133445,-0.0077231433,0.008207942,0.014628324,3.04807,0.01443576,5.8792663,0.1,0.8111491,0.49023414,0.24130808,0.13391192,inf,inf,inf,inf,1,1,1,1,16,85,16,100,4,0,1,1,1,0
600296344,600295915,45936231,42.3585499,-71.08724959999999,1.5691177,-1.7381186,5.0243764,47.302635,102.79922,-0.00024282932,-0.01758266,-0.013384813,0.012295943,-0.03852181,10.28581,20.871662,-1.5133445,-0.017738687,0.011130979,0.02640823,3.0481586,0.01443576,5.8792663,0.1,0.8280958,0.48751336,0.24622656,0.13385437,inf,inf,inf,inf,1,1,1,1,16,85,16,100,4,0,1,1,1,0
600794014,600793643,45936231,42.3585499,-71.08724959999999,1.5103396,-1.7090026,4.9954114,47.302635,102.79922,-0.00024282932,-0.024836514,-0.004235183,-0.00059704797,-0.053691372,10.28581,20.871662,-1.5133445,0.016191179,0.02448991,-0.037824392,3.0482495,0.01443576,5.8792663,0.10678053,0.8172292,0.48799682,0.24346468,0.13377993,inf,inf,inf,inf,1,1,1,1,16,85,16,100,4,0,1,1,1,0
601291768,601291372,45936231,42.3585499,-71.08724959999999,1.3886223,-1.6162695,4.9662113,47.302635,102.79922,-0.00024282932,-0.056584224,0.02708848,-0.01330285,-0.06685963,10.28581,20.871662,-1.5133445,0.15275243,-0.012095434,-0.07579961,3.0484426,0.01443576,5.8792663,0.1,0.8336368,0.49019304,0.24857388,0.13451052,inf,inf,inf,inf,1,1,1,1,16,85,16,100,4,0,1,1,1,0
601799477,601799055,45936231,42.3585499,-71.08724959999999,1.1455338,-1.4463757,4.9139743,47.302635,102.79922,-0.00024282932,-0.12896055,0.081003726,-0.0216517,-0.08609223,10.28581,20.871662,-1.5133445,-0.028473683,0.042552486,0.038643017,3.0482614,0.01443576,5.8792663,0.102396965,0.8295652,0.4881735,0.24983355,0.13443571,inf,inf,inf,inf,1,1,1,1,16,85,16,100,4,0,1,1,1,0
602297128,602296783,45936231,42.3585499,-71.08724959999999,1.0033137,-1.3100314,4.890799,47.302635,102.79922,-0.00024282932,-0.15438195,0.11427005,-0.029163409,-0.07471916,10.28581,20.871662,-1.5133445,0.004289717,0.007833961,-0.07158554,3.046814,0.01443576,5.8792663,0.115552425,0.8519556,0.4912751,0.25757056,0.13549468,inf,inf,inf,inf,1,1,1,1,16,85,16,100,4,0,1,1,1,0
602794863,602794511,45936231,42.3585499,-71.08724959999999,0.90518606,-1.1666939,4.879785,47.302635,102.79922,-0.00024282932,-0.15979393,0.1451901,-0.025953462,-0.0512476,10.28581,20.871662,-1.5133445,-0.07976012,0.02987936,-0.0063723745,3.0466423,0.01443576,5.8792663,0.11831474,0.84759694,0.4932131,0.25783724,0.13593255,inf,inf,inf,inf,1,1,1,1,16,85,16,100,4,0,1,1,1,0
603292586,603292239,45936231,42.3585499,-71.08724959999999,0.7946596,-1.0683038,4.880483,47.302635,102.79922,-0.00024282932,-0.1733965,0.15438573,-0.022587037,-0.028723689,10.28581,20.871662,-1.5133445,-0.03048823,0.03622832,0.03203023,3.0462961,0.01443576,5.8792663,0.11143446,0.87063086,0.49619102,0.26458657,0.13681993,inf,inf,inf,inf,1,1,1,1,16,85,16,100,4,0,1,1,1,0
603800262,603799921,45936231,42.3585499,-71.08724959999999,0.7165008,-1.003631,4.871852,47.302635,102.79922,-0.00024282932,-0.17099085,0.14895187,-0.024774767,-0.02782358,10.28581,20.871662,-1.5133445,-0.0131775495,0.037701316,0.0680788,3.0460162,0.01443576,5.8792663,0.11307764,0.8582351,0.4924641,0.25867507,0.1357955,inf,inf,inf,inf,1,1,1,1,16,85,16,100,4,0,1,1,1,0
604298179,604297649,45936231,42.3585499,-71.08724959999999,0.6609364,-0.9713926,4.88094,47.302635,102.79922,-0.00024282932,-0.159009,0.14040665,-0.022447579,-0.008203272,10.28581,20.871662,-1.5133445,0.043699067,-0.15854318,0.029054143,3.0439007,0.01443576,5.8792663,0.1164794,0.84332085,0.49225277,0.25163752,0.13519286,inf,inf,inf,inf,1,1,1,1,16,85,16,100,4,0,1,1,1,0
604795721,604795377,45936231,42.3585499,-71.08724959999999,0.68761194,-0.89831793,4.9072604,47.302635,102.79922,-0.00024282932,-0.123880215,0.13819791,-0.008316039,0.027771972,10.28581,20.871662,-1.5133445,-0.0124053825,-0.10093648,-0.029883545,3.0401533,0.01443576,5.8792663,0.12375927,0.84416866,0.4910418,0.24501324,0.13418074,inf,inf,inf,inf,1,1,1,1,16,85,16,100,4,0,1,1,1,0
605293477,605293104,45936231,42.3585499,-71.08724959999999,0.69582915,-0.833677,4.9254885,47.302635,102.79922,-0.00024282932,-0.09919823,0.1400329,-0.0033707877,0.030436993,10.28581,20.871662,-1.5133445,0.012895164,0.006627064,0.01985361,3.0430474,0.01443576,5.8792663,0.1,0.8605403,0.49298403,0.2500853,0.1347965,inf,inf,inf,inf,1,1,1,1,16,85,16,100,4,0,1,1,1,0
605791281,605790832,45936231,42.3585499,-71.08724959999999,0.67767143,-0.7375617,4.9194827,47.302635,102.79922,-0.00024282932,-0.088150285,0.15059015,0.0017524369,0.015693977,10.28581,20.871662,-1.5133445,0.036511026,0.053925063,0.04283453,3.0432262,0.01443576,5.8792663,0.10213852,0.8279104,0.48432422,0.23467308,0.13199355,inf,inf,inf,inf,1,1,1,1,16,85,16,100,4,0,1,1,1,0
606299000,606298513,45936231,42.3585499,-71.08724959999999,0.64564323,-0.6354325,4.9271154,47.302635,102.79922,-0.00024282932,-0.08696416,0.16224553,0.004499194,0.017862631,10.28581,20.871662,-1.5133445,0.029679563,0.036312632,-0.03498982,3.0431383,0.01443576,5.8792663,0.11592817,0.80867916,0.48356685,0.22767568,0.13119082,inf,inf,inf,inf,1,1,1,1,16,85,16,100,4,0,1,1,1,0
606796636,606796240,45936231,42.3585499,-71.08724959999999,0.636818,-0.55273193,4.9467816,47.302635,102.79922,-0.00024282932,-0.07232669,0.17036766,0.004894835,0.024124265,10.28581,20.871662,-1.5133445,0.0057730433,0.0023363028,0.00024811894,3.0431879,0.01443576,5.8792663,0.1,0.8229455,0.48582998,0.23459992,0.13221508,inf,inf,inf,inf,1,1,1,1,16,85,16,100,4,0,1,1,1,0
607294326,607293967,45936231,42.3585499,-71.08724959999999,0.5974672,-0.49646133,4.950438,47.302635,102.79922,-0.00024282932,-0.06638133,0.17022069,0.012901683,0.023597647,10.28581,20.871662,-1.5133445,0.015388282,0.0019001678,-0.032923955,3.0429704,0.01443576,5.8792663,0.1,0.82902384,0.48617715,0.23536289,0.13227461,inf,inf,inf,inf,1,1,1,1,16,85,16,100,4,0,1,1,1,0
607792055,607791694,45936231,42.3585499,-71.08724959999999,0.5998637,-0.5353893,4.9515424,47.302635,102.79922,-0.00024282932,-0.04934095,0.13512343,0.01570911,0.016358016,10.28581,20.871662,-1.5133445,0.0211301,0.027987415,-0.045747276,3.0431116,0.01443576,5.8792663,0.1,0.80775756,0.4845926,0.22885749,0.1314669,inf,inf,inf,inf,1,1,1,1,16,85,16,100,4,0,1,1,1,0
608289854,608289421,45936231,42.3585499,-71.08724959999999,0.59046835,-0.5905539,4.9452715,47.302635,102.79922,-0.00024282932,-0.03444416,0.10204809,0.009058922,9.365642e-05,10.28581,20.871662,-1.5133445,-0.0041196328,0.018914245,0.06733403,3.0429845,0.01443576,5.8792663,0.1,0.81035846,0.4796943,0.22868948,0.13065393,inf,inf,inf,inf,1,1,1,1,16,85,16,100,4,0,1,1,1,0
608797451,608797102,45936231,42.3585499,-71.08724959999999,0.576752,-0.572858,4.9407325,47.302635,102.79922,-0.00024282932,-0.019339468,0.10172693,0.0037451063,-0.008721348,10.28581,20.871662,-1.5133445,0.021233356,0.016287133,-2.3518218e-05,3.0429513,0.01443576,5.8792663,0.1,0.7944258,0.48002487,0.22556648,0.13051128,inf,inf,inf,inf,1,1,1,1,16,85,16,100,4,0,1,1,1,0
609295174,609294828,45936231,42.3585499,-71.08724959999999,0.59212804,-0.59182525,4.9368205,47.302635,102.79922,-0.00024282932,-0.0047380254,0.08523324,0.016266398,0.0019413756,10.28581,20.871662,-1.5133445,0.002863483,0.0034113172,-0.06772851,3.0432768,0.01443576,5.8792663,0.1,0.79023504,0.47789896,0.2205529,0.12953983,inf,inf,inf,inf,1,1,1,1,16,85,16,100,4,0,1,1,1,0
609792994,609792554,45936231,42.3585499,-71.08724959999999,0.5942768,-0.63253856,4.933118,47.302635,102.79922,-0.00024282932,0.0029619238,0.069593996,0.0071893935,-0.005965242,10.28581,20.871662,-1.5133445,0.01739083,-0.019960824,0.061177608,3.0440924,0.01443576,5.8792663,0.10481596,0.78013754,0.47482824,0.22320232,0.12961322,inf,inf,inf,inf,1,1,1,1,16,85,16,100,4,0,1,1,1,0
610301098,610300235,45936231,42.3585499,-71.08724959999999,0.5657698,-0.7091643,4.9382277,47.302635,102.79922,-0.00024282932,-0.0025880977,0.040512387,0.013560835,0.0032697758,10.28581,20.871662,-1.5133445,0.052462664,0.04003621,-0.20946468,3.0447826,0.01443576,5.8792663,0.1,0.7601746,0.47378406,0.21569972,0.12871228,inf,inf,inf,inf,1,1,1,1,16,85,16,100,4,0,1,1,1,0
610798306,610797961,45936231,42.3585499,-71.08724959999999,0.560422,-0.784538,4.943384,47.302635,102.79922,-0.00024282932,0.005180132,0.015379876,0.01577109,0.0118060885,10.28581,20.871662,-1.5133445,-0.005403253,-0.014001172,0.0795793,3.0445306,0.01443576,5.8792663,0.10716963,0.75833386,0.47219697,0.21167219,0.127892,inf,inf,inf,inf,1,1,1,1,16,85,16,100,4,0,1,1,1,0
611296207,611295686,45936231,42.3585499,-71.08724959999999,0.5489092,-0.8532615,4.955171,47.302635,102.79922,-0.00024282932,0.006373494,-0.003983145,0.012892647,0.011786858,10.28581,20.871662,-1.5133445,0.011845312,0.040245872,-0.06845381,3.044614,0.01443576,5.8792663,0.1,0.7448865,0.47230333,0.21066497,0.12795562,inf,inf,inf,inf,1,1,1,1,16,85,16,100,4,0,1,1,1,0
611793761,611793412,45936231,42.3585499,-71.08724959999999,0.5438239,-0.8901147,4.9631734,47.302635,102.79922,-0.00024282932,0.008697218,-0.0038777178,0.018675864,0.01918988,10.28581,20.871662,-1.5133445,-0.037687805,0.035665553,0.08248145,3.0445178,0.01443576,5.8792663,0.1,0.75030094,0.46897215,0.21320611,0.12780195,inf,inf,inf,inf,1,1,1,1,16,85,16,100,4,0,1,1,1,0
612291495,612291138,45936231,42.3585499,-71.08724959999999,0.54988927,-0.9399643,4.969555,47.302635,102.79922,-0.00024282932,0.019523513,-0.008651319,0.015895465,0.012323332,10.28581,20.871662,-1.5133445,-0.010616937,-0.04822731,0.18757905,3.0437307,0.01443576,5.8792663,0.1,0.75564075,0.46982643,0.21553548,0.12822047,inf,inf,inf,inf,1,1,1,1,16,85,16,100,4,0,1,1,1,0
612799192,612798817,45936231,42.3585499,-71.08724959999999,0.5597861,-0.9971205,4.963772,47.302635,102.79922,-0.00024282932,0.027548807,-0.015486751,0.021240342,0.0064584897,10.28581,20.871662,-1.5133445,0.17026561,-0.0802706,0.47233382,3.0391958,0.01443576,5.8792663,0.1,0.73907065,0.46942645,0.21120124,0.12773764,inf,inf,inf,inf,1,1,1,1,16,85,16,100,4,0,1,1,1,0
613297108,613296543,45936231,42.3585499,-71.08724959999999,0.61351025,-1.0959492,4.955439,47.302635,102.79922,-0.00024282932,0.05047926,-0.043989528,0.019385386,-0.0034496975,10.28581,20.871662,-1.5133445,-0.028823653,0.09223094,0.16142419,3.0415742,0.01443576,5.8792663,0.1,0.7333292,0.46784973,0.2154964,0.12830356,inf,inf,inf,inf,1,1,1,1,16,85,16,100,4,0,1,1,1,0
613794629,613794268,45936231,42.3585499,-71.08724959999999,0.6550377,-1.214767,4.9411182,47.302635,102.79922,-0.00024282932,0.0632899,-0.07193083,0.022085126,-0.011250099,10.28581,20.871662,-1.5133445,-0.009565494,-0.08720192,-0.14927547,3.040772,0.01443576,5.8792663,0.1,0.75013745,0.47214445,0.22536759,0.13019954,inf,inf,inf,inf,1,1,1,1,16,85,16,100,4,0,1,1,1,0
614292367,614291993,45936231,42.3585499,-71.08724959999999,0.63665694,-1.2708073,4.935409,47.302635,102.79922,-0.00024282932,0.04944906,-0.068799935,0.017626438,-0.013542537,10.28581,20.871662,-1.5133445,0.010708132,-0.042931035,-0.16382028,3.0408738,0.01443576,5.8792663,0.100921154,0.773063,0.47747633,0.23782863,0.13240609,inf,inf,inf,inf,1,1,1,1,16,85,16,100,4,0,1,1,1,0
614790253,614789718,45936231,42.3585499,-71.08724959999999,0.6149231,-1.3468729,4.9195294,47.302635,102.79922,-0.00024282932,0.03288781,-0.07674807,0.009574113,-0.026103998,10.28581,20.871662,-1.5133445,-0.039952293,0.015108939,-0.022888627,3.0403638,0.01443576,5.8792663,0.1,0.76534665,0.47947088,0.23670621,0.13277406,inf,inf,inf,inf,1,1,1,1,16,85,16,100,4,0,1,1,1,0
615297775,615297397,45936231,42.3585499,-71.08724959999999,0.60561943,-1.4060311,4.93067,47.302635,102.79922,-0.00024282932,0.028104981,-0.07384587,0.0047228243,-0.008857954,10.28581,20.871662,-1.5133445,-0.009188989,0.011541498,-0.11916919,3.0413678,0.01443576,5.8792663,0.11003685,0.7724281,0.4767795,0.23506264,0.1320681,inf,inf,inf,inf,1,1,1,1,16,85,16,100,4,0,1,1,1,0
615795468,615795121,45936231,42.3585499,-71.08724959999999,0.62390846,-1.4586192,4.9540796,47.302635,102.79922,-0.00024282932,0.03596145,-0.06761017,0.00660759,0.01319572,10.28581,20.871662,-1.5133445,0.035791226,0.032215778,-0.06797477,3.0413632,0.01443576,5.8792663,0.10839081,0.7521823,0.47548765,0.22577101,0.13089989,inf,inf,inf,inf,1,1,1,1,16,85,16,100,4,0,1,1,1,0
616293197,616292846,45936231,42.3585499,-71.08724959999999,0.67100316,-1.503378,4.961004,47.302635,102.79922,-0.00024282932,0.05438595,-0.06015818,0.015822588,0.021246307,10.28581,20.871662,-1.5133445,0.0272295,-0.012454647,0.015181473,3.041416,0.01443576,5.8792663,0.1,0.7612557,0.47710955,0.22793789,0.13125144,inf,inf,inf,inf,1,1,1,1,16,85,16,100,4,0,1,1,1,0
616800870,616800524,45936231,42.3585499,-71.08724959999999,0.71016335,-1.5574015,4.9779315,47.302635,102.79922,-0.00024282932,0.06609255,-0.05660968,0.03260193,0.034481183,10.28581,20.871662,-1.5133445,0.03190196,-0.072530136,-0.038382776,3.0401106,0.01443576,5.8792663,0.1,0.75045484,0.4787871,0.2259821,0.13136314,inf,inf,inf,inf,1,1,1,1,16,85,16,100,4,0,1,1,1,0
617298778,617298248,45936231,42.3585499,-71.08724959999999,0.70829135,-1.6019223,4.98427,47.302635,102.79922,-0.00024282932,0.059540328,-0.04875091,0.055243928,0.044039026,10.28581,20.871662,-1.5133445,-0.039508667,0.098701835,0.122033,3.0392172,0.01443576,5.8792663,0.1,0.7428315,0.4761724,0.22622104,0.1311071,inf,inf,inf,inf,1,1,1,1,16,85,16,100,4,0,1,1,1,0
617796344,617795972,45936231,42.3585499,-71.08724959999999,0.6767509,-1.6492012,4.9924674,47.302635,102.79922,-0.00024282932,0.044346195,-0.04502509,0.041552324,0.020427778,10.28581,20.871662,-1.5133445,-0.08468359,0.043421566,0.11634065,3.038758,0.01443576,5.8792663,0.1,0.7639323,0.48066312,0.23606908,0.13276848,inf,inf,inf,inf,1,1,1,1,16,85,16,100,4,0,1,1,1,0
618294040,618293696,45936231,42.3585499,-71.08724959999999,0.6338151,-1.7040893,4.9968305,47.302635,102.79922,-0.00024282932,0.027040293,-0.0480131,0.04691918,0.02171398,10.28581,20.871662,-1.5133445,0.007063659,-0.012573747,-0.18778361,3.0379725,0.01443576,5.8792663,0.1,0.767664,0.4806779,0.23279382,0.13224109,inf,inf,inf,inf,1,1,1,1,16,85,16,100,4,0,1,1,1,0
618791817,618791420,45936231,42.3585499,-71.08724959999999,0.6151679,-1.6808773,4.990659,47.302635,102.79922,-0.00024282932,0.02112449,-0.01716994,0.024564743,-0.011526032,10.28581,20.871662,-1.5133445,0.016289923,-0.01728703,-0.0032593869,3.037734,0.01443576,5.8792663,0.1,0.7470589,0.4790097,0.22395761,0.13101496,inf,inf,inf,inf,1,1,1,1,16,85,16,100,4,0,1,1,1,0
619300133,619299097,45936231,42.3585499,-71.08724959999999,0.58788365,-1.7252597,4.9630423,47.302635,102.79922,-0.00024282932,0.009290254,-0.019592682,0.020185728,-0.031694807,10.28581,20.871662,-1.5133445,-0.0407657,0.06867317,0.017787747,3.0350091,0.01443576,5.8792663,0.1,0.7200653,0.47126877,0.2108083,0.12818477,inf,inf,inf,inf,1,1,1,1,16,85,16,100,4,0,1,1,1,0
619797222,619796821,45936231,42.3585499,-71.08724959999999,0.57957417,-1.7535673,4.9465966,47.302635,102.79922,-0.00024282932,0.0038252654,-0.018051036,0.014825933,-0.032180548,10.28581,20.871662,-1.5133445,0.015105321,0.035627127,0.045390975,3.0348463,0.01443576,5.8792663,0.10886574,0.72961634,0.47326514,0.21558902,0.12898268,inf,inf,inf,inf,1,1,1,1,16,85,16,100,4,0,1,1,1,0
