timestamp,timestamp_sample,gps_hvel[0],gps_hvel[1],gps_vvel,gps_hpos[0],gps_hpos[1],gps_vpos,ev_hvel[0],ev_hvel[1],ev_vvel,ev_hpos[0],ev_hpos[1],ev_vpos,rng_vpos,baro_vpos,aux_hvel[0],aux_hvel[1],aux_vvel,flow[0],flow[1],heading,mag_field[0],mag_field[1],mag_field[2],drag[0],drag[1],airspeed,beta,hagl,hagl_rate
539712407,539612494,0.34367257,0.3436724,0.7400388,4.130278,4.130279,0.0,0.0,0.0,0.0,0.0,0.0,0.0,0.0,12.4632225,0.0,0.0,nan,0.0,0.0,0.09035423,0.0,0.0,0.0,0.0,0.0,0.0,0.0,0.0,0.0
540220144,540120178,0.14680122,0.14680113,0.2970299,4.0726924,4.072693,0.0,0.0,0.0,0.0,0.0,0.0,0.0,0.0,12.4616785,0.0,0.0,nan,0.0,0.0,0.09035407,0.0,0.0,0.0,0.0,0.0,0.0,0.0,0.0,0.0
540717907,540617909,0.15180841,0.15180829,0.31678373,3.9617395,3.9617398,0.0,0.0,0.0,0.0,0.0,0.0,0.0,0.0,12.452118,0.0,0.0,nan,0.0,0.0,0.090354025,0.0,0.0,0.0,0.0,0.0,0.0,0.0,0.0,0.0
541215612,541115639,0.20491806,0.20491786,0.43872198,3.8918338,3.891834,0.0,0.0,0.0,0.0,0.0,0.0,0.0,0.0,12.4521055,0.0,0.0,nan,0.0,0.0,0.09035408,0.0,0.0,0.0,0.0,0.0,0.0,0.0,0.0,0.0
541713523,541613369,0.32676065,0.3267604,0.71277773,3.8288398,3.82884,0.0,0.0,0.0,0.0,0.0,0.0,0.0,0.0,12.452145,0.0,0.0,nan,0.0,0.0,0.09035404,0.0,0.0,0.0,0.0,0.0,0.0,0.0,0.0,0.0
542211016,542111099,0.29516932,0.295169,0.63992274,3.8062458,3.8062463,0.0,0.0,0.0,0.0,0.0,0.0,0.0,0.0,12.452248,0.0,0.0,nan,0.0,0.0,0.09035411,0.0,0.0,0.0,0.0,0.0,0.0,0.0,0.0,0.0
542718695,542618784,0.17720923,0.1772088,0.3718945,3.7794213,3.7794218,0.0,0.0,0.0,0.0,0.0,0.0,0.0,0.0,12.455323,0.0,0.0,nan,0.0,0.0,0.09035399,0.0,0.0,0.0,0.0,0.0,0.0,0.0,0.0,0.0
543216515,543116515,0.23641293,0.23641242,0.50597894,3.7637424,3.7637427,0.0,0.0,0.0,0.0,0.0,0.0,0.0,0.0,12.453761,0.0,0.0,nan,0.0,0.0,0.090354055,0.0,0.0,0.0,0.0,0.0,0.0,0.0,0.0,0.0
543714311,543614245,0.16924717,0.16924657,0.35414153,3.7349875,3.7349875,0.0,0.0,0.0,0.0,0.0,0.0,0.0,0.0,12.455108,0.0,0.0,nan,0.0,0.0,0.09035404,0.0,0.0,0.0,0.0,0.0,0.0,0.0,0.0,0.0
544211933,544111976,0.24197009,0.24196939,0.51871735,3.7009227,3.700923,0.0,0.0,0.0,0.0,0.0,0.0,0.0,0.0,12.452547,0.0,0.0,nan,0.0,0.0,0.09035392,0.0,0.0,0.0,0.0,0.0,0.0,0.0,0.0,0.0
544709829,544609706,0.28153116,0.28153035,0.60751855,3.6894038,3.6894038,0.0,0.0,0.0,0.0,0.0,0.0,0.0,0.0,12.454082,0.0,0.0,nan,0.0,0.0,0.090353996,0.0,0.0,0.0,0.0,0.0,0.0,0.0,0.0,0.0
545217299,545117392,0.27253032,0.27252948,0.584944,3.7337685,3.7337685,0.0,0.0,0.0,0.0,0.0,0.0,0.0,0.0,12.456038,0.0,0.0,nan,0.0,0.0,0.09035399,0.0,0.0,0.0,0.0,0.0,0.0,0.0,0.0,0.0
545715213,545615122,0.40068305,0.40068215,0.87242764,3.786714,3.786714,0.0,0.0,0.0,0.0,0.0,0.0,0.0,0.0,12.458427,0.0,0.0,nan,0.0,0.0,0.09035388,0.0,0.0,0.0,0.0,0.0,0.0,0.0,0.0,0.0
546212828,546112853,0.23510547,0.23510453,0.49851006,3.81389,3.8138897,0.0,0.0,0.0,0.0,0.0,0.0,0.0,0.0,12.458667,0.0,0.0,nan,0.0,0.0,0.09035396,0.0,0.0,0.0,0.0,0.0,0.0,0.0,0.0,0.0
546720685,546620538,0.29593512,0.2959342,0.63423413,3.845844,3.8458438,0.0,0.0,0.0,0.0,0.0,0.0,0.0,0.0,12.460205,0.0,0.0,nan,0.0,0.0,0.090353854,0.0,0.0,0.0,0.0,0.0,0.0,0.0,0.0,0.0
547218177,547118269,0.3338929,0.33389208,0.71945363,3.8743193,3.874319,0.0,0.0,0.0,0.0,0.0,0.0,0.0,0.0,12.462485,0.0,0.0,nan,0.0,0.0,0.09035385,0.0,0.0,0.0,0.0,0.0,0.0,0.0,0.0,0.0
547716083,547616000,0.31671402,0.31671327,0.6799787,3.9087913,3.908791,0.0,0.0,0.0,0.0,0.0,0.0,0.0,0.0,12.466001,0.0,0.0,nan,0.0,0.0,0.09035393,0.0,0.0,0.0,0.0,0.0,0.0,0.0,0.0,0.0
548213694,548113731,0.26745984,0.26745915,0.57007813,3.9425085,3.942508,0.0,0.0,0.0,0.0,0.0,0.0,0.0,0.0,12.464335,0.0,0.0,nan,0.0,0.0,0.090353824,0.0,0.0,0.0,0.0,0.0,0.0,0.0,0.0,0.0
548711539,548611462,0.3232587,0.323258,0.69482887,4.016999,4.0169983,0.0,0.0,0.0,0.0,0.0,0.0,0.0,0.0,12.464487,0.0,0.0,nan,0.0,0.0,0.090353824,0.0,0.0,0.0,0.0,0.0,0.0,0.0,0.0,0.0
549219088,549119147,0.3096139,0.30961332,0.6631205,4.0472755,4.047275,0.0,0.0,0.0,0.0,0.0,0.0,0.0,0.0,12.467418,0.0,0.0,nan,0.0,0.0,0.0903539,0.0,0.0,0.0,0.0,0.0,0.0,0.0,0.0,0.0
549716985,549616879,0.20906721,0.20906667,0.43840507,4.005003,4.0050025,0.0,0.0,0.0,0.0,0.0,0.0,0.0,0.0,12.46882,0.0,0.0,nan,0.0,0.0,0.09035399,0.0,0.0,0.0,0.0,0.0,0.0,0.0,0.0,0.0
550214555,550114610,0.22117783,0.22117735,0.46785712,3.9823973,3.982397,0.0,0.0,0.0,0.0,0.0,0.0,0.0,0.0,12.463662,0.0,0.0,nan,0.0,0.0,0.09035397,0.0,0.0,0.0,0.0,0.0,0.0,0.0,0.0,0.0
550712483,550612341,0.16215922,0.16215874,0.33592823,3.916511,3.9165108,0.0,0.0,0.0,0.0,0.0,0.0,0.0,0.0,12.459766,0.0,0.0,nan,0.0,0.0,0.09035387,0.0,0.0,0.0,0.0,0.0,0.0,0.0,0.0,0.0
551219931,551120027,0.26042628,0.2604259,0.56014216,3.8635242,3.863524,0.0,0.0,0.0,0.0,0.0,0.0,0.0,0.0,12.46033,0.0,0.0,nan,0.0,0.0,0.09035395,0.0,0.0,0.0,0.0,0.0,0.0,0.0,0.0,0.0
551717843,551617758,0.20336822,0.20336783,0.43151954,3.82651,3.8265097,0.0,0.0,0.0,0.0,0.0,0.0,0.0,0.0,12.459957,0.0,0.0,nan,0.0,0.0,0.09035394,0.0,0.0,0.0,0.0,0.0,0.0,0.0,0.0,0.0
552215414,552115489,0.24865457,0.24865416,0.5338202,3.8138306,3.8138304,0.0,0.0,0.0,0.0,0.0,0.0,0.0,0.0,12.456563,0.0,0.0,nan,0.0,0.0,0.09035384,0.0,0.0,0.0,0.0,0.0,0.0,0.0,0.0,0.0
552713187,552613220,0.14786026,0.14785981,0.3069936,3.7517292,3.7517292,0.0,0.0,0.0,0.0,0.0,0.0,0.0,0.0,12.453109,0.0,0.0,nan,0.0,0.0,0.090353936,0.0,0.0,0.0,0.0,0.0,0.0,0.0,0.0,0.0
553210857,553110952,0.19933738,0.19933698,0.42512086,3.699687,3.6996868,0.0,0.0,0.0,0.0,0.0,0.0,0.0,0.0,12.4523115,0.0,0.0,nan,0.0,0.0,0.090353936,0.0,0.0,0.0,0.0,0.0,0.0,0.0,0.0,0.0
553718549,553618638,0.27810004,0.27809966,0.6042711,3.616285,3.6162848,0.0,0.0,0.0,0.0,0.0,0.0,0.0,0.0,12.449278,0.0,0.0,nan,0.0,0.0,0.09035385,0.0,0.0,0.0,0.0,0.0,0.0,0.0,0.0,0.0
554216280,554116369,0.17416337,0.17416286,0.3692737,3.5767357,3.5767357,0.0,0.0,0.0,0.0,0.0,0.0,0.0,0.0,12.448201,0.0,0.0,nan,0.0,0.0,0.090353936,0.0,0.0,0.0,0.0,0.0,0.0,0.0,0.0,0.0
554714089,554614101,0.18852104,0.18852039,0.4004903,3.539485,3.5394847,0.0,0.0,0.0,0.0,0.0,0.0,0.0,0.0,12.4472685,0.0,0.0,nan,0.0,0.0,0.09035393,0.0,0.0,0.0,0.0,0.0,0.0,0.0,0.0,0.0
555211804,555111832,0.19051982,0.1905191,0.4042895,3.4917467,3.4917467,0.0,0.0,0.0,0.0,0.0,0.0,0.0,0.0,12.448156,0.0,0.0,nan,0.0,0.0,0.09035402,0.0,0.0,0.0,0.0,0.0,0.0,0.0,0.0,0.0
555709625,555609564,0.11506163,0.11506107,0.23524159,3.4273348,3.4273348,0.0,0.0,0.0,0.0,0.0,0.0,0.0,0.0,12.448679,0.0,0.0,nan,0.0,0.0,0.09035392,0.0,0.0,0.0,0.0,0.0,0.0,0.0,0.0,0.0
556217241,556117251,0.2755599,0.2755594,0.5974847,3.3966963,3.3966963,0.0,0.0,0.0,0.0,0.0,0.0,0.0,0.0,12.446152,0.0,0.0,nan,0.0,0.0,0.090354025,0.0,0.0,0.0,0.0,0.0,0.0,0.0,0.0,0.0
556715026,556614982,0.20259501,0.20259449,0.43264928,3.3871253,3.3871253,0.0,0.0,0.0,0.0,0.0,0.0,0.0,0.0,12.447233,0.0,0.0,nan,0.0,0.0,0.090354025,0.0,0.0,0.0,0.0,0.0,0.0,0.0,0.0,0.0
557212628,557112714,0.38601664,0.38601616,0.8440054,3.4084947,3.4084947,0.0,0.0,0.0,0.0,0.0,0.0,0.0,0.0,12.448657,0.0,0.0,nan,0.0,0.0,0.090353936,0.0,0.0,0.0,0.0,0.0,0.0,0.0,0.0,0.0
557720459,557620401,0.37635675,0.37635612,0.8200753,3.4447303,3.4447303,0.0,0.0,0.0,0.0,0.0,0.0,0.0,0.0,12.452293,0.0,0.0,nan,0.0,0.0,0.09035403,0.0,0.0,0.0,0.0,0.0,0.0,0.0,0.0,0.0
558218071,558118133,0.21514598,0.21514522,0.4554333,3.4382446,3.4382446,0.0,0.0,0.0,0.0,0.0,0.0,0.0,0.0,12.4532585,0.0,0.0,nan,0.0,0.0,0.09035404,0.0,0.0,0.0,0.0,0.0,0.0,0.0,0.0,0.0
558715917,558615865,0.2583859,0.25838524,0.55371124,3.413646,3.413646,0.0,0.0,0.0,0.0,0.0,0.0,0.0,0.0,12.4550295,0.0,0.0,nan,0.0,0.0,0.09035396,0.0,0.0,0.0,0.0,0.0,0.0,0.0,0.0,0.0
559213585,559113597,0.20774038,0.20773965,0.43961185,3.3988018,3.3988018,0.0,0.0,0.0,0.0,0.0,0.0,0.0,0.0,12.453867,0.0,0.0,nan,0.0,0.0,0.09035406,0.0,0.0,0.0,0.0,0.0,0.0,0.0,0.0,0.0
559711533,559611329,0.24174714,0.24174643,0.51698875,3.402432,3.402432,0.0,0.0,0.0,0.0,0.0,0.0,0.0,0.0,12.4558115,0.0,0.0,nan,0.0,0.0,0.09035406,0.0,0.0,0.0,0.0,0.0,0.0,0.0,0.0,0.0
560218956,560119015,0.293343,0.29334226,0.63352185,3.4101892,3.410189,0.0,0.0,0.0,0.0,0.0,0.0,0.0,0.0,12.4555645,0.0,0.0,nan,0.0,0.0,0.09035397,0.0,0.0,0.0,0.0,0.0,0.0,0.0,0.0,0.0
560716657,560616748,0.2535769,0.25357598,0.5429979,3.43708,3.4370797,0.0,0.0,0.0,0.0,0.0,0.0,0.0,0.0,12.455064,0.0,0.0,nan,0.0,0.0,0.09035407,0.0,0.0,0.0,0.0,0.0,0.0,0.0,0.0,0.0
561214437,561114480,0.2634926,0.26349166,0.5649671,3.4563463,3.456346,0.0,0.0,0.0,0.0,0.0,0.0,0.0,0.0,12.4576435,0.0,0.0,nan,0.0,0.0,0.09035398,0.0,0.0,0.0,0.0,0.0,0.0,0.0,0.0,0.0
561712265,561612212,0.19816133,0.19816035,0.4168055,3.4651556,3.4651554,0.0,0.0,0.0,0.0,0.0,0.0,0.0,0.0,12.459967,0.0,0.0,nan,0.0,0.0,0.09035416,0.0,0.0,0.0,0.0,0.0,0.0,0.0,0.0,0.0
562209847,562109948,0.16280401,0.16280317,0.33908924,3.4650807,3.4650805,0.0,0.0,0.0,0.0,0.0,0.0,0.0,0.0,12.454994,0.0,0.0,nan,0.0,0.0,0.09035407,0.0,0.0,0.0,0.0,0.0,0.0,0.0,0.0,0.0
562717588,562617631,0.21366875,0.21366802,0.45347166,3.507486,3.5074859,0.0,0.0,0.0,0.0,0.0,0.0,0.0,0.0,12.456094,0.0,0.0,nan,0.0,0.0,0.09035417,0.0,0.0,0.0,0.0,0.0,0.0,0.0,0.0,0.0
563215306,563115364,0.25533083,0.25533015,0.54722005,3.5049915,3.5049915,0.0,0.0,0.0,0.0,0.0,0.0,0.0,0.0,12.457632,0.0,0.0,nan,0.0,0.0,0.09035417,0.0,0.0,0.0,0.0,0.0,0.0,0.0,0.0,0.0
563713055,563613096,0.24382284,0.24382217,0.5213692,3.4944174,3.4944174,0.0,0.0,0.0,0.0,0.0,0.0,0.0,0.0,12.459075,0.0,0.0,nan,0.0,0.0,0.09035407,0.0,0.0,0.0,0.0,0.0,0.0,0.0,0.0,0.0
564220801,564120783,0.19917078,0.19917014,0.42042434,3.512518,3.512518,0.0,0.0,0.0,0.0,0.0,0.0,0.0,0.0,12.458601,0.0,0.0,nan,0.0,0.0,0.09035417,0.0,0.0,0.0,0.0,0.0,0.0,0.0,0.0,0.0
564718559,564618516,0.34806806,0.3480674,0.7546546,3.557732,3.5577319,0.0,0.0,0.0,0.0,0.0,0.0,0.0,0.0,12.460893,0.0,0.0,nan,0.0,0.0,0.09035417,0.0,0.0,0.0,0.0,0.0,0.0,0.0,0.0,0.0
565216175,565116248,0.34885025,0.34884948,0.75494784,3.60538,3.6053798,0.0,0.0,0.0,0.0,0.0,0.0,0.0,0.0,12.462083,0.0,0.0,nan,0.0,0.0,0.09035407,0.0,0.0,0.0,0.0,0.0,0.0,0.0,0.0,0.0
565714025,565613981,0.17332575,0.17332496,0.35866183,3.660279,3.6602788,0.0,0.0,0.0,0.0,0.0,0.0,0.0,0.0,12.464852,0.0,0.0,nan,0.0,0.0,0.09035416,0.0,0.0,0.0,0.0,0.0,0.0,0.0,0.0,0.0
566211659,566111713,0.17352194,0.1735212,0.36019272,3.6973066,3.6973066,0.0,0.0,0.0,0.0,0.0,0.0,0.0,0.0,12.460856,0.0,0.0,nan,0.0,0.0,0.09035417,0.0,0.0,0.0,0.0,0.0,0.0,0.0,0.0,0.0
566719542,566619401,0.33395836,0.3339577,0.72173256,3.7622101,3.76221,0.0,0.0,0.0,0.0,0.0,0.0,0.0,0.0,12.463915,0.0,0.0,nan,0.0,0.0,0.09035407,0.0,0.0,0.0,0.0,0.0,0.0,0.0,0.0,0.0
567217043,567117133,0.27585375,0.2758529,0.5901101,3.816675,3.8166747,0.0,0.0,0.0,0.0,0.0,0.0,0.0,0.0,12.46378,0.0,0.0,nan,0.0,0.0,0.09035416,0.0,0.0,0.0,0.0,0.0,0.0,0.0,0.0,0.0
567714968,567614866,0.39364892,0.39364818,0.85375863,3.9038475,3.903847,0.0,0.0,0.0,0.0,0.0,0.0,0.0,0.0,12.466864,0.0,0.0,nan,0.0,0.0,0.09035407,0.0,0.0,0.0,0.0,0.0,0.0,0.0,0.0,0.0
568212568,568112599,0.26234624,0.26234552,0.5569932,3.971032,3.9710314,0.0,0.0,0.0,0.0,0.0,0.0,0.0,0.0,12.467517,0.0,0.0,nan,0.0,0.0,0.09035408,0.0,0.0,0.0,0.0,0.0,0.0,0.0,0.0,0.0
568720331,568620286,0.39956054,0.39955968,0.8651174,4.091235,4.0912347,0.0,0.0,0.0,0.0,0.0,0.0,0.0,0.0,12.468331,0.0,0.0,nan,0.0,0.0,0.090354174,0.0,0.0,0.0,0.0,0.0,0.0,0.0,0.0,0.0
569218022,569118019,0.26069063,0.26068974,0.5506832,4.1420517,4.142051,0.0,0.0,0.0,0.0,0.0,0.0,0.0,0.0,12.470646,0.0,0.0,nan,0.0,0.0,0.09035427,0.0,0.0,0.0,0.0,0.0,0.0,0.0,0.0,0.0
569715803,569615751,0.23443861,0.23443776,0.4912013,4.2174673,4.217467,0.0,0.0,0.0,0.0,0.0,0.0,0.0,0.0,12.473011,0.0,0.0,nan,0.0,0.0,0.09035427,0.0,0.0,0.0,0.0,0.0,0.0,0.0,0.0,0.0
570213425,570113488,0.456044,0.4560431,0.9910781,4.2821307,4.2821302,0.0,0.0,0.0,0.0,0.0,0.0,0.0,0.0,12.473251,0.0,0.0,nan,0.0,0.0,0.090354174,0.0,0.0,0.0,0.0,0.0,0.0,0.0,0.0,0.0
570711311,570611217,0.6615465,0.66154546,1.4501233,4.428038,4.4280376,0.0,0.0,0.0,0.0,0.0,0.0,0.0,0.0,12.476447,0.0,0.0,nan,0.0,0.0,0.09035427,0.0,0.0,0.0,0.0,0.0,0.0,0.0,0.0,0.0
571218813,571118904,0.42548755,0.42548653,0.91638744,4.516529,4.5165286,0.0,0.0,0.0,0.0,0.0,0.0,0.0,0.0,12.478483,0.0,0.0,nan,0.0,0.0,0.090354264,0.0,0.0,0.0,0.0,0.0,0.0,0.0,0.0,0.0
571716685,571616637,0.4371609,0.4371598,0.9396584,4.6032457,4.603245,0.0,0.0,0.0,0.0,0.0,0.0,0.0,0.0,12.482827,0.0,0.0,nan,0.0,0.0,0.09035418,0.0,0.0,0.0,0.0,0.0,0.0,0.0,0.0,0.0
572214275,572114369,0.35266054,0.3526594,0.74902236,4.6728644,4.6728635,0.0,0.0,0.0,0.0,0.0,0.0,0.0,0.0,12.482868,0.0,0.0,nan,0.0,0.0,0.09035428,0.0,0.0,0.0,0.0,0.0,0.0,0.0,0.0,0.0
572712234,572612102,0.28538808,0.2853873,0.59858596,4.754186,4.754185,0.0,0.0,0.0,0.0,0.0,0.0,0.0,0.0,12.485187,0.0,0.0,nan,0.0,0.0,0.09035427,0.0,0.0,0.0,0.0,0.0,0.0,0.0,0.0,0.0
573209816,573109835,0.51956105,0.5195604,1.1267023,4.802437,4.8024364,0.0,0.0,0.0,0.0,0.0,0.0,0.0,0.0,12.4842415,0.0,0.0,nan,0.0,0.0,0.09035418,0.0,0.0,0.0,0.0,0.0,0.0,0.0,0.0,0.0
573717509,573617522,0.3113149,0.3113147,0.6614483,4.7773204,4.77732,0.0,0.0,0.0,0.0,0.0,0.0,0.0,0.0,12.482221,0.0,0.0,nan,0.0,0.0,0.090354286,0.0,0.0,0.0,0.0,0.0,0.0,0.0,0.0,0.0
574215218,574115255,0.31135702,0.31135818,0.66143143,4.736437,4.736436,0.0,0.0,0.0,0.0,0.0,0.0,0.0,0.0,12.480853,0.0,0.0,nan,0.0,0.0,0.090354204,0.0,0.0,0.0,0.0,0.0,0.0,0.0,0.0,0.0
574713091,574612987,0.33790863,0.33792487,0.72281045,4.721701,4.7217007,0.0,0.0,0.0,0.0,0.0,0.0,0.0,0.0,12.481293,0.0,0.0,nan,0.0,0.0,0.09035419,0.0,0.0,0.0,0.0,0.0,0.0,0.0,0.0,0.0
575220579,575120675,0.29241034,0.29244307,0.6209222,4.7026167,4.702616,0.0,0.0,0.0,0.0,0.0,0.0,0.0,0.0,12.478442,0.0,0.0,nan,0.0,0.0,0.09035427,0.0,0.0,0.0,0.0,0.0,0.0,0.0,0.0,0.0
575718533,575618407,0.33055174,0.33060864,0.7098542,4.6843023,4.684302,0.0,0.0,0.0,0.0,0.0,0.0,0.0,0.0,12.474191,0.0,0.0,nan,0.0,0.0,0.09035435,0.0,0.0,0.0,0.0,0.0,0.0,0.0,0.0,0.0
576216113,576116140,0.35675162,0.35682613,0.7683599,4.696536,4.696537,0.0,0.0,0.0,0.0,0.0,0.0,0.0,0.0,12.475628,0.0,0.0,nan,0.0,0.0,0.090354346,0.0,0.0,0.0,0.0,0.0,0.0,0.0,0.0,0.0
576713935,576613873,0.41913998,0.41923955,0.9070616,4.7422924,4.7423,0.0,0.0,0.0,0.0,0.0,0.0,0.0,0.0,12.477426,0.0,0.0,nan,0.0,0.0,0.09035424,0.0,0.0,0.0,0.0,0.0,0.0,0.0,0.0,0.0
577211607,577111605,0.339024,0.33913767,0.72523195,4.807669,4.807683,0.0,0.0,0.0,0.0,0.0,0.0,0.0,0.0,12.476045,0.0,0.0,nan,0.0,0.0,0.09035432,0.0,0.0,0.0,0.0,0.0,0.0,0.0,0.0,0.0
577719460,577619292,0.45961055,0.4597358,0.9945074,4.87883,4.878864,0.0,0.0,0.0,0.0,0.0,0.0,0.0,0.0,12.47796,0.0,0.0,nan,0.0,0.0,0.090354316,0.0,0.0,0.0,0.0,0.0,0.0,0.0,0.0,0.0
578216929,578117025,0.43374488,0.4338678,0.9359946,4.9223504,4.9223905,0.0,0.0,0.0,0.0,0.0,0.0,0.0,0.0,12.4796915,0.0,0.0,nan,0.0,0.0,0.090354204,0.0,0.0,0.0,0.0,0.0,0.0,0.0,0.0,0.0
578714667,578614757,0.32648942,0.32661006,0.6931438,4.981107,4.9811573,0.0,0.0,0.0,0.0,0.0,0.0,0.0,0.0,12.481062,0.0,0.0,nan,0.0,0.0,0.090354286,0.0,0.0,0.0,0.0,0.0,0.0,0.0,0.0,0.0
579212402,579112490,0.24717383,0.24728455,0.51461273,5.0063896,5.006438,0.0,0.0,0.0,0.0,0.0,0.0,0.0,0.0,12.478277,0.0,0.0,nan,0.0,0.0,0.09035427,0.0,0.0,0.0,0.0,0.0,0.0,0.0,0.0,0.0
579710311,579610222,0.4513516,0.45144272,0.97409034,5.158591,5.1586595,0.0,0.0,0.0,0.0,0.0,0.0,0.0,0.0,12.481397,0.0,0.0,nan,0.0,0.0,0.09035416,0.0,0.0,0.0,0.0,0.0,0.0,0.0,0.0,0.0
580217857,580117909,0.57879895,0.578879,1.2597142,5.2708774,5.270959,0.0,0.0,0.0,0.0,0.0,0.0,0.0,0.0,12.482413,0.0,0.0,nan,0.0,0.0,0.09035424,0.0,0.0,0.0,0.0,0.0,0.0,0.0,0.0,0.0
580715762,580615641,0.29217395,0.2922403,0.61233294,5.423044,5.423124,0.0,0.0,0.0,0.0,0.0,0.0,0.0,0.0,12.48491,0.0,0.0,nan,0.0,0.0,0.09035413,0.0,0.0,0.0,0.0,0.0,0.0,0.0,0.0,0.0
581213378,581113374,0.5258825,0.52593267,1.139353,5.515393,5.5154786,0.0,0.0,0.0,0.0,0.0,0.0,0.0,0.0,12.483906,0.0,0.0,nan,0.0,0.0,0.09035429,0.0,0.0,0.0,0.0,0.0,0.0,0.0,0.0,0.0
581711253,581611106,0.29322466,0.29326186,0.61262214,5.5754485,5.5755315,0.0,0.0,0.0,0.0,0.0,0.0,0.0,0.0,12.483697,0.0,0.0,nan,0.0,0.0,0.0903542,0.0,0.0,0.0,0.0,0.0,0.0,0.0,0.0,0.0
582218838,582118793,0.29157227,0.29159534,0.6122026,5.5898867,5.5899553,0.0,0.0,0.0,0.0,0.0,0.0,0.0,0.0,12.483292,0.0,0.0,nan,0.0,0.0,0.09035426,0.0,0.0,0.0,0.0,0.0,0.0,0.0,0.0,0.0
582716434,582616525,0.4655178,0.4655267,1.0064925,5.6782365,5.678295,0.0,0.0,0.0,0.0,0.0,0.0,0.0,0.0,12.483507,0.0,0.0,nan,0.0,0.0,0.09035423,0.0,0.0,0.0,0.0,0.0,0.0,0.0,0.0,0.0
583214164,583114257,0.36802834,0.3680314,0.7851296,5.6823897,5.682445,0.0,0.0,0.0,0.0,0.0,0.0,0.0,0.0,12.483308,0.0,0.0,nan,0.0,0.0,0.09035409,0.0,0.0,0.0,0.0,0.0,0.0,0.0,0.0,0.0
583712100,583611989,0.29988366,0.29987946,0.6328833,5.6375666,5.637611,0.0,0.0,0.0,0.0,0.0,0.0,0.0,0.0,12.483367,0.0,0.0,nan,0.0,0.0,0.09035416,0.0,0.0,0.0,0.0,0.0,0.0,0.0,0.0,0.0
584219604,584119675,0.44444796,0.44444078,0.95926374,5.634674,5.634712,0.0,0.0,0.0,0.0,0.0,0.0,0.0,0.0,12.482412,0.0,0.0,nan,0.0,0.0,0.090354145,0.0,0.0,0.0,0.0,0.0,0.0,0.0,0.0,0.0
584717354,584617407,0.48768333,0.48767522,1.0604315,5.618068,5.6180973,0.0,0.0,0.0,0.0,0.0,0.0,0.0,0.0,12.479958,0.0,0.0,nan,0.0,0.0,0.09035403,0.0,0.0,0.0,0.0,0.0,0.0,0.0,0.0,0.0
585215074,585115139,0.5232862,0.52327764,1.13872,5.612991,5.613014,0.0,0.0,0.0,0.0,0.0,0.0,0.0,0.0,12.479732,0.0,0.0,nan,0.0,0.0,0.09035411,0.0,0.0,0.0,0.0,0.0,0.0,0.0,0.0,0.0
585713701,585612871,0.55892366,0.55891573,1.2165065,5.576135,5.576149,0.0,0.0,0.0,0.0,0.0,0.0,0.0,0.0,12.480883,0.0,0.0,nan,0.0,0.0,0.090354115,0.0,0.0,0.0,0.0,0.0,0.0,0.0,0.0,0.0
586220528,586120557,0.51257485,0.5125684,1.1105613,5.5873437,5.587352,0.0,0.0,0.0,0.0,0.0,0.0,0.0,0.0,12.483402,0.0,0.0,nan,0.0,0.0,0.09035402,0.0,0.0,0.0,0.0,0.0,0.0,0.0,0.0,0.0
586718276,586618289,0.29970032,0.29969716,0.63071275,5.57634,5.5763445,0.0,0.0,0.0,0.0,0.0,0.0,0.0,0.0,12.483752,0.0,0.0,nan,0.0,0.0,0.09035409,0.0,0.0,0.0,0.0,0.0,0.0,0.0,0.0,0.0
587216055,587116020,0.4893706,0.48936984,1.0580459,5.611946,5.611946,0.0,0.0,0.0,0.0,0.0,0.0,0.0,0.0,12.483004,0.0,0.0,nan,0.0,0.0,0.09035398,0.0,0.0,0.0,0.0,0.0,0.0,0.0,0.0,0.0
587713834,587613751,0.20026217,0.20026428,0.4105234,5.654016,5.654019,0.0,0.0,0.0,0.0,0.0,0.0,0.0,0.0,12.47701,0.0,0.0,nan,0.0,0.0,0.09035394,0.0,0.0,0.0,0.0,0.0,0.0,0.0,0.0,0.0
588211390,588111483,0.26655936,0.2665629,0.5636463,5.6348863,5.6348886,0.0,0.0,0.0,0.0,0.0,0.0,0.0,0.0,12.4754715,0.0,0.0,nan,0.0,0.0,0.09035401,0.0,0.0,0.0,0.0,0.0,0.0,0.0,0.0,0.0
588719169,588619169,0.52688026,0.5268844,1.1508012,5.6858554,5.685855,0.0,0.0,0.0,0.0,0.0,0.0,0.0,0.0,12.475543,0.0,0.0,nan,0.0,0.0,0.090354085,0.0,0.0,0.0,0.0,0.0,0.0,0.0,0.0,0.0
589216838,589116900,0.3535212,0.35352692,0.7605451,5.711313,5.7113113,0.0,0.0,0.0,0.0,0.0,0.0,0.0,0.0,12.474217,0.0,0.0,nan,0.0,0.0,0.09035407,0.0,0.0,0.0,0.0,0.0,0.0,0.0,0.0,0.0
589714545,589614631,0.41529214,0.41529986,0.8984951,5.765202,5.7651987,0.0,0.0,0.0,0.0,0.0,0.0,0.0,0.0,12.473166,0.0,0.0,nan,0.0,0.0,0.090353966,0.0,0.0,0.0,0.0,0.0,0.0,0.0,0.0,0.0
590212322,590112362,0.32932505,0.3293345,0.70251685,5.786727,5.786723,0.0,0.0,0.0,0.0,0.0,0.0,0.0,0.0,12.474639,0.0,0.0,nan,0.0,0.0,0.090354055,0.0,0.0,0.0,0.0,0.0,0.0,0.0,0.0,0.0
590710039,590610093,0.6905957,0.6906077,1.5118243,5.9071655,5.9071603,0.0,0.0,0.0,0.0,0.0,0.0,0.0,0.0,12.479731,0.0,0.0,nan,0.0,0.0,0.09035404,0.0,0.0,0.0,0.0,0.0,0.0,0.0,0.0,0.0
591217794,591117778,0.4573443,0.45735875,0.9831168,5.9194555,5.9194517,0.0,0.0,0.0,0.0,0.0,0.0,0.0,0.0,12.482233,0.0,0.0,nan,0.0,0.0,0.090353936,0.0,0.0,0.0,0.0,0.0,0.0,0.0,0.0,0.0
591715412,591615509,0.41072947,0.4107436,0.87966526,5.870903,5.8709006,0.0,0.0,0.0,0.0,0.0,0.0,0.0,0.0,12.482028,0.0,0.0,nan,0.0,0.0,0.09035402,0.0,0.0,0.0,0.0,0.0,0.0,0.0,0.0,0.0
592213148,592113239,0.5615631,0.56157684,1.216894,5.9174185,5.9174175,0.0,0.0,0.0,0.0,0.0,0.0,0.0,0.0,12.483343,0.0,0.0,nan,0.0,0.0,0.09035401,0.0,0.0,0.0,0.0,0.0,0.0,0.0,0.0,0.0
592720834,592620924,0.645929,0.64593184,1.4078519,5.994715,5.9947157,0.0,0.0,0.0,0.0,0.0,0.0,0.0,0.0,12.484924,0.0,0.0,nan,0.0,0.0,0.09035396,0.0,0.0,0.0,0.0,0.0,0.0,0.0,0.0,0.0
593218566,593118655,0.7315521,0.73155236,1.5981205,6.0832047,6.0832057,0.0,0.0,0.0,0.0,0.0,0.0,0.0,0.0,12.486511,0.0,0.0,nan,0.0,0.0,0.09035408,0.0,0.0,0.0,0.0,0.0,0.0,0.0,0.0,0.0
593716339,593616385,0.3423217,0.34231636,0.7187723,6.2678022,6.267803,0.0,0.0,0.0,0.0,0.0,0.0,0.0,0.0,12.489534,0.0,0.0,nan,0.0,0.0,0.09035394,0.0,0.0,0.0,0.0,0.0,0.0,0.0,0.0,0.0
594214021,594114115,0.63308525,0.63307977,1.3731743,6.3848147,6.3848133,0.0,0.0,0.0,0.0,0.0,0.0,0.0,0.0,12.490678,0.0,0.0,nan,0.0,0.0,0.09035394,0.0,0.0,0.0,0.0,0.0,0.0,0.0,0.0,0.0
594711775,594611846,0.68070126,0.68069494,1.476624,6.5177526,6.517748,0.0,0.0,0.0,0.0,0.0,0.0,0.0,0.0,12.493285,0.0,0.0,nan,0.0,0.0,0.090354055,0.0,0.0,0.0,0.0,0.0,0.0,0.0,0.0,0.0
595219520,595119530,0.5011987,0.50119203,1.0743006,6.5958214,6.5958166,0.0,0.0,0.0,0.0,0.0,0.0,0.0,0.0,12.492425,0.0,0.0,nan,0.0,0.0,0.09035414,0.0,0.0,0.0,0.0,0.0,0.0,0.0,0.0,0.0
595717256,595617260,0.57436204,0.5743561,1.2403789,6.719981,6.7199764,0.0,0.0,0.0,0.0,0.0,0.0,0.0,0.0,12.493125,0.0,0.0,nan,0.0,0.0,0.09035411,0.0,0.0,0.0,0.0,0.0,0.0,0.0,0.0,0.0
596214929,596114990,0.3694145,0.36940932,0.7779277,6.786968,6.786963,0.0,0.0,0.0,0.0,0.0,0.0,0.0,0.0,12.492222,0.0,0.0,nan,0.0,0.0,0.09035399,0.0,0.0,0.0,0.0,0.0,0.0,0.0,0.0,0.0
596712877,596612719,0.531625,0.53162175,1.146045,6.8754745,6.875469,0.0,0.0,0.0,0.0,0.0,0.0,0.0,0.0,12.4916315,0.0,0.0,nan,0.0,0.0,0.09035406,0.0,0.0,0.0,0.0,0.0,0.0,0.0,0.0,0.0
597210384,597110449,0.5598581,0.5598565,1.2104682,6.927525,6.92752,0.0,0.0,0.0,0.0,0.0,0.0,0.0,0.0,12.491284,0.0,0.0,nan,0.0,0.0,0.090354055,0.0,0.0,0.0,0.0,0.0,0.0,0.0,0.0,0.0
597718037,597618133,0.37994733,0.3799468,0.80642635,7.0005918,7.0005875,0.0,0.0,0.0,0.0,0.0,0.0,0.0,0.0,12.491585,0.0,0.0,nan,0.0,0.0,0.09035397,0.0,0.0,0.0,0.0,0.0,0.0,0.0,0.0,0.0
598215794,598115862,0.60092586,0.6009259,1.3038731,7.0780945,7.0780897,0.0,0.0,0.0,0.0,0.0,0.0,0.0,0.0,12.489612,0.0,0.0,nan,0.0,0.0,0.09035406,0.0,0.0,0.0,0.0,0.0,0.0,0.0,0.0,0.0
598713688,598613591,0.34913,0.349131,0.7339177,7.2133474,7.2133427,0.0,0.0,0.0,0.0,0.0,0.0,0.0,0.0,12.492,0.0,0.0,nan,0.0,0.0,0.09035406,0.0,0.0,0.0,0.0,0.0,0.0,0.0,0.0,0.0
599211252,599111320,0.6039046,0.6039062,1.3105634,7.2970114,7.2970066,0.0,0.0,0.0,0.0,0.0,0.0,0.0,0.0,12.490365,0.0,0.0,nan,0.0,0.0,0.09035396,0.0,0.0,0.0,0.0,0.0,0.0,0.0,0.0,0.0
599718959,599619004,0.4005958,0.40059888,0.84978527,7.349989,7.349984,0.0,0.0,0.0,0.0,0.0,0.0,0.0,0.0,12.491797,0.0,0.0,nan,0.0,0.0,0.09035405,0.0,0.0,0.0,0.0,0.0,0.0,0.0,0.0,0.0
600216721,600116732,0.42504668,0.42505065,0.9054321,7.356126,7.356122,0.0,0.0,0.0,0.0,0.0,0.0,0.0,0.0,12.489887,0.0,0.0,nan,0.0,0.0,0.09035404,0.0,0.0,0.0,0.0,0.0,0.0,0.0,0.0,0.0
600714369,600614461,0.5477673,0.5477723,1.1812583,7.2919526,7.2919493,0.0,0.0,0.0,0.0,0.0,0.0,0.0,0.0,12.492499,0.0,0.0,nan,0.0,0.0,0.09035413,0.0,0.0,0.0,0.0,0.0,0.0,0.0,0.0,0.0
601212112,601112190,0.5378667,0.53787255,1.1586465,7.241043,7.24104,0.0,0.0,0.0,0.0,0.0,0.0,0.0,0.0,12.490796,0.0,0.0,nan,0.0,0.0,0.090354025,0.0,0.0,0.0,0.0,0.0,0.0,0.0,0.0,0.0
601709861,601609918,0.6158905,0.6158973,1.3315148,7.3431926,7.343191,0.0,0.0,0.0,0.0,0.0,0.0,0.0,0.0,12.49349,0.0,0.0,nan,0.0,0.0,0.090354025,0.0,0.0,0.0,0.0,0.0,0.0,0.0,0.0,0.0
602217507,602117601,0.5343933,0.5344,1.1462588,7.448375,7.448375,0.0,0.0,0.0,0.0,0.0,0.0,0.0,0.0,12.493685,0.0,0.0,nan,0.0,0.0,0.09035412,0.0,0.0,0.0,0.0,0.0,0.0,0.0,0.0,0.0
602715268,602615329,0.68085015,0.680857,1.473088,7.626648,7.6266503,0.0,0.0,0.0,0.0,0.0,0.0,0.0,0.0,12.494854,0.0,0.0,nan,0.0,0.0,0.090354025,0.0,0.0,0.0,0.0,0.0,0.0,0.0,0.0,0.0
603213028,603113057,0.5753816,0.575388,1.234128,7.722995,7.7229977,0.0,0.0,0.0,0.0,0.0,0.0,0.0,0.0,12.496835,0.0,0.0,nan,0.0,0.0,0.090354115,0.0,0.0,0.0,0.0,0.0,0.0,0.0,0.0,0.0
603720665,603620740,0.52947336,0.529479,1.1306621,7.88033,7.8803334,0.0,0.0,0.0,0.0,0.0,0.0,0.0,0.0,12.498365,0.0,0.0,nan,0.0,0.0,0.09035411,0.0,0.0,0.0,0.0,0.0,0.0,0.0,0.0,0.0
604218432,604118467,0.45853972,0.45854384,0.97222495,7.9549975,7.955001,0.0,0.0,0.0,0.0,0.0,0.0,0.0,0.0,12.496728,0.0,0.0,nan,0.0,0.0,0.090354,0.0,0.0,0.0,0.0,0.0,0.0,0.0,0.0,0.0
604716213,604616195,0.24744967,0.24745154,0.49882585,7.932904,7.9329057,0.0,0.0,0.0,0.0,0.0,0.0,0.0,0.0,12.492719,0.0,0.0,nan,0.0,0.0,0.09035405,0.0,0.0,0.0,0.0,0.0,0.0,0.0,0.0,0.0
605213832,605113922,0.45929956,0.45929962,0.9804782,7.8687043,7.868706,0.0,0.0,0.0,0.0,0.0,0.0,0.0,0.0,12.493636,0.0,0.0,nan,0.0,0.0,0.090354055,0.0,0.0,0.0,0.0,0.0,0.0,0.0,0.0,0.0
605711586,605611650,0.46698633,0.46698472,1.0037005,7.7188,7.718802,0.0,0.0,0.0,0.0,0.0,0.0,0.0,0.0,12.49114,0.0,0.0,nan,0.0,0.0,0.09035413,0.0,0.0,0.0,0.0,0.0,0.0,0.0,0.0,0.0
606219236,606119332,0.46077096,0.46076825,0.9889749,7.686305,7.6863065,0.0,0.0,0.0,0.0,0.0,0.0,0.0,0.0,12.488893,0.0,0.0,nan,0.0,0.0,0.090354025,0.0,0.0,0.0,0.0,0.0,0.0,0.0,0.0,0.0
606716994,606617059,0.5937809,0.5937775,1.2900174,7.5958343,7.595835,0.0,0.0,0.0,0.0,0.0,0.0,0.0,0.0,12.48748,0.0,0.0,nan,0.0,0.0,0.09035402,0.0,0.0,0.0,0.0,0.0,0.0,0.0,0.0,0.0
607214721,607114785,0.23487023,0.23486654,0.4794542,7.513807,7.5138073,0.0,0.0,0.0,0.0,0.0,0.0,0.0,0.0,12.486844,0.0,0.0,nan,0.0,0.0,0.090354115,0.0,0.0,0.0,0.0,0.0,0.0,0.0,0.0,0.0
607712420,607612512,0.36871913,0.36871627,0.7847672,7.3855734,7.3855734,0.0,0.0,0.0,0.0,0.0,0.0,0.0,0.0,12.486307,0.0,0.0,nan,0.0,0.0,0.09035401,0.0,0.0,0.0,0.0,0.0,0.0,0.0,0.0,0.0
608210157,608110239,0.48274627,0.48274434,1.0452847,7.2972426,7.2972426,0.0,0.0,0.0,0.0,0.0,0.0,0.0,0.0,12.482077,0.0,0.0,nan,0.0,0.0,0.090353996,0.0,0.0,0.0,0.0,0.0,0.0,0.0,0.0,0.0
608717853,608617920,0.31219503,0.31219414,0.6589288,7.22044,7.22044,0.0,0.0,0.0,0.0,0.0,0.0,0.0,0.0,12.480751,0.0,0.0,nan,0.0,0.0,0.09035409,0.0,0.0,0.0,0.0,0.0,0.0,0.0,0.0,0.0
609215657,609115646,0.27586928,0.2758694,0.5815674,7.113989,7.113989,0.0,0.0,0.0,0.0,0.0,0.0,0.0,0.0,12.477778,0.0,0.0,nan,0.0,0.0,0.090354,0.0,0.0,0.0,0.0,0.0,0.0,0.0,0.0,0.0
609713334,609613373,0.46790865,0.46790978,1.0119752,7.001579,7.0015783,0.0,0.0,0.0,0.0,0.0,0.0,0.0,0.0,12.480262,0.0,0.0,nan,0.0,0.0,0.090354085,0.0,0.0,0.0,0.0,0.0,0.0,0.0,0.0,0.0
610221036,610121053,0.34911707,0.3491189,0.7431008,6.95327,6.953269,0.0,0.0,0.0,0.0,0.0,0.0,0.0,0.0,12.4797535,0.0,0.0,nan,0.0,0.0,0.090354085,0.0,0.0,0.0,0.0,0.0,0.0,0.0,0.0,0.0
610718696,610618779,0.15841487,0.15841776,0.31522033,6.865169,6.8651686,0.0,0.0,0.0,0.0,0.0,0.0,0.0,0.0,12.473166,0.0,0.0,nan,0.0,0.0,0.090353996,0.0,0.0,0.0,0.0,0.0,0.0,0.0,0.0,0.0
611216448,611116505,0.41979575,0.41979906,0.9068246,6.8050942,6.805094,0.0,0.0,0.0,0.0,0.0,0.0,0.0,0.0,12.475768,0.0,0.0,nan,0.0,0.0,0.090354085,0.0,0.0,0.0,0.0,0.0,0.0,0.0,0.0,0.0
611714137,611614231,0.27921563,0.27921948,0.59047705,6.7068663,6.706866,0.0,0.0,0.0,0.0,0.0,0.0,0.0,0.0,12.475768,0.0,0.0,nan,0.0,0.0,0.090354085,0.0,0.0,0.0,0.0,0.0,0.0,0.0,0.0,0.0
612211866,612111956,0.23739508,0.23739861,0.49693033,6.656183,6.6561823,0.0,0.0,0.0,0.0,0.0,0.0,0.0,0.0,12.472217,0.0,0.0,nan,0.0,0.0,0.09035399,0.0,0.0,0.0,0.0,0.0,0.0,0.0,0.0,0.0
612719558,612619636,0.38186404,0.38186705,0.8238108,6.562169,6.562169,0.0,0.0,0.0,0.0,0.0,0.0,0.0,0.0,12.470449,0.0,0.0,nan,0.0,0.0,0.09035409,0.0,0.0,0.0,0.0,0.0,0.0,0.0,0.0,0.0
613217269,613117362,0.5115961,0.5115994,1.1129141,6.5360355,6.536035,0.0,0.0,0.0,0.0,0.0,0.0,0.0,0.0,12.474255,0.0,0.0,nan,0.0,0.0,0.090354085,0.0,0.0,0.0,0.0,0.0,0.0,0.0,0.0,0.0
613715076,613615087,0.5588474,0.55885184,1.2160912,6.485197,6.485197,0.0,0.0,0.0,0.0,0.0,0.0,0.0,0.0,12.47611,0.0,0.0,nan,0.0,0.0,0.09035418,0.0,0.0,0.0,0.0,0.0,0.0,0.0,0.0,0.0
614212772,614112812,0.60965365,0.6096589,1.3273077,6.5003066,6.500307,0.0,0.0,0.0,0.0,0.0,0.0,0.0,0.0,12.47863,0.0,0.0,nan,0.0,0.0,0.09035411,0.0,0.0,0.0,0.0,0.0,0.0,0.0,0.0,0.0
614710489,614610537,0.42381084,0.42381728,0.9052374,6.486679,6.4866805,0.0,0.0,0.0,0.0,0.0,0.0,0.0,0.0,12.480974,0.0,0.0,nan,0.0,0.0,0.09035409,0.0,0.0,0.0,0.0,0.0,0.0,0.0,0.0,0.0
615218121,615118216,0.27272204,0.27272815,0.56675464,6.4007297,6.4007306,0.0,0.0,0.0,0.0,0.0,0.0,0.0,0.0,12.479856,0.0,0.0,nan,0.0,0.0,0.09035418,0.0,0.0,0.0,0.0,0.0,0.0,0.0,0.0,0.0
615715857,615615940,0.3229707,0.32297492,0.68327296,6.3176274,6.3176284,0.0,0.0,0.0,0.0,0.0,0.0,0.0,0.0,12.480964,0.0,0.0,nan,0.0,0.0,0.09035411,0.0,0.0,0.0,0.0,0.0,0.0,0.0,0.0,0.0
616213626,616113665,0.33974254,0.33974603,0.72291493,6.245526,6.2455263,0.0,0.0,0.0,0.0,0.0,0.0,0.0,0.0,12.478333,0.0,0.0,nan,0.0,0.0,0.0903542,0.0,0.0,0.0,0.0,0.0,0.0,0.0,0.0,0.0
616711441,616611389,0.50794786,0.50794953,1.1009216,6.214757,6.2147574,0.0,0.0,0.0,0.0,0.0,0.0,0.0,0.0,12.480462,0.0,0.0,nan,0.0,0.0,0.09035419,0.0,0.0,0.0,0.0,0.0,0.0,0.0,0.0,0.0
617218974,617119068,0.5254597,0.5254605,1.1389003,6.2069645,6.2069654,0.0,0.0,0.0,0.0,0.0,0.0,0.0,0.0,12.48136,0.0,0.0,nan,0.0,0.0,0.0903541,0.0,0.0,0.0,0.0,0.0,0.0,0.0,0.0,0.0
617716761,617616792,0.5573008,0.557299,1.2069842,6.259029,6.2590294,0.0,0.0,0.0,0.0,0.0,0.0,0.0,0.0,12.484764,0.0,0.0,nan,0.0,0.0,0.090354174,0.0,0.0,0.0,0.0,0.0,0.0,0.0,0.0,0.0
618214547,618114516,0.31085536,0.31085312,0.6545126,6.226391,6.2263913,0.0,0.0,0.0,0.0,0.0,0.0,0.0,0.0,12.482209,0.0,0.0,nan,0.0,0.0,0.09035418,0.0,0.0,0.0,0.0,0.0,0.0,0.0,0.0,0.0
618712164,618612239,0.34241754,0.34241563,0.728124,6.1056314,6.1056314,0.0,0.0,0.0,0.0,0.0,0.0,0.0,0.0,12.479652,0.0,0.0,nan,0.0,0.0,0.09035426,0.0,0.0,0.0,0.0,0.0,0.0,0.0,0.0,0.0
619209902,619109963,0.37064564,0.37064555,0.7973271,5.945078,5.945078,0.0,0.0,0.0,0.0,0.0,0.0,0.0,0.0,12.476851,0.0,0.0,nan,0.0,0.0,0.09035416,0.0,0.0,0.0,0.0,0.0,0.0,0.0,0.0,0.0
619717545,619617641,0.30978864,0.3097916,0.6585543,5.825859,5.825859,0.0,0.0,0.0,0.0,0.0,0.0,0.0,0.0,12.478823,0.0,0.0,nan,0.0,0.0,0.09035415,0.0,0.0,0.0,0.0,0.0,0.0,0.0,0.0,0.0
620215295,620115364,0.4316484,0.4316532,0.9328478,5.8213015,5.8213015,0.0,0.0,0.0,0.0,0.0,0.0,0.0,0.0,12.477955,0.0,0.0,nan,0.0,0.0,0.09035426,0.0,0.0,0.0,0.0,0.0,0.0,0.0,0.0,0.0
620713026,620613087,0.5867356,0.58674145,1.2825451,5.82835,5.8283505,0.0,0.0,0.0,0.0,0.0,0.0,0.0,0.0,12.476272,0.0,0.0,nan,0.0,0.0,0.09035416,0.0,0.0,0.0,0.0,0.0,0.0,0.0,0.0,0.0
621220721,621120764,0.38675213,0.3867592,0.82978976,5.820344,5.8203444,0.0,0.0,0.0,0.0,0.0,0.0,0.0,0.0,12.478613,0.0,0.0,nan,0.0,0.0,0.09035426,0.0,0.0,0.0,0.0,0.0,0.0,0.0,0.0,0.0
621718417,621618487,0.49000132,0.4900091,1.0607055,5.8044057,5.804407,0.0,0.0,0.0,0.0,0.0,0.0,0.0,0.0,12.478213,0.0,0.0,nan,0.0,0.0,0.09035426,0.0,0.0,0.0,0.0,0.0,0.0,0.0,0.0,0.0
622216199,622116210,0.43024272,0.4302508,0.9247586,5.8019834,5.8019853,0.0,0.0,0.0,0.0,0.0,0.0,0.0,0.0,12.481325,0.0,0.0,nan,0.0,0.0,0.090354145,0.0,0.0,0.0,0.0,0.0,0.0,0.0,0.0,0.0
622713972,622613932,0.63698924,0.6369969,1.3899559,5.860951,5.860954,0.0,0.0,0.0,0.0,0.0,0.0,0.0,0.0,12.481124,0.0,0.0,nan,0.0,0.0,0.090354234,0.0,0.0,0.0,0.0,0.0,0.0,0.0,0.0,0.0
623211559,623111654,0.4158508,0.41585836,0.8908631,5.913538,5.9135413,0.0,0.0,0.0,0.0,0.0,0.0,0.0,0.0,12.481886,0.0,0.0,nan,0.0,0.0,0.090354234,0.0,0.0,0.0,0.0,0.0,0.0,0.0,0.0,0.0
623719264,623619331,0.33121607,0.33122224,0.7007217,5.9556866,5.95569,0.0,0.0,0.0,0.0,0.0,0.0,0.0,0.0,12.480312,0.0,0.0,nan,0.0,0.0,0.09035413,0.0,0.0,0.0,0.0,0.0,0.0,0.0,0.0,0.0
624216996,624117053,0.22974019,0.22974522,0.47307009,5.9361,5.9361024,0.0,0.0,0.0,0.0,0.0,0.0,0.0,0.0,12.48079,0.0,0.0,nan,0.0,0.0,0.09035421,0.0,0.0,0.0,0.0,0.0,0.0,0.0,0.0,0.0
624714686,624614775,0.46063095,0.46063417,0.9944144,5.9063344,5.9063373,0.0,0.0,0.0,0.0,0.0,0.0,0.0,0.0,12.482002,0.0,0.0,nan,0.0,0.0,0.09035421,0.0,0.0,0.0,0.0,0.0,0.0,0.0,0.0,0.0
625212451,625112497,0.29459414,0.2945971,0.6210618,5.864285,5.8642874,0.0,0.0,0.0,0.0,0.0,0.0,0.0,0.0,12.4796915,0.0,0.0,nan,0.0,0.0,0.09035429,0.0,0.0,0.0,0.0,0.0,0.0,0.0,0.0,0.0
625710319,625610218,0.4781663,0.47817087,1.0334918,5.8838296,5.883832,0.0,0.0,0.0,0.0,0.0,0.0,0.0,0.0,12.482147,0.0,0.0,nan,0.0,0.0,0.09035418,0.0,0.0,0.0,0.0,0.0,0.0,0.0,0.0,0.0
626217801,626117894,0.5630851,0.5630909,1.2230521,5.901927,5.9019294,0.0,0.0,0.0,0.0,0.0,0.0,0.0,0.0,12.483116,0.0,0.0,nan,0.0,0.0,0.090354174,0.0,0.0,0.0,0.0,0.0,0.0,0.0,0.0,0.0
626715536,626615616,0.5730373,0.5730449,1.2431326,5.945693,5.9456964,0.0,0.0,0.0,0.0,0.0,0.0,0.0,0.0,12.484649,0.0,0.0,nan,0.0,0.0,0.09035427,0.0,0.0,0.0,0.0,0.0,0.0,0.0,0.0,0.0
627213335,627113338,0.57121193,0.5712206,1.2367777,5.999157,5.999161,0.0,0.0,0.0,0.0,0.0,0.0,0.0,0.0,12.486936,0.0,0.0,nan,0.0,0.0,0.09035417,0.0,0.0,0.0,0.0,0.0,0.0,0.0,0.0,0.0
627720999,627621012,0.6760505,0.6760609,1.4691334,6.1069717,6.1069775,0.0,0.0,0.0,0.0,0.0,0.0,0.0,0.0,12.488937,0.0,0.0,nan,0.0,0.0,0.09035426,0.0,0.0,0.0,0.0,0.0,0.0,0.0,0.0,0.0
628218661,628118733,0.6892055,0.68921643,1.4982904,6.1679497,6.167956,0.0,0.0,0.0,0.0,0.0,0.0,0.0,0.0,12.490473,0.0,0.0,nan,0.0,0.0,0.09035425,0.0,0.0,0.0,0.0,0.0,0.0,0.0,0.0,0.0
628716433,628616454,0.44536772,0.4453791,0.94878477,6.1942472,6.1942534,0.0,0.0,0.0,0.0,0.0,0.0,0.0,0.0,12.490646,0.0,0.0,nan,0.0,0.0,0.09035415,0.0,0.0,0.0,0.0,0.0,0.0,0.0,0.0,0.0
629214133,629114174,0.32115054,0.3211616,0.6696222,6.186549,6.1865544,0.0,0.0,0.0,0.0,0.0,0.0,0.0,0.0,12.491161,0.0,0.0,nan,0.0,0.0,0.090354234,0.0,0.0,0.0,0.0,0.0,0.0,0.0,0.0,0.0
629711850,629611894,0.42286226,0.4228723,0.9000219,6.2096066,6.209613,0.0,0.0,0.0,0.0,0.0,0.0,0.0,0.0,12.489668,0.0,0.0,nan,0.0,0.0,0.09035424,0.0,0.0,0.0,0.0,0.0,0.0,0.0,0.0,0.0
630219495,630119569,0.44996998,0.44997925,0.96300656,6.1929135,6.1929193,0.0,0.0,0.0,0.0,0.0,0.0,0.0,0.0,12.49026,0.0,0.0,nan,0.0,0.0,0.090354145,0.0,0.0,0.0,0.0,0.0,0.0,0.0,0.0,0.0
630717196,630617289,0.6387418,0.63875103,1.3871347,6.2755375,6.275544,0.0,0.0,0.0,0.0,0.0,0.0,0.0,0.0,12.491513,0.0,0.0,nan,0.0,0.0,0.09035424,0.0,0.0,0.0,0.0,0.0,0.0,0.0,0.0,0.0
631214926,631115009,0.6953776,0.69538736,1.5127683,6.3552413,6.3552494,0.0,0.0,0.0,0.0,0.0,0.0,0.0,0.0,12.492918,0.0,0.0,nan,0.0,0.0,0.090354234,0.0,0.0,0.0,0.0,0.0,0.0,0.0,0.0,0.0
631712751,631612729,0.7300173,0.7300283,1.587272,6.489327,6.4893374,0.0,0.0,0.0,0.0,0.0,0.0,0.0,0.0,12.49428,0.0,0.0,nan,0.0,0.0,0.090354145,0.0,0.0,0.0,0.0,0.0,0.0,0.0,0.0,0.0
632210388,632110448,0.49706045,0.49707174,1.06213,6.555201,6.5552115,0.0,0.0,0.0,0.0,0.0,0.0,0.0,0.0,12.496594,0.0,0.0,nan,0.0,0.0,0.090354234,0.0,0.0,0.0,0.0,0.0,0.0,0.0,0.0,0.0
632718038,632618122,0.5358968,0.53590786,1.1495165,6.6347723,6.634783,0.0,0.0,0.0,0.0,0.0,0.0,0.0,0.0,12.497064,0.0,0.0,nan,0.0,0.0,0.09035423,0.0,0.0,0.0,0.0,0.0,0.0,0.0,0.0,0.0
633215774,633115841,0.28221887,0.28222948,0.5788099,6.703026,6.7030344,0.0,0.0,0.0,0.0,0.0,0.0,0.0,0.0,12.492875,0.0,0.0,nan,0.0,0.0,0.09035431,0.0,0.0,0.0,0.0,0.0,0.0,0.0,0.0,0.0
633713498,633613561,0.5826834,0.58269286,1.2571965,6.731305,6.7313147,0.0,0.0,0.0,0.0,0.0,0.0,0.0,0.0,12.494065,0.0,0.0,nan,0.0,0.0,0.09035422,0.0,0.0,0.0,0.0,0.0,0.0,0.0,0.0,0.0
634211185,634111280,0.59199184,0.59200144,1.2772293,6.769958,6.7699676,0.0,0.0,0.0,0.0,0.0,0.0,0.0,0.0,12.495765,0.0,0.0,nan,0.0,0.0,0.09035421,0.0,0.0,0.0,0.0,0.0,0.0,0.0,0.0,0.0
634718861,634618953,0.7055377,0.7055474,1.531312,6.8421164,6.8421264,0.0,0.0,0.0,0.0,0.0,0.0,0.0,0.0,12.496686,0.0,0.0,nan,0.0,0.0,0.090354286,0.0,0.0,0.0,0.0,0.0,0.0,0.0,0.0,0.0
635216573,635116672,0.6274912,0.6274998,1.3592448,6.856012,6.85602,0.0,0.0,0.0,0.0,0.0,0.0,0.0,0.0,12.4950075,0.0,0.0,nan,0.0,0.0,0.09035419,0.0,0.0,0.0,0.0,0.0,0.0,0.0,0.0,0.0
635714377,635614390,0.63315266,0.63316154,1.3698684,6.9343824,6.934391,0.0,0.0,0.0,0.0,0.0,0.0,0.0,0.0,12.494966,0.0,0.0,nan,0.0,0.0,0.09035428,0.0,0.0,0.0,0.0,0.0,0.0,0.0,0.0,0.0
636212104,636112109,0.69398445,0.69399345,1.5057533,7.004701,7.00471,0.0,0.0,0.0,0.0,0.0,0.0,0.0,0.0,12.495992,0.0,0.0,nan,0.0,0.0,0.09035427,0.0,0.0,0.0,0.0,0.0,0.0,0.0,0.0,0.0
636709876,636609827,0.8667943,0.8668041,1.890137,7.1394286,7.1394396,0.0,0.0,0.0,0.0,0.0,0.0,0.0,0.0,12.498607,0.0,0.0,nan,0.0,0.0,0.09035418,0.0,0.0,0.0,0.0,0.0,0.0,0.0,0.0,0.0
637217411,637117499,0.8883734,0.8883835,1.9358237,7.216746,7.216758,0.0,0.0,0.0,0.0,0.0,0.0,0.0,0.0,12.5011015,0.0,0.0,nan,0.0,0.0,0.09035426,0.0,0.0,0.0,0.0,0.0,0.0,0.0,0.0,0.0
637715133,637615217,0.91333956,0.9133489,1.9943084,7.2892704,7.2892814,0.0,0.0,0.0,0.0,0.0,0.0,0.0,0.0,12.498687,0.0,0.0,nan,0.0,0.0,0.09035426,0.0,0.0,0.0,0.0,0.0,0.0,0.0,0.0,0.0
638212837,638112935,0.80338925,0.8033984,1.7454181,7.3411036,7.3411145,0.0,0.0,0.0,0.0,0.0,0.0,0.0,0.0,12.500473,0.0,0.0,nan,0.0,0.0,0.09035417,0.0,0.0,0.0,0.0,0.0,0.0,0.0,0.0,0.0
638720547,638620607,0.6880847,0.68809426,1.4842477,7.3734765,7.3734884,0.0,0.0,0.0,0.0,0.0,0.0,0.0,0.0,12.502201,0.0,0.0,nan,0.0,0.0,0.09035426,0.0,0.0,0.0,0.0,0.0,0.0,0.0,0.0,0.0
639218271,639118325,0.6532294,0.6532387,1.4055868,7.3660626,7.3660736,0.0,0.0,0.0,0.0,0.0,0.0,0.0,0.0,12.50173,0.0,0.0,nan,0.0,0.0,0.09035425,0.0,0.0,0.0,0.0,0.0,0.0,0.0,0.0,0.0
639715946,639616042,0.37099513,0.37100357,0.7731981,7.3217783,7.3217864,0.0,0.0,0.0,0.0,0.0,0.0,0.0,0.0,12.498384,0.0,0.0,nan,0.0,0.0,0.09035434,0.0,0.0,0.0,0.0,0.0,0.0,0.0,0.0,0.0
640213745,640113759,0.1673261,0.16733374,0.31830078,7.2417874,7.2417917,0.0,0.0,0.0,0.0,0.0,0.0,0.0,0.0,12.492798,0.0,0.0,nan,0.0,0.0,0.090354234,0.0,0.0,0.0,0.0,0.0,0.0,0.0,0.0,0.0
640711501,640611476,0.491853,0.49185926,1.0582292,7.157555,7.157559,0.0,0.0,0.0,0.0,0.0,0.0,0.0,0.0,12.493847,0.0,0.0,nan,0.0,0.0,0.09035423,0.0,0.0,0.0,0.0,0.0,0.0,0.0,0.0,0.0
641219136,641119147,0.2551003,0.25510743,0.52355796,7.1404443,7.1404476,0.0,0.0,0.0,0.0,0.0,0.0,0.0,0.0,12.490979,0.0,0.0,nan,0.0,0.0,0.09035431,0.0,0.0,0.0,0.0,0.0,0.0,0.0,0.0,0.0
641716796,641616864,0.21253023,0.21253663,0.43362513,6.9420605,6.942063,0.0,0.0,0.0,0.0,0.0,0.0,0.0,0.0,12.484103,0.0,0.0,nan,0.0,0.0,0.09035422,0.0,0.0,0.0,0.0,0.0,0.0,0.0,0.0,0.0
642214537,642114581,0.48687184,0.48687756,1.0544568,6.8884907,6.888493,0.0,0.0,0.0,0.0,0.0,0.0,0.0,0.0,12.484902,0.0,0.0,nan,0.0,0.0,0.0903543,0.0,0.0,0.0,0.0,0.0,0.0,0.0,0.0,0.0
642712383,642612297,0.33817592,0.33818194,0.71788085,6.797643,6.7976456,0.0,0.0,0.0,0.0,0.0,0.0,0.0,0.0,12.484846,0.0,0.0,nan,0.0,0.0,0.09035429,0.0,0.0,0.0,0.0,0.0,0.0,0.0,0.0,0.0
643209914,643110013,0.30029902,0.30030525,0.63280916,6.711511,6.711513,0.0,0.0,0.0,0.0,0.0,0.0,0.0,0.0,12.481756,0.0,0.0,nan,0.0,0.0,0.090354204,0.0,0.0,0.0,0.0,0.0,0.0,0.0,0.0,0.0
643717585,643617684,0.4195624,0.4195686,0.901821,6.687256,6.687258,0.0,0.0,0.0,0.0,0.0,0.0,0.0,0.0,12.481502,0.0,0.0,nan,0.0,0.0,0.09035428,0.0,0.0,0.0,0.0,0.0,0.0,0.0,0.0,0.0
644215302,644115400,0.501523,0.5015294,1.085396,6.6523333,6.6523356,0.0,0.0,0.0,0.0,0.0,0.0,0.0,0.0,12.482126,0.0,0.0,nan,0.0,0.0,0.09035428,0.0,0.0,0.0,0.0,0.0,0.0,0.0,0.0,0.0
644713020,644613116,0.46352357,0.46352974,0.99760586,6.6225724,6.6225753,0.0,0.0,0.0,0.0,0.0,0.0,0.0,0.0,12.483978,0.0,0.0,nan,0.0,0.0,0.09035418,0.0,0.0,0.0,0.0,0.0,0.0,0.0,0.0,0.0
645220847,645120786,0.39678863,0.39679444,0.84667975,6.5711823,6.571185,0.0,0.0,0.0,0.0,0.0,0.0,0.0,0.0,12.484324,0.0,0.0,nan,0.0,0.0,0.09035427,0.0,0.0,0.0,0.0,0.0,0.0,0.0,0.0,0.0
645718448,645618501,0.34310338,0.3431089,0.725688,6.493397,6.4934006,0.0,0.0,0.0,0.0,0.0,0.0,0.0,0.0,12.48467,0.0,0.0,nan,0.0,0.0,0.09035427,0.0,0.0,0.0,0.0,0.0,0.0,0.0,0.0,0.0
646216123,646116217,0.4361467,0.43615174,0.93627954,6.4125876,6.412591,0.0,0.0,0.0,0.0,0.0,0.0,0.0,0.0,12.482879,0.0,0.0,nan,0.0,0.0,0.09035435,0.0,0.0,0.0,0.0,0.0,0.0,0.0,0.0,0.0
646713840,646613932,0.29225203,0.29225695,0.6121261,6.3341117,6.3341146,0.0,0.0,0.0,0.0,0.0,0.0,0.0,0.0,12.483257,0.0,0.0,nan,0.0,0.0,0.09035424,0.0,0.0,0.0,0.0,0.0,0.0,0.0,0.0,0.0
647211599,647111647,0.17714432,0.17714845,0.35619617,6.2266088,6.2266107,0.0,0.0,0.0,0.0,0.0,0.0,0.0,0.0,12.477453,0.0,0.0,nan,0.0,0.0,0.09035425,0.0,0.0,0.0,0.0,0.0,0.0,0.0,0.0,0.0
647719253,647619316,0.285731,0.28573447,0.6044029,6.11984,6.1198416,0.0,0.0,0.0,0.0,0.0,0.0,0.0,0.0,12.4786215,0.0,0.0,nan,0.0,0.0,0.09035432,0.0,0.0,0.0,0.0,0.0,0.0,0.0,0.0,0.0
648216954,648117031,0.28250715,0.28251064,0.597539,6.0536404,6.0536423,0.0,0.0,0.0,0.0,0.0,0.0,0.0,0.0,12.475704,0.0,0.0,nan,0.0,0.0,0.090354234,0.0,0.0,0.0,0.0,0.0,0.0,0.0,0.0,0.0
648714723,648614745,0.27705118,0.27705508,0.58607846,5.94746,5.9474616,0.0,0.0,0.0,0.0,0.0,0.0,0.0,0.0,12.476536,0.0,0.0,nan,0.0,0.0,0.09035432,0.0,0.0,0.0,0.0,0.0,0.0,0.0,0.0,0.0
649212392,649112459,0.25744298,0.2574468,0.54374367,5.855571,5.8555717,0.0,0.0,0.0,0.0,0.0,0.0,0.0,0.0,12.472677,0.0,0.0,nan,0.0,0.0,0.09035431,0.0,0.0,0.0,0.0,0.0,0.0,0.0,0.0,0.0
649710104,649610174,0.3801332,0.38013723,0.8211082,5.682181,5.682182,0.0,0.0,0.0,0.0,0.0,0.0,0.0,0.0,12.470495,0.0,0.0,nan,0.0,0.0,0.09035421,0.0,0.0,0.0,0.0,0.0,0.0,0.0,0.0,0.0
650217793,650117842,0.30032963,0.30033407,0.6391769,5.6258903,5.625891,0.0,0.0,0.0,0.0,0.0,0.0,0.0,0.0,12.472604,0.0,0.0,nan,0.0,0.0,0.09035429,0.0,0.0,0.0,0.0,0.0,0.0,0.0,0.0,0.0
650715544,650615556,0.47430786,0.47431228,1.032551,5.543293,5.543294,0.0,0.0,0.0,0.0,0.0,0.0,0.0,0.0,12.471243,0.0,0.0,nan,0.0,0.0,0.09035428,0.0,0.0,0.0,0.0,0.0,0.0,0.0,0.0,0.0
651213206,651113270,0.35516515,0.35517,0.76304686,5.4867125,5.486714,0.0,0.0,0.0,0.0,0.0,0.0,0.0,0.0,12.4723,0.0,0.0,nan,0.0,0.0,0.090354174,0.0,0.0,0.0,0.0,0.0,0.0,0.0,0.0,0.0
651710886,651610983,0.45340282,0.4534082,0.98214984,5.452966,5.452968,0.0,0.0,0.0,0.0,0.0,0.0,0.0,0.0,12.475883,0.0,0.0,nan,0.0,0.0,0.09035426,0.0,0.0,0.0,0.0,0.0,0.0,0.0,0.0,0.0
652218554,652118651,0.18258499,0.18258941,0.3765026,5.329102,5.329103,0.0,0.0,0.0,0.0,0.0,0.0,0.0,0.0,12.467288,0.0,0.0,nan,0.0,0.0,0.09035424,0.0,0.0,0.0,0.0,0.0,0.0,0.0,0.0,0.0
652716465,652616364,0.27291217,0.27291608,0.58309585,5.1798396,5.1798406,0.0,0.0,0.0,0.0,0.0,0.0,0.0,0.0,12.466893,0.0,0.0,nan,0.0,0.0,0.09035432,0.0,0.0,0.0,0.0,0.0,0.0,0.0,0.0,0.0
653214006,653114077,0.36794505,0.36794913,0.79670656,5.129644,5.1296444,0.0,0.0,0.0,0.0,0.0,0.0,0.0,0.0,12.466306,0.0,0.0,nan,0.0,0.0,0.09035419,0.0,0.0,0.0,0.0,0.0,0.0,0.0,0.0,0.0
653711697,653611790,0.27647835,0.27648267,0.5899803,5.0744534,5.074454,0.0,0.0,0.0,0.0,0.0,0.0,0.0,0.0,12.467192,0.0,0.0,nan,0.0,0.0,0.090354174,0.0,0.0,0.0,0.0,0.0,0.0,0.0,0.0,0.0
654219362,654119457,0.3652162,0.36522084,0.78889745,5.0163484,5.0163493,0.0,0.0,0.0,0.0,0.0,0.0,0.0,0.0,12.466908,0.0,0.0,nan,0.0,0.0,0.090354234,0.0,0.0,0.0,0.0,0.0,0.0,0.0,0.0,0.0
654717130,654617170,0.2714362,0.271442,0.57471013,4.969944,4.969945,0.0,0.0,0.0,0.0,0.0,0.0,0.0,0.0,12.467388,0.0,0.0,nan,0.0,0.0,0.09035411,0.0,0.0,0.0,0.0,0.0,0.0,0.0,0.0,0.0
655215069,655114882,0.6468157,0.646822,1.4175196,4.9988747,4.998877,0.0,0.0,0.0,0.0,0.0,0.0,0.0,0.0,12.472453,0.0,0.0,nan,0.0,0.0,0.090354174,0.0,0.0,0.0,0.0,0.0,0.0,0.0,0.0,0.0
655712714,655612594,0.64007306,0.6400805,1.3969293,5.057466,5.057471,0.0,0.0,0.0,0.0,0.0,0.0,0.0,0.0,12.477446,0.0,0.0,nan,0.0,0.0,0.09035414,0.0,0.0,0.0,0.0,0.0,0.0,0.0,0.0,0.0
656220164,656120261,0.17874189,0.1787497,0.3565526,5.081443,5.081446,0.0,0.0,0.0,0.0,0.0,0.0,0.0,0.0,12.475365,0.0,0.0,nan,0.0,0.0,0.09035402,0.0,0.0,0.0,0.0,0.0,0.0,0.0,0.0,0.0
656718041,656617972,0.21715063,0.2171572,0.44720703,5.106711,5.1067142,0.0,0.0,0.0,0.0,0.0,0.0,0.0,0.0,12.473819,0.0,0.0,nan,0.0,0.0,0.09035406,0.0,0.0,0.0,0.0,0.0,0.0,0.0,0.0,0.0
657215596,657115687,0.42296284,0.42296815,0.9155618,5.103626,5.103628,0.0,0.0,0.0,0.0,0.0,0.0,0.0,0.0,12.474225,0.0,0.0,nan,0.0,0.0,0.09035404,0.0,0.0,0.0,0.0,0.0,0.0,0.0,0.0,0.0
657713316,657613396,0.24547496,0.24548066,0.5141718,5.1077785,5.1077814,0.0,0.0,0.0,0.0,0.0,0.0,0.0,0.0,12.475751,0.0,0.0,nan,0.0,0.0,0.09035392,0.0,0.0,0.0,0.0,0.0,0.0,0.0,0.0,0.0
658211046,658111107,0.434624,0.43462983,0.9388271,5.1227837,5.122787,0.0,0.0,0.0,0.0,0.0,0.0,0.0,0.0,12.47641,0.0,0.0,nan,0.0,0.0,0.09035398,0.0,0.0,0.0,0.0,0.0,0.0,0.0,0.0,0.0
658718716,658618773,0.3733965,0.37340295,0.79815245,5.1246653,5.1246696,0.0,0.0,0.0,0.0,0.0,0.0,0.0,0.0,12.478467,0.0,0.0,nan,0.0,0.0,0.09035395,0.0,0.0,0.0,0.0,0.0,0.0,0.0,0.0,0.0
659216442,659116484,0.19048709,0.19049361,0.3865325,5.100242,5.100245,0.0,0.0,0.0,0.0,0.0,0.0,0.0,0.0,12.4774065,0.0,0.0,nan,0.0,0.0,0.090354025,0.0,0.0,0.0,0.0,0.0,0.0,0.0,0.0,0.0
659714774,659614195,0.4417578,0.44176367,0.95603955,5.053659,5.0536623,0.0,0.0,0.0,0.0,0.0,0.0,0.0,0.0,12.477672,0.0,0.0,nan,0.0,0.0,0.0903539,0.0,0.0,0.0,0.0,0.0,0.0,0.0,0.0,0.0
660211810,660111905,0.44839576,0.44840193,0.9706957,5.018653,5.018656,0.0,0.0,0.0,0.0,0.0,0.0,0.0,0.0,12.477419,0.0,0.0,nan,0.0,0.0,0.090353884,0.0,0.0,0.0,0.0,0.0,0.0,0.0,0.0,0.0
660709659,660609616,0.4165287,0.41653427,0.90142745,4.978243,4.9782457,0.0,0.0,0.0,0.0,0.0,0.0,0.0,0.0,12.4758005,0.0,0.0,nan,0.0,0.0,0.09035394,0.0,0.0,0.0,0.0,0.0,0.0,0.0,0.0,0.0
661217182,661117280,0.72315735,0.7231632,1.589478,4.983319,4.983322,0.0,0.0,0.0,0.0,0.0,0.0,0.0,0.0,12.477593,0.0,0.0,nan,0.0,0.0,0.090353824,0.0,0.0,0.0,0.0,0.0,0.0,0.0,0.0,0.0
661715128,661614993,1.0174067,1.0174142,2.2452042,5.094337,5.0943427,0.0,0.0,0.0,0.0,0.0,0.0,0.0,0.0,12.482416,0.0,0.0,nan,0.0,0.0,0.090353906,0.0,0.0,0.0,0.0,0.0,0.0,0.0,0.0,0.0
662212623,662112701,0.2550172,0.25502592,0.52576715,5.181812,5.181817,0.0,0.0,0.0,0.0,0.0,0.0,0.0,0.0,12.482715,0.0,0.0,nan,0.0,0.0,0.0903539,0.0,0.0,0.0,0.0,0.0,0.0,0.0,0.0,0.0
662720278,662620365,1.0079352,1.0079436,2.2190025,5.359029,5.3590364,0.0,0.0,0.0,0.0,0.0,0.0,0.0,0.0,12.486683,0.0,0.0,nan,0.0,0.0,0.09035379,0.0,0.0,0.0,0.0,0.0,0.0,0.0,0.0,0.0
663217985,663118075,0.85823345,0.85824287,1.8776064,5.470579,5.4705896,0.0,0.0,0.0,0.0,0.0,0.0,0.0,0.0,12.491336,0.0,0.0,nan,0.0,0.0,0.09035386,0.0,0.0,0.0,0.0,0.0,0.0,0.0,0.0,0.0
663715923,663615784,1.275358,1.2753683,2.811156,5.6284556,5.62847,0.0,0.0,0.0,0.0,0.0,0.0,0.0,0.0,12.495537,0.0,0.0,nan,0.0,0.0,0.09035386,0.0,0.0,0.0,0.0,0.0,0.0,0.0,0.0,0.0
664213578,664113494,1.3819659,1.381977,3.0468574,5.7540884,5.754106,0.0,0.0,0.0,0.0,0.0,0.0,0.0,0.0,12.499435,0.0,0.0,nan,0.0,0.0,0.09035376,0.0,0.0,0.0,0.0,0.0,0.0,0.0,0.0,0.0
664711270,664611203,1.0883633,1.0883757,2.3790505,6.0155582,6.01558,0.0,0.0,0.0,0.0,0.0,0.0,0.0,0.0,12.503139,0.0,0.0,nan,0.0,0.0,0.09035384,0.0,0.0,0.0,0.0,0.0,0.0,0.0,0.0,0.0
665218776,665118866,0.14591621,0.14592832,0.25594494,6.097034,6.0970435,0.0,0.0,0.0,0.0,0.0,0.0,0.0,0.0,12.496143,0.0,0.0,nan,0.0,0.0,0.090353854,0.0,0.0,0.0,0.0,0.0,0.0,0.0,0.0,0.0
665716667,665616575,0.6986163,0.69862276,1.5169184,6.1751485,6.175159,0.0,0.0,0.0,0.0,0.0,0.0,0.0,0.0,12.499268,0.0,0.0,nan,0.0,0.0,0.090353966,0.0,0.0,0.0,0.0,0.0,0.0,0.0,0.0,0.0
666214246,666114283,0.4211656,0.4211717,0.89209324,6.1833563,6.183366,0.0,0.0,0.0,0.0,0.0,0.0,0.0,0.0,12.497267,0.0,0.0,nan,0.0,0.0,0.09035389,0.0,0.0,0.0,0.0,0.0,0.0,0.0,0.0,0.0
666712072,666611992,0.6286567,0.62866145,1.3629513,6.1728883,6.172896,0.0,0.0,0.0,0.0,0.0,0.0,0.0,0.0,12.495897,0.0,0.0,nan,0.0,0.0,0.09035392,0.0,0.0,0.0,0.0,0.0,0.0,0.0,0.0,0.0
667209614,667109700,0.71754867,0.7175534,1.5610423,6.184136,6.184143,0.0,0.0,0.0,0.0,0.0,0.0,0.0,0.0,12.498245,0.0,0.0,nan,0.0,0.0,0.09035406,0.0,0.0,0.0,0.0,0.0,0.0,0.0,0.0,0.0
667717264,667617363,0.637046,0.63705015,1.3803953,6.1882763,6.188283,0.0,0.0,0.0,0.0,0.0,0.0,0.0,0.0,12.497868,0.0,0.0,nan,0.0,0.0,0.090353996,0.0,0.0,0.0,0.0,0.0,0.0,0.0,0.0,0.0
668215063,668115071,0.4099841,0.4099876,0.8720777,6.203515,6.2035203,0.0,0.0,0.0,0.0,0.0,0.0,0.0,0.0,12.494074,0.0,0.0,nan,0.0,0.0,0.09035414,0.0,0.0,0.0,0.0,0.0,0.0,0.0,0.0,0.0
668713548,668612778,0.36723685,0.36724022,0.775254,6.237943,6.237948,0.0,0.0,0.0,0.0,0.0,0.0,0.0,0.0,12.4934225,0.0,0.0,nan,0.0,0.0,0.090354174,0.0,0.0,0.0,0.0,0.0,0.0,0.0,0.0,0.0
669220372,669120440,0.7675372,0.7675404,1.6782423,6.2630854,6.263089,0.0,0.0,0.0,0.0,0.0,0.0,0.0,0.0,12.493474,0.0,0.0,nan,0.0,0.0,0.090354115,0.0,0.0,0.0,0.0,0.0,0.0,0.0,0.0,0.0
669718087,669618147,0.75886273,0.7588665,1.6553406,6.303601,6.303604,0.0,0.0,0.0,0.0,0.0,0.0,0.0,0.0,12.495508,0.0,0.0,nan,0.0,0.0,0.09035424,0.0,0.0,0.0,0.0,0.0,0.0,0.0,0.0,0.0
670215795,670115855,0.5266996,0.5267038,1.1304862,6.31716,6.317163,0.0,0.0,0.0,0.0,0.0,0.0,0.0,0.0,12.495533,0.0,0.0,nan,0.0,0.0,0.09035426,0.0,0.0,0.0,0.0,0.0,0.0,0.0,0.0,0.0
670713604,670613562,0.61759126,0.6175957,1.3350952,6.3094306,6.309433,0.0,0.0,0.0,0.0,0.0,0.0,0.0,0.0,12.496525,0.0,0.0,nan,0.0,0.0,0.0903542,0.0,0.0,0.0,0.0,0.0,0.0,0.0,0.0,0.0
671211171,671111269,0.41976485,0.41976807,0.9019914,6.2214475,6.2214494,0.0,0.0,0.0,0.0,0.0,0.0,0.0,0.0,12.487288,0.0,0.0,nan,0.0,0.0,0.0903543,0.0,0.0,0.0,0.0,0.0,0.0,0.0,0.0,0.0
671719045,671618930,0.25739568,0.2573995,0.53591776,6.0840883,6.0840898,0.0,0.0,0.0,0.0,0.0,0.0,0.0,0.0,12.48787,0.0,0.0,nan,0.0,0.0,0.090354234,0.0,0.0,0.0,0.0,0.0,0.0,0.0,0.0,0.0
672216569,672116636,0.21181597,0.21181984,0.43531644,5.973753,5.973754,0.0,0.0,0.0,0.0,0.0,0.0,0.0,0.0,12.482028,0.0,0.0,nan,0.0,0.0,0.090354435,0.0,0.0,0.0,0.0,0.0,0.0,0.0,0.0,0.0
672714418,672614342,0.4771049,0.47710907,1.0331371,5.879918,5.879919,0.0,0.0,0.0,0.0,0.0,0.0,0.0,0.0,12.482684,0.0,0.0,nan,0.0,0.0,0.09035435,0.0,0.0,0.0,0.0,0.0,0.0,0.0,0.0,0.0
673212239,673112049,0.29893577,0.29894012,0.63254976,5.8020735,5.802074,0.0,0.0,0.0,0.0,0.0,0.0,0.0,0.0,12.480535,0.0,0.0,nan,0.0,0.0,0.09035435,0.0,0.0,0.0,0.0,0.0,0.0,0.0,0.0,0.0
673719646,673619709,0.571115,0.5711194,1.2457935,5.7015395,5.7015405,0.0,0.0,0.0,0.0,0.0,0.0,0.0,0.0,12.480979,0.0,0.0,nan,0.0,0.0,0.09035444,0.0,0.0,0.0,0.0,0.0,0.0,0.0,0.0,0.0
674217347,674117414,0.34518763,0.34519282,0.7331934,5.6921744,5.6921754,0.0,0.0,0.0,0.0,0.0,0.0,0.0,0.0,12.480452,0.0,0.0,nan,0.0,0.0,0.09035435,0.0,0.0,0.0,0.0,0.0,0.0,0.0,0.0,0.0
674715073,674615120,0.4908566,0.49086183,1.060884,5.646659,5.6466603,0.0,0.0,0.0,0.0,0.0,0.0,0.0,0.0,12.482449,0.0,0.0,nan,0.0,0.0,0.09035446,0.0,0.0,0.0,0.0,0.0,0.0,0.0,0.0,0.0
675212768,675112826,0.3450594,0.3450643,0.73548186,5.571369,5.57137,0.0,0.0,0.0,0.0,0.0,0.0,0.0,0.0,12.479218,0.0,0.0,nan,0.0,0.0,0.09035444,0.0,0.0,0.0,0.0,0.0,0.0,0.0,0.0,0.0
675710433,675610531,0.41152734,0.4115323,0.884975,5.537828,5.537829,0.0,0.0,0.0,0.0,0.0,0.0,0.0,0.0,12.480175,0.0,0.0,nan,0.0,0.0,0.09035434,0.0,0.0,0.0,0.0,0.0,0.0,0.0,0.0,0.0
676218091,676118190,0.4662099,0.46621338,1.0172422,5.4534593,5.4534597,0.0,0.0,0.0,0.0,0.0,0.0,0.0,0.0,12.471352,0.0,0.0,nan,0.0,0.0,0.09035443,0.0,0.0,0.0,0.0,0.0,0.0,0.0,0.0,0.0
676715819,676615895,0.3623,0.36230406,0.7811626,5.4170094,5.4170094,0.0,0.0,0.0,0.0,0.0,0.0,0.0,0.0,12.47391,0.0,0.0,nan,0.0,0.0,0.09035442,0.0,0.0,0.0,0.0,0.0,0.0,0.0,0.0,0.0
677213506,677113600,0.42455837,0.42456317,0.9183053,5.3603187,5.3603196,0.0,0.0,0.0,0.0,0.0,0.0,0.0,0.0,12.47368,0.0,0.0,nan,0.0,0.0,0.09035432,0.0,0.0,0.0,0.0,0.0,0.0,0.0,0.0,0.0
677711510,677611304,0.53192025,0.53192556,1.1576953,5.3185744,5.318576,0.0,0.0,0.0,0.0,0.0,0.0,0.0,0.0,12.476242,0.0,0.0,nan,0.0,0.0,0.090354405,0.0,0.0,0.0,0.0,0.0,0.0,0.0,0.0,0.0
678218891,678118962,0.22154956,0.22155525,0.45697525,5.2205887,5.22059,0.0,0.0,0.0,0.0,0.0,0.0,0.0,0.0,12.475137,0.0,0.0,nan,0.0,0.0,0.0903544,0.0,0.0,0.0,0.0,0.0,0.0,0.0,0.0,0.0
678716593,678616667,0.36895636,0.36896172,0.7898062,5.203694,5.203696,0.0,0.0,0.0,0.0,0.0,0.0,0.0,0.0,12.478038,0.0,0.0,nan,0.0,0.0,0.09035448,0.0,0.0,0.0,0.0,0.0,0.0,0.0,0.0,0.0
679214284,679114371,0.14168064,0.14168608,0.27744222,5.135107,5.1351085,0.0,0.0,0.0,0.0,0.0,0.0,0.0,0.0,12.471469,0.0,0.0,nan,0.0,0.0,0.090354376,0.0,0.0,0.0,0.0,0.0,0.0,0.0,0.0,0.0
679712014,679612075,0.5213565,0.5213603,1.1410099,5.121317,5.1213183,0.0,0.0,0.0,0.0,0.0,0.0,0.0,0.0,12.47195,0.0,0.0,nan,0.0,0.0,0.09035436,0.0,0.0,0.0,0.0,0.0,0.0,0.0,0.0,0.0
680219658,680119732,0.34726283,0.3472675,0.74526536,5.088212,5.088214,0.0,0.0,0.0,0.0,0.0,0.0,0.0,0.0,12.473084,0.0,0.0,nan,0.0,0.0,0.090354435,0.0,0.0,0.0,0.0,0.0,0.0,0.0,0.0,0.0
680717361,680617436,0.3489691,0.34897423,0.74788094,5.054385,5.054387,0.0,0.0,0.0,0.0,0.0,0.0,0.0,0.0,12.474306,0.0,0.0,nan,0.0,0.0,0.09035433,0.0,0.0,0.0,0.0,0.0,0.0,0.0,0.0,0.0
681215102,681115139,0.35256618,0.3525714,0.755679,5.014561,5.014563,0.0,0.0,0.0,0.0,0.0,0.0,0.0,0.0,12.472895,0.0,0.0,nan,0.0,0.0,0.09035441,0.0,0.0,0.0,0.0,0.0,0.0,0.0,0.0,0.0
681712746,681612842,0.4679007,0.46790582,1.0150391,4.9939566,4.993959,0.0,0.0,0.0,0.0,0.0,0.0,0.0,0.0,12.47627,0.0,0.0,nan,0.0,0.0,0.090354405,0.0,0.0,0.0,0.0,0.0,0.0,0.0,0.0,0.0
682210738,682110545,0.51417494,0.51418054,1.1165494,4.977096,4.9770994,0.0,0.0,0.0,0.0,0.0,0.0,0.0,0.0,12.476566,0.0,0.0,nan,0.0,0.0,0.0903543,0.0,0.0,0.0,0.0,0.0,0.0,0.0,0.0,0.0
682718133,682618202,0.48087072,0.48087615,1.0423472,4.9575653,4.957568,0.0,0.0,0.0,0.0,0.0,0.0,0.0,0.0,12.478001,0.0,0.0,nan,0.0,0.0,0.09035439,0.0,0.0,0.0,0.0,0.0,0.0,0.0,0.0,0.0
683215806,683115905,0.49096185,0.49096733,1.0638747,4.93384,4.933843,0.0,0.0,0.0,0.0,0.0,0.0,0.0,0.0,12.478845,0.0,0.0,nan,0.0,0.0,0.09035437,0.0,0.0,0.0,0.0,0.0,0.0,0.0,0.0,0.0
683713537,683613607,0.3460172,0.34602293,0.73587906,4.930882,4.930886,0.0,0.0,0.0,0.0,0.0,0.0,0.0,0.0,12.480694,0.0,0.0,nan,0.0,0.0,0.09035427,0.0,0.0,0.0,0.0,0.0,0.0,0.0,0.0,0.0
684221164,684121263,0.55545884,0.5554639,1.2098553,4.907899,4.9079027,0.0,0.0,0.0,0.0,0.0,0.0,0.0,0.0,12.479148,0.0,0.0,nan,0.0,0.0,0.09035435,0.0,0.0,0.0,0.0,0.0,0.0,0.0,0.0,0.0
684708915,684609011,0.23322304,0.23322703,0.49067336,4.891235,4.8912373,0.0,0.0,0.0,0.0,0.0,0.0,0.0,0.0,12.473128,0.0,0.0,nan,0.0,0.0,0.09035434,0.0,0.0,0.0,0.0,0.0,0.0,0.0,0.0,0.0
685216576,685116667,0.20629999,0.20630395,0.43064082,4.9003973,4.9003987,0.0,0.0,0.0,0.0,0.0,0.0,0.0,0.0,12.46962,0.0,0.0,nan,0.0,0.0,0.09035442,0.0,0.0,0.0,0.0,0.0,0.0,0.0,0.0,0.0
685714301,685614369,0.53043824,0.5304422,1.1603326,4.9038568,4.9038587,0.0,0.0,0.0,0.0,0.0,0.0,0.0,0.0,12.473649,0.0,0.0,nan,0.0,0.0,0.090354316,0.0,0.0,0.0,0.0,0.0,0.0,0.0,0.0,0.0
686211987,686112071,0.23582509,0.23582976,0.49313343,4.901514,4.9015164,0.0,0.0,0.0,0.0,0.0,0.0,0.0,0.0,12.47283,0.0,0.0,nan,0.0,0.0,0.0903543,0.0,0.0,0.0,0.0,0.0,0.0,0.0,0.0,0.0
686719636,686619726,0.56024325,0.56024796,1.2225802,4.9251018,4.9251046,0.0,0.0,0.0,0.0,0.0,0.0,0.0,0.0,12.477128,0.0,0.0,nan,0.0,0.0,0.09035439,0.0,0.0,0.0,0.0,0.0,0.0,0.0,0.0,0.0
687217354,687117427,0.383148,0.3831534,0.81941533,4.971371,4.9713745,0.0,0.0,0.0,0.0,0.0,0.0,0.0,0.0,12.47772,0.0,0.0,nan,0.0,0.0,0.09035428,0.0,0.0,0.0,0.0,0.0,0.0,0.0,0.0,0.0
687715105,687615128,0.68986845,0.689874,1.5085675,5.0092106,5.009215,0.0,0.0,0.0,0.0,0.0,0.0,0.0,0.0,12.482933,0.0,0.0,nan,0.0,0.0,0.09035435,0.0,0.0,0.0,0.0,0.0,0.0,0.0,0.0,0.0
688212733,688112829,0.64930755,0.6493126,1.4183692,5.0049505,5.0049543,0.0,0.0,0.0,0.0,0.0,0.0,0.0,0.0,12.48168,0.0,0.0,nan,0.0,0.0,0.090354346,0.0,0.0,0.0,0.0,0.0,0.0,0.0,0.0,0.0
688710434,688610530,0.58294,0.5829453,1.2666252,4.9796424,4.9796467,0.0,0.0,0.0,0.0,0.0,0.0,0.0,0.0,12.484147,0.0,0.0,nan,0.0,0.0,0.09035425,0.0,0.0,0.0,0.0,0.0,0.0,0.0,0.0,0.0
689218110,689118185,0.11844723,0.11845228,0.22046232,4.981837,4.981839,0.0,0.0,0.0,0.0,0.0,0.0,0.0,0.0,12.475428,0.0,0.0,nan,0.0,0.0,0.09035433,0.0,0.0,0.0,0.0,0.0,0.0,0.0,0.0,0.0
689715852,689615885,0.4151069,0.41511023,0.8986446,4.9563603,4.9563622,0.0,0.0,0.0,0.0,0.0,0.0,0.0,0.0,12.478288,0.0,0.0,nan,0.0,0.0,0.090354316,0.0,0.0,0.0,0.0,0.0,0.0,0.0,0.0,0.0
690213515,690113585,0.30952257,0.30952615,0.6609163,4.905821,4.9058223,0.0,0.0,0.0,0.0,0.0,0.0,0.0,0.0,12.47471,0.0,0.0,nan,0.0,0.0,0.09035421,0.0,0.0,0.0,0.0,0.0,0.0,0.0,0.0,0.0
690721173,690621239,0.43956754,0.43957117,0.95289177,4.890678,4.89068,0.0,0.0,0.0,0.0,0.0,0.0,0.0,0.0,12.477121,0.0,0.0,nan,0.0,0.0,0.09035429,0.0,0.0,0.0,0.0,0.0,0.0,0.0,0.0,0.0
691218920,691118939,0.2006489,0.20065282,0.41391623,4.774481,4.7744823,0.0,0.0,0.0,0.0,0.0,0.0,0.0,0.0,12.473827,0.0,0.0,nan,0.0,0.0,0.09035419,0.0,0.0,0.0,0.0,0.0,0.0,0.0,0.0,0.0
691716579,691616639,0.39531797,0.39532158,0.8540571,4.7114167,4.7114186,0.0,0.0,0.0,0.0,0.0,0.0,0.0,0.0,12.475889,0.0,0.0,nan,0.0,0.0,0.09035437,0.0,0.0,0.0,0.0,0.0,0.0,0.0,0.0,0.0
692214249,692114339,0.48810878,0.48811293,1.0604143,4.7153225,4.7153244,0.0,0.0,0.0,0.0,0.0,0.0,0.0,0.0,12.476297,0.0,0.0,nan,0.0,0.0,0.09035426,0.0,0.0,0.0,0.0,0.0,0.0,0.0,0.0,0.0
692711942,692612038,0.28859288,0.28859735,0.60938764,4.7191806,4.7191825,0.0,0.0,0.0,0.0,0.0,0.0,0.0,0.0,12.477909,0.0,0.0,nan,0.0,0.0,0.09035426,0.0,0.0,0.0,0.0,0.0,0.0,0.0,0.0,0.0
693219629,693119691,0.5668984,0.5669027,1.2360314,4.747276,4.7472777,0.0,0.0,0.0,0.0,0.0,0.0,0.0,0.0,12.478728,0.0,0.0,nan,0.0,0.0,0.090354346,0.0,0.0,0.0,0.0,0.0,0.0,0.0,0.0,0.0
693717291,693617390,0.533526,0.5335307,1.1582342,4.769943,4.7699456,0.0,0.0,0.0,0.0,0.0,0.0,0.0,0.0,12.482213,0.0,0.0,nan,0.0,0.0,0.09035425,0.0,0.0,0.0,0.0,0.0,0.0,0.0,0.0,0.0
694215046,694115089,0.22727135,0.22727619,0.46721372,4.7791934,4.7791953,0.0,0.0,0.0,0.0,0.0,0.0,0.0,0.0,12.479666,0.0,0.0,nan,0.0,0.0,0.09035433,0.0,0.0,0.0,0.0,0.0,0.0,0.0,0.0,0.0
694712696,694612788,0.3999031,0.39990708,0.860031,4.7563944,4.756397,0.0,0.0,0.0,0.0,0.0,0.0,0.0,0.0,12.480587,0.0,0.0,nan,0.0,0.0,0.09035432,0.0,0.0,0.0,0.0,0.0,0.0,0.0,0.0,0.0
695210390,695110486,0.65530604,0.6553103,1.4324573,4.793407,4.79341,0.0,0.0,0.0,0.0,0.0,0.0,0.0,0.0,12.481148,0.0,0.0,nan,0.0,0.0,0.09035423,0.0,0.0,0.0,0.0,0.0,0.0,0.0,0.0,0.0
695718037,695618139,0.3919245,0.39192885,0.83843666,4.8026547,4.8026576,0.0,0.0,0.0,0.0,0.0,0.0,0.0,0.0,12.483883,0.0,0.0,nan,0.0,0.0,0.09035431,0.0,0.0,0.0,0.0,0.0,0.0,0.0,0.0,0.0
696215780,696115837,0.76605964,0.7660642,1.6782553,4.859235,4.859238,0.0,0.0,0.0,0.0,0.0,0.0,0.0,0.0,12.485924,0.0,0.0,nan,0.0,0.0,0.09035431,0.0,0.0,0.0,0.0,0.0,0.0,0.0,0.0,0.0
696713489,696613535,0.13952824,0.1395329,0.26750565,4.8588386,4.8588405,0.0,0.0,0.0,0.0,0.0,0.0,0.0,0.0,12.479927,0.0,0.0,nan,0.0,0.0,0.090354204,0.0,0.0,0.0,0.0,0.0,0.0,0.0,0.0,0.0
697211148,697111233,0.28362074,0.28362435,0.60013604,4.8487515,4.8487535,0.0,0.0,0.0,0.0,0.0,0.0,0.0,0.0,12.477383,0.0,0.0,nan,0.0,0.0,0.09035429,0.0,0.0,0.0,0.0,0.0,0.0,0.0,0.0,0.0
697718791,697618885,0.25533628,0.25534022,0.5355569,4.8658433,4.8658447,0.0,0.0,0.0,0.0,0.0,0.0,0.0,0.0,12.479001,0.0,0.0,nan,0.0,0.0,0.090354286,0.0,0.0,0.0,0.0,0.0,0.0,0.0,0.0,0.0
698216504,698116582,0.5289985,0.5290027,1.1513829,4.866617,4.866619,0.0,0.0,0.0,0.0,0.0,0.0,0.0,0.0,12.479149,0.0,0.0,nan,0.0,0.0,0.09035437,0.0,0.0,0.0,0.0,0.0,0.0,0.0,0.0,0.0
698714180,698614280,0.3829419,0.38294604,0.824348,4.8572063,4.8572083,0.0,0.0,0.0,0.0,0.0,0.0,0.0,0.0,12.478379,0.0,0.0,nan,0.0,0.0,0.090354264,0.0,0.0,0.0,0.0,0.0,0.0,0.0,0.0,0.0
699211903,699111977,0.5024009,0.5024055,1.0915716,4.857262,4.857264,0.0,0.0,0.0,0.0,0.0,0.0,0.0,0.0,12.478654,0.0,0.0,nan,0.0,0.0,0.09035427,0.0,0.0,0.0,0.0,0.0,0.0,0.0,0.0,0.0
699719537,699619628,0.34630334,0.34630802,0.7404609,4.841361,4.8413625,0.0,0.0,0.0,0.0,0.0,0.0,0.0,0.0,12.478866,0.0,0.0,nan,0.0,0.0,0.09035437,0.0,0.0,0.0,0.0,0.0,0.0,0.0,0.0,0.0
700217224,700117325,0.63445836,0.6344631,1.3894861,4.8561196,4.8561215,0.0,0.0,0.0,0.0,0.0,0.0,0.0,0.0,12.477888,0.0,0.0,nan,0.0,0.0,0.09035428,0.0,0.0,0.0,0.0,0.0,0.0,0.0,0.0,0.0
700715033,700615022,0.5557605,0.5557658,1.2098768,4.890561,4.890564,0.0,0.0,0.0,0.0,0.0,0.0,0.0,0.0,12.480985,0.0,0.0,nan,0.0,0.0,0.09035439,0.0,0.0,0.0,0.0,0.0,0.0,0.0,0.0,0.0
701212733,701112719,0.5756666,0.575673,1.2500014,4.9613523,4.961356,0.0,0.0,0.0,0.0,0.0,0.0,0.0,0.0,12.48365,0.0,0.0,nan,0.0,0.0,0.0903544,0.0,0.0,0.0,0.0,0.0,0.0,0.0,0.0,0.0
701720267,701620369,0.32751527,0.3275222,0.68881047,4.9980803,4.9980845,0.0,0.0,0.0,0.0,0.0,0.0,0.0,0.0,12.485817,0.0,0.0,nan,0.0,0.0,0.090354316,0.0,0.0,0.0,0.0,0.0,0.0,0.0,0.0,0.0
702217969,702118065,0.59974015,0.59974706,1.3007472,5.038336,5.0383415,0.0,0.0,0.0,0.0,0.0,0.0,0.0,0.0,12.48724,0.0,0.0,nan,0.0,0.0,0.0903544,0.0,0.0,0.0,0.0,0.0,0.0,0.0,0.0,0.0
702715666,702615762,0.5401413,0.54014826,1.165271,5.0472236,5.04723,0.0,0.0,0.0,0.0,0.0,0.0,0.0,0.0,12.489736,0.0,0.0,nan,0.0,0.0,0.09035441,0.0,0.0,0.0,0.0,0.0,0.0,0.0,0.0,0.0
703213385,703113458,0.64620686,0.6462134,1.4046912,5.0710745,5.0710807,0.0,0.0,0.0,0.0,0.0,0.0,0.0,0.0,12.489835,0.0,0.0,nan,0.0,0.0,0.09035431,0.0,0.0,0.0,0.0,0.0,0.0,0.0,0.0,0.0
703711050,703611153,0.60020745,0.60021394,1.300832,5.103405,5.1034117,0.0,0.0,0.0,0.0,0.0,0.0,0.0,0.0,12.492084,0.0,0.0,nan,0.0,0.0,0.090354405,0.0,0.0,0.0,0.0,0.0,0.0,0.0,0.0,0.0
704218707,704118803,0.7369131,0.73691976,1.606153,5.1401687,5.140176,0.0,0.0,0.0,0.0,0.0,0.0,0.0,0.0,12.493082,0.0,0.0,nan,0.0,0.0,0.0903544,0.0,0.0,0.0,0.0,0.0,0.0,0.0,0.0,0.0
704716396,704616499,0.5325372,0.5325438,1.1464803,5.1749396,5.174947,0.0,0.0,0.0,0.0,0.0,0.0,0.0,0.0,12.493313,0.0,0.0,nan,0.0,0.0,0.090354495,0.0,0.0,0.0,0.0,0.0,0.0,0.0,0.0,0.0
705214126,705114194,0.39031768,0.39032412,0.8257782,5.2196717,5.219678,0.0,0.0,0.0,0.0,0.0,0.0,0.0,0.0,12.493432,0.0,0.0,nan,0.0,0.0,0.0903544,0.0,0.0,0.0,0.0,0.0,0.0,0.0,0.0,0.0
