timestamp,indicated_airspeed_m_s,calibrated_airspeed_m_s,true_airspeed_m_s,calibrated_ground_minus_wind_m_s,true_ground_minus_wind_m_s,airspeed_sensor_measurement_valid,selected_airspeed_index
539330432,-1.48035,-1.48035,-1.4884923,1.0091367,1.0606089,1,1
539430420,-1.48035,-1.48035,-1.4884845,1.0074527,1.058842,1,1
539530419,-2.5127723,-2.5127723,-2.5265772,1.008052,1.0594708,1,1
539730420,2.725425,2.725425,2.7403982,1.0130755,1.0647504,1,1
539930420,3.498235,3.498235,3.5174778,1.0132242,1.0649139,1,1
540130420,-2.5127723,-2.5127723,-2.5265856,1.0164455,1.0683073,1,1
540330423,-1.48035,-1.48035,-1.4884754,1.0122128,1.0638553,1,1
540530419,-2.062218,-2.062218,-2.0735624,1.0072474,1.0586494,1,1
540730419,-2.062218,-2.062218,-2.0735447,1.0052136,1.0565013,1,1
540930419,-1.0773991,-1.0773991,-1.0833204,1.0014138,1.0525262,1,1
541130419,1.1898912,1.1898912,1.1964144,1.0039577,1.0551889,1,1
541330419,2.5630233,2.5630233,2.5771043,1.000106,1.0511528,1,1
541530419,-2.5127747,-2.5127747,-2.526588,0.99823356,1.0491884,1,1
541730419,2.563021,2.563021,2.577089,0.99998116,1.0510452,1,1
541930419,-1.48035,-1.48035,-1.4884905,0.9975958,1.0485365,1,1
542130431,-1.48035,-1.48035,-1.4884886,0.9995228,1.0505606,1,1
542330419,1.9981108,1.9981108,2.0093665,0.99420303,1.044968,1,1
542530419,3.1900377,3.1900377,3.2075953,0.9909323,1.041538,1,1
542730419,1.9981139,1.9981139,2.0094666,0.98804843,1.0385138,1,1
542930453,1.9981139,1.9981139,2.00918,0.9872584,1.0376843,1,1
543130419,2.563021,2.563021,2.577553,0.986029,1.0363957,1,1
543330419,3.024187,3.024187,3.0410757,0.9896403,1.0401914,1,1
543530419,-2.0622149,-2.0622149,-2.0739098,0.9927006,1.043419,1,1
543730419,1.1898912,1.1898912,1.1966398,0.99716,1.0481137,1,1
543930419,-2.0622149,-2.0622149,-2.073904,1.0004327,1.0515444,1,1
544130419,-2.5127747,-2.5127747,-2.527056,0.9991247,1.050191,1,1
544330419,-1.9332405,-1.9332405,-1.9442183,1.0016164,1.0528103,1,1
544530420,-2.5127723,-2.5127723,-2.5270195,1.005495,1.0568897,1,1
544730419,-1.48035,-1.48035,-1.4887455,1.0028187,1.0540777,1,1
544930420,-2.5127723,-2.5127723,-2.5270133,1.0000361,1.051149,1,1
545130419,-0.36075184,-0.36075184,-0.36279777,0.99732435,1.0483025,1,1
545330419,1.3896636,1.3896636,1.397543,0.9979472,1.0489727,1,1
545530421,-2.5127747,-2.5127747,-2.5270011,0.9996173,1.0507194,1,1
545730419,-0.36075184,-0.36075184,-0.3627979,1.0039864,1.0553168,1,1
545930419,1.9981108,1.9981108,2.00945,1.0052756,1.056681,1,1
546130472,1.9981108,1.9981108,2.0094378,1.0053877,1.0567925,1,1
546330419,-1.9332373,-1.9332373,-1.9442047,1.0053772,1.0567925,1,1
546530419,-0.36075184,-0.36075184,-0.36280048,1.0112246,1.062946,1,1
546730420,2.5630233,2.5630233,2.5775557,1.0121292,1.0638968,1,1
546930420,-0.36075184,-0.36075184,-0.3628572,1.0149641,1.066877,1,1
547130419,-0.36075184,-0.36075184,-0.36279607,1.0150698,1.0670013,1,1
547330418,-1.48035,-1.48035,-1.4889537,1.01659,1.0686082,1,1
547530419,-2.5127723,-2.5127723,-2.5274653,1.015782,1.0677601,1,1
547730419,-2.5127747,-2.5127747,-2.527461,1.0235491,1.0759305,1,1
547930419,-2.0622149,-2.0622149,-2.0742774,1.0220097,1.0743202,1,1
548130439,-0.36075184,-0.36075184,-0.3628614,1.0230863,1.0754558,1,1
548330446,-2.5127747,-2.5127747,-2.5274687,1.0228217,1.0751776,1,1
548530419,1.9981108,1.9981108,2.0097759,1.0183493,1.0704694,1,1
548730419,0.7463005,0.7463005,0.75065744,1.0173756,1.0694492,1,1
548930421,-1.48035,-1.48035,-1.4889923,1.0209789,1.0732439,1,1
549130420,-0.36075184,-0.36075184,-0.36285597,1.024134,1.0765581,1,1
549330419,-1.6966268,-1.6966268,-1.7065312,1.0279129,1.0805358,1,1
549530419,-1.9332373,-1.9332373,-1.9445294,1.0310556,1.0838488,1,1
549730419,-1.9332405,-1.9332405,-1.9445292,1.0349135,1.0879141,1,1
549930419,1.9981139,1.9981139,2.0097783,1.0306004,1.0833782,1,1
550130419,-0.36075184,-0.36075184,-0.36286128,1.0225037,1.0748771,1,1
550330419,0.7463005,0.7463005,0.75070035,1.017518,1.0696439,1,1
550530447,-1.0773991,-1.0773991,-1.0838832,1.0211369,1.0734574,1,1
550730420,0.7463005,0.7463005,0.750711,1.0283055,1.0809993,1,1
550930418,-2.5127723,-2.5127723,-2.527871,1.0295997,1.0823435,1,1
551130441,1.3896636,1.3896636,1.3980299,1.0266832,1.0792902,1,1
551330420,-1.0773991,-1.0773991,-1.0838861,1.0263231,1.0789226,1,1
551530419,-1.48035,-1.48035,-1.4892545,1.0240021,1.0764796,1,1
551730419,-1.48035,-1.48035,-1.4892514,1.0219097,1.0742813,1,1
551930419,3.1900377,3.1900377,3.2092378,1.0222121,1.0746055,1,1
552130419,-2.5127747,-2.5127747,-2.527907,1.0196317,1.0719076,1,1
552330419,3.423788,3.423788,3.4443893,1.0164994,1.0686036,1,1
552530419,-0.36075184,-0.36075184,-0.36292553,1.0217218,1.0741124,1,1
552730419,-1.9332405,-1.9332405,-1.9448705,1.0196772,1.0719544,1,1
552930419,-1.9332405,-1.9332405,-1.9448631,1.0207375,1.0730652,1,1
553130419,-1.9332405,-1.9332405,-1.9448512,1.020236,1.0725483,1,1
553330418,-1.0773991,-1.0773991,-1.0838565,1.0181924,1.0703869,1,1
553530419,1.189886,1.189886,1.1970395,1.0089185,1.0606571,1,1
553730419,1.9981139,1.9981139,2.010133,1.0017086,1.0530865,1,1
553930419,-1.9332405,-1.9332405,-1.9451996,0.99713564,1.0482898,1,1
554130419,1.9981139,1.9981139,2.0101185,0.9981591,1.0493585,1,1
554330419,-0.36075184,-0.36075184,-0.36293668,1.0023643,1.053794,1,1
554530419,-0.36075184,-0.36075184,-0.36292008,1.0051109,1.0566692,1,1
554730419,1.9981139,1.9981139,2.0104682,1.0150609,1.0671428,1,1
554930419,1.998117,1.998117,2.0104747,1.025783,1.0784167,1,1
555130419,1.1898912,1.1898912,1.1972483,1.0491638,1.1030014,1,1
555330430,3.1900377,3.1900377,3.2097561,1.051822,1.1057941,1,1
555530423,3.1900377,3.1900377,3.2097375,1.0559006,1.1100931,1,1
555730419,2.8486943,2.8486943,2.8663256,1.0624903,1.1170275,1,1
555930419,-1.48035,-1.48035,-1.4895159,1.0659626,1.1206897,1,1
556130419,-2.5127723,-2.5127723,-2.5283003,1.0711724,1.1261654,1,1
556330419,3.498235,3.498235,3.519841,1.0733811,1.1284897,1,1
556530419,-1.48035,-1.48035,-1.4895129,1.0691128,1.1240174,1,1
556730427,2.563021,2.563021,2.5788627,1.0640196,1.1186527,1,1
556930419,-1.48035,-1.48035,-1.4895148,1.0559416,1.1101711,1,1
557130419,-1.0773991,-1.0773991,-1.0840596,1.0479218,1.1017436,1,1
557330419,-1.0773991,-1.0773991,-1.084068,1.050465,1.1044236,1,1
557530419,1.9981139,1.9981139,2.0104783,1.0503829,1.1043413,1,1
557730420,-1.9332405,-1.9332405,-1.9452068,1.0487555,1.1026322,1,1
557930432,-1.9332405,-1.9332405,-1.9451938,1.0454904,1.0992036,1,1
558130419,2.4604375,2.4604375,2.4756472,1.0484277,1.1022962,1,1
558330419,1.9981139,1.9981139,2.010464,1.0469584,1.1007584,1,1
558530419,-1.0773991,-1.0773991,-1.0842435,1.0460213,1.0997663,1,1
558730419,3.1900377,3.1900377,3.2103071,1.0455921,1.0993164,1,1
558930420,1.9981139,1.9981139,2.0107963,1.0387814,1.09216,1,1
559130419,-2.5127747,-2.5127747,-2.528804,1.0309794,1.0839858,1,1
559330418,-2.5127747,-2.5127747,-2.5287306,1.0265442,1.0793027,1,1
559530419,1.9981139,1.9981139,2.0107996,1.0259411,1.0786675,1,1
559730419,1.9981139,1.9981139,2.0108218,1.0259476,1.0786896,1,1
559930420,-2.0622149,-2.0622149,-2.075297,1.0255551,1.0782677,1,1
560130420,3.423788,3.423788,3.4455657,1.0311978,1.0842185,1,1
560330422,2.563021,2.563021,2.579289,1.0272633,1.080073,1,1
560530418,-1.48035,-1.48035,-1.4897461,1.0244405,1.0771052,1,1
560730419,2.4604375,2.4604375,2.4760215,1.0188917,1.0712568,1,1
560930419,1.9981139,1.9981139,2.010805,1.0131443,1.0652496,1,1
561130419,3.1900377,3.1900377,3.2102711,1.0123719,1.0644281,1,1
561330418,3.024187,3.024187,3.0433822,1.0107542,1.0627446,1,1
561530420,-1.9332373,-1.9332373,-1.9455014,1.0120103,1.064055,1,1
561730419,1.9981139,1.9981139,2.0108714,1.011548,1.0635784,1,1
561930419,2.7254295,2.7254295,2.7427237,1.0161941,1.0684555,1,1
562130420,1.9981108,1.9981108,2.0108187,1.0215479,1.0741117,1,1
562330420,-1.0773991,-1.0773991,-1.0842406,1.0264951,1.0793025,1,1
562530419,-1.0773991,-1.0773991,-1.0842941,1.0332928,1.0864575,1,1
562730419,1.1898912,1.1898912,1.1976521,1.030891,1.0839437,1,1
562930419,-2.5127723,-2.5127723,-2.5291634,1.0298307,1.0828296,1,1
563130419,-2.5127723,-2.5127723,-2.5291886,1.0336382,1.0868438,1,1
563330419,-2.062218,-2.062218,-2.075646,1.0349016,1.0881488,1,1
563530432,-1.0773991,-1.0773991,-1.0844221,1.0379813,1.0914032,1,1
563730438,1.3896636,1.3896636,1.3987238,1.039146,1.0926293,1,1
563930423,1.3896636,1.3896636,1.3987203,1.0333989,1.0865923,1,1
564130419,-1.0773991,-1.0773991,-1.0844253,1.0411783,1.0947769,1,1
564330431,-2.5127723,-2.5127723,-2.529155,1.0398293,1.0933565,1,1
564530419,-1.9332373,-1.9332373,-1.9458513,1.027085,1.079973,1,1
564730419,-1.9332373,-1.9332373,-1.9458299,1.0256853,1.078495,1,1
564930419,1.1898912,1.1898912,1.1976599,1.0193154,1.0718132,1,1
565130421,-2.062218,-2.062218,-2.075663,1.0299901,1.083028,1,1
565330419,1.9981108,1.9981108,2.0111344,1.0348824,1.0881704,1,1
565530419,-2.98172,-2.98172,-3.0011601,1.0364863,1.0898587,1,1
565730445,-1.9332405,-1.9332405,-1.9458414,1.0369134,1.0903175,1,1
565930426,1.9981108,1.9981108,2.011131,1.042347,1.0960351,1,1
566130419,1.9981108,1.9981108,2.0111513,1.0440325,1.0978066,1,1
566330419,-1.48035,-1.48035,-1.4899846,1.0470926,1.1010163,1,1
566530420,1.3896636,1.3896636,1.3987291,1.0534779,1.1077471,1,1
566730418,-1.9332405,-1.9332405,-1.9458301,1.0669925,1.1219542,1,1
566930419,-0.36075184,-0.36075184,-0.3630996,1.0775025,1.1330098,1,1
567130419,-0.36075184,-0.36075184,-0.3630996,1.0843365,1.1402112,1,1
567330419,-2.5127723,-2.5127723,-2.5291464,1.0860548,1.1420122,1,1
567530458,1.1898912,1.1898912,1.1976359,1.0853384,1.1412537,1,1
567730419,-1.0773991,-1.0773991,-1.0845177,1.0821325,1.137912,1,1
567930418,1.9981139,1.9981139,2.0114644,1.0862583,1.1422343,1,1
568130460,-1.0773991,-1.0773991,-1.0845913,1.0962334,1.1527182,1,1
568330419,-1.6966268,-1.6966268,-1.7079782,1.1054217,1.1623994,1,1
568530419,1.3896636,1.3896636,1.3989449,1.1135778,1.1709622,1,1
568730440,1.189886,1.189886,1.1978331,1.1181645,1.1757853,1,1
568930419,3.024185,3.024185,3.0444303,1.1107552,1.1680214,1,1
569130419,-1.0773991,-1.0773991,-1.084609,1.1121644,1.1695004,1,1
569330419,-2.062218,-2.062218,-2.076031,1.1096673,1.1668912,1,1
569530419,3.024187,3.024187,3.0444257,1.0985626,1.155207,1,1
569730436,-1.0773991,-1.0773991,-1.0846058,1.086677,1.1427047,1,1
569930419,1.189886,1.189886,1.1978371,1.0818961,1.1376698,1,1
570130419,1.189886,1.189886,1.1978371,1.0818925,1.1376905,1,1
570330419,1.9981108,1.9981108,2.0114956,1.0892956,1.1454878,1,1
570530419,-1.0773991,-1.0773991,-1.084613,1.0866814,1.1427352,1,1
570730419,-1.0773991,-1.0773991,-1.084604,1.0768198,1.1323556,1,1
570930419,-2.062218,-2.062218,-2.0760188,1.069594,1.1247628,1,1
571130419,1.9981139,1.9981139,2.0114791,1.0638058,1.1186744,1,1
571330419,-2.5127747,-2.5127747,-2.5295615,1.0568758,1.1113874,1,1
571530419,-1.9332373,-1.9332373,-1.9461491,1.0448809,1.0987778,1,1
571730419,-2.062218,-2.062218,-2.076,1.0336508,1.0869727,1,1
571930419,-2.062218,-2.062218,-2.076,1.0252255,1.0781305,1,1
572130419,-2.5127747,-2.5127747,-2.5295901,1.0213872,1.0740861,1,1
572330419,-2.98172,-2.98172,-3.0017197,1.0260646,1.079033,1,1
572530419,-0.36075184,-0.36075184,-0.36316004,1.0247794,1.0776529,1,1
572730419,1.3896636,1.3896636,1.398952,1.0222477,1.0749881,1,1
572930419,1.9981139,1.9981139,2.0114803,1.0262841,1.0792503,1,1
573130420,-2.5127747,-2.5127747,-2.5295815,1.0349168,1.0883275,1,1
573330434,1.9981139,1.9981139,2.0114684,1.0355473,1.0889851,1,1
573530433,1.3896636,1.3896636,1.3989666,1.0393733,1.0930271,1,1
573730419,-2.5127723,-2.5127723,-2.5300348,1.0392419,1.0928929,1,1
573930419,-0.36075184,-0.36075184,-0.36317238,1.0331341,1.0864536,1,1
574130440,-1.0773991,-1.0773991,-1.084696,1.0318617,1.0851134,1,1
574330419,-1.9332405,-1.9332405,-1.946554,1.0315406,1.0848237,1,1
574530419,-1.48035,-1.48035,-1.490513,1.0332139,1.0865602,1,1
574730419,-2.062218,-2.062218,-2.0763626,1.0325291,1.0858333,1,1
574930419,-2.5127747,-2.5127747,-2.5300162,1.0293678,1.0825117,1,1
575130419,1.1898912,1.1898912,1.1980536,1.0228345,1.0756391,1,1
575330427,1.3896636,1.3896636,1.3991989,1.0216556,1.0744013,1,1
575530420,-2.5127723,-2.5127723,-2.5300264,1.0239015,1.0767719,1,1
575730419,-2.5127723,-2.5127723,-2.5300086,1.0290929,1.0822341,1,1
575930419,-1.0773991,-1.0773991,-1.0847849,1.0365101,1.0900716,1,1
576130419,-2.5127723,-2.5127723,-2.529946,1.0386677,1.0922798,1,1
576330419,-1.6966268,-1.6966268,-1.7082453,1.0399534,1.0936409,1,1
576530419,-2.5127723,-2.5127723,-2.5299587,1.0418819,1.0956655,1,1
576730419,-1.48035,-1.48035,-1.4905446,1.0418406,1.0956846,1,1
576930418,1.9981139,1.9981139,2.0118375,1.0470561,1.1011437,1,1
577130419,-2.5127747,-2.5127747,-2.5300064,1.0509837,1.1052744,1,1
577330419,-2.5127747,-2.5127747,-2.530003,1.0517565,1.106077,1,1
577530420,1.9981108,1.9981108,2.0118082,1.0503622,1.1046182,1,1
577730419,-0.36075184,-0.36075184,-0.36323136,1.047065,1.1011703,1,1
577930419,-1.48035,-1.48035,-1.4905221,1.0490724,1.1032796,1,1
578130418,3.024187,3.024187,3.0449781,1.0541052,1.1085762,1,1
578330419,1.1898912,1.1898912,1.1980557,1.0528764,1.107269,1,1
578530423,1.9981108,1.9981108,2.0118392,1.0483968,1.1025715,1,1
578730420,-1.0773991,-1.0773991,-1.0848608,1.0488937,1.1031082,1,1
578930419,-3.7475178,-3.7475178,-3.7732568,1.0488173,1.1030252,1,1
579130464,2.5630233,2.5630233,2.5810559,1.0538652,1.1083302,1,1
579330419,3.024187,3.024187,3.0454338,1.0577425,1.1123968,1,1
579530419,-1.9332373,-1.9332373,-1.9468455,1.0618056,1.1166849,1,1
579730420,-1.0773991,-1.0773991,-1.0849676,1.0642862,1.1192778,1,1
579930419,2.4604375,2.4604375,2.4777403,1.0602789,1.1150718,1,1
580130419,2.4604375,2.4604375,2.4777431,1.0640852,1.1190852,1,1
580330418,3.7813942,3.7813942,3.8079672,1.0652711,1.120336,1,1
580530419,1.9981108,1.9981108,2.0121622,1.0677369,1.1229329,1,1
580730456,3.7813942,3.7813942,3.8079607,1.0657979,1.1208863,1,1
580930419,-1.9332405,-1.9332405,-1.946832,1.066208,1.1213229,1,1
581130419,-2.5127747,-2.5127747,-2.5304554,1.058016,1.1127139,1,1
581330419,-0.36075184,-0.36075184,-0.36328804,1.0487506,1.1029631,1,1
581530418,-1.9332405,-1.9332405,-1.9468162,1.0640278,1.1190209,1,1
581730419,1.9981108,1.9981108,2.012179,1.089211,1.1455266,1,1
581930421,1.3896636,1.3896636,1.3994502,1.112419,1.1699367,1,1
582130419,2.563021,2.563021,2.5810235,1.1156235,1.1732854,1,1
582330419,2.4604375,2.4604375,2.4777482,1.1188943,1.1767577,1,1
582530419,-1.0773991,-1.0773991,-1.0849676,1.114714,1.1723391,1,1
582730419,-1.48035,-1.48035,-1.4907491,1.112875,1.1704143,1,1
582930419,3.781396,3.781396,3.8079593,1.1105926,1.1680139,1,1
583130419,1.3896636,1.3896636,1.3994268,1.1025848,1.1595931,1,1
583330418,1.1898912,1.1898912,1.198267,1.0968193,1.1535449,1,1
583530419,-2.5127747,-2.5127747,-2.5304494,1.0897019,1.1460537,1,1
583730419,2.84869,2.84869,2.8687375,1.0878768,1.144138,1,1
583930419,-1.0773991,-1.0773991,-1.0849737,1.0919527,1.1484166,1,1
584130420,-0.36075184,-0.36075184,-0.3632888,1.0918416,1.1483021,1,1
584330419,2.563021,2.563021,2.581032,1.0945057,1.1510981,1,1
584530419,3.423788,3.423788,3.4478366,1.0861048,1.1422591,1,1
584730419,1.9981139,1.9981139,2.0121753,1.0828896,1.1388928,1,1
584930419,1.9981139,1.9981139,2.0121653,1.0798893,1.1357317,1,1
585130418,1.9981108,1.9981108,2.012164,1.0783135,1.1340673,1,1
585330419,-2.5127723,-2.5127723,-2.5304303,1.0824133,1.1383897,1,1
585530419,1.3896636,1.3896636,1.3994308,1.0879416,1.1442053,1,1
585730418,-1.0773991,-1.0773991,-1.0849504,1.1000247,1.1568998,1,1
585930419,1.9981108,1.9981108,2.0121586,1.1088742,1.1662321,1,1
586130419,-1.48035,-1.48035,-1.4907553,1.1137586,1.1713593,1,1
586330432,-2.062218,-2.062218,-2.076697,1.1163064,1.1740378,1,1
586530419,-1.0773991,-1.0773991,-1.0849681,1.117917,1.1757363,1,1
586730420,-1.0773991,-1.0773991,-1.0849681,1.1187739,1.1766424,1,1
586930419,-2.062218,-2.062218,-2.0766957,1.1095903,1.1669736,1,1
587130419,2.4604375,2.4604375,2.4777153,1.1074575,1.1647325,1,1
587330418,1.9981139,1.9981139,2.0121584,1.1039644,1.1610665,1,1
587530419,-2.062218,-2.062218,-2.0767028,1.1005583,1.1574783,1,1
587730419,-2.062218,-2.062218,-2.0766785,1.0919571,1.1484249,1,1
587930419,-2.062218,-2.062218,-2.0767045,1.0834918,1.1395301,1,1
588130419,-2.5127747,-2.5127747,-2.5304356,1.0805998,1.1364927,1,1
588330418,1.9981139,1.9981139,2.012145,1.0783758,1.1341467,1,1
588530420,-1.9332405,-1.9332405,-1.9468292,1.073855,1.1293997,1,1
588730419,-2.5127747,-2.5127747,-2.5304327,1.0739318,1.1294786,1,1
588930452,-3.2305748,-3.2305748,-3.2532823,1.0749837,1.1305988,1,1
589130419,-2.5127747,-2.5127747,-2.530425,1.0733775,1.1288958,1,1
589330419,-2.5127723,-2.5127723,-2.530415,1.0683888,1.1236564,1,1
589530419,1.9981139,1.9981139,2.0121632,1.0631006,1.1181092,1,1
589730420,2.5630233,2.5630233,2.5810301,1.0553317,1.1099263,1,1
589930419,-1.6966268,-1.6966268,-1.7085522,1.0540372,1.1085627,1,1
590130419,-1.48035,-1.48035,-1.4907479,1.054806,1.1093774,1,1
590330426,1.189886,1.189886,1.1982676,1.0568676,1.111542,1,1
590530419,-0.36075184,-0.36075184,-0.36328605,1.0562261,1.1108719,1,1
590730420,-2.5127747,-2.5127747,-2.5304422,1.057581,1.1123037,1,1
590930419,-2.5127747,-2.5127747,-2.530401,1.0585902,1.1133472,1,1
591130438,2.4604375,2.4604375,2.477711,1.0561705,1.1108087,1,1
591330419,1.9981139,1.9981139,2.0121348,1.0569693,1.1116452,1,1
591530419,-1.0773991,-1.0773991,-1.0849721,1.0588671,1.1136543,1,1
591730419,-2.5127723,-2.5127723,-2.530425,1.0564432,1.1111044,1,1
591930419,-1.9332405,-1.9332405,-1.9468181,1.0549831,1.1095629,1,1
592130419,-1.9332373,-1.9332373,-1.946813,1.0552785,1.1098725,1,1
592330418,-1.6966268,-1.6966268,-1.7085522,1.0585829,1.1133554,1,1
592530419,-2.062218,-2.062218,-2.0767028,1.0605907,1.1154615,1,1
592730419,-2.5127747,-2.5127747,-2.530441,1.0624119,1.1173842,1,1
592930420,2.563021,2.563021,2.5809975,1.0592446,1.1140345,1,1
593130419,-3.386336,-3.386336,-3.4100928,1.0583311,1.1130756,1,1
593330419,-1.0773991,-1.0773991,-1.0850148,1.0584636,1.1132354,1,1
593530419,1.9981139,1.9981139,2.0125039,1.0575877,1.1123109,1,1
593730418,-1.9332405,-1.9332405,-1.9471781,1.0569762,1.111676,1,1
593930420,-0.36075184,-0.36075184,-0.36335096,1.0592178,1.1140286,1,1
594130419,-2.8940165,-2.8940165,-2.9148185,1.0587893,1.1135876,1,1
594330419,-2.5127723,-2.5127723,-2.5308762,1.058877,1.1136701,1,1
594530419,-2.5127747,-2.5127747,-2.5308516,1.0617007,1.1166316,1,1
594730419,-2.5127747,-2.5127747,-2.5308619,1.0722072,1.1276826,1,1
594930419,1.9981139,1.9981139,2.0124688,1.0803853,1.1362841,1,1
595130420,-2.5127747,-2.5127747,-2.5308363,1.0827252,1.138753,1,1
595330419,1.9981139,1.9981139,2.0124998,1.0856129,1.141784,1,1
595530418,2.5630233,2.5630233,2.5814376,1.0827072,1.1387106,1,1
595730420,-2.062218,-2.062218,-2.077062,1.0731562,1.1286927,1,1
595930419,-2.5127747,-2.5127747,-2.530849,1.0551109,1.1096977,1,1
596130420,-2.5127723,-2.5127723,-2.530872,1.0421339,1.0960677,1,1
596330419,-2.5127723,-2.5127723,-2.5308688,1.0325067,1.0859321,1,1
596530419,-2.5127747,-2.5127747,-2.5308745,1.0255152,1.0785803,1,1
596730418,1.3896636,1.3896636,1.3996594,1.0214143,1.0742563,1,1
596930450,-2.5127747,-2.5127747,-2.5308406,1.0164641,1.0690465,1,1
597130419,-2.5127747,-2.5127747,-2.5308466,1.0159721,1.0685315,1,1
597330420,-2.5127747,-2.5127747,-2.5308535,1.0126165,1.0650055,1,1
597530419,-2.5127723,-2.5127723,-2.5308392,1.0122324,1.0645963,1,1
597730419,1.9981139,1.9981139,2.0124898,1.0087639,1.0609534,1,1
597930418,1.9981139,1.9981139,2.0125132,1.0094911,1.0617304,1,1
598130420,-2.0622149,-2.0622149,-2.0770519,1.0122716,1.0646425,1,1
598330435,-2.062218,-2.062218,-2.077143,1.0125898,1.064986,1,1
598530419,2.4604375,2.4604375,2.478568,1.0096556,1.0618947,1,1
598730419,-2.5127747,-2.5127747,-2.530849,1.0041505,1.0561078,1,1
598930418,-2.5127747,-2.5127747,-2.5312972,1.003867,1.0558091,1,1
599130418,-2.5127747,-2.5127747,-2.5312107,1.0061529,1.058208,1,1
599330419,-2.5127747,-2.5127747,-2.5312908,1.0114617,1.0637941,1,1
599530420,1.9981139,1.9981139,2.0127873,1.0138547,1.0662843,1,1
599730419,1.9981139,1.9981139,2.0128613,1.0236188,1.0765815,1,1
599930419,1.3896636,1.3896636,1.3998953,1.0281572,1.081347,1,1
600130419,1.1898912,1.1898912,1.1986676,1.0349964,1.0885541,1,1
600330419,-2.98172,-2.98172,-3.0036795,1.0404922,1.0943223,1,1
600530426,-2.5127723,-2.5127723,-2.5312726,1.0397435,1.093532,1,1
600730419,-2.5127723,-2.5127723,-2.5312545,1.0458612,1.0999588,1,1
600930419,-2.98172,-2.98172,-3.0036917,1.058144,1.1128918,1,1
601130419,1.9981139,1.9981139,2.012841,1.0721523,1.1276268,1,1
601330419,-1.9332405,-1.9332405,-1.9474666,1.0996842,1.1565697,1,1
601530419,1.9981108,1.9981108,2.0128345,1.1358653,1.1946343,1,1
601730420,-2.98172,-2.98172,-3.0036802,1.1694175,1.229918,1,1
601930419,1.189886,1.189886,1.1986519,1.1901264,1.2517009,1,1
602130418,-2.5127747,-2.5127747,-2.5312738,1.2068831,1.2693181,1,1
602330419,-1.9332405,-1.9332405,-1.9475024,1.2176186,1.2806282,1,1
602530419,-1.48035,-1.48035,-1.4912568,1.2248278,1.2881943,1,1
602730419,-2.5127723,-2.5127723,-2.5313313,1.2333124,1.2970972,1,1
602930419,-2.0622149,-2.0622149,-2.077757,1.2451941,1.3096117,1,1
603130419,-1.48035,-1.48035,-1.4914224,1.2529325,1.3177556,1,1
603330418,-2.062218,-2.062218,-2.0777729,1.2536175,1.3184834,1,1
603530426,-2.5127747,-2.5127747,-2.531699,1.2509363,1.3156412,1,1
603730447,-1.9332405,-1.9332405,-1.9477773,1.2503535,1.3150128,1,1
603930420,-2.8940165,-2.8940165,-2.9158165,1.2493906,1.3140177,1,1
604130419,-2.8940165,-2.8940165,-2.9158165,1.2433095,1.307629,1,1
604330419,1.3896636,1.3896636,1.4001359,1.2302358,1.2938725,1,1
604530418,-2.98172,-2.98172,-3.0041783,1.2201045,1.2832122,1,1
604730419,-2.5127747,-2.5127747,-2.5316947,1.2122333,1.2749206,1,1
604930420,-1.0773991,-1.0773991,-1.085506,1.2033445,1.2655658,1,1
605130419,-2.5127747,-2.5127747,-2.5317073,1.2053003,1.2676488,1,1
605330419,-2.8940165,-2.8940165,-2.9158566,1.1885655,1.2500502,1,1
605530419,-1.48035,-1.48035,-1.4915037,1.190885,1.2524785,1,1
605730419,-2.98172,-2.98172,-3.0041947,1.1861246,1.2474717,1,1
605930450,1.9981108,1.9981108,2.0131924,1.1906364,1.2522298,1,1
606130419,-0.36075184,-0.36075184,-0.3634675,1.1940069,1.2557496,1,1
606330419,1.3896636,1.3896636,1.4001223,1.1944579,1.2562218,1,1
606530419,2.4604375,2.4604375,2.4790006,1.1902463,1.2518153,1,1
606730419,-2.5127747,-2.5127747,-2.5317106,1.1875066,1.2489231,1,1
606930419,-1.6966268,-1.6966268,-1.7094101,1.1945353,1.2563037,1,1
607130419,-2.98172,-2.98172,-3.0041668,1.1938584,1.2555939,1,1
607330419,-2.5127747,-2.5127747,-2.531724,1.1821473,1.2432933,1,1
607530419,-2.5127747,-2.5127747,-2.5317283,1.169306,1.2297832,1,1
607730419,1.9981139,1.9981139,2.0131652,1.1583091,1.2182099,1,1
607930433,-2.5127747,-2.5127747,-2.531919,1.138736,1.1976273,1,1
608130420,1.9981139,1.9981139,2.01354,1.1236842,1.181801,1,1
608330419,-2.5127747,-2.5127747,-2.532146,1.1183586,1.176202,1,1
608530419,-2.062218,-2.062218,-2.0781078,1.1174632,1.1752493,1,1
608730419,-2.5127747,-2.5127747,-2.5321827,1.1107233,1.1681699,1,1
608930420,1.3896636,1.3896636,1.4003876,1.1016281,1.1585965,1,1
609130420,1.9981108,1.9981108,2.0135267,1.092485,1.1489787,1,1
609330420,-2.062218,-2.062218,-2.0780938,1.0866271,1.1427989,1,1
609530420,-2.5127723,-2.5127723,-2.5321178,1.0805578,1.1364163,1,1
609730421,-2.5127747,-2.5127747,-2.532133,1.0715367,1.1269345,1,1
609930420,-0.36075184,-0.36075184,-0.3635315,1.0710454,1.1264192,1,1
610130420,-2.5127747,-2.5127747,-2.5321572,1.0645725,1.1196209,1,1
610330419,-1.0773991,-1.0773991,-1.0856951,1.0564536,1.1110674,1,1
610530421,-2.5127747,-2.5127747,-2.5321612,1.0488851,1.1031114,1,1
610730423,-2.5127747,-2.5127747,-2.532141,1.0384303,1.0921202,1,1
610930419,-2.062218,-2.062218,-2.078085,1.0330313,1.0864278,1,1
611130421,-2.5127747,-2.5127747,-2.532121,1.0274891,1.0806046,1,1
611330419,-2.5127747,-2.5127747,-2.532132,1.024528,1.0774951,1,1
611530420,-1.0773991,-1.0773991,-1.0857008,1.0228599,1.0757368,1,1
611730419,-2.5127723,-2.5127723,-2.5321589,1.0235437,1.0764667,1,1
611930419,-2.5127723,-2.5127723,-2.5321548,1.0212653,1.074063,1,1
612130419,2.4604375,2.4604375,2.4793928,1.0144976,1.0669296,1,1
612330419,-2.5127747,-2.5127747,-2.5321488,1.0102811,1.0625134,1,1
612530420,-2.8940165,-2.8940165,-2.916835,1.0059382,1.0579383,1,1
612730420,-2.5127747,-2.5127747,-2.5321445,1.0042467,1.056152,1,1
612930419,-2.98172,-2.98172,-3.0052137,0.99692297,1.0484514,1,1
613130419,-1.48035,-1.48035,-1.492014,0.9825278,1.0333122,1,1
613330419,-2.8940165,-2.8940165,-2.9167979,0.965629,1.0155325,1,1
613530419,-2.8940165,-2.8940165,-2.9168298,0.9504069,0.9995347,1,1
613730420,-2.5127747,-2.5127747,-2.5325851,0.9413595,0.9900112,1,1
613930419,-1.48035,-1.48035,-1.492014,0.9435361,0.9922998,1,1
614130436,1.3896636,1.3896636,1.4006318,0.9480874,0.9970997,1,1
614330419,-2.98172,-2.98172,-3.0052435,0.9548131,1.0041645,1,1
614530420,-2.98172,-2.98172,-3.0052285,0.9537544,1.0030566,1,1
614730447,1.9981108,1.9981108,2.013821,0.96130943,1.0109695,1,1
614930420,-2.5127747,-2.5127747,-2.5325556,0.9611349,1.0108064,1,1
615130419,-2.5127723,-2.5127723,-2.5325532,0.96570086,1.0156002,1,1
615330419,-2.5127723,-2.5127723,-2.5325837,0.9683955,1.018426,1,1
615530419,1.189886,1.189886,1.1992513,0.97457993,1.0249287,1,1
615730434,1.189886,1.189886,1.1992513,0.96739817,1.0173895,1,1
615930419,-2.5127747,-2.5127747,-2.5325568,0.959878,1.0094689,1,1
616130419,-1.48035,-1.48035,-1.4920089,0.9562413,1.0056537,1,1
616330459,-2.5127723,-2.5127723,-2.5325956,0.9532708,1.0025336,1,1
616530419,-2.8940165,-2.8940165,-2.9168124,0.951546,1.0006949,1,1
616730419,-2.5127723,-2.5127723,-2.532575,0.9507414,0.99986863,1,1
616930419,-2.5127723,-2.5127723,-2.5325499,0.94703954,0.9959497,1,1
617130420,-3.122422,-3.122422,-3.14704,0.95659465,1.0060116,1,1
617330420,-2.5127723,-2.5127723,-2.532571,0.96000415,1.0096029,1,1
617530419,-2.5127747,-2.5127747,-2.5325649,0.96604466,1.0159414,1,1
617730419,-2.98172,-2.98172,-3.005245,0.97059923,1.0207453,1,1
617930419,-2.5127723,-2.5127723,-2.5325828,0.9724299,1.0226474,1,1
618130419,-2.5127723,-2.5127723,-2.532571,0.97942764,1.030019,1,1
618330419,-1.0773991,-1.0773991,-1.0858827,0.9868372,1.0378062,1,1
618530419,-2.5127723,-2.5127723,-2.532987,1.003478,1.0553064,1,1
618730419,-2.5127723,-2.5127723,-2.5325499,1.0058395,1.0577892,1,1
618930420,-2.5127747,-2.5127747,-2.5325606,1.0044165,1.056298,1,1
619130445,1.9981139,1.9981139,2.0141835,1.0104865,1.0626744,1,1
619330420,-2.5127747,-2.5127747,-2.5329938,1.0144863,1.0668681,1,1
619530419,2.563021,2.563021,2.5836313,1.0180299,1.0705893,1,1
619730421,-2.5127747,-2.5127747,-2.532981,1.018125,1.0706875,1,1
619930421,-1.48035,-1.48035,-1.492274,1.0205184,1.0732206,1,1
620130423,-2.5127747,-2.5127747,-2.5329766,1.0228983,1.0757072,1,1
620330421,-2.98172,-2.98172,-3.005656,1.028282,1.0813558,1,1
620530466,-0.36075184,-0.36075184,-0.36365315,1.035947,1.0894313,1,1
620730465,1.9981108,1.9981108,2.0141783,1.0415328,1.095288,1,1
620930463,-2.98172,-2.98172,-3.0056875,1.0525162,1.1068524,1,1
621130463,-2.5127747,-2.5127747,-2.5330021,1.0777841,1.133426,1,1
621330460,0.7463005,0.7463005,0.75231063,1.1000739,1.1568704,1,1
621530457,-2.8940165,-2.8940165,-2.9173326,1.1153207,1.1729057,1,1
621730454,-2.5127747,-2.5127747,-2.5330012,1.1241046,1.1821312,1,1
621930453,1.9981139,1.9981139,2.0141957,1.1239452,1.1819624,1,1
622130451,1.9981139,1.9981139,2.0141883,1.1263167,1.1844518,1,1
622330455,-2.5127723,-2.5127723,-2.5329914,1.1300602,1.1883905,1,1
622530450,-2.5127747,-2.5127747,-2.5329854,1.1322925,1.1907501,1,1
622730445,-2.8940165,-2.8940165,-2.9172983,1.1323819,1.1908301,1,1
622930442,-2.5127723,-2.5127723,-2.5333946,1.1257526,1.1838393,1,1
623130441,-1.0773991,-1.0773991,-1.0862495,1.1215111,1.1793972,1,1
623330439,-2.062218,-2.062218,-2.0791738,1.1164126,1.1740258,1,1
623530437,-1.9332405,-1.9332405,-1.9491229,1.1051209,1.1621435,1,1
623730437,-0.36075184,-0.36075184,-0.36371312,1.0960479,1.1525947,1,1
623930436,-2.5127723,-2.5127723,-2.53342,1.0945169,1.1509943,1,1
624130431,-3.2305748,-3.2305748,-3.257134,1.09716,1.1537783,1,1
624330447,-0.36075184,-0.36075184,-0.36371616,1.0969647,1.1535708,1,1
624530437,1.189886,1.189886,1.199661,1.100082,1.1568443,1,1
624730425,1.189886,1.189886,1.1996775,1.1016723,1.1585325,1,1
624930423,0.7463005,0.7463005,0.7524342,1.1038749,1.1608248,1,1
625130433,-1.0773991,-1.0773991,-1.0862504,1.1028112,1.1596962,1,1
625330418,-2.5127723,-2.5127723,-2.5334284,1.1055541,1.1625863,1,1
625530432,-2.98172,-2.98172,-3.006231,1.1083722,1.1655499,1,1
625730434,-2.5127747,-2.5127747,-2.5334225,1.1116915,1.1690364,1,1
625930419,-2.5127723,-2.5127723,-2.5334263,1.1101594,1.1674281,1,1
626130419,1.1898912,1.1898912,1.1996627,1.1039377,1.1608677,1,1
626330433,2.563021,2.563021,2.5840816,1.1070435,1.1641302,1,1
626530429,-2.5127747,-2.5127747,-2.5334308,1.1048758,1.1618669,1,1
626730436,-2.5127723,-2.5127723,-2.533437,1.1030911,1.1599817,1,1
626930433,-2.98172,-2.98172,-3.0062392,1.1012241,1.1580176,1,1
627130418,-2.5127747,-2.5127747,-2.5334196,1.0926871,1.1490324,1,1
627330418,-1.6966268,-1.6966268,-1.7105681,1.082959,1.1388004,1,1
627530433,-1.9332373,-1.9332373,-1.9494333,1.0821139,1.1379037,1,1
627730419,-1.48035,-1.48035,-1.4927793,1.0763351,1.1318417,1,1
627930419,-2.5127723,-2.5127723,-2.5338488,1.0725868,1.1278906,1,1
628130443,-2.5127747,-2.5127747,-2.5338511,1.0710552,1.1262801,1,1
628330480,-2.5127747,-2.5127747,-2.5338798,1.0644149,1.1192981,1,1
628530418,-0.36075184,-0.36075184,-0.3637791,1.0591329,1.1137356,1,1
628730434,-2.5127723,-2.5127723,-2.5338283,1.050895,1.105066,1,1
628930418,-1.48035,-1.48035,-1.4927694,1.0395842,1.0931766,1,1
629130467,1.9981108,1.9981108,2.014894,1.0277619,1.0807558,1,1
629330419,1.9981108,1.9981108,2.014897,1.0208269,1.0734478,1,1
629530418,-2.5127747,-2.5127747,-2.5338435,1.0211997,1.0738325,1,1
629730418,-1.6966268,-1.6966268,-1.7108525,1.0249983,1.0778167,1,1
629930426,-2.98172,-2.98172,-3.0066967,1.0239735,1.0767304,1,1
630130419,-2.5127747,-2.5127747,-2.5338302,1.02356,1.0762985,1,1
630330418,-2.98172,-2.98172,-3.006725,1.0307145,1.0838233,1,1
630530420,-0.36075184,-0.36075184,-0.36377716,1.0387187,1.0922455,1,1
630730418,-1.9332405,-1.9332405,-1.9494463,1.0437068,1.097487,1,1
630930418,-3.386336,-3.386336,-3.4147456,1.0513903,1.1055561,1,1
631130420,-3.2305748,-3.2305748,-3.2576885,1.0611312,1.1158026,1,1
631330418,-2.5127723,-2.5127723,-2.5339882,1.0769179,1.1323828,1,1
631530418,-2.5127723,-2.5127723,-2.5341725,1.0949814,1.1513824,1,1
631730419,1.9981139,1.9981139,2.0152109,1.112677,1.1699963,1,1
631930418,-1.0773934,-1.0773934,-1.0866085,1.1261246,1.1841328,1,1
632130419,-2.062218,-2.062218,-2.0798602,1.1305282,1.1887652,1,1
632330419,-2.5127723,-2.5127723,-2.5343027,1.1305988,1.1888478,1,1
632530418,-2.5127747,-2.5127747,-2.5342999,1.13291,1.1912681,1,1
632730418,-2.062218,-2.062218,-2.0798898,1.1302708,1.1884927,1,1
632930419,-2.5127747,-2.5127747,-2.5342968,1.1295502,1.18773,1,1
633130418,-2.5127723,-2.5127723,-2.5342603,1.1287229,1.1868441,1,1
633330431,-2.5127747,-2.5127747,-2.53425,1.1276809,1.1857425,1,1
633530419,2.5630233,2.5630233,2.5849452,1.1276776,1.1857343,1,1
633730418,-2.5127723,-2.5127723,-2.5342963,1.1214631,1.1792083,1,1
633930418,-2.5127723,-2.5127723,-2.5342708,1.1164263,1.1739005,1,1
634130419,1.1898912,1.1898912,1.2000662,1.1149915,1.1723924,1,1
634330419,-2.98172,-2.98172,-3.0072587,1.1119436,1.1691977,1,1
634530418,-2.8940165,-2.8940165,-2.9187891,1.110663,1.1678454,1,1
634730419,1.9981108,1.9981108,2.0152178,1.1075629,1.1645876,1,1
634930418,-2.5127747,-2.5127747,-2.534262,1.1056337,1.1625471,1,1
635130418,-1.9332405,-1.9332405,-1.9497837,1.1029272,1.1596897,1,1
635330419,-2.5127747,-2.5127747,-2.5342999,1.0997769,1.1563877,1,1
635530418,-2.5127723,-2.5127723,-2.5344486,1.1007327,1.1573833,1,1
635730418,-2.5127723,-2.5127723,-2.5347228,1.1063095,1.1632551,1,1
635930419,-2.5127723,-2.5127723,-2.5344403,1.1091863,1.1662682,1,1
636130418,-2.5127723,-2.5127723,-2.5347016,1.1097368,1.1668366,1,1
636330418,-2.5127723,-2.5127723,-2.5346973,1.1187409,1.1762958,1,1
636530419,-2.5127747,-2.5127747,-2.5346704,1.1275035,1.1854954,1,1
636730418,-2.5127747,-2.5127747,-2.534708,1.1279479,1.1859804,1,1
636930418,-2.5127723,-2.5127723,-2.5346973,1.1225328,1.1802852,1,1
637130419,-2.5127747,-2.5127747,-2.534721,1.1159059,1.1733247,1,1
637330418,-2.5127723,-2.5127723,-2.5347056,1.1074673,1.1644461,1,1
637530418,-2.5127747,-2.5127747,-2.5347507,1.0990651,1.1556185,1,1
637730419,-2.5127747,-2.5127747,-2.5347033,1.093103,1.1493369,1,1
637930418,-1.0773991,-1.0773991,-1.08679,1.0819091,1.1375628,1,1
638130419,-2.5127747,-2.5127747,-2.5346801,1.0789123,1.1343913,1,1
638330419,-2.8940165,-2.8940165,-2.919273,1.0790279,1.1345235,1,1
638530418,-2.5127723,-2.5127723,-2.5346847,1.080141,1.1356802,1,1
638730421,-1.6966268,-1.6966268,-1.7114449,1.0902498,1.1463119,1,1
638930420,-2.98172,-2.98172,-3.0077217,1.0925621,1.1487399,1,1
639130419,-2.5127747,-2.5127747,-2.5347302,1.0872058,1.1431156,1,1
639330418,-2.5127747,-2.5127747,-2.534708,1.0858942,1.1417266,1,1
639530419,-2.8940165,-2.8940165,-2.919753,1.083358,1.1390529,1,1
639730419,-2.5127723,-2.5127723,-2.534783,1.0753073,1.1305736,1,1
639930419,1.9981139,1.9981139,2.015889,1.0721914,1.1273036,1,1
640130419,-0.36075184,-0.36075184,-0.36396834,1.0637766,1.1184727,1,1
640330468,-2.98172,-2.98172,-3.008258,1.0532824,1.1074215,1,1
640530418,-2.5127723,-2.5127723,-2.535124,1.0509577,1.1049719,1,1
640730419,1.1898912,1.1898912,1.2004756,1.0509001,1.1049113,1,1
640930420,-0.36075184,-0.36075184,-0.36396405,1.0555623,1.1098231,1,1
641130418,-2.98172,-2.98172,-3.008295,1.0706418,1.1256691,1,1
641330430,-2.5127747,-2.5127747,-2.535149,1.0757114,1.1309899,1,1
641530418,-2.5127747,-2.5127747,-2.5351367,1.0742837,1.1294832,1,1
641730419,1.3896636,1.3896636,1.4020375,1.0757868,1.1310692,1,1
641930419,-1.6966268,-1.6966268,-1.7117448,1.0753264,1.1305833,1,1
642130419,-2.5127747,-2.5127747,-2.5351748,1.0754192,1.1306851,1,1
642330418,-1.48035,-1.48035,-1.4935372,1.0748335,1.1300532,1,1
642530419,-2.5127723,-2.5127723,-2.5351386,1.0771892,1.1325219,1,1
642730418,-2.5127723,-2.5127723,-2.5351725,1.0864917,1.1423174,1,1
642930419,-2.5127747,-2.5127747,-2.5351367,1.0872705,1.1431191,1,1
643130419,-2.5127723,-2.5127723,-2.5351317,1.0891298,1.1450582,1,1
643330418,-2.5127747,-2.5127747,-2.535152,1.0885214,1.1444266,1,1
643530419,-2.5127723,-2.5127723,-2.5351367,1.0897957,1.145757,1,1
643730419,-2.5127723,-2.5127723,-2.5351343,1.0869322,1.1427453,1,1
643930418,1.9981139,1.9981139,2.0159056,1.085262,1.1409949,1,1
644130419,-2.5127747,-2.5127747,-2.5351367,1.0791396,1.1345344,1,1
644330419,-2.5127723,-2.5127723,-2.5351171,1.0715772,1.1265824,1,1
644530418,-2.98172,-2.98172,-3.0082326,1.0649971,1.1196575,1,1
644730418,-1.9332405,-1.9332405,-1.9504303,1.0555316,1.1097063,1,1
644930419,-2.5127747,-2.5127747,-2.5351522,1.0494096,1.1032853,1,1
645130424,-1.9332405,-1.9332405,-1.9504515,1.0505426,1.1044731,1,1
645330420,-1.9332405,-1.9332405,-1.9504579,1.0439383,1.0975219,1,1
645530419,-2.5127747,-2.5127747,-2.535586,1.0398722,1.0932546,1,1
645730419,-2.5127747,-2.5127747,-2.5355828,1.0310102,1.0839247,1,1
645930418,-2.5127747,-2.5127747,-2.5355475,1.0279249,1.080666,1,1
646130419,-2.5127747,-2.5127747,-2.5355575,1.0304453,1.0833166,1,1
646330439,-2.5127747,-2.5127747,-2.535586,1.033096,1.0861132,1,1
646530418,-3.386336,-3.386336,-3.417032,1.028724,1.0814967,1,1
646730419,-2.5127723,-2.5127723,-2.535554,1.0194091,1.0717001,1,1
646930418,-2.5127747,-2.5127747,-2.5355735,1.0185131,1.0707653,1,1
647130433,-3.386338,-3.386338,-3.4170458,1.0134184,1.0654039,1,1
647330419,-2.062218,-2.062218,-2.0809193,1.0134275,1.0654054,1,1
647530461,-2.5127747,-2.5127747,-2.5355968,1.0149479,1.06701,1,1
647730419,-1.0773991,-1.0773991,-1.0871668,1.0182652,1.0704801,1,1
647930419,-1.48035,-1.48035,-1.4937913,1.0198338,1.0721438,1,1
648130419,-2.5127747,-2.5127747,-2.535548,1.0221764,1.0745887,1,1
648330419,-2.5127747,-2.5127747,-2.5355818,1.0255581,1.0781524,1,1
648530428,-2.5127723,-2.5127723,-2.5355499,1.0304774,1.0832998,1,1
648730420,-2.8940165,-2.8940165,-2.92025,1.0311854,1.0840441,1,1
648930419,-2.8940165,-2.8940165,-2.9202466,1.0294573,1.0822264,1,1
649130419,-2.5127747,-2.5127747,-2.5355647,1.0306708,1.0835085,1,1
649330419,-2.5127723,-2.5127723,-2.5355668,1.0324457,1.0853763,1,1
649530419,-2.5127747,-2.5127747,-2.5355818,1.0363634,1.0894887,1,1
649730419,-2.5127747,-2.5127747,-2.5355608,1.0330273,1.0859667,1,1
649930464,-2.5127747,-2.5127747,-2.5355806,1.0253403,1.0778944,1,1
650130419,-2.062218,-2.062218,-2.0812368,1.0193783,1.0716014,1,1
650330419,-2.5127747,-2.5127747,-2.5359993,1.0210059,1.0733337,1,1
650530418,-2.98172,-2.98172,-3.0093017,1.018827,1.0710342,1,1
650730420,-2.5127747,-2.5127747,-2.5360143,1.0130384,1.0649472,1,1
650930419,-2.5127747,-2.5127747,-2.5360186,1.0087458,1.0604364,1,1
651130418,-2.5127747,-2.5127747,-2.536001,1.0034922,1.0549062,1,1
651330418,-2.5127747,-2.5127747,-2.5359905,1.0027581,1.0541303,1,1
651530419,-2.8940165,-2.8940165,-2.9207504,1.0062033,1.057746,1,1
651730418,-0.36075184,-0.36075184,-0.36408404,1.0043231,1.0557562,1,1
651930421,-1.9332405,-1.9332405,-1.9511172,1.0007524,1.0520132,1,1
652130419,-2.5127723,-2.5127723,-2.5359824,1.002961,1.0543244,1,1
652330418,1.9981139,1.9981139,2.0166173,1.0027115,1.0540755,1,1
652530418,-2.98172,-2.98172,-3.0092716,1.0085187,1.0601588,1,1
652730419,-2.5127723,-2.5127723,-2.5359716,1.0226191,1.0749676,1,1
652930430,-2.5127747,-2.5127747,-2.5360057,1.0336274,1.086553,1,1
653130419,-2.8940165,-2.8940165,-2.9207613,1.0423241,1.0956908,1,1
653330419,-2.5127747,-2.5127747,-2.5360312,1.0427006,1.0960902,1,1
653530418,-2.8940165,-2.8940165,-2.9211476,1.0433445,1.0967544,1,1
653730418,-2.5127723,-2.5127723,-2.5359907,1.0421833,1.095524,1,1
653930419,-2.5127723,-2.5127723,-2.5359933,1.03916,1.0923471,1,1
654130419,-3.386336,-3.386336,-3.4182105,1.0412047,1.0944976,1,1
654330419,-2.8940165,-2.8940165,-2.921248,1.0425155,1.0958686,1,1
654530419,-2.8940165,-2.8940165,-2.921248,1.0518091,1.105638,1,1
654730419,-2.5127723,-2.5127723,-2.5364742,1.0628192,1.1172225,1,1
654930419,-2.5127747,-2.5127747,-2.5364385,1.0660802,1.1206337,1,1
655130420,-2.062218,-2.062218,-2.0816247,1.0667413,1.1213211,1,1
655330418,-2.5127747,-2.5127747,-2.5364056,1.0698335,1.1245466,1,1
655530419,-2.5127747,-2.5127747,-2.5364215,1.0760609,1.1311084,1,1
655730419,-2.5127747,-2.5127747,-2.5364373,1.0720444,1.1268846,1,1
655930418,-2.8940165,-2.8940165,-2.9212413,1.0589817,1.113143,1,1
656130429,-2.5127723,-2.5127723,-2.5364106,1.0493186,1.1029856,1,1
656330420,-2.5127747,-2.5127747,-2.536434,1.0453271,1.0987875,1,1
656530419,-2.5127747,-2.5127747,-2.5364442,1.0434368,1.096799,1,1
656730418,-2.5127723,-2.5127723,-2.5364316,1.0439746,1.09736,1,1
656930419,-2.5127747,-2.5127747,-2.5364316,1.0428535,1.0961804,1,1
657130418,-1.9332405,-1.9332405,-1.95144,1.0396134,1.0927739,1,1
657330419,-2.5127723,-2.5127723,-2.5364063,1.0417949,1.0950404,1,1
657530419,-2.5127747,-2.5127747,-2.5364425,1.048096,1.101684,1,1
657730419,-3.5352397,-3.5352397,-3.5685143,1.0548811,1.1088029,1,1
657930419,-4.3814526,-4.3814526,-4.4227066,1.0645417,1.118961,1,1
658130419,1.9981139,1.9981139,2.0172653,1.0724185,1.12723,1,1
658330420,-1.9332405,-1.9332405,-1.9515061,1.0804409,1.1356525,1,1
658530418,1.3896636,1.3896636,1.4029393,1.0905923,1.1463264,1,1
658730419,1.9981108,1.9981108,2.0172749,1.0954142,1.1513991,1,1
658930418,1.9981108,1.9981108,2.0172782,1.1061678,1.1626859,1,1
659130418,1.9981139,1.9981139,2.0172408,1.1112326,1.1679983,1,1
659330419,1.3896636,1.3896636,1.4029877,1.1098204,1.1665195,1,1
659530419,1.9981139,1.9981139,2.017278,1.1086811,1.1653209,1,1
659730419,2.4604375,2.4604375,2.4840357,1.110795,1.1675476,1,1
659930445,1.9981139,1.9981139,2.0172677,1.1085916,1.1652131,1,1
660130418,1.9981108,1.9981108,2.0172682,1.1114722,1.1682369,1,1
660330418,-1.6966268,-1.6966268,-1.7129022,1.1137,1.1705842,1,1
660530434,1.9981139,1.9981139,2.0172813,1.1087599,1.1653918,1,1
660730419,1.3896636,1.3896636,1.4029639,1.1073976,1.1639404,1,1
660930418,1.9981108,1.9981108,2.017257,1.1030134,1.1593304,1,1
661130419,2.5630233,2.5630233,2.5875826,1.1071697,1.1636897,1,1
661330418,1.9981139,1.9981139,2.0172544,1.1188009,1.1759112,1,1
661530419,-0.36075184,-0.36075184,-0.36421245,1.1388923,1.1970441,1,1
661730418,1.9981139,1.9981139,2.0172677,1.1553099,1.2142789,1,1
661930418,3.024185,3.024185,3.0531747,1.1655358,1.2250242,1,1
662130418,1.3896636,1.3896636,1.4029933,1.1660737,1.2255931,1,1
662330419,-0.36075184,-0.36075184,-0.36420745,1.1611269,1.2203779,1,1
662530418,1.9981139,1.9981139,2.0172644,1.1620473,1.2213386,1,1
662730420,-1.0773991,-1.0773991,-1.0877144,1.1639044,1.2232718,1,1
662930419,3.781396,3.781396,3.8176126,1.1714389,1.2312093,1,1
663130418,2.8486943,2.8486943,2.8763125,1.1789867,1.2391462,1,1
663330418,1.1898912,1.1898912,1.2015023,1.1893883,1.2500724,1,1
663530419,1.9981108,1.9981108,2.017343,1.2006198,1.2618711,1,1
663730461,1.9981139,1.9981139,2.0176108,1.2029134,1.2642668,1,1
663930418,2.5630233,2.5630233,2.5880387,1.1976798,1.2587694,1,1
664130433,1.9981139,1.9981139,2.0176284,1.1979457,1.2590568,1,1
664330418,1.9981139,1.9981139,2.0175881,1.2041227,1.2655034,1,1
664530419,1.9981139,1.9981139,2.0175982,1.2244284,1.2868643,1,1
664730419,2.84869,2.84869,2.8765032,1.2393649,1.3025683,1,1
664930440,1.3896636,1.3896636,1.4032161,1.2465934,1.3101428,1,1
665130419,1.9981139,1.9981139,2.0176144,1.2367114,1.2997702,1,1
665330439,1.9981108,1.9981108,2.017622,1.2049422,1.2663745,1,1
665530421,1.9981139,1.9981139,2.0176117,1.1795491,1.239672,1,1
665730419,1.3896636,1.3896636,1.4032146,1.1608604,1.2200224,1,1
665930458,1.9981139,1.9981139,2.0175848,1.1452144,1.2035711,1,1
666130419,3.024187,3.024187,3.0536618,1.1307296,1.1883407,1,1
666330419,1.9981108,1.9981108,2.017595,1.1216865,1.1788332,1,1
666530419,2.5630233,2.5630233,2.5880005,1.116002,1.1728592,1,1
666730419,1.9981139,1.9981139,2.017625,1.1112194,1.1678485,1,1
666930419,1.9981108,1.9981108,2.017605,1.1126993,1.1693878,1,1
667130435,-1.0773991,-1.0773991,-1.0878853,1.116191,1.1730351,1,1
667330419,1.9981139,1.9981139,2.0176003,1.117641,1.1745641,1,1
667530466,0.7463005,0.7463005,0.75358164,1.1147665,1.1715479,1,1
667730419,1.9981108,1.9981108,2.017585,1.106258,1.1625834,1,1
667930419,3.498235,3.498235,3.5323827,1.096305,1.1521335,1,1
668130420,-1.9332373,-1.9332373,-1.9520857,1.0845418,1.1397579,1,1
668330420,1.3896636,1.3896636,1.4032216,1.0781986,1.1330992,1,1
668530419,-0.36075184,-0.36075184,-0.3642703,1.0755078,1.1302618,1,1
668730419,1.9981139,1.9981139,2.0176117,1.0692196,1.1236471,1,1
668930419,1.9981108,1.9981108,2.0175927,1.0618433,1.1158864,1,1
669130419,1.1898912,1.1898912,1.2014867,1.0558853,1.1096197,1,1
669330431,1.389659,1.389659,1.4032066,1.0490923,1.1024675,1,1
669530419,1.9981139,1.9981139,2.0176868,1.0437764,1.096873,1,1
669730432,2.5630233,2.5630233,2.588094,1.0364168,1.0891826,1,1
669930418,1.9981139,1.9981139,2.0179253,1.0294099,1.0817735,1,1
670130419,-1.0773991,-1.0773991,-1.0881008,1.0207492,1.0726833,1,1
670330419,1.9981139,1.9981139,2.0179327,1.0187846,1.070614,1,1
670530419,-0.36075184,-0.36075184,-0.3643337,1.0222086,1.0742092,1,1
670730419,3.781396,3.781396,3.818933,1.024616,1.0767369,1,1
670930418,-2.5127747,-2.5127747,-2.5377014,1.023882,1.0759469,1,1
671130419,1.9981108,1.9981108,2.0179555,1.0315547,1.0840167,1,1
671330466,2.4604375,2.4604375,2.4848368,1.0274701,1.0797081,1,1
671530420,1.9981139,1.9981139,2.0179286,1.01911,1.070923,1,1
671730419,1.9981108,1.9981108,2.0179026,1.0150785,1.0666746,1,1
671930419,1.9981108,1.9981108,2.017938,1.0117612,1.0631988,1,1
672130432,2.4604375,2.4604375,2.4848492,1.019971,1.0718161,1,1
672330418,1.9981139,1.9981139,2.0179217,1.0285094,1.0807794,1,1
672530419,-0.36075184,-0.36075184,-0.3643311,1.03661,1.089295,1,1
672730419,-2.5127747,-2.5127747,-2.5377057,1.0438446,1.0968857,1,1
672930419,-0.36076912,-0.36076912,-0.36435112,1.0473626,1.1005901,1,1
673130419,1.9981139,1.9981139,2.0179446,1.0448351,1.0979192,1,1
673330418,1.998117,1.998117,2.017962,1.038787,1.0915762,1,1
673530420,2.4604375,2.4604375,2.4848824,1.0359591,1.0885967,1,1
673730420,3.1900377,3.1900377,3.2217045,1.0368061,1.0894775,1,1
673930419,2.563021,2.563021,2.5884461,1.0342385,1.0867665,1,1
674130420,1.998117,1.998117,2.017935,1.0273144,1.0794833,1,1
674330469,1.9981139,1.9981139,2.018021,1.0230429,1.0749915,1,1
674530419,1.9981139,1.9981139,2.0179613,1.0206605,1.0725014,1,1
674730419,1.9981139,1.9981139,2.0182812,1.0219939,1.0738918,1,1
674930419,1.189886,1.189886,1.2019023,1.0231428,1.0750991,1,1
675130452,0.7463005,0.7463005,0.75383717,1.0222703,1.074171,1,1
675330418,2.563021,2.563021,2.5888913,1.021918,1.0737954,1,1
675530419,3.781396,3.781396,3.8195384,1.0154566,1.0669987,1,1
675730431,1.9981139,1.9981139,2.0182686,1.0102342,1.0615113,1,1
675930419,1.9981139,1.9981139,2.0182707,1.0090189,1.0602185,1,1
676130419,1.9981108,1.9981108,2.0182924,1.0107179,1.0620167,1,1
676330418,1.9981139,1.9981139,2.0182955,1.003925,1.0548791,1,1
676530418,1.1898912,1.1898912,1.2018876,1.0001308,1.0508618,1,1
676730419,1.9981139,1.9981139,2.0182753,1.0056984,1.0567153,1,1
676930419,2.5630233,2.5630233,2.5889046,1.0024494,1.0533018,1,1
677130419,1.1898912,1.1898912,1.2019072,1.0028039,1.0536822,1,1
677330419,3.1900377,3.1900377,3.2222314,1.0058327,1.0568496,1,1
677530418,1.9981139,1.9981139,2.0182886,0.998877,1.049538,1,1
677730419,1.3896636,1.3896636,1.4036809,0.9939983,1.0444014,1,1
677930420,-1.6966268,-1.6966268,-1.7137549,0.9864624,1.036492,1,1
678130419,1.389659,1.389659,1.4036833,0.9792902,1.0289395,1,1
678330418,2.563021,2.563021,2.5888844,0.95999473,1.0086615,1,1
678530421,1.9981108,1.9981108,2.0182676,0.95153207,0.9997668,1,1
678730419,1.3896636,1.3896636,1.4037043,0.9455422,0.99348897,1,1
678930429,1.9981139,1.9981139,2.0182652,0.94519013,0.9930849,1,1
679130419,3.024187,3.024187,3.0547018,0.9532624,1.0015712,1,1
679330418,3.024187,3.024187,3.0546918,0.9559358,1.0043768,1,1
679530419,-1.48035,-1.48035,-1.4952922,0.9648574,1.0137411,1,1
679730419,1.9981139,1.9981139,2.0182736,0.96544343,1.0143607,1,1
679930418,1.9981139,1.9981139,2.0182762,0.9636453,1.0124646,1,1
680130419,2.563021,2.563021,2.5889127,0.96116394,1.0098512,1,1
680330419,1.3896636,1.3896636,1.4038867,0.9546603,1.0030324,1,1
680530419,1.9981139,1.9981139,2.0183787,0.95901763,1.007581,1,1
680730419,3.423788,3.423788,3.4589353,0.9562658,1.0046998,1,1
680930419,1.9981139,1.9981139,2.018615,0.96567667,1.0145819,1,1
681130445,1.9981139,1.9981139,2.018621,0.9718269,1.0210435,1,1
681330419,1.3896636,1.3896636,1.4039247,0.97800654,1.0275413,1,1
681530423,2.563021,2.563021,2.5893493,0.9856667,1.0355804,1,1
681730434,1.9981108,1.9981108,2.0185957,0.98265517,1.0324146,1,1
681930419,-2.5127747,-2.5127747,-2.538574,0.9786715,1.0282093,1,1
682130427,1.9981139,1.9981139,2.0186427,0.9703385,1.0194614,1,1
682330419,2.5630233,2.5630233,2.5893419,0.9573539,1.005814,1,1
682530420,-1.0773991,-1.0773991,-1.0884434,0.949317,0.9973527,1,1
682730420,1.1898912,1.1898912,1.2020917,0.95512843,1.0034528,1,1
682930422,3.024185,3.024185,3.0552046,0.9617033,1.010356,1,1
683130420,1.9981108,1.9981108,2.018589,0.97165054,1.0208167,1,1
683330420,1.9981108,1.9981108,2.0189357,0.9795654,1.0291111,1,1
683530420,-0.36075184,-0.36075184,-0.3644576,0.98615444,1.0360564,1,1
683730420,1.9981108,1.9981108,2.0189762,0.98573565,1.0356021,1,1
683930420,3.024185,3.024185,3.0551987,0.985876,1.0357298,1,1
684130432,0.7463005,0.7463005,0.7539668,0.99126834,1.0414047,1,1
684330419,1.3896636,1.3896636,1.4040782,0.9983234,1.0488148,1,1
684530420,1.1898912,1.1898912,1.2023047,1.0082575,1.0592369,1,1
684730419,1.9981139,1.9981139,2.0189793,1.0158936,1.0672698,1,1
684930419,1.9981139,1.9981139,2.0189557,1.0244852,1.0762719,1,1
685130433,1.3896636,1.3896636,1.404156,1.0222241,1.0738884,1,1
685330419,1.1898912,1.1898912,1.2023077,1.0219567,1.0736142,1,1
685530429,3.024187,3.024187,3.0557404,1.0238192,1.0755696,1,1
685730420,1.9981139,1.9981139,2.0189724,1.0223801,1.0740522,1,1
685930433,1.1898912,1.1898912,1.2022927,1.022805,1.0744749,1,1
686130418,1.3896636,1.3896636,1.4041659,1.0208106,1.072394,1,1
686330420,2.5630233,2.5630233,2.5897725,1.0237434,1.0754757,1,1
686530417,1.389659,1.389659,1.4041469,1.0201147,1.0716485,1,1
686730419,1.389659,1.389659,1.4041469,1.0228611,1.0745318,1,1
686930419,2.4604375,2.4604375,2.4860892,1.0292025,1.0811819,1,1
687130419,0.7463005,0.7463005,0.7540737,1.0344596,1.0866936,1,1
687330419,1.3896636,1.3896636,1.4041728,1.0442957,1.0970479,1,1
687530419,2.8486943,2.8486943,2.8783891,1.0499138,1.1029197,1,1
687730420,1.9981139,1.9981139,2.018935,1.0435494,1.0962447,1,1
687930419,3.498235,3.498235,3.5347123,1.0443177,1.097045,1,1
688130453,2.8486943,2.8486943,2.8783932,1.0479743,1.1008782,1,1
688330419,1.3896636,1.3896636,1.4041541,1.0550865,1.1083397,1,1
688530419,1.9981108,1.9981108,2.0189357,1.0660447,1.1198394,1,1
688730444,2.8486943,2.8486943,2.878394,1.0693005,1.1232574,1,1
688930419,1.1898912,1.1898912,1.2023047,1.065625,1.1193978,1,1
689130419,-0.36075184,-0.36075184,-0.36451232,1.0610962,1.1146449,1,1
689330419,1.1898912,1.1898912,1.2023071,1.0599245,1.113412,1,1
689530419,1.9981139,1.9981139,2.0189457,1.0588771,1.1123021,1,1
689730419,1.9981139,1.9981139,2.0189893,1.067339,1.1211973,1,1
689930419,1.9981139,1.9981139,2.0189826,1.0717787,1.1258574,1,1
690130419,1.9981108,1.9981108,2.0189424,1.0742822,1.1284543,1,1
690330419,1.3896636,1.3896636,1.40414,1.0720892,1.1261523,1,1
690530419,1.9981139,1.9981139,2.019214,1.0654122,1.1191385,1,1
690730418,1.9981108,1.9981108,2.018956,1.0569681,1.1102602,1,1
690930419,-2.8940165,-2.8940165,-2.92469,1.0470833,1.0998813,1,1
691130420,1.9981108,1.9981108,2.018956,1.03435,1.0864928,1,1
691330419,-1.0773991,-1.0773991,-1.0886409,1.0299842,1.0819087,1,1
691530419,-1.0773991,-1.0773991,-1.0886741,1.0288627,1.0807179,1,1
691730419,1.9981108,1.9981108,2.019296,1.0321164,1.0841361,1,1
691930442,1.389659,1.389659,1.404386,1.0327836,1.0848281,1,1
692130419,1.189886,1.189886,1.2024975,1.0335819,1.0856609,1,1
692330419,1.9981108,1.9981108,2.0192995,1.0246872,1.0763274,1,1
692530418,3.7813942,3.7813942,3.8214867,1.0116142,1.0625937,1,1
692730419,1.9981139,1.9981139,2.0192552,1.0046988,1.0552901,1,1
692930419,1.3896636,1.3896636,1.404386,0.9959336,1.0460975,1,1
693130419,1.9981139,1.9981139,2.0192866,0.9912968,1.0412294,1,1
693330419,1.9981139,1.9981139,2.0192916,0.99374825,1.0437986,1,1
693530419,2.84869,2.84869,2.8789082,0.99098843,1.0409006,1,1
693730418,-1.0773991,-1.0773991,-1.0888207,0.9920784,1.0420386,1,1
693930430,1.9981139,1.9981139,2.019279,0.99346846,1.0434899,1,1
694130420,1.389659,1.389659,1.4043931,0.9878932,1.0376277,1,1
694330419,1.1898912,1.1898912,1.2025108,0.98683363,1.036518,1,1
694530419,3.781396,3.781396,3.821466,0.9830179,1.0325007,1,1
694730419,1.9981139,1.9981139,2.0192912,0.9754883,1.0245942,1,1
694930419,2.84869,2.84869,2.8789034,0.9684011,1.0171468,1,1
695130419,1.9981108,1.9981108,2.0192893,0.96562463,1.0142184,1,1
695330418,-1.0773991,-1.0773991,-1.0888317,0.9648048,1.0133692,1,1
695530419,1.9981108,1.9981108,2.0192995,0.9644108,1.0129173,1,1
695730419,1.9981139,1.9981139,2.0193162,0.9690682,1.017831,1,1
695930433,-0.36075184,-0.36075184,-0.3645736,0.9720065,1.0208998,1,1
696130419,1.3896636,1.3896636,1.4044031,0.9722924,1.0212047,1,1
696330420,1.9981108,1.9981108,2.0193038,0.9632857,1.0117368,1,1
696530419,1.3896636,1.3896636,1.4044095,0.95276123,1.0006875,1,1
696730419,-2.5127723,-2.5127723,-2.539423,0.9572792,1.0054224,1,1
696930419,1.9981108,1.9981108,2.0193062,0.96158856,1.0099393,1,1
697130419,-1.0773991,-1.0773991,-1.0888126,0.9653468,1.0138724,1,1
697330425,1.9981139,1.9981139,2.0193012,0.96973807,1.0184913,1,1
697530419,-1.0773991,-1.0773991,-1.0888246,0.96890384,1.0176032,1,1
697730419,1.9981108,1.9981108,2.0192928,0.96730906,1.0159245,1,1
697930439,1.9981139,1.9981139,2.0193126,0.96721935,1.0158387,1,1
698130419,3.7813942,3.7813942,3.821481,0.969136,1.0178378,1,1
698330419,3.024187,3.024187,3.0562568,0.9638687,1.0122985,1,1
698530419,-1.0773991,-1.0773991,-1.0888335,0.96230406,1.010656,1,1
698730419,2.5630233,2.5630233,2.5902176,0.9579114,1.0060396,1,1
698930419,1.9981108,1.9981108,2.0193012,0.953207,1.0010859,1,1
699130419,1.9981139,1.9981139,2.019289,0.953303,1.0011792,1,1
699330419,1.9981108,1.9981108,2.0192928,0.96162575,1.009918,1,1
699530420,1.9981139,1.9981139,2.0193126,0.970694,1.0194393,1,1
699730419,1.9981139,1.9981139,2.0192971,0.9747554,1.0236968,1,1
699930419,2.5630233,2.5630233,2.5902035,0.9761841,1.0252004,1,1
700130419,-1.0773991,-1.0773991,-1.0888213,0.9746211,1.0235524,1,1
700330419,1.9981139,1.9981139,2.0193126,0.9810817,1.0303322,1,1
700530430,1.9981139,1.9981139,2.0193126,0.990971,1.0407058,1,1
700730420,-1.48035,-1.48035,-1.4960357,0.99896485,1.0491112,1,1
700930419,1.9981139,1.9981139,2.019459,1.0064799,1.0569761,1,1
701130419,-0.36075184,-0.36075184,-0.3646357,1.0079998,1.0585705,1,1
701330432,1.1898912,1.1898912,1.2025193,1.0227531,1.0740819,1,1
701530419,0.7463005,0.7463005,0.7542115,1.0282674,1.0798594,1,1
701730420,1.3896636,1.3896636,1.4046307,1.0312036,1.0829344,1,1
701930419,1.189886,1.189886,1.2026924,1.0313982,1.0831218,1,1
702130418,1.3896636,1.3896636,1.4046365,1.0300152,1.0816822,1,1
702330419,1.389659,1.389659,1.4046367,1.0240422,1.0754131,1,1
702530419,1.3896636,1.3896636,1.4046383,1.0221183,1.0733769,1,1
702730438,1.1898912,1.1898912,1.2027205,1.0214952,1.0727255,1,1
702930418,2.4604375,2.4604375,2.486936,1.0170051,1.0679872,1,1
703130419,1.9981108,1.9981108,2.01967,1.0190328,1.0701308,1,1
703330431,2.4604375,2.4604375,2.4869392,1.0229818,1.0742581,1,1
703530418,1.9981139,1.9981139,2.0196662,1.0290298,1.0806082,1,1
703730419,3.024187,3.024187,3.0567815,1.038647,1.0907042,1,1
703930420,2.4604375,2.4604375,2.4869778,1.0423167,1.0945615,1,1
704130419,-2.5127747,-2.5127747,-2.5398507,1.0550265,1.107896,1,1
704330419,-0.36075184,-0.36075184,-0.36463952,1.0669129,1.1203705,1,1
704530418,1.9981139,1.9981139,2.0196326,1.0780231,1.1320202,1,1
704730419,-1.48035,-1.48035,-1.4962976,1.0797843,1.1338733,1,1
704930419,-1.0773991,-1.0773991,-1.0890076,1.0817294,1.135918,1,1
705130418,-1.48035,-1.48035,-1.4962976,1.0818032,1.1359789,1,1
705330419,1.189886,1.189886,1.2026963,1.0836145,1.1378671,1,1
705530419,-1.0773991,-1.0773991,-1.0890002,1.0872053,1.1416422,1,1
705730418,-1.0773991,-1.0773991,-1.0889984,1.0763104,1.1302,1,1
705930432,1.9981108,1.9981108,2.0196395,1.0738935,1.1276536,1,1
706130420,-1.9332405,-1.9332405,-1.9540507,1.070926,1.1245393,1,1
706330419,-0.36075184,-0.36075184,-0.3646351,1.063482,1.1167096,1,1
706530418,2.8486943,2.8486943,2.8793733,1.0607845,1.1138648,1,1
706730419,1.3896636,1.3896636,1.404636,1.0614933,1.1146142,1,1
706930419,-1.9332373,-1.9332373,-1.9540589,1.0591837,1.1121849,1,1
707130419,-1.0773991,-1.0773991,-1.0890126,1.0526608,1.1053364,1,1
707330419,1.9981108,1.9981108,2.0196395,1.0487742,1.1012416,1,1
707530419,-1.0773991,-1.0773991,-1.0890057,1.0498259,1.1023439,1,1
707730418,-1.0773991,-1.0773991,-1.0890094,1.0542612,1.1070048,1,1
707930419,1.3896636,1.3896636,1.4046314,1.0599949,1.1130196,1,1
708130436,1.9981108,1.9981108,2.0196302,1.0626441,1.1157858,1,1
708330420,-1.48035,-1.48035,-1.4962959,1.0582427,1.1111629,1,1
708530419,-0.36075184,-0.36075184,-0.3646406,1.0539097,1.1066217,1,1
708730419,1.9981139,1.9981139,2.019636,1.055818,1.1085986,1,1
708930422,1.9981139,1.9981139,2.019636,1.0604097,1.1134199,1,1
709130419,-1.0773991,-1.0773991,-1.0890131,1.0572846,1.1101359,1,1
709330419,1.3896636,1.3896636,1.4046342,1.0542477,1.1069517,1,1
709530419,-1.0773991,-1.0773991,-1.0890069,1.0509955,1.1035178,1,1
709730419,1.1898912,1.1898912,1.2027112,1.0576214,1.1104776,1,1
709930419,1.3896636,1.3896636,1.4046459,1.0596102,1.1125737,1,1
710130419,0.7463005,0.7463005,0.7544225,1.0482013,1.1005641,1,1
710330420,1.9981108,1.9981108,2.0200028,1.0368657,1.0886804,1,1
710530419,1.9981139,1.9981139,2.0196595,1.0297604,1.0812153,1,1
710730419,2.4604375,2.4604375,2.4869409,1.0324256,1.0839926,1,1
710930419,-0.36075184,-0.36075184,-0.36463854,1.0387869,1.0906668,1,1
711130419,1.9981139,1.9981139,2.019986,1.0375954,1.0894183,1,1
711330419,-0.36075184,-0.36075184,-0.36470076,1.0351521,1.0868475,1,1
711530419,1.9981139,1.9981139,2.0199928,1.0368721,1.0886452,1,1
711730419,1.9981139,1.9981139,2.019996,1.0402792,1.092224,1,1
711930418,1.3896636,1.3896636,1.404873,1.0454149,1.0975974,1,1
712130432,1.389659,1.389659,1.4048803,1.057742,1.110552,1,1
712330419,-1.0773991,-1.0773991,-1.0891906,1.0760309,1.129735,1,1
712530420,1.1898912,1.1898912,1.2029244,1.0962977,1.1510234,1,1
712730441,1.9981139,1.9981139,2.0199826,1.1002692,1.1551651,1,1
712930419,2.4604375,2.4604375,2.4873495,1.1064246,1.161626,1,1
713130429,1.9981108,1.9981108,2.0199726,1.1174093,1.1731565,1,1
713330419,1.389659,1.389659,1.4048632,1.1237373,1.1797998,1,1
713530421,1.9981139,1.9981139,2.0199893,1.1256459,1.1818043,1,1
713730419,-0.36075184,-0.36075184,-0.36469918,1.1215221,1.1774564,1,1
713930420,1.9981108,1.9981108,2.0199761,1.1153692,1.1709977,1,1
714130419,-2.062218,-2.062218,-2.0847676,1.112765,1.1682539,1,1
714330420,0.7463005,0.7463005,0.75447613,1.1147996,1.1703948,1,1
714530419,1.9981139,1.9981139,2.0199893,1.1059178,1.1610622,1,1
714730420,-1.0773991,-1.0773991,-1.089181,1.0974157,1.1521219,1,1
714930419,1.3896636,1.3896636,1.4048742,1.0887126,1.1429871,1,1
715130419,1.9981139,1.9981139,2.019969,1.0786829,1.132449,1,1
715330419,1.9981108,1.9981108,2.0199726,1.0711137,1.1244973,1,1
715530419,2.4604375,2.4604375,2.4873664,1.0682718,1.1215174,1,1
715730419,1.9981139,1.9981139,2.0199792,1.064524,1.117567,1,1
715930419,-1.9332405,-1.9332405,-1.9544233,1.0587933,1.1115625,1,1
716130419,1.9981139,1.9981139,2.0199811,1.0551717,1.107746,1,1
716330419,-1.9332405,-1.9332405,-1.9544019,1.0495788,1.1018766,1,1
716530419,1.3896636,1.3896636,1.4048682,1.0413522,1.0932292,1,1
716730419,1.9981139,1.9981139,2.0199623,1.0360326,1.0876257,1,1
716930420,1.9981139,1.9981139,2.0199592,1.0253383,1.0764115,1,1
717130419,1.9981108,1.9981108,2.0200028,1.027781,1.0789695,1,1
717330419,1.389659,1.389659,1.4048591,1.0378313,1.0895003,1,1
717530419,1.3896636,1.3896636,1.4048707,1.0420647,1.0939499,1,1
717730419,-1.48035,-1.48035,-1.4965626,1.0446472,1.0966618,1,1
717930419,2.4604375,2.4604375,2.487306,1.0487957,1.1009824,1,1
718130419,1.189886,1.189886,1.2028989,1.0496018,1.1018373,1,1
718330418,3.781396,3.781396,3.822763,1.0460421,1.0980983,1,1
718530419,-1.48035,-1.48035,-1.496557,1.0474159,1.0995437,1,1
718730419,1.3896636,1.3896636,1.4048721,1.0458413,1.0978806,1,1
718930419,-2.5127747,-2.5127747,-2.5402594,1.042914,1.0947976,1,1
719130419,-2.062218,-2.062218,-2.0848489,1.0396321,1.0913545,1,1
719330419,3.1900377,3.1900377,3.2254887,1.0397016,1.0914131,1,1
719530418,-1.48035,-1.48035,-1.4965596,1.0493184,1.1015193,1,1
719730419,3.1900377,3.1900377,3.2254999,1.0513666,1.1036657,1,1
719930419,3.423788,3.423788,3.4618196,1.0507442,1.1029973,1,1
720130419,-1.9332405,-1.9332405,-1.9547517,1.0475725,1.0996767,1,1
720330419,-1.0773991,-1.0773991,-1.0893847,1.0506765,1.1029325,1,1
720530445,1.1898912,1.1898912,1.2031115,1.0534127,1.1057894,1,1
720730419,-1.9332405,-1.9332405,-1.9547315,1.0509746,1.1032308,1,1
720930419,1.189886,1.189886,1.2031235,1.0460328,1.0980407,1,1
721130418,-0.36075184,-0.36075184,-0.3647585,1.0377924,1.0893706,1,1
721330419,1.1898912,1.1898912,1.2031134,1.0301242,1.0813135,1,1
721530419,1.9981108,1.9981108,2.020324,1.0289264,1.0800582,1,1
721730419,1.9981139,1.9981139,2.0203211,1.0244082,1.0753123,1,1
721930418,-0.36075184,-0.36075184,-0.36476088,1.0162011,1.0666963,1,1
722130419,1.1898912,1.1898912,1.2031226,1.002873,1.0527129,1,1
722330419,-1.0773991,-1.0773991,-1.0893669,0.9929552,1.0422734,1,1
722530419,-1.48035,-1.48035,-1.4968138,0.9945409,1.0439309,1,1
722730418,1.9981139,1.9981139,2.0203156,1.003055,1.0528728,1,1
722930430,3.498235,3.498235,3.5370893,1.0135622,1.063894,1,1
723130419,1.3896636,1.3896636,1.4051106,1.0222996,1.0730662,1,1
723330419,1.189886,1.189886,1.2031078,1.0328071,1.0840828,1,1
