timestamp,timestamp_sample,lat,lon,alt,alt_ellipsoid,delta_alt,eph,epv,terrain_alt,lat_lon_reset_counter,alt_reset_counter,terrain_alt_valid,dead_reckoning
540300001,540299361,42.358581759279225,-71.08728599553989,0.47624445,-29.340895,-0.0,2.6570966,2.62137,0.38228464,2,0,1,0
541305710,541304776,42.358582133953895,-71.087287516168,0.5007515,-29.196285,-0.0,2.6452708,2.6191716,0.41347265,2,0,1,0
542301157,542300237,42.35858239739011,-71.08728889769115,0.5402155,-29.057522,-0.0,2.6455314,2.619297,0.44950056,2,0,1,0
543306201,543305652,42.3585826561134,-71.0872904764537,0.60313797,-28.9133,-0.0,2.6495805,2.6202474,0.49734116,2,0,1,0
544301682,544301114,42.358583001848885,-71.08729070268946,0.6385579,-28.77818,-0.0,2.6486802,2.6198304,0.5414047,2,0,1,0
545297159,545296575,42.35858351903713,-71.08729067537661,0.6554198,-28.661417,-0.0,2.6499906,2.6206896,0.5559449,2,0,1,0
546302724,546301991,42.35858347150334,-71.08729105339431,0.6782937,-28.538744,-0.0,2.651806,2.62098,0.5814934,2,0,1,0
547308756,547307407,42.358583967619104,-71.08729038094107,0.6789398,-28.417997,-0.0,2.6490257,2.6215656,0.5681486,2,0,1,0
548303400,548302869,42.35858447806846,-71.087289818083,0.66523457,-28.351704,-0.0,2.6555521,2.622028,0.56347656,2,0,1,0
549298883,549298331,42.35858533623685,-71.08728893197593,0.63027525,-28.286562,-0.0,2.6584551,2.6229942,0.53531027,2,0,1,0
550304371,550303747,42.35858593481478,-71.08728916890152,0.6205292,-28.19721,-0.0,2.6559923,2.6220424,0.53311443,2,0,1,0
551299858,551299210,42.35858609903095,-71.08728910246263,0.64403915,-28.07289,-0.0,2.652797,2.6214678,0.555768,2,0,1,0
552305242,552304627,42.35858672710377,-71.08728944909078,0.6798215,-27.948242,-0.0,2.6515765,2.6208553,0.58808565,2,0,1,0
553300672,553300090,42.35858699260083,-71.08728987005017,0.68961763,-27.89331,-0.0,2.6479726,2.6201007,0.5876503,2,0,1,0
554306382,554305507,42.358587321508736,-71.08729093489072,0.6786165,-27.88015,-0.0,2.6410847,2.61852,0.58359337,2,0,1,0
555301934,555300971,42.35858669019836,-71.08729029658036,0.70978546,-27.84171,-0.0,2.640108,2.6186845,0.6179385,2,0,1,0
556307035,556306389,42.35858623451519,-71.08728997367908,0.7512846,-27.808628,-0.0,2.6430573,2.6187763,0.6556649,2,0,1,0
557302510,557301852,42.3585866973385,-71.08728995189382,0.78260756,-27.793663,-0.0,2.6439564,2.6189747,0.6823969,2,0,1,0
558307862,558307271,42.358587043254175,-71.08728997710935,0.8127408,-27.7781,-0.0,2.646179,2.6201768,0.7016721,2,0,1,0
559303729,559302735,42.35858745438193,-71.0872902710841,0.81473684,-27.794647,-0.0,2.6407735,2.619242,0.72057056,2,0,1,0
560298759,560298199,42.358587605214346,-71.08729013846735,0.8026085,-27.823954,-0.0,2.6461978,2.6204498,0.7016454,2,0,1,0
561304527,561303619,42.35858795436772,-71.08729007898093,0.79630566,-27.843868,-0.0,2.643005,2.6201894,0.6959119,2,0,1,0
562299619,562299083,42.358587573837006,-71.08728969560357,0.76619196,-27.87885,-0.0,2.6463575,2.6205947,0.67255926,2,0,1,0
563305182,563304502,42.35858737219717,-71.08728884400219,0.77061987,-27.883099,-0.0,2.6480687,2.620778,0.6810131,2,0,1,0
564300785,564299967,42.3585868386043,-71.08728810933405,0.75530815,-27.908216,-0.0,2.647824,2.6210063,0.65305614,2,0,1,0
565306019,565305387,42.35858609333648,-71.08728795309446,0.7459531,-27.919672,-0.0,2.6512265,2.621607,0.65568686,2,0,1,0
566301452,566300852,42.3585847248802,-71.08728746281699,0.7333431,-27.923862,-0.0,2.6503239,2.621583,0.6372857,2,0,1,0
567307120,567306272,42.35858373426432,-71.08728552937707,0.7223277,-27.93549,-0.0,2.6481893,2.6214254,0.6229677,2,0,1,0
568302672,568301737,42.358583561684775,-71.08728242759568,0.68289757,-27.983412,-0.0,2.6508703,2.622269,0.5872011,2,0,1,0
569297812,569297202,42.35858200675393,-71.08728190574546,0.6564832,-28.024769,-0.0,2.66015,2.6230147,0.5676532,2,0,1,0
570303183,570302622,42.358581602648336,-71.08728123958826,0.6281538,-28.078339,-0.0,2.663192,2.6239114,0.54498243,2,0,1,0
571298736,571298088,42.35858150498901,-71.08728026624269,0.6542263,-28.08267,-0.0,2.6702008,2.624616,0.5622921,2,0,1,0
572304100,572303508,42.3585819051089,-71.08727994136589,0.65693426,-28.114222,-0.0,2.6756377,2.6258922,0.56410074,2,0,1,0
573299612,573298973,42.35858117051904,-71.08727936786973,0.6742759,-28.138674,-0.0,2.6780028,2.625653,0.5792484,2,0,1,0
574305016,574304393,42.358580415276656,-71.08727904211318,0.69968843,-28.15767,-0.0,2.6750805,2.6254835,0.6102252,2,0,1,0
575300704,575299859,42.35857985319653,-71.08727840652189,0.7827587,-28.13849,-0.0,2.665074,2.623742,0.67558765,2,0,1,0
576305826,576305278,42.35857937033873,-71.08727653755416,0.7906709,-28.186283,-0.0,2.6711679,2.6244886,0.67217875,2,0,1,0
577301378,577300744,42.3585783525346,-71.08727574119703,0.8110056,-28.217312,-0.0,2.6728709,2.6243038,0.71725893,2,0,1,0
578306787,578306163,42.35857832014973,-71.08727401476418,0.87060976,-28.208649,-0.0,2.67618,2.6244557,0.7734089,2,0,1,0
579302234,579301628,42.358577987399336,-71.08727303436177,0.95897293,-28.179798,-0.0,2.6762815,2.6247149,0.84642315,2,0,1,0
580297628,580297093,42.35857701213929,-71.08727275647804,0.9914756,-28.212109,-0.0,2.681357,2.625782,0.8757248,2,0,1,0
581303095,581302512,42.358577002632344,-71.08727165868825,0.9519849,-28.356005,-0.0,2.6779525,2.6254153,0.83229446,2,0,1,0
582308653,582307931,42.35857567753758,-71.08726869423887,0.88141584,-28.507837,-0.0,2.6853366,2.6252754,0.7841797,2,0,1,0
583304011,583303395,42.3585748198154,-71.087269221604,0.8529291,-28.635975,-0.0,2.686543,2.6256373,0.7660098,2,0,1,0
584299456,584298859,42.35857371720982,-71.08726994880392,0.8991375,-28.676538,-0.0,2.685839,2.624934,0.80813694,2,0,1,0
585305198,585304277,42.358572639945855,-71.0872711953476,0.93027544,-28.729248,-0.0,2.6770163,2.6245608,0.836493,2,0,1,0
586300378,586299740,42.358570740053196,-71.08727178995359,0.9164133,-28.79152,-0.0,2.6875875,2.625116,0.80779696,2,0,1,0
587306111,587305158,42.358570495513085,-71.08727094393815,0.86971235,-28.912128,-0.0,2.6800013,2.6251507,0.76583195,2,0,1,0
588301545,588300621,42.35857086972946,-71.08727057341267,0.8041067,-29.033344,-0.0,2.6744623,2.6234732,0.6995897,2,0,1,0
589306872,589306037,42.35857080866206,-71.08726992225291,0.76167965,-29.130318,-0.0,2.673547,2.6235795,0.6655264,2,0,1,0
590303298,590301500,42.35857063176341,-71.08726905176793,0.7278528,-29.22927,-0.0,2.675636,2.6235178,0.64624786,2,0,1,0
591297584,591296961,42.358570705642485,-71.08726755211053,0.6861501,-29.332232,-0.0,2.6891837,2.6253839,0.5990424,2,0,1,0
592303121,592302377,42.35857022940555,-71.0872664294246,0.7059841,-29.411558,-0.0,2.691995,2.625475,0.62446785,2,0,1,0
593308715,593307792,42.358568940361884,-71.08726711005306,0.7492113,-29.484295,-0.0,2.6885202,2.626221,0.65240145,2,0,1,0
594304216,594303253,42.35856782138039,-71.08726776521814,0.7740855,-29.55173,-0.0,2.6932955,2.6263163,0.6851311,2,0,1,0
595299252,595298713,42.35856517720382,-71.0872696925177,0.7841568,-29.621859,-0.0,2.7058406,2.6274471,0.6783061,2,0,1,0
596304708,596304127,42.35856515776467,-71.08727130948124,0.76418734,-29.73924,-0.0,2.7072976,2.6270695,0.670629,2,0,1,0
597300161,597299586,42.35856524945914,-71.08727182370359,0.7590194,-29.827337,-0.0,2.7070243,2.6272223,0.6622906,2,0,1,0
598305868,598304999,42.35856488620155,-71.08727191458298,0.78588676,-29.879944,-0.0,2.7000718,2.6264355,0.69241,2,0,1,0
599301005,599300457,42.35856476131881,-71.0872716782773,0.8135357,-29.899792,-0.0,2.7092557,2.6270466,0.7117944,2,0,1,0
600306560,600305869,42.35856402749123,-71.08727068531087,0.8503008,-29.89774,-0.0,2.7120416,2.6268146,0.7569852,2,0,1,0
601302667,601301326,42.35856236307914,-71.08726915803231,0.90828276,-29.859615,-0.0,2.7051673,2.6269932,0.8235822,2,0,1,0
602307579,602306738,42.358558945306015,-71.08726542111158,0.98300695,-29.789356,-0.0,2.7105517,2.627234,0.86739826,2,0,1,0
603302787,603302194,42.35855707649276,-71.0872624947457,0.9942107,-29.78402,-0.0,2.7254148,2.6284475,0.8828368,2,0,1,0
604298580,604297649,42.35855588705044,-71.08726134137865,0.9949775,-29.791193,-0.0,2.7162304,2.627512,0.8782997,2,0,1,0
605304041,605303059,42.35855619145126,-71.08725964713516,0.9525237,-29.866224,-0.0,2.7117147,2.6264381,0.8556857,2,0,1,0
606299363,606298513,42.35855573458994,-71.0872572723347,0.953578,-29.908401,-0.0,2.705676,2.6258996,0.8365264,2,0,1,0
607304832,607303922,42.358555302077505,-71.08725559479043,0.9325943,-29.958435,-0.0,2.7027156,2.625124,0.83300304,2,0,1,0
608300059,608299375,42.35855522805389,-71.08725674581669,0.9396901,-29.948553,-0.0,2.706595,2.6253653,0.84832,2,0,1,0
609305825,609304782,42.358555242402,-71.08725677950042,0.94892025,-29.911396,-0.0,2.6931915,2.6237855,0.8594055,2,0,1,0
610301456,610300235,42.35855501873438,-71.08725818379999,0.9478135,-29.872105,-0.0,2.6915774,2.6241167,0.8535061,2,0,1,0
611306273,611305641,42.35855486038287,-71.08725995770378,0.9305897,-29.834482,-0.0,2.6876273,2.6232517,0.83040094,2,0,1,0
612301663,612301092,42.3585548754851,-71.08726101029355,0.9164424,-29.800844,-0.0,2.6906483,2.623572,0.8225436,2,0,1,0
613307034,613306497,42.35855546719841,-71.08726293929476,0.931365,-29.72113,-0.0,2.6844556,2.623218,0.8423152,2,0,1,0
614302889,614301949,42.35855568060966,-71.08726503275751,0.95174885,-29.642048,-0.0,2.688328,2.6245806,0.85584164,2,0,1,0
615298060,615297397,42.35855541546118,-71.08726665446204,0.95631075,-29.601538,-0.0,2.6950636,2.6246576,0.8458071,2,0,1,0
616303671,616302800,42.35855600188918,-71.08726787722837,0.926229,-29.57412,-0.0,2.6843665,2.624341,0.81128025,2,0,1,0
617308752,617308203,42.35855631764398,-71.0872690719517,0.9061332,-29.538862,-0.0,2.6871188,2.6247227,0.8165531,2,0,1,0
618304687,618303650,42.35855565058644,-71.08727027939698,0.896513,-29.490364,-0.0,2.685088,2.6248534,0.8007312,2,0,1,0
619300518,619299097,42.3585552290117,-71.08727056873288,0.93131876,-29.401093,-0.0,2.680526,2.6236622,0.84468365,2,0,1,0
620305036,620304499,42.35855527071054,-71.08727085028384,0.93723583,-29.350647,-0.0,2.6805835,2.6243718,0.8264227,2,0,1,0
621300798,621299944,42.35855408885807,-71.08726964814656,0.92008495,-29.325733,-0.0,2.6802475,2.6240323,0.8298688,2,0,1,0
622306246,622305344,42.35855325944515,-71.08726820019804,0.9617348,-29.230738,-0.0,2.6817315,2.624921,0.8638663,2,0,1,0
623301694,623300789,42.35855319025833,-71.08726781505402,1.0040326,-29.11899,-0.0,2.6832032,2.624797,0.9006572,2,0,1,0
624307045,624306188,42.358552898252576,-71.08726876255987,1.038425,-28.987978,-0.0,2.6808813,2.624818,0.9408951,2,0,1,0
625302483,625301631,42.358552480342,-71.08726858705087,1.0695066,-28.872372,-0.0,2.6808577,2.624392,0.9559941,2,0,1,0
626297723,626297074,42.35855231702488,-71.0872679891684,1.0704656,-28.817543,-0.0,2.6911812,2.6257117,0.9621124,2,0,1,0
627303441,627302471,42.35855234319123,-71.0872683800388,1.0557823,-28.760117,-0.0,2.6883917,2.6257648,0.95085096,2,0,1,0
628309269,628307867,42.358552783673574,-71.08726833417117,1.0466003,-28.716984,-0.0,2.6935735,2.6270394,0.94250154,2,0,1,0
629303867,629303308,42.358553454805886,-71.0872697222442,1.0264335,-28.691484,-0.0,2.693449,2.6264944,0.9325013,2,0,1,0
630299717,630298748,42.358553139673134,-71.08727025056976,1.022356,-28.625582,-0.0,2.6934955,2.6268404,0.92278147,2,0,1,0
631304789,631304143,42.35855172014927,-71.08726991756204,1.03615,-28.515738,-0.0,2.6981483,2.6270478,0.9503908,2,0,1,0
632300459,632299582,42.35854960594582,-71.08726913320768,1.0503101,-28.400867,-0.0,2.7015743,2.6277742,0.961535,2,0,1,0
633305564,633304975,42.358548557199114,-71.08726965366951,1.1076927,-28.250994,-0.0,2.7011998,2.627177,1.004888,2,0,1,0
634301347,634300413,42.35854780240583,-71.08727053601581,1.1120477,-28.160172,-0.0,2.7045329,2.6278753,1.0043797,2,0,1,0
635306352,635305805,42.35854705501457,-71.08727130162458,1.1232615,-28.055256,-0.0,2.7044659,2.6273313,1.0258355,2,0,1,0
636301791,636301242,42.35854554437255,-71.08727156061323,1.1556592,-27.922781,-0.0,2.7088566,2.628158,1.0526991,2,0,1,0
637307460,637306632,42.35854441265269,-71.0872719705673,1.1886187,-27.7896,-0.0,2.7158172,2.6284451,1.0852795,2,0,1,0
638303046,638302071,42.35854425943431,-71.08727247715805,1.1869502,-27.690666,-0.0,2.7174284,2.6279829,1.0652356,2,0,1,0
639298144,639297503,42.35854329208294,-71.08727229202555,1.1512032,-27.646313,-0.0,2.7311718,2.6289413,1.0435,2,0,1,0
640303857,640302892,42.35854324160582,-71.08727271435549,1.1128631,-27.565054,-0.0,2.7070591,2.6265476,1.0129905,2,0,1,0
641298905,641298325,42.35854203354737,-71.08727253677877,1.1048298,-27.493835,-0.0,2.7135344,2.6269486,1.0136375,2,0,1,0
642304688,642303713,42.358541474221305,-71.08727221918346,1.1058121,-27.371403,-0.0,2.6969934,2.6250412,1.0153084,2,0,1,0
643299693,643299146,42.35854061377193,-71.08727178154125,1.1396914,-27.25772,-0.0,2.701643,2.6254742,1.0500922,2,0,1,0
644305490,644304532,42.358540400551206,-71.08727201063031,1.1643705,-27.112843,-0.0,2.6929536,2.6247625,1.0751595,2,0,1,0
645300614,645299963,42.35854088036252,-71.08727245668283,1.18119,-27.017267,-0.0,2.7008834,2.6257422,1.0736446,2,0,1,0
646306760,646305348,42.3585417973007,-71.0872723587048,1.1734467,-26.93218,-0.0,2.6908736,2.6248777,1.0660939,2,0,1,0
647301322,647300778,42.35854316548217,-71.08727223974513,1.1378212,-26.914148,-0.0,2.683884,2.6241271,1.0368276,2,0,1,0
648307002,648306162,42.35854421099127,-71.08727114397873,1.1378336,-26.873653,-0.0,2.6812208,2.6235292,1.0432739,2,0,1,0
649302479,649301591,42.35854504471347,-71.08727050698396,1.1406465,-26.856955,-0.0,2.676397,2.6230772,1.0385909,2,0,1,0
650297611,650297019,42.35854640736209,-71.08726965002872,1.139576,-26.881964,-0.0,2.6819873,2.6233158,1.0417118,2,0,1,0
651302968,651302403,42.35854807045868,-71.08726926152228,1.1277094,-26.946995,-0.0,2.6799517,2.6236908,1.0361719,2,0,1,0
652308660,652307782,42.35854920197108,-71.08726890308394,1.1509972,-27.007004,-0.0,2.6684206,2.6220078,1.0605993,2,0,1,0
653303756,653303208,42.358549445352345,-71.08726767449002,1.1680717,-27.054634,-0.0,2.6723628,2.6227326,1.0675263,2,0,1,0
654299197,654298634,42.35855050597232,-71.08726664034566,1.1609306,-27.15815,-0.0,2.6713243,2.6224463,1.0659776,2,0,1,0
655304918,655304013,42.35855049707286,-71.0872654300204,1.2139792,-27.186434,-0.0,2.6748092,2.6239092,1.1172547,2,0,1,0
656299984,656299437,42.35855121095895,-71.08726501816405,1.2293429,-27.235575,-0.0,2.6764004,2.6240215,1.1250601,2,0,1,0
657305412,657304815,42.358551706103206,-71.08726472167703,1.2455678,-27.282549,-0.0,2.6746395,2.6242309,1.1498971,2,0,1,0
658300814,658300237,42.358551568929556,-71.08726306478715,1.2546315,-27.342323,-0.0,2.677464,2.6243753,1.1507134,2,0,1,0
659306576,659305614,42.35855115403928,-71.08726159752189,1.2684407,-27.406048,-0.0,2.6702254,2.6235454,1.1564088,2,0,1,0
660301981,660301035,42.35855131292412,-71.0872603517828,1.2597189,-27.478943,-0.0,2.6677,2.623359,1.1639347,2,0,1,0
661307422,661306410,42.35855138440493,-71.08725941354837,1.2618294,-27.540071,-0.0,2.6717465,2.624001,1.1695929,2,0,1,0
662302411,662301830,42.358550486677316,-71.08725718067618,1.2772956,-27.57218,-0.0,2.6829143,2.6255276,1.178205,2,0,1,0
663307804,663307204,42.35854963516008,-71.08725532250936,1.290771,-27.622591,-0.0,2.6874938,2.6265733,1.1981778,2,0,1,0
664304115,664302623,42.35854891421179,-71.08725333754438,1.3156347,-27.650524,-0.0,2.6995468,2.6284332,1.2216802,2,0,1,0
665298666,665298041,42.35854800380505,-71.08725098765794,1.3210726,-27.688099,-0.0,2.7023883,2.6283143,1.2146344,2,0,1,0
666303963,666303413,42.35854950905696,-71.08725128025345,1.3114948,-27.743578,-0.0,2.7080164,2.628322,1.2069721,2,0,1,0
667299449,667298829,42.358549182239216,-71.08725047813255,1.303824,-27.780052,-0.0,2.7093296,2.6277537,1.1958585,2,0,1,0
668305143,668304200,42.358549538848614,-71.08725048539111,1.2920308,-27.81979,-0.0,2.6960685,2.6272547,1.1996264,2,0,1,0
669300258,669299615,42.358549953989126,-71.08725090851826,1.2825289,-27.851131,-0.0,2.705786,2.627076,1.1812296,2,0,1,0
670305904,670304983,42.3585506456806,-71.08725124497802,1.269939,-27.881096,-0.0,2.6991558,2.6274354,1.1681504,2,0,1,0
671301005,671300397,42.35855109818547,-71.08725059435659,1.2525697,-27.896387,-0.0,2.6987667,2.6259482,1.1573777,2,0,1,0
672306626,672305764,42.358551289828235,-71.08725085255935,1.2400203,-27.875631,-0.0,2.6848574,2.624982,1.1431751,2,0,1,0
673302084,673301177,42.358550989389634,-71.08725139865057,1.2455015,-27.827408,-0.0,2.6899955,2.6247342,1.1505604,2,0,1,0
674297248,674296589,42.35855122086163,-71.08725246473237,1.2740412,-27.743862,-0.0,2.6890807,2.6251962,1.1731925,2,0,1,0
675302544,675301954,42.358551470038755,-71.08725322872814,1.2736998,-27.691315,-0.0,2.685447,2.6245086,1.1638079,2,0,1,0
676307863,676307318,42.3585525085988,-71.08725432513494,1.2691112,-27.664656,-0.0,2.6778681,2.6236563,1.1660295,2,0,1,0
677303268,677302727,42.35855375112071,-71.08725511631053,1.2584128,-27.65894,-0.0,2.6786406,2.6236758,1.1682296,2,0,1,0
678298781,678298136,42.358555893394794,-71.08725714788898,1.2610703,-27.64562,-0.0,2.6781168,2.6242173,1.1611772,2,0,1,0
679304063,679303498,42.35855784393741,-71.08725850148551,1.271265,-27.619751,-0.0,2.6746514,2.6234329,1.170558,2,0,1,0
680299477,680298905,42.35855935181601,-71.0872597417438,1.2664623,-27.61817,-0.0,2.6741126,2.6238375,1.1623654,2,0,1,0
681304824,681304266,42.358561144608224,-71.08726028229806,1.2410898,-27.63564,-0.0,2.6741862,2.623713,1.1431599,2,0,1,0
682300216,682299672,42.35856299030402,-71.08726164948972,1.234251,-27.62616,-0.0,2.6762602,2.624672,1.1421952,2,0,1,0
683305740,683305032,42.35856444402142,-71.08726238332694,1.2472544,-27.58171,-0.0,2.6771092,2.6246452,1.1568799,2,0,1,0
684300996,684300436,42.35856542054438,-71.08726273606274,1.2708602,-27.529232,-0.0,2.6770968,2.6251526,1.1721048,2,0,1,0
685306334,685305794,42.358566327498266,-71.08726317065684,1.2994747,-27.486427,-0.0,2.66875,2.6230884,1.1929421,2,0,1,0
686301805,686301197,42.3585673611885,-71.08726387706407,1.3004465,-27.475136,-0.0,2.670986,2.6231952,1.2016468,2,0,1,0
687307182,687306554,42.35856825227248,-71.08726401260013,1.3131218,-27.4312,-0.0,2.676738,2.6247866,1.2024755,2,0,1,0
688302508,688301956,42.35856898471186,-71.0872643465115,1.2833891,-27.420002,-0.0,2.6791577,2.6256325,1.1825237,2,0,1,0
689297948,689297357,42.3585694758551,-71.0872644473554,1.2733736,-27.378067,-0.0,2.6734254,2.6241634,1.1737285,2,0,1,0
690303276,690302711,42.35856987808905,-71.08726415996202,1.2360139,-27.367825,-0.0,2.6728675,2.6244745,1.1321216,2,0,1,0
691308636,691308065,42.358571314733574,-71.08726543701425,1.2143245,-27.34821,-0.0,2.6717756,2.623967,1.1334176,2,0,1,0
692304215,692303465,42.358572502502355,-71.08726649802881,1.2343612,-27.31263,-0.0,2.6732657,2.6239898,1.1404662,2,0,1,0
693299410,693298863,42.35857409123344,-71.08726837140566,1.2564287,-27.260693,-0.0,2.6746511,2.6247172,1.1648383,2,0,1,0
694304779,694304214,42.35857519521082,-71.08727020734104,1.3002753,-27.17521,-0.0,2.6754823,2.6246119,1.205862,2,0,1,0
695300154,695299612,42.35857715262833,-71.0872725363346,1.3426352,-27.107613,-0.0,2.677723,2.6254127,1.2331953,2,0,1,0
696305562,696304962,42.35857867173019,-71.08727438668276,1.3719244,-27.052635,-0.0,2.6816943,2.6257536,1.2614183,2,0,1,0
697300928,697300358,42.35858042247528,-71.08727615566319,1.3768535,-27.024294,-0.0,2.6737976,2.6246943,1.2726932,2,0,1,0
698306329,698305707,42.35858220461493,-71.08727808595783,1.4039998,-26.95952,-0.0,2.6757536,2.624675,1.2976642,2,0,1,0
699301674,699301102,42.35858395828882,-71.08728002095613,1.4475613,-26.860744,-0.0,2.6750789,2.6248748,1.3402352,2,0,1,0
700306995,700306450,42.35858489393745,-71.08728170929389,1.465241,-26.769133,-0.0,2.6746495,2.6244478,1.3601532,2,0,1,0
701302530,701301843,42.35858509860264,-71.08728291297516,1.4674387,-26.671982,-0.0,2.6803322,2.6258128,1.3534317,2,0,1,0
702297999,702297236,42.35858556466319,-71.08728432938786,1.4681201,-26.575377,-0.0,2.6842775,2.6259923,1.3639512,2,0,1,0
703303135,703302582,42.35858627444499,-71.0872856373517,1.4956756,-26.456972,-0.0,2.6870797,2.6269598,1.3933482,2,0,1,0
704298569,704297974,42.35858591227652,-71.0872860170609,1.5110798,-26.360474,-0.0,2.691013,2.6270416,1.4099221,2,0,1,0
705303874,705303319,42.358585553176276,-71.08728657983497,1.5073156,-26.288895,-0.0,2.69139,2.6276202,1.401114,2,0,1,0
706299361,706298709,42.35858610576401,-71.08728783005016,1.4606194,-26.270798,-0.0,2.6922073,2.627158,1.3584485,2,0,1,0
707304609,707304052,42.358587081429164,-71.08728839431649,1.4618688,-26.204887,-0.0,2.6867974,2.6267674,1.3734903,2,0,1,0
708299987,708299442,42.35858778006165,-71.08728878623067,1.4742074,-26.138948,-0.0,2.6859205,2.6260486,1.3711038,2,0,1,0
709305407,709304784,42.35858876438486,-71.08728939120132,1.4665275,-26.104622,-0.0,2.6855414,2.626394,1.3767362,2,0,1,0
710300723,710300172,42.35858997995451,-71.08729036760029,1.4785843,-26.051767,-0.0,2.6880767,2.626265,1.3805423,2,0,1,0
711306358,711305513,42.35859096234802,-71.08729085553888,1.5161662,-25.977451,-0.0,2.6949956,2.627722,1.4167743,2,0,1,0
712301475,712300900,42.358590960435556,-71.08729050206902,1.5575838,-25.904747,-0.0,2.7015233,2.6280026,1.4569378,2,0,1,0
713306851,713306240,42.35859023897242,-71.08728940968575,1.5973582,-25.826038,-0.0,2.7084117,2.6282868,1.4881129,2,0,1,0
714302173,714301625,42.35859041252001,-71.08728911131537,1.6043739,-25.798403,-0.0,2.715862,2.6292832,1.4933763,2,0,1,0
715307661,715306964,42.35859135404175,-71.08728957705631,1.6052322,-25.780811,-0.0,2.7232087,2.6293812,1.4944901,2,0,1,0
716302961,716302349,42.358592168745574,-71.08729013191838,1.6049533,-25.77276,-0.0,2.7221458,2.6295378,1.4982195,2,0,1,0
717298407,717297732,42.358592611572334,-71.08729074623204,1.5974936,-25.787016,-0.0,2.7200468,2.629559,1.497304,2,0,1,0
718303654,718303069,42.35859276919739,-71.08729069506742,1.5579181,-25.837029,-0.0,2.7126691,2.6281419,1.4481401,2,0,1,0
719309108,719308406,42.358593414419204,-71.0872907321712,1.5351729,-25.868507,-0.0,2.714718,2.6278186,1.4398451,2,0,1,0
720304651,720303788,42.358593676095715,-71.08729022727036,1.5247512,-25.902409,-0.0,2.7197807,2.628675,1.4367104,2,0,1,0
721299775,721299170,42.35859429571637,-71.08729035839036,1.5497046,-25.903446,-0.0,2.7241337,2.6284633,1.4478564,2,0,1,0
722305139,722304505,42.358595509069076,-71.08729097576,1.550899,-25.92915,-0.0,2.7294066,2.6293895,1.4474368,2,0,1,0
723300497,723299885,42.358595083404005,-71.08729061804763,1.5412917,-25.960077,-0.0,2.741682,2.6297333,1.4419832,2,0,1,0
724305766,724305219,42.35859520770466,-71.08729059874305,1.5381165,-25.987257,-0.0,2.748868,2.6307898,1.4432926,2,0,1,0
725301231,725300599,42.3585945106805,-71.08728965813904,1.5692029,-25.989902,-0.0,2.7398338,2.629455,1.4674139,2,0,1,0
726306474,726305931,42.35859507506363,-71.08728955407764,1.5952778,-26.00558,-0.0,2.7332351,2.6292481,1.4821234,2,0,1,0
727301888,727301310,42.35859519222039,-71.08728832616762,1.5768023,-26.084557,-0.0,2.7276242,2.6280077,1.4769492,2,0,1,0
728307182,728306642,42.35859548464383,-71.0872883799034,1.5698414,-26.157087,-0.0,2.7230842,2.6280828,1.4679551,2,0,1,0
729302572,729302019,42.35859634470932,-71.08728882773536,1.5625343,-26.21868,-0.0,2.7242951,2.6275344,1.4565125,2,0,1,0
730298151,730297396,42.35859749537135,-71.08728956042508,1.58217,-26.253273,-0.0,2.727383,2.6280847,1.4808393,2,0,1,0
731303280,731302727,42.35859985303495,-71.08729130628363,1.5789728,-26.312443,-0.0,2.7107232,2.6265843,1.4728689,2,0,1,0
732298646,732298103,42.35860125069863,-71.08729232039565,1.5602713,-26.385506,-0.0,2.6987069,2.625503,1.4528232,2,0,1,0
733303989,733303432,42.35860353629293,-71.08729432478239,1.5440125,-26.448338,-0.0,2.7007642,2.6252286,1.4480228,2,0,1,0
734299429,734298807,42.35860571536161,-71.08729621118823,1.5527143,-26.487896,-0.0,2.7096782,2.6261983,1.4612908,2,0,1,0
735304770,735304136,42.35860854339142,-71.08729823061782,1.5452881,-26.566322,-0.0,2.7220104,2.6267762,1.4497714,2,0,1,0
736300045,736299510,42.358610360639645,-71.08729872860283,1.5727253,-26.617966,-0.0,2.7320018,2.6279685,1.473556,2,0,1,0
737305452,737304838,42.35861152764442,-71.08729921598184,1.6060929,-26.64707,-0.0,2.7433991,2.6284864,1.510066,2,0,1,0
738300892,738300211,42.35861231304148,-71.0873008648494,1.6414676,-26.660048,-0.0,2.724097,2.6278138,1.5397334,2,0,1,0
739306258,739305538,42.35861320057781,-71.08730125242317,1.657423,-26.706034,-0.0,2.7299523,2.6279182,1.5471396,2,0,1,0
740301490,740300910,42.35861536256624,-71.08730274379634,1.6615033,-26.760143,-0.0,2.728036,2.628247,1.5609198,2,0,1,0
741306826,741306236,42.358615462796294,-71.08730356244403,1.6843395,-26.811445,-0.0,2.7024872,2.624873,1.5732923,2,0,1,0
742302225,742301607,42.3586157994017,-71.08730438904828,1.6774688,-26.883966,-0.0,2.6913702,2.623316,1.5694079,2,0,1,0
743307550,743306932,42.35861658020653,-71.08730475007195,1.6508174,-26.9775,-0.0,2.6818821,2.621251,1.5533175,2,0,1,0
744302886,744302303,42.358616217905286,-71.08730468734382,1.6834998,-26.98239,-0.0,2.6804998,2.6219084,1.5885601,2,0,1,0
745298258,745297673,42.3586161419509,-71.08730473139076,1.6903992,-26.993963,-0.0,2.679335,2.621866,1.5801225,2,0,1,0
746303732,746302997,42.35861585656897,-71.08730449100062,1.6701546,-27.028683,-0.0,2.679414,2.6221302,1.5654063,2,0,1,0
747308871,747308320,42.358615524980415,-71.08730465505948,1.6507769,-27.051407,-0.0,2.6841419,2.6238797,1.5503325,2,0,1,0
748304423,748303689,42.35861457627125,-71.08730479018837,1.6371489,-27.077312,-0.0,2.6873164,2.6244051,1.543757,2,0,1,0
749299761,749299058,42.35861264537012,-71.08730455917491,1.6830244,-27.011665,-0.0,2.6909268,2.625677,1.5764556,2,0,1,0
750305017,750304379,42.35861070743592,-71.08730489611831,1.7158084,-26.93999,-0.0,2.6933775,2.6259422,1.6120439,2,0,1,0
751300408,751299747,42.35860865058745,-71.08730464413165,1.7361393,-26.872519,-0.0,2.6942265,2.6266432,1.6424942,2,0,1,0
752305684,752305068,42.35860748136094,-71.08730504233527,1.7947302,-26.762901,-0.0,2.6953812,2.6265116,1.6802449,2,0,1,0
753301087,753300435,42.35860719007347,-71.08730591898065,1.7904758,-26.714874,-0.0,2.6803546,2.6244125,1.6759748,2,0,1,0
754306334,754305755,42.35860706012112,-71.08730534654359,1.7871332,-26.625721,-0.0,2.671804,2.6222842,1.685051,2,0,1,0
755301722,755301121,42.35860586049896,-71.08730609140694,1.7960944,-26.517149,-0.0,2.6652195,2.621058,1.6810493,2,0,1,0
756307042,756306440,42.358604596518624,-71.08730558606076,1.7924376,-26.420616,-0.0,2.662031,2.6201606,1.6849074,2,0,1,0
757302356,757301805,42.35860330379404,-71.08730458121346,1.7695627,-26.343792,-0.0,2.6617327,2.6206627,1.6681342,2,0,1,0
758298067,758297169,42.35860148756237,-71.08730367691942,1.7390265,-26.274225,-0.0,2.662612,2.6207886,1.6441479,2,0,1,0
759303032,759302487,42.35860024419187,-71.08730254211909,1.7234373,-26.20832,-0.0,2.664981,2.622017,1.63026,2,0,1,0
760308369,760307804,42.358599358812896,-71.08730141951182,1.7142591,-26.17136,-0.0,2.6648068,2.6218936,1.6140451,2,0,1,0
761303872,761303168,42.35859810608577,-71.08729923476811,1.7085557,-26.149685,-0.0,2.671081,2.6236916,1.619247,2,0,1,0
762299070,762298531,42.35859583847677,-71.08729701412456,1.7185822,-26.105965,-0.0,2.6810033,2.6250591,1.6198711,2,0,1,0
763304426,763303847,42.35859361196248,-71.08729480014917,1.6783805,-26.132645,-0.0,2.6946566,2.6275158,1.5805178,2,0,1,0
764299854,764299209,42.358591560149236,-71.08729252553836,1.6683202,-26.138626,-0.0,2.6995137,2.627765,1.578435,2,0,1,0
765305088,765304524,42.35859098157677,-71.08729080874694,1.7012138,-26.121239,-0.0,2.701909,2.6286485,1.6016488,2,0,1,0
766300426,766299885,42.35859031090883,-71.08728887167413,1.7183552,-26.144848,-0.0,2.6946266,2.6271803,1.622818,2,0,1,0
767306171,767305199,42.35859021986034,-71.08728679605387,1.7205296,-26.20194,-0.0,2.696403,2.6270127,1.61691,2,0,1,0
768301151,768300560,42.35859082656519,-71.08728517646549,1.7120438,-26.279545,-0.0,2.6989183,2.6276646,1.6119761,2,0,1,0
769306591,769305874,42.358591577691094,-71.08728446883849,1.693325,-26.372997,-0.0,2.693357,2.6263938,1.5873995,2,0,1,0
770301801,770301238,42.35859189160355,-71.08728329609764,1.6571178,-26.499575,-0.0,2.6916625,2.626407,1.5613127,2,0,1,0
771307515,771306545,42.35859260708948,-71.08728229317583,1.6945319,-26.55468,-0.0,2.6821406,2.6252654,1.6368332,2,0,1,0
772302483,772301904,42.358593307334495,-71.0872822924972,1.769897,-26.532623,-0.0,2.6908524,2.6261423,1.6606221,2,0,1,0
773297812,773297262,42.35859502261146,-71.08728225367987,1.7524042,-26.64685,-0.0,2.6883547,2.6260943,1.6360526,2,0,1,0
774303151,774302574,42.35859586119289,-71.08728171030926,1.7340088,-26.765642,-0.0,2.6837409,2.624963,1.6249399,2,0,1,0
775308423,775307885,42.35859527022239,-71.0872814231446,1.7831635,-26.816488,-0.0,2.684679,2.6248605,1.6824217,2,0,1,0
776303805,776303242,42.35859549387913,-71.08727971598705,1.7915535,-26.908497,-0.0,2.6839836,2.6252618,1.6878829,2,0,1,0
777299678,777298599,42.3585956193851,-71.08727852807039,1.8023696,-26.997778,-0.0,2.6798368,2.6241932,1.702002,2,0,1,0
778304458,778303909,42.358596167382984,-71.08727701353297,1.7766747,-27.124376,-0.0,2.6773186,2.6242976,1.6710372,2,0,1,0
779299914,779299264,42.35859652555931,-71.0872752976879,1.7715755,-27.228096,-0.0,2.6762,2.6237864,1.673018,2,0,1,0
780305124,780304574,42.35859765840415,-71.08727323332631,1.7050996,-27.394567,-0.0,2.6755106,2.6242535,1.6125479,2,0,1,0
781300524,781299929,42.358598723450775,-71.08727194090858,1.6949482,-27.505407,-0.0,2.678209,2.6244328,1.60815,2,0,1,0
782305928,782305237,42.35859934448682,-71.08727081635818,1.6877155,-27.612436,-0.0,2.6758971,2.6245894,1.5984488,2,0,1,0
783301142,783300592,42.35859940706605,-71.08727037737967,1.6830225,-27.717327,-0.0,2.6693764,2.6228902,1.586585,2,0,1,0
784306473,784305899,42.358599022607066,-71.08727075257988,1.7049837,-27.79478,-0.0,2.6611278,2.6211708,1.6134148,2,0,1,0
785301849,785301254,42.358598424380716,-71.08727069008256,1.7126088,-27.888044,-0.0,2.66143,2.6211207,1.6104836,2,0,1,0
786297269,786296606,42.35859755616305,-71.08727045054988,1.7427211,-27.957853,-0.0,2.660994,2.621538,1.648911,2,0,1,0
787302757,787301913,42.35859596608303,-71.08727024164675,1.8084283,-27.992224,-0.0,2.6638954,2.6221666,1.7108173,2,0,1,0
788307771,788307219,42.35859424446814,-71.08726929097973,1.8428235,-28.058428,-0.0,2.6668954,2.6235113,1.7321234,2,0,1,0
789303120,789302571,42.35859382478939,-71.0872694366379,1.8288541,-28.172197,-0.0,2.6634445,2.6226296,1.7079544,2,0,1,0
790298552,790297923,42.35859268768255,-71.08726872486656,1.8055458,-28.295105,-0.0,2.6606076,2.6224093,1.6999083,2,0,1,0
791303807,791303228,42.358591979161105,-71.08726879370936,1.8094997,-28.390553,-0.0,2.6590507,2.6217778,1.707583,2,0,1,0
792299134,792298580,42.358590920345655,-71.08726861393319,1.8324394,-28.467861,-0.0,2.6646564,2.6234877,1.7259655,2,0,1,0
793304475,793303888,42.358590395432124,-71.08726820957554,1.8161526,-28.584105,-0.0,2.6627035,2.6227825,1.7155404,2,0,1,0
794299784,794299234,42.358589304343084,-71.08726710900689,1.8029566,-28.697601,-0.0,2.6637816,2.6233687,1.6923971,2,0,1,0
795305137,795304538,42.358588061671306,-71.08726533107793,1.7601938,-28.83966,-0.0,2.6577392,2.6214893,1.6571565,2,0,1,0
796300877,796299888,42.35858734453487,-71.08726386476418,1.7421589,-28.958796,-0.0,2.6606233,2.622565,1.6442709,2,0,1,0
797305735,797305191,42.358586854026456,-71.08726253409378,1.7144184,-29.081041,-0.0,2.6618054,2.6225727,1.6258926,2,0,1,0
798301080,798300540,42.35858593189205,-71.08726158541053,1.6908112,-29.196747,-0.0,2.6620615,2.623041,1.5943227,2,0,1,0
799306383,799305843,42.35858506080983,-71.08726091146968,1.6770067,-29.276554,-0.0,2.6624725,2.6229203,1.5818591,2,0,1,0
800302014,800301191,42.35858392486295,-71.087259942134,1.6874199,-29.311691,-0.0,2.6615202,2.622393,1.5896168,2,0,1,0
801307116,801306493,42.35858334003751,-71.08725995003073,1.7014756,-29.319576,-0.0,2.6569166,2.621696,1.6033602,2,0,1,0
802302472,802301841,42.35858252058634,-71.08726002504322,1.7309732,-29.292255,-0.0,2.6564505,2.6211894,1.6272969,2,0,1,0
803307722,803307141,42.35858154468293,-71.08726068105297,1.7580705,-29.230272,-0.0,2.6590385,2.6223006,1.6584325,2,0,1,0
804303134,804302488,42.358580963069286,-71.08726204683947,1.8021693,-29.106308,-0.0,2.6581793,2.6218147,1.6946392,2,0,1,0
805298475,805297834,42.358578801642004,-71.08726141100793,1.7943878,-29.027565,-0.0,2.6598043,2.6227162,1.680788,2,0,1,0
806303872,806303134,42.35857643603386,-71.08725969080308,1.7526126,-29.00308,-0.0,2.6615593,2.6230445,1.6479983,2,0,1,0
807299067,807298480,42.35857556240432,-71.08725970779861,1.7296572,-28.991322,-0.0,2.6598504,2.6231804,1.6376314,2,0,1,0
808304405,808303779,42.358575256211125,-71.08725998091451,1.7337718,-28.967697,-0.0,2.658872,2.6227794,1.6391096,2,0,1,0
809299719,809299124,42.35857520592864,-71.08726022550871,1.7284741,-28.973274,-0.0,2.6554232,2.6223114,1.6327806,2,0,1,0
810305021,810304422,42.35857453290578,-71.08725995605816,1.7047625,-29.015087,-0.0,2.6527998,2.6213179,1.6012025,2,0,1,0
811300336,811299766,42.3585735694836,-71.08725909702002,1.6888933,-29.057117,-0.0,2.6501915,2.6209571,1.6026592,2,0,1,0
812305599,812305063,42.35857295446429,-71.08725863384403,1.6906471,-29.082802,-0.0,2.6513226,2.6211731,1.5941591,2,0,1,0
813301016,813300406,42.3585726721055,-71.08725842278119,1.679472,-29.131098,-0.0,2.6526964,2.6220844,1.5867085,2,0,1,0
814306256,814305703,42.35857265675121,-71.08725900512476,1.6832042,-29.152838,-0.0,2.6604028,2.6237593,1.5869489,2,0,1,0
815301690,815301046,42.3585718224282,-71.08725917955634,1.6896558,-29.171638,-0.0,2.6586401,2.6239827,1.590169,2,0,1,0
816307051,816306341,42.358571541714,-71.08725864537278,1.6617298,-29.230597,-0.0,2.6574907,2.623535,1.563529,2,0,1,0
817302240,817301683,42.35857109050553,-71.08725893419816,1.6543779,-29.25853,-0.0,2.6556458,2.6235018,1.553803,2,0,1,0
818297636,818297025,42.3585706863912,-71.08725879821611,1.6282067,-29.292019,-0.0,2.6532443,2.6225002,1.5203447,2,0,1,0
819302892,819302320,42.358570056669365,-71.08725938615395,1.63347,-29.28368,-0.0,2.6520662,2.6226344,1.5356641,2,0,1,0
820308236,820307614,42.358569597819155,-71.08725957279351,1.6561403,-29.258846,-0.0,2.6483884,2.6212091,1.564456,2,0,1,0
821303610,821302954,42.358569199802744,-71.0872598149909,1.6585526,-29.253796,-0.0,2.6505432,2.621447,1.5545201,2,0,1,0
822298847,822298295,42.358568325502084,-71.08725965862544,1.652648,-29.253239,-0.0,2.6525815,2.6222932,1.5501103,2,0,1,0
823304216,823303588,42.35856790303813,-71.08725943754683,1.643403,-29.249775,-0.0,2.650196,2.621409,1.5475464,2,0,1,0
824299487,824298928,42.35856732393003,-71.08725993562359,1.654088,-29.227291,-0.0,2.6502237,2.621852,1.5540762,2,0,1,0
825305108,825304220,42.35856676650149,-71.08725985317179,1.6810288,-29.191755,-0.0,2.6446817,2.6205583,1.5816326,2,0,1,0
826300133,826299559,42.358565692570814,-71.08725996961755,1.6848011,-29.165995,-0.0,2.6460497,2.6206527,1.5755744,2,0,1,0
827305448,827304851,42.3585650657693,-71.08726063928161,1.6608596,-29.165379,-0.0,2.649473,2.621357,1.5550737,2,0,1,0
828300735,828300189,42.35856446980172,-71.08726131586899,1.6513577,-29.139074,-0.0,2.6518633,2.6223526,1.5576606,2,0,1,0
829306026,829305481,42.35856336984643,-71.08726147100523,1.659823,-29.082054,-0.0,2.649463,2.6214845,1.5605884,2,0,1,0
830301407,830300818,42.358562302754564,-71.08726123743712,1.6512985,-29.034025,-0.0,2.6513214,2.6223474,1.5520229,2,0,1,0
831306659,831306109,42.358561372158235,-71.08726053143987,1.6518455,-28.967497,-0.0,2.6509628,2.6220477,1.5538301,2,0,1,0
832301995,832301446,42.35856136472234,-71.08726036082459,1.6936941,-28.888153,-0.0,2.650252,2.6223485,1.5911684,2,0,1,0
833307344,833306736,42.35856211840803,-71.08726159093943,1.685389,-28.895208,-0.0,2.6505084,2.6222603,1.5844793,2,0,1,0
834303116,834302072,42.3585628452865,-71.08726248061733,1.6880755,-28.911135,-0.0,2.6510677,2.6228318,1.5822849,2,0,1,0
835298085,835297409,42.358563154824516,-71.08726275293388,1.6660461,-28.964043,-0.0,2.647539,2.6214745,1.5659356,2,0,1,0
836303247,836302698,42.358563383535575,-71.08726314109136,1.6641545,-29.012825,-0.0,2.6504424,2.6226916,1.5746527,2,0,1,0
837298629,837298033,42.358563343588834,-71.0872643573449,1.6731968,-29.026966,-0.0,2.6522293,2.6227334,1.5548959,2,0,1,0
838303884,838303321,42.3585627193378,-71.08726479224188,1.6535625,-29.047285,-0.0,2.6551673,2.6238534,1.5611796,2,0,1,0
839299238,839298656,42.35856298128192,-71.08726634595247,1.6560707,-29.037733,-0.0,2.6637793,2.6251667,1.5450482,2,0,1,0
840304493,840303948,42.358563164101525,-71.08726806978217,1.6343722,-29.044199,-0.0,2.6725166,2.6271274,1.5337353,2,0,1,0
841299831,841299277,42.35856381171279,-71.08726946381829,1.5820799,-29.07605,-0.0,2.6773293,2.6273584,1.4755301,2,0,1,0
842305154,842304564,42.358564369429565,-71.0872704630232,1.5444283,-29.075903,-0.0,2.6836703,2.6287496,1.466999,2,0,1,0
843300435,843299897,42.35856459884818,-71.08727070765808,1.5798826,-29.006126,-0.0,2.6824908,2.6279263,1.4860067,2,0,1,0
844305828,844305182,42.35856591539688,-71.08727078524997,1.6415524,-28.898964,-0.0,2.6742704,2.6269088,1.5493126,2,0,1,0
845301070,845300514,42.3585662795532,-71.08726879064898,1.7443771,-28.739246,-0.0,2.6621652,2.623607,1.648984,2,0,1,0
846306339,846305799,42.35856753816659,-71.08727099931504,1.8000512,-28.591864,-0.0,2.6589398,2.6232302,1.6830344,2,0,1,0
847301686,847301130,42.35856846446687,-71.08727260981559,1.7941928,-28.497606,-0.0,2.65674,2.62228,1.6864705,2,0,1,0
848307065,848306413,42.358569566604544,-71.0872742632693,1.8268151,-28.3647,-0.0,2.6591358,2.6226437,1.7278924,2,0,1,0
849302346,849301743,42.35856984313986,-71.08727414782163,1.8909125,-28.204939,-0.0,2.6623507,2.6237683,1.7822862,2,0,1,0
850297671,850297072,42.358570026518215,-71.08727439638537,1.8705368,-28.137285,-0.0,2.6667373,2.625095,1.7628989,2,0,1,0
851302894,851302354,42.358570031814196,-71.08727471520076,1.8347712,-28.09856,-0.0,2.6692555,2.6253154,1.7307091,2,0,1,0
852308279,852307636,42.35857040639481,-71.087275640112,1.8474984,-28.013954,-0.0,2.6695182,2.625129,1.7451863,2,0,1,0
853303559,853302964,42.35856996560888,-71.0872765226879,1.8379455,-27.97973,-0.0,2.6680408,2.625343,1.7423782,2,0,1,0
854299147,854298291,42.35856890013574,-71.08727688483019,1.8469048,-27.942295,-0.0,2.6647346,2.6250887,1.7470522,2,0,1,0
855304174,855303571,42.35856843591016,-71.08727686195343,1.8234677,-27.952806,-0.0,2.6666322,2.625162,1.7295604,2,0,1,0
856299495,856298897,42.35856865845119,-71.08727797325179,1.838407,-27.904058,-0.0,2.669388,2.6252081,1.7493653,2,0,1,0
857304895,857304176,42.35856692350387,-71.08727766914116,1.8702374,-27.84402,-0.0,2.6725128,2.6262584,1.7664657,2,0,1,0
858300177,858299501,42.35856714875744,-71.08727808229783,1.8490138,-27.813713,-0.0,2.670729,2.625545,1.7544236,2,0,1,0
859305346,859304779,42.358568040256124,-71.08727888396771,1.8782883,-27.719622,-0.0,2.6673152,2.6254508,1.7870789,2,0,1,0
860300704,860300103,42.35856754653251,-71.08727844600183,1.8938231,-27.637808,-0.0,2.6622655,2.624021,1.7862873,2,0,1,0
861305958,861305380,42.35856803987468,-71.0872780589661,1.8721876,-27.632229,-0.0,2.6570797,2.623274,1.7670684,2,0,1,0
862301390,862300703,42.358568774837615,-71.08727864291677,1.8628693,-27.627085,-0.0,2.6695206,2.6240182,1.7761102,2,0,1,0
863296995,863296026,42.358569610275396,-71.08727935466756,1.8952305,-27.583117,-0.0,2.6605024,2.623072,1.8121314,2,0,1,0
864301901,864301301,42.3585708978756,-71.08728057840813,1.9260845,-27.554361,-0.0,2.6602292,2.6222217,1.8330688,2,0,1,0
865307183,865306576,42.35857208055186,-71.08728177224434,1.9659443,-27.504423,-0.0,2.6522577,2.621141,1.8545346,2,0,1,0
866302537,866301898,42.35857275266752,-71.08728267427634,1.9410164,-27.496212,-0.0,2.646824,2.6196883,1.832418,2,0,1,0
867297822,867297219,42.35857305893342,-71.08728323347293,1.9067469,-27.474232,-0.0,2.6439238,2.6195648,1.8071518,2,0,1,0
868303112,868302492,42.358573412227074,-71.0872834139816,1.925906,-27.391113,-0.0,2.6439235,2.619739,1.8270192,2,0,1,0
869308312,869307766,42.35857411872009,-71.08728359382887,1.9551454,-27.282215,-0.0,2.6447058,2.6207087,1.8514037,2,0,1,0
870303633,870303086,42.35857519551189,-71.08728435328878,1.948765,-27.196371,-0.0,2.646523,2.6211553,1.8413858,2,0,1,0
871298997,871298405,42.35857581491814,-71.08728446307579,1.9132059,-27.133137,-0.0,2.6467454,2.6217885,1.8015685,2,0,1,0
872304239,872303680,42.35857701567406,-71.08728489061075,1.9380615,-27.00838,-0.0,2.6436417,2.620797,1.8393354,2,0,1,0
873299648,873298996,42.35857747430765,-71.087285026202,1.9508204,-26.897545,-0.0,2.6440215,2.6214447,1.8477764,2,0,1,0
874304958,874304268,42.35857751103491,-71.08728468069435,1.9214988,-26.83913,-0.0,2.6436372,2.6212158,1.8258085,2,0,1,0
875300218,875299586,42.35857758845382,-71.0872843691389,1.8939157,-26.791245,-0.0,2.6432405,2.6215477,1.7942781,2,0,1,0
876305454,876304857,42.35857706779233,-71.08728347044668,1.8936639,-26.726774,-0.0,2.649122,2.6221416,1.8054433,2,0,1,0
877300741,877300174,42.358577479044726,-71.08728287952383,1.9170661,-26.65794,-0.0,2.6428332,2.6208997,1.8259988,2,0,1,0
878306050,878305444,42.358578161281066,-71.08728275820928,1.9638002,-26.589462,-0.0,2.6411142,2.620329,1.8764353,2,0,1,0
879301306,879300761,42.35857921664868,-71.08728298068483,2.0460103,-26.489063,-0.0,2.6367896,2.6192524,1.9350994,2,0,1,0
880306577,880306031,42.35857957976044,-71.08728301563245,2.0699403,-26.442589,-0.0,2.6347296,2.6183944,1.9582078,2,0,1,0
881302050,881301347,42.3585792998483,-71.08728233578539,2.086968,-26.398462,-0.0,2.6349123,2.6183567,1.9788957,2,0,1,0
882307215,882306618,42.358578860645174,-71.08728154886461,2.071363,-26.38813,-0.0,2.6348734,2.6180584,1.9683485,2,0,1,0
883302904,883301933,42.358580115956975,-71.08728154988952,2.1015754,-26.358973,-0.0,2.6304066,2.6164076,1.9904699,2,0,1,0
884297921,884297248,42.35858076787707,-71.08728178772907,2.1202102,-26.376564,-0.0,2.632646,2.6172202,2.020058,2,0,1,0
885303114,885302517,42.35858089791135,-71.08728112721877,2.057432,-26.483913,-0.0,2.630703,2.6170275,1.9428468,2,0,1,0
886308380,886307785,42.35857946146866,-71.08727951922455,2.0422757,-26.546434,-0.0,2.632072,2.618497,1.9422758,2,0,1,0
887303711,887303100,42.35857884443193,-71.08727847178524,2.024808,-26.586555,-0.0,2.6354783,2.619756,1.9359958,2,0,1,0
888299016,888298415,42.358578745091506,-71.08727771890096,2.008922,-26.604921,-0.0,2.6387064,2.6213298,1.9093001,2,0,1,0
889304265,889303682,42.35857900072136,-71.08727761779322,1.9992645,-26.605345,-0.0,2.6424007,2.622272,1.9080317,2,0,1,0
890299570,890298996,42.35857946085581,-71.08727803729597,2.032843,-26.545446,-0.0,2.6432066,2.6228695,1.9412942,2,0,1,0
891304838,891304263,42.35857944086144,-71.08727870473545,2.068781,-26.460184,-0.0,2.6408343,2.621711,1.9742086,2,0,1,0
892300143,892299580,42.3585788949567,-71.08727834590898,2.100629,-26.346594,-0.0,2.6373916,2.620612,1.9991276,2,0,1,0
893305484,893304843,42.3585780371747,-71.08727781575469,2.1593778,-26.203264,-0.0,2.6353087,2.619372,2.0562344,2,0,1,0
894300749,894300157,42.35857709528416,-71.087277166836,2.167784,-26.098007,-0.0,2.6366153,2.6191006,2.0612342,2,0,1,0
895305960,895305423,42.35857613522639,-71.08727584790122,2.1163068,-26.050488,-0.0,2.635373,2.6186364,1.9995785,2,0,1,0
896301301,896300735,42.35857567667879,-71.08727460321981,2.0630903,-26.002884,-0.0,2.6380644,2.6191576,1.9750752,2,0,1,0
897306543,897306001,42.35857491572006,-71.08727446302359,2.0887065,-25.878185,-0.0,2.6399012,2.6189873,2.0054936,2,0,1,0
898301956,898301314,42.35857352835654,-71.08727431955117,2.098378,-25.767916,-0.0,2.641636,2.6195111,1.997956,2,0,1,0
899307195,899306579,42.35857237790884,-71.08727356710615,2.1103292,-25.656364,-0.0,2.648157,2.6201317,2.0142822,2,0,1,0
900302447,900301891,42.35857109470174,-71.0872731751746,2.1308174,-25.53626,-0.0,2.6492023,2.6208327,2.030216,2,0,1,0
901307773,901307156,42.35856991835054,-71.0872725022318,2.1184778,-25.451717,-0.0,2.6415555,2.619111,2.0213883,2,0,1,0
902303133,902302468,42.35856885478797,-71.08727223129753,2.132428,-25.335468,-0.0,2.6393147,2.6192195,2.031234,2,0,1,0
903298488,903297780,42.358568186454264,-71.08727259456009,2.1547003,-25.213898,-0.0,2.6376264,2.6186273,2.059352,2,0,1,0
904303588,904303045,42.358567560651,-71.08727214469893,2.1473472,-25.120647,-0.0,2.6388395,2.6196065,2.0485823,2,0,1,0
905298897,905298356,42.35856707584803,-71.08727203544599,2.150622,-25.018175,-0.0,2.6408305,2.6199946,2.0506015,2,0,1,0
906304163,906303621,42.35856714360862,-71.08727159636615,2.1680236,-24.907877,-0.0,2.6430225,2.6210628,2.0687551,2,0,1,0
907299598,907298932,42.35856733693914,-71.08727136454071,2.1848733,-24.801474,-0.0,2.6465502,2.6216662,2.0872304,2,0,1,0
908304825,908304196,42.35856729555605,-71.08727100042049,2.2183845,-24.691832,-0.0,2.6461802,2.6212125,2.1193018,2,0,1,0
909300070,909299507,42.35856806174226,-71.08727090839217,2.2348719,-24.635365,-0.0,2.6498928,2.6216035,2.1320071,2,0,1,0
910305418,910304771,42.358567820838424,-71.08727107245981,2.206674,-24.648384,-0.0,2.6499147,2.621485,2.0844715,2,0,1,0
911300634,911300082,42.358568130050585,-71.08727090411226,2.132699,-24.746014,-0.0,2.6534026,2.622771,2.0370014,2,0,1,0
912307020,912305346,42.35856853258046,-71.08727060024484,2.1147192,-24.8061,-0.0,2.6539507,2.6231568,2.0326173,2,0,1,0
913301492,913300657,42.35856876915736,-71.0872706291511,2.099618,-24.87138,-0.0,2.6601439,2.6240597,2.0092556,2,0,1,0
914306531,914305921,42.35856893238278,-71.0872713440513,2.1185665,-24.903818,-0.0,2.6739,2.6249769,2.031965,2,0,1,0
915301787,915301231,42.35856888986166,-71.08727377285325,2.202028,-24.878462,-0.0,2.6776187,2.6255763,2.1151185,2,0,1,0
916297236,916296541,42.358568582559926,-71.08727396524962,2.279608,-24.868202,-0.0,2.6760592,2.624538,2.175498,2,0,1,0
917302397,917301805,42.358568833892946,-71.08727365101603,2.348244,-24.877317,-0.0,2.677597,2.6250243,2.2391045,2,0,1,0
918307631,918307068,42.35856909576866,-71.08727376202874,2.4092681,-24.898844,-0.0,2.679083,2.6247947,2.292475,2,0,1,0
919302919,919302378,42.35856951448898,-71.08727363307977,2.4657106,-24.9225,-0.0,2.6796927,2.6251984,2.3499675,2,0,1,0
920298352,920297689,42.35856916578148,-71.08727423727039,2.5147252,-24.969418,-0.0,2.6772692,2.6243148,2.3967412,2,0,1,0
921303494,921302952,42.35856928414937,-71.08727376516694,2.5039747,-25.07981,-0.0,2.678003,2.625008,2.3820157,2,0,1,0
922308889,922308215,42.35857143811988,-71.08727118747358,2.5036201,-25.174364,-0.0,2.6774673,2.6245604,2.3946528,2,0,1,0
923304111,923303525,42.35857188512607,-71.08726967391594,2.5040565,-25.278528,-0.0,2.6766603,2.624814,2.3927221,2,0,1,0
924299410,924298835,42.35857319417934,-71.08726651528508,2.5002446,-25.38274,-0.0,2.6745064,2.623981,2.3972101,2,0,1,0
925304752,925304099,42.35857266249628,-71.08726898247582,2.5133722,-25.470713,-0.0,2.6738987,2.624357,2.4167435,2,0,1,0
926299992,926299409,42.3585726735624,-71.0872679650762,2.4927251,-25.59046,-0.0,2.6759834,2.6244338,2.3979704,2,0,1,0
927305252,927304672,42.35857261238795,-71.08726603920759,2.4909809,-25.691107,-0.0,2.6782184,2.6253586,2.387167,2,0,1,0
928300651,928299982,42.358569455088755,-71.08726629072284,2.5273862,-25.75592,-0.0,2.6825037,2.6256068,2.4176173,2,0,1,0
929306004,929305248,42.35856948094552,-71.08726273833267,2.552051,-25.818478,-0.0,2.688717,2.6254644,2.4584284,2,0,1,0
930301095,930300555,42.358567521163806,-71.08726134100652,2.5972042,-25.8462,-0.0,2.69614,2.62636,2.4766424,2,0,1,0
931306423,931305818,42.358566428006576,-71.08726113113829,2.5899773,-25.93763,-0.0,2.6848543,2.6248689,2.4779367,2,0,1,0
932302037,932301128,42.35856676103369,-71.08726193609247,2.5221322,-26.106373,-0.0,2.6734536,2.623503,2.4055922,2,0,1,0
933296993,933296438,42.35856724940239,-71.08726207783214,2.4622786,-26.266027,-0.0,2.6676114,2.6230006,2.3567204,2,0,1,0
934302258,934301701,42.35856735699686,-71.08726245482407,2.4211566,-26.40745,-0.0,2.6602743,2.6211634,2.3374958,2,0,1,0
935307562,935306964,42.35856750718699,-71.08726296043001,2.421153,-26.506954,-0.0,2.6600175,2.6212556,2.3216953,2,0,1,0
936302856,936302274,42.358567656369424,-71.08726306116935,2.3942814,-26.632748,-0.0,2.6608288,2.6220894,2.302447,2,0,1,0
937298231,937297584,42.35856812413607,-71.08726297522126,2.3444986,-26.783306,-0.0,2.6599057,2.6217408,2.2509482,2,0,1,0
938303474,938302847,42.358568529354685,-71.08726276567468,2.3108346,-26.91617,-0.0,2.662395,2.6229424,2.218989,2,0,1,0
939308717,939308110,42.35856847912367,-71.08726289335867,2.317929,-27.008892,-0.0,2.667193,2.6237762,2.2302775,2,0,1,0
940303966,940303420,42.35856768598876,-71.08726263333482,2.3388326,-27.087307,-0.0,2.6701858,2.62483,2.2410324,2,0,1,0
941299713,941298730,42.358567009091374,-71.08726265457327,2.3365836,-27.190218,-0.0,2.6662512,2.6243963,2.2370799,2,0,1,0
942304722,942303994,42.358566919693125,-71.08726330274422,2.3288944,-27.29741,-0.0,2.6671777,2.6240902,2.224716,2,0,1,0
943299919,943299304,42.358567256992494,-71.08726364860881,2.35626,-27.371243,-0.0,2.6665356,2.6233644,2.2510278,2,0,1,0
944305148,944304567,42.358567938799915,-71.08726408326093,2.3520486,-27.475054,-0.0,2.665207,2.6234093,2.2506533,2,0,1,0
945300417,945299878,42.358568239398984,-71.08726412850345,2.3799765,-27.547626,-0.0,2.661658,2.622138,2.288034,2,0,1,0
946305784,946305141,42.35856852594318,-71.08726407939898,2.424375,-27.601633,-0.0,2.6578574,2.6215806,2.3225381,2,0,1,0
947301030,947300451,42.35856838724253,-71.08726314173079,2.4658241,-27.628391,-0.0,2.6515539,2.619483,2.3631544,2,0,1,0
948306293,948305715,42.358568655550826,-71.0872621322992,2.515923,-27.634407,-0.0,2.650854,2.6190324,2.3932412,2,0,1,0
949301735,949301026,42.358569707610116,-71.08726184834585,2.4878778,-27.714146,-0.0,2.6523838,2.6190734,2.3796859,2,0,1,0
950306834,950306289,42.35856999661798,-71.08726129507176,2.5162513,-27.747759,-0.0,2.6573958,2.6206906,2.4072886,2,0,1,0
951302317,951301600,42.35857025146961,-71.08725998415191,2.4811044,-27.859001,-0.0,2.6549165,2.6205134,2.3777454,2,0,1,0
952307578,952306864,42.358570908733,-71.08725997619644,2.488432,-27.93352,-0.0,2.6503344,2.61925,2.3960834,2,0,1,0
953302712,953302175,42.35857121033984,-71.08725989892785,2.5335474,-27.984768,-0.0,2.6419702,2.6164973,2.438746,2,0,1,0
954298093,954297486,42.35857254307479,-71.08725923856431,2.5463853,-28.07083,-0.0,2.6362178,2.614982,2.4422193,2,0,1,0
955303321,955302750,42.35857377979901,-71.08725862611851,2.5500476,-28.168667,-0.0,2.6336405,2.6145034,2.449195,2,0,1,0
956298644,956298061,42.3585744822118,-71.08725797830883,2.544491,-28.273022,-0.0,2.6312983,2.6143384,2.4413426,2,0,1,0
957303906,957303325,42.35857546469773,-71.08725742525819,2.5178158,-28.399696,-0.0,2.6304066,2.6143434,2.4212832,2,0,1,0
958299204,958298637,42.358576066684925,-71.08725766495668,2.5011036,-28.51661,-0.0,2.632553,2.6151226,2.4050083,2,0,1,0
959304495,959303902,42.35857692855378,-71.08725789009331,2.4940414,-28.623774,-0.0,2.6356409,2.6166923,2.396646,2,0,1,0
960299808,960299213,42.3585767514363,-71.08725779303106,2.4974015,-28.719837,-0.0,2.6357841,2.617524,2.3999252,2,0,1,0
961305316,961304478,42.358576418462704,-71.08725783861587,2.5379436,-28.780773,-0.0,2.636219,2.6177895,2.4363117,2,0,1,0
962300337,962299791,42.35857601772754,-71.08725770929745,2.549771,-28.868572,-0.0,2.6446307,2.6195204,2.438547,2,0,1,0
963305628,963305056,42.358576903705284,-71.08725714054235,2.4918296,-29.025515,-0.0,2.641125,2.618912,2.3813968,2,0,1,0
964300966,964300368,42.35857701574143,-71.08725662899528,2.4562967,-29.161945,-0.0,2.6433768,2.6189394,2.361834,2,0,1,0
965306193,965305633,42.358577231159884,-71.08725647478008,2.451558,-29.265781,-0.0,2.6386888,2.618354,2.355571,2,0,1,0
966301678,966300946,42.35857668636143,-71.08725657700573,2.453675,-29.356388,-0.0,2.6349008,2.6170049,2.3652866,2,0,1,0
967306806,967306212,42.35857622131036,-71.08725654539515,2.4650793,-29.428677,-0.0,2.6326504,2.6166792,2.365679,2,0,1,0
968302123,968301525,42.35857585204918,-71.08725636025778,2.4936118,-29.479103,-0.0,2.6295888,2.6153219,2.3954966,2,0,1,0
969307370,969306791,42.35857542946514,-71.08725614728782,2.4847863,-29.563274,-0.0,2.6293037,2.6158547,2.3721077,2,0,1,0
970302704,970302104,42.358575161577235,-71.08725568571069,2.4766402,-29.645723,-0.0,2.6315777,2.6159606,2.3845067,2,0,1,0
971308032,971307370,42.35857563770287,-71.08725544537648,2.4918764,-29.710333,-0.0,2.6290414,2.6156447,2.3953326,2,0,1,0
972303281,972302684,42.35857564327338,-71.08725502717317,2.5240428,-29.760603,-0.0,2.6316779,2.6160293,2.4198697,2,0,1,0
973298589,973297997,42.35857586149213,-71.08725418433289,2.502216,-29.871216,-0.0,2.6287403,2.6156006,2.391789,2,0,1,0
974303866,974303264,42.35857649318011,-71.08725376608282,2.4765296,-29.985582,-0.0,2.6278067,2.6154163,2.3717282,2,0,1,0
975299155,975298578,42.35857737928859,-71.08725412930764,2.4382415,-30.115099,-0.0,2.6286268,2.616402,2.3335483,2,0,1,0
976304424,976303846,42.35857761437533,-71.08725391946136,2.4111204,-30.242657,-0.0,2.631963,2.616936,2.3168116,2,0,1,0
977299729,977299160,42.35857807754601,-71.08725341213075,2.353057,-30.400707,-0.0,2.6348648,2.6178813,2.256788,2,0,1,0
978304969,978304427,42.35857822095534,-71.08725309219965,2.3352845,-30.518555,-0.0,2.6370418,2.6182003,2.2434752,2,0,1,0
979300280,979299742,42.35857793071894,-71.08725264523011,2.3130689,-30.63977,-0.0,2.635397,2.6177037,2.2243083,2,0,1,0
980305572,980305010,42.35857752112845,-71.08725179826145,2.320497,-30.727541,-0.0,2.6375659,2.6181464,2.2330928,2,0,1,0
981301210,981300325,42.358577097489494,-71.08725072430268,2.3037963,-30.844347,-0.0,2.6345558,2.6180682,2.2047002,2,0,1,0
982306147,982305593,42.35857664561637,-71.08725031594703,2.325968,-30.922571,-0.0,2.630643,2.6167572,2.2313852,2,0,1,0
983301513,983300908,42.358576095969994,-71.08724985069011,2.342472,-31.005573,-0.0,2.628116,2.6162724,2.2418199,2,0,1,0
984307070,984306177,42.35857623746673,-71.08724907569895,2.331556,-31.135378,-0.0,2.6242912,2.6154344,2.2021978,2,0,1,0
985302147,985301492,42.35857626738833,-71.0872474883509,2.267854,-31.281023,-0.0,2.627244,2.6162739,2.1721919,2,0,1,0
986297387,986296808,42.35857532760532,-71.08724728228766,2.2808938,-31.367437,-0.0,2.6261642,2.6156442,2.1951694,2,0,1,0
987302645,987302077,42.358574410571755,-71.08724769158766,2.3143938,-31.433596,-0.0,2.6290848,2.6165307,2.220695,2,0,1,0
988307886,988307346,42.358573301681815,-71.0872476199243,2.3324704,-31.50185,-0.0,2.6330972,2.6175082,2.2348514,2,0,1,0
989303205,989302662,42.35857290556515,-71.08724772362532,2.378023,-31.518026,-0.0,2.646992,2.6200728,2.2759435,2,0,1,0
990298840,990297978,42.35857211945979,-71.08724739168488,2.374232,-31.60216,-0.0,2.642017,2.6190183,2.2594197,2,0,1,0
991303916,991303248,42.35857146138591,-71.08724732445668,2.370219,-31.662832,-0.0,2.6408193,2.6186533,2.2657802,2,0,1,0
992309164,992308518,42.35857094271178,-71.08724737052178,2.3647,-31.706139,-0.0,2.6503756,2.6201127,2.2667248,2,0,1,0
993304551,993303835,42.358570422341636,-71.08724764696971,2.357046,-31.760729,-0.0,2.6500254,2.6195512,2.2646172,2,0,1,0
994299713,994299152,42.35856998677478,-71.08724851343406,2.3711195,-31.779724,-0.0,2.6427827,2.6184063,2.2632148,2,0,1,0
995305137,995304422,42.35856968524942,-71.08724798397463,2.3509717,-31.823326,-0.0,2.6502614,2.6189723,2.2498858,2,0,1,0
996300276,996299739,42.358568873602955,-71.08724810249781,2.3662887,-31.817572,-0.0,2.6523492,2.6199589,2.2692947,2,0,1,0
997305624,997305009,42.35856816660388,-71.08724864369667,2.377134,-31.773912,-0.0,2.648793,2.6185806,2.2763238,2,0,1,0
998300882,998300327,42.35856801401546,-71.08724907786124,2.3793964,-31.676096,-0.0,2.653641,2.6176505,2.276762,2,0,1,0
999306220,999305598,42.358567504858144,-71.08724999030498,2.3582604,-31.598274,-0.0,2.6557662,2.616432,2.2678046,2,0,1,0
1000301653,1000300916,42.358566328532525,-71.08725141796054,2.3576305,-31.497107,-0.0,2.6563978,2.6162012,2.2638454,2,0,1,0
1001306827,1001306187,42.35856394944391,-71.0872528200122,2.4067948,-31.347843,-0.0,2.6534984,2.6149395,2.3037975,2,0,1,0
1002302084,1002301505,42.35856117911874,-71.08725350505962,2.4263992,-31.229637,-0.0,2.6515827,2.61506,2.3169453,2,0,1,0
1003297431,1003296823,42.35855844550142,-71.08725392690748,2.413519,-31.142721,-0.0,2.648527,2.614451,2.3078754,2,0,1,0
1004302649,1004302095,42.358556233817325,-71.08725417081597,2.3718174,-31.083426,-0.0,2.6448464,2.614227,2.2725809,2,0,1,0
1005308029,1005307366,42.35855397380971,-71.08725467398311,2.3894005,-30.96693,-0.0,2.641225,2.6136217,2.2948153,2,0,1,0
1006303274,1006302685,42.35855233871859,-71.08725512102595,2.3952544,-30.860891,-0.0,2.6378248,2.6134987,2.2970376,2,0,1,0
1007298563,1007298004,42.35855115835914,-71.0872554449259,2.3974097,-30.757837,-0.0,2.6349633,2.613121,2.2935245,2,0,1,0
1008303859,1008303276,42.358549853689524,-71.0872556745242,2.3634553,-30.692892,-0.0,2.6323676,2.6132298,2.2642717,2,0,1,0
1009299137,1009298595,42.3585488253746,-71.08725585215734,2.3449156,-30.61173,-0.0,2.631057,2.6133847,2.2510304,2,0,1,0
1010304718,1010303867,42.35854830434911,-71.08725655303137,2.3620937,-30.492456,-0.0,2.629644,2.6138685,2.2747042,2,0,1,0
1011299751,1011299187,42.35854766807693,-71.0872566564858,2.363835,-30.392513,-0.0,2.62883,2.61401,2.2690659,2,0,1,0
1012305046,1012304459,42.358547484427945,-71.08725694983188,2.3747027,-30.280643,-0.0,2.6292634,2.6150966,2.2733028,2,0,1,0
1013300328,1013299779,42.35854814471544,-71.08725809641675,2.3539076,-30.201931,-0.0,2.6275058,2.6145487,2.2580588,2,0,1,0
1014305663,1014305052,42.3585484618972,-71.08725871956234,2.3588963,-30.096952,-0.0,2.6287937,2.615833,2.261733,2,0,1,0
1015300941,1015300371,42.358548916053984,-71.08725950301802,2.3407853,-30.014263,-0.0,2.628864,2.61595,2.2348256,2,0,1,0
1016306257,1016305644,42.35854975552808,-71.0872608216509,2.3316827,-29.924269,-0.0,2.6286943,2.6159701,2.2349033,2,0,1,0
1017301536,1017300964,42.35855067904719,-71.08726215959574,2.317736,-29.838415,-0.0,2.6260774,2.6152892,2.2253006,2,0,1,0
1018306898,1018306238,42.358551746873864,-71.08726333364052,2.3684363,-29.687914,-0.0,2.6237817,2.6141906,2.2688146,2,0,1,0
1019302163,1019301558,42.35855309112292,-71.08726482489612,2.3923247,-29.563625,-0.0,2.623534,2.6145627,2.2837672,2,0,1,0
1020307523,1020306832,42.35855448632083,-71.08726557806621,2.3880835,-29.468464,-0.0,2.6241515,2.61487,2.2864847,2,0,1,0
1021302699,1021302153,42.358555975458934,-71.08726683019741,2.4004564,-29.355194,-0.0,2.625936,2.616088,2.296253,2,0,1,0
1022298046,1022297473,42.35855643149601,-71.08726686346924,2.4115584,-29.244776,-0.0,2.6242003,2.6157758,2.3164487,2,0,1,0
1023303328,1023302747,42.35855790109148,-71.08726666787703,2.4801924,-29.076155,-0.0,2.6214223,2.6142995,2.3736675,2,0,1,0
1024298729,1024298068,42.35855781748628,-71.08726658965155,2.5053618,-28.957642,-0.0,2.620416,2.6136959,2.4023829,2,0,1,0
1025304008,1025303343,42.35855820477697,-71.08726732548558,2.5429285,-28.847607,-0.0,2.6205754,2.614191,2.43517,2,0,1,0
1026299271,1026298664,42.35855923547978,-71.087268430396,2.545219,-28.795382,-0.0,2.6188138,2.613153,2.436996,2,0,1,0
1027304576,1027303939,42.35856080053842,-71.08726994659159,2.5196393,-28.792458,-0.0,2.6188443,2.6135817,2.4164388,2,0,1,0
1028299860,1028299260,42.35856163115851,-71.08726967689701,2.5392554,-28.745813,-0.0,2.620079,2.614169,2.4460654,2,0,1,0
1029305102,1029304535,42.35856237838809,-71.08727070456709,2.552525,-28.722458,-0.0,2.6200447,2.6145527,2.4513376,2,0,1,0
1030300744,1030299860,42.358563479475336,-71.08727151540316,2.5599477,-28.716888,-0.0,2.6203988,2.6146467,2.4611762,2,0,1,0
1031305738,1031305133,42.358564720250676,-71.08727249465372,2.5609736,-28.724333,-0.0,2.6208913,2.615295,2.4609659,2,0,1,0
1032301062,1032300455,42.35856614277658,-71.08727544015785,2.5443454,-28.75616,-0.0,2.6233253,2.6162786,2.4400752,2,0,1,0
1033306637,1033305731,42.35856513003244,-71.08727551588748,2.7029278,-28.617435,-0.0,2.6260405,2.6187608,2.611926,2,0,1,0
1034301699,1034301054,42.35856149158286,-71.08727539020703,2.7316499,-28.629246,-0.0,2.6346636,2.6204991,2.6228564,2,0,1,0
1035296928,1035296377,42.358558827396,-71.08727449712606,2.6403778,-28.803934,-0.0,2.6401784,2.622609,2.5607255,2,0,1,0
1036302244,1036301654,42.358554000461915,-71.08727014631394,2.5889075,-28.919645,-0.0,2.6478913,2.6244743,2.5164568,2,0,1,0
