timestamp,timestamp_sample,gyro_device_id,gyro_bias[0],gyro_bias[1],gyro_bias[2],gyro_bias_limit,gyro_bias_variance[0],gyro_bias_variance[1],gyro_bias_variance[2],accel_device_id,accel_bias[0],accel_bias[1],accel_bias[2],accel_bias_limit,accel_bias_variance[0],accel_bias_variance[1],accel_bias_variance[2],mag_device_id,mag_bias[0],mag_bias[1],mag_bias[2],mag_bias_limit,mag_bias_variance[0],mag_bias_variance[1],mag_bias_variance[2],gyro_bias_valid,gyro_bias_stable,accel_bias_valid,accel_bias_stable,mag_bias_valid,mag_bias_stable
538398694,538298486,2490378,-0.018307958,0.0020241397,-0.005740242,0.34906584,2.0579704e-07,2.0572058e-07,4.306833e-07,2490378,-0.26736382,0.30393413,-0.13306546,0.4,0.0005056121,0.00050588103,0.0005045759,396809,0.0,0.0,0.0,0.5,0.0025000002,0.0025000002,0.0025000002,1,1,1,1,1,0
539403947,539303901,2490378,-0.018308379,0.002025054,-0.0056407633,0.34906584,2.060142e-07,2.0593336e-07,4.302927e-07,2490378,-0.2673415,0.303974,-0.13337874,0.4,0.0005056932,0.0005059637,0.00050457387,396809,0.0,0.0,0.0,0.5,0.0025000002,0.0025000002,0.0025000002,1,1,1,1,1,0
540110789,540010679,2490378,-0.018310668,0.002041145,-0.005568917,0.34906584,2.0282634e-07,2.0273951e-07,4.3063616e-07,2490378,-0.2673223,0.30398944,-0.13460988,0.4,0.00050574675,0.00050601905,0.00050456956,396809,0.0,0.0,0.0,0.5,0.0025000002,0.0025000002,0.0025000002,1,1,1,1,1,0
541116011,541016093,2490378,-0.018339504,0.0020750822,-0.0054549584,0.34906584,1.9979394e-07,1.9969933e-07,4.3098314e-07,2490378,-0.2672671,0.30401576,-0.13378313,0.4,0.0005058278,0.00050610217,0.0005045711,396809,0.0,0.0,0.0,0.5,0.0025000002,0.0025000002,0.0025000002,1,1,1,1,1,0
542101667,542001599,2490378,-0.018347055,0.0020950658,-0.005371104,0.34906584,2.0195252e-07,2.0185396e-07,4.3039458e-07,2490378,-0.2672389,0.30403474,-0.13274331,0.4,0.00050591066,0.00050618575,0.0005045699,396809,0.0,0.0,0.0,0.5,0.0025000002,0.0025000002,0.0025000002,1,1,1,1,1,0
542778473,542678512,2490378,-0.018355897,0.0021000002,-0.0053222836,0.34906584,2.030324e-07,2.029306e-07,4.3044676e-07,2490378,-0.26721972,0.30404976,-0.13173944,0.4,0.00050596806,0.0005062437,0.0005045702,396809,0.0,0.0,0.0,0.5,0.0025000002,0.0025000002,0.0025000002,1,1,1,1,1,0
543783858,543683928,2490378,-0.018325737,0.0021165158,-0.005254655,0.34906584,2.0261116e-07,2.0250198e-07,4.3079402e-07,2490378,-0.2672227,0.3040584,-0.13175431,0.4,0.00050605205,0.0005063284,0.0005045733,396809,0.0,0.0,0.0,0.5,0.0025000002,0.0025000002,0.0025000002,1,1,1,1,1,0
544789264,544689343,2490378,-0.018293178,0.0020954318,-0.005191312,0.34906584,2.0330236e-07,2.0318707e-07,4.304018e-07,2490378,-0.26723018,0.30408713,-0.13234054,0.4,0.0005061388,0.0005064151,0.0005045712,396809,0.0,0.0,0.0,0.5,0.0025000002,0.0025000002,0.0025000002,1,1,1,1,1,0
545794678,545694759,2490378,-0.01829194,0.0021060628,-0.0051384238,0.34906584,2.050764e-07,2.0495635e-07,4.3075121e-07,2490378,-0.26721945,0.30409735,-0.13268344,0.4,0.0005062258,0.00050650205,0.0005045746,396809,0.0,0.0,0.0,0.5,0.0025000002,0.0025000002,0.0025000002,1,1,1,1,1,0
546800171,546700175,2490378,-0.018256878,0.002099948,-0.005070526,0.34906584,2.0543044e-07,2.0530518e-07,4.3035624e-07,2490378,-0.26722246,0.3041162,-0.13309373,0.4,0.00050631317,0.0005065896,0.000504573,396809,0.0,0.0,0.0,0.5,0.0025000002,0.0025000002,0.0025000002,1,1,1,1,1,0
547716093,547616000,2490378,-0.018228648,0.0020904958,-0.0050191544,0.34906584,2.0481046e-07,2.0467986e-07,4.3055172e-07,2490378,-0.26722673,0.3041329,-0.13426179,0.4,0.00050639245,0.0005066688,0.0005045699,396809,0.0,0.0,0.0,0.5,0.0025000002,0.0025000002,0.0025000002,1,1,1,1,1,0
548313332,548213277,2490378,-0.018225668,0.0020804724,-0.00498148,0.34906584,2.040596e-07,2.0392548e-07,4.3054885e-07,2490378,-0.26722363,0.30414844,-0.13567749,0.4,0.0005064445,0.00050672103,0.00050457014,396809,0.0,0.0,0.0,0.5,0.0025000002,0.0025000002,0.0025000002,1,1,1,1,1,0
549308841,549208739,2490378,-0.018218007,0.0021011187,-0.0049289363,0.34906584,2.0460132e-07,2.0446348e-07,4.307904e-07,2490378,-0.26721793,0.30415568,-0.13695036,0.4,0.0005065314,0.00050680817,0.00050457,396809,0.0,0.0,0.0,0.5,0.0025000002,0.0025000002,0.0025000002,1,1,1,1,1,0
550314347,550214156,2490378,-0.01823997,0.0021067325,-0.004849413,0.34906584,2.0301454e-07,2.0287214e-07,4.3038125e-07,2490378,-0.2671944,0.30417264,-0.13695875,0.4,0.0005066187,0.0005068959,0.00050456985,396809,0.0,0.0,0.0,0.5,0.0025000002,0.0025000002,0.0025000002,1,1,1,1,1,0
551319524,551219573,2490378,-0.018249894,0.002128368,-0.0047720955,0.34906584,2.0199336e-07,2.0184662e-07,4.3071628e-07,2490378,-0.26717436,0.30418074,-0.13607933,0.4,0.00050670654,0.00050698424,0.0005045706,396809,0.0,0.0,0.0,0.5,0.0025000002,0.0025000002,0.0025000002,1,1,1,1,1,0
552324958,552224990,2490378,-0.018249841,0.0021367185,-0.004713428,0.34906584,2.0237012e-07,2.0222001e-07,4.3030855e-07,2490378,-0.26716322,0.30418912,-0.13585064,0.4,0.0005067948,0.0005070731,0.0005045707,396809,0.0,0.0,0.0,0.5,0.0025000002,0.0025000002,0.0025000002,1,1,1,1,1,0
553330339,553230407,2490378,-0.01826718,0.0021292765,-0.004653846,0.34906584,2.0054479e-07,2.0038843e-07,4.3064117e-07,2490378,-0.26714793,0.3042026,-0.13679215,0.4,0.00050688314,0.0005071621,0.00050457194,396809,0.0,0.0,0.0,0.5,0.0025000002,0.0025000002,0.0025000002,1,1,1,1,1,0
554335760,554235825,2490378,-0.018276151,0.0021513847,-0.00459803,0.34906584,2.0105249e-07,2.0089163e-07,4.309759e-07,2490378,-0.26713458,0.3042051,-0.13667849,0.4,0.00050697144,0.000507251,0.0005045706,396809,0.0,0.0,0.0,0.5,0.0025000002,0.0025000002,0.0025000002,1,1,1,1,1,0
554923095,554823148,2490378,-0.018224202,0.0021998968,-0.0045667076,0.34906584,2.0182225e-07,2.016594e-07,4.308674e-07,2490378,-0.26714775,0.30419365,-0.13560352,0.4,0.00050702365,0.0005073034,0.00050456985,396809,0.0,0.0,0.0,0.5,0.0025000002,0.0025000002,0.0025000002,1,1,1,1,1,0
555928496,555828566,2490378,-0.018224534,0.0021930009,-0.0045106905,0.34906584,2.0041546e-07,2.0024738e-07,4.3045148e-07,2490378,-0.26713702,0.30420235,-0.13486946,0.4,0.00050711253,0.0005073926,0.0005045716,396809,0.0,0.0,0.0,0.5,0.0025000002,0.0025000002,0.0025000002,1,1,1,1,1,0
556933939,556833984,2490378,-0.018235797,0.0021600625,-0.0044680354,0.34906584,2.0186687e-07,2.016979e-07,4.3078333e-07,2490378,-0.26712447,0.30421644,-0.13401595,0.4,0.00050720165,0.00050748204,0.00050457066,396809,0.0,0.0,0.0,0.5,0.0025000002,0.0025000002,0.0025000002,1,1,1,1,1,0
557939347,557839403,2490378,-0.018234096,0.002162801,-0.004421857,0.34906584,2.0402092e-07,2.0385198e-07,4.3036928e-07,2490378,-0.2671175,0.3042206,-0.1330189,0.4,0.00050728995,0.0005075705,0.0005045714,396809,0.0,0.0,0.0,0.5,0.0025000002,0.0025000002,0.0025000002,1,1,1,1,1,0
558944765,558844821,2490378,-0.01824104,0.002153792,-0.0043884832,0.34906584,2.0299929e-07,2.0282768e-07,4.3069605e-07,2490378,-0.2671108,0.3042263,-0.13376006,0.4,0.00050737924,0.0005076602,0.00050457066,396809,0.0,0.0,0.0,0.5,0.0025000002,0.0025000002,0.0025000002,1,1,1,1,1,0
559950234,559850240,2490378,-0.01822831,0.002155449,-0.0043407967,0.34906584,2.0232508e-07,2.0215106e-07,4.3027654e-07,2490378,-0.26710817,0.3042293,-0.13426472,0.4,0.0005074676,0.0005077489,0.00050456804,396809,0.0,0.0,0.0,0.5,0.0025000002,0.0025000002,0.0025000002,1,1,1,1,1,0
560955622,560855659,2490378,-0.018226288,0.0021310202,-0.0042996374,0.34906584,2.032145e-07,2.030388e-07,4.3060248e-07,2490378,-0.26710525,0.3042371,-0.13435039,0.4,0.0005075563,0.00050783786,0.0005045699,396809,0.0,0.0,0.0,0.5,0.0025000002,0.0025000002,0.0025000002,1,1,1,1,1,0
561961108,561861078,2490378,-0.018224092,0.0021542138,-0.004259923,0.34906584,2.0278641e-07,2.026069e-07,4.3017914e-07,2490378,-0.2671002,0.30423486,-0.13521609,0.4,0.000507645,0.000507927,0.0005045675,396809,0.0,0.0,0.0,0.5,0.0025000002,0.0025000002,0.0025000002,1,1,1,1,1,0
562966444,562866497,2490378,-0.018210432,0.0021557142,-0.004218684,0.34906584,2.0305912e-07,2.0287536e-07,4.304967e-07,2490378,-0.26709837,0.3042363,-0.13492915,0.4,0.0005077339,0.0005080162,0.000504566,396809,0.0,0.0,0.0,0.5,0.0025000002,0.0025000002,0.0025000002,1,1,1,1,1,0
563971836,563871917,2490378,-0.01822179,0.0021625904,-0.004176955,0.34906584,2.0336935e-07,2.0318218e-07,4.3081417e-07,2490378,-0.26709247,0.3042367,-0.13537239,0.4,0.000507822,0.0005081045,0.0005045663,396809,0.0,0.0,0.0,0.5,0.0025000002,0.0025000002,0.0025000002,1,1,1,1,1,0
564977254,564877337,2490378,-0.01824365,0.002151652,-0.0041266964,0.34906584,2.0460368e-07,2.0441459e-07,4.3038878e-07,2490378,-0.26708385,0.30424085,-0.13530605,0.4,0.0005079101,0.0005081927,0.00050456374,396809,0.0,0.0,0.0,0.5,0.0025000002,0.0025000002,0.0025000002,1,1,1,1,1,0
565982703,565882756,2490378,-0.018239113,0.0021631632,-0.0040746965,0.34906584,2.0436711e-07,2.0417362e-07,4.307082e-07,2490378,-0.26707852,0.30424055,-0.13533573,0.4,0.0005080002,0.0005082828,0.00050456665,396809,0.0,0.0,0.0,0.5,0.0025000002,0.0025000002,0.0025000002,1,1,1,1,1,0
566988093,566888176,2490378,-0.018198522,0.002166936,-0.004033206,0.34906584,2.0476338e-07,2.0456717e-07,4.3028425e-07,2490378,-0.26708105,0.3042399,-0.13544632,0.4,0.00050809,0.0005083726,0.0005045639,396809,0.0,0.0,0.0,0.5,0.0025000002,0.0025000002,0.0025000002,1,1,1,1,1,0
567993553,567893596,2490378,-0.018133873,0.0021373108,-0.0039967797,0.34906584,2.0614642e-07,2.0594966e-07,4.3060774e-07,2490378,-0.26708642,0.30424446,-0.13613787,0.4,0.00050817966,0.00050846237,0.0005045629,396809,0.0,0.0,0.0,0.5,0.0025000002,0.0025000002,0.0025000002,1,1,1,1,1,0
568998977,568899016,2490378,-0.018198507,0.0021817104,-0.003957977,0.34906584,2.0710564e-07,2.0690898e-07,4.30185e-07,2490378,-0.26707208,0.30423802,-0.13621415,0.4,0.0005082693,0.0005085521,0.00050456554,396809,0.0,0.0,0.0,0.5,0.0025000002,0.0025000002,0.0025000002,1,1,1,0,1,0
569915604,569814844,2490378,-0.018218752,0.0021468275,-0.0039199344,0.34906584,2.0536443e-07,2.0516549e-07,4.3035408e-07,2490378,-0.2670596,0.304244,-0.13721474,0.4,0.000508351,0.0005086339,0.0005045629,396809,0.0,0.0,0.0,0.5,0.0025000002,0.0025000002,0.0025000002,1,1,1,0,1,0
570641497,570541534,2490378,-0.018223647,0.0021451765,-0.0038921735,0.34906584,2.0825145e-07,2.0805524e-07,4.3013844e-07,2490378,-0.2670559,0.30424488,-0.13613221,0.4,0.00050841563,0.0005086986,0.00050456263,396809,0.0,0.0,0.0,0.5,0.0025000002,0.0025000002,0.0025000002,1,1,1,0,1,0
571646872,571546954,2490378,-0.018224249,0.0020955226,-0.003855269,0.34906584,2.1044615e-07,2.1025096e-07,4.3045964e-07,2490378,-0.26705122,0.3042534,-0.1357669,0.4,0.0005085054,0.0005087885,0.00050456624,396809,0.0,0.0,0.0,0.5,0.0025000002,0.0025000002,0.0025000002,1,1,1,0,1,0
572652411,572552374,2490378,-0.018223882,0.002104569,-0.0038180018,0.34906584,2.097186e-07,2.0952253e-07,4.300336e-07,2490378,-0.26705018,0.30425146,-0.13522963,0.4,0.000508595,0.0005088785,0.00050456374,396809,0.0,0.0,0.0,0.5,0.0025000002,0.0025000002,0.0025000002,1,1,1,0,1,0
573657715,573557794,2490378,-0.018238595,0.002146532,-0.00379339,0.34906584,2.0722221e-07,2.0702245e-07,4.3034944e-07,2490378,-0.2670458,0.3042439,-0.13465574,0.4,0.0005086844,0.00050896814,0.0005045674,396809,0.0,0.0,0.0,0.5,0.0025000002,0.0025000002,0.0025000002,1,1,1,0,1,0
574315354,574214801,2490378,-0.018246498,0.002144653,-0.0037762525,0.34906584,2.0592408e-07,2.0572097e-07,4.3017997e-07,2490378,-0.26704073,0.3042509,-0.13330315,0.4,0.0005087423,0.000509026,0.00050456304,396809,0.0,0.0,0.0,0.5,0.0025000002,0.0025000002,0.0025000002,1,1,1,0,1,0
574752777,574652806,2490378,-0.018251084,0.0021422473,-0.00378257,0.34906584,2.0632474e-07,2.0612035e-07,4.3006983e-07,2490378,-0.26703754,0.30425575,-0.13224521,0.4,0.0005087793,0.0005090628,0.00050456275,396809,0.0,0.0,0.0,0.5,0.0025000002,0.0025000002,0.0025000002,1,1,1,0,1,0
575230600,575130629,2490378,-0.018251134,0.0021380736,-0.0037910892,0.34906584,2.0684533e-07,2.0663839e-07,4.3035698e-07,2490378,-0.2670366,0.3042677,-0.13122895,0.4,0.00050881854,0.00050910085,0.0005045631,396809,0.0,0.0,0.0,0.5,0.0025000002,0.0025000002,0.0025000002,1,1,1,0,1,0
576236040,576136049,2490378,-0.018219786,0.0021391236,-0.0038024408,0.34906584,2.0667056e-07,2.064484e-07,4.299295e-07,2490378,-0.2670694,0.30425116,-0.1311951,0.4,0.00050889066,0.0005091619,0.00050456566,396809,0.0,0.0,0.0,0.5,0.0025000002,0.0025000002,0.0025000002,1,1,1,0,1,0
576922978,576822920,2490378,-0.018236127,0.0021635632,-0.003817985,0.34906584,2.070047e-07,2.0676241e-07,4.3005318e-07,2490378,-0.26704544,0.30429077,-0.12994666,0.4,0.0005089351,0.00050918787,0.0005045629,396809,0.0,0.0,0.0,0.5,0.0025000002,0.0025000002,0.0025000002,1,1,1,0,1,0
577659569,577559565,2490378,-0.018235039,0.0021504906,-0.0038162582,0.34906584,2.0917338e-07,2.0890992e-07,4.2992818e-07,2490378,-0.26704103,0.3043271,-0.12886955,0.4,0.0005089859,0.00050921243,0.0005045623,396809,0.0,0.0,0.0,0.5,0.0025000002,0.0025000002,0.0025000002,1,1,1,0,1,0
578256840,578156843,2490378,-0.018198865,0.0021432561,-0.003823852,0.34906584,2.0946906e-07,2.0917543e-07,4.2989657e-07,2490378,-0.2671004,0.30435592,-0.12785888,0.4,0.0005090245,0.00050921494,0.0005045631,396809,0.0,0.0,0.0,0.5,0.0025000002,0.0025000002,0.0025000002,1,1,1,0,1,0
578704929,578604803,2490378,-0.018209495,0.002149652,-0.003831239,0.34906584,2.0789092e-07,2.0755863e-07,4.2985286e-07,2490378,-0.26708588,0.30440477,-0.12664817,0.4,0.000509048,0.00050919416,0.0005045623,396809,0.0,0.0,0.0,0.5,0.0025000002,0.0025000002,0.0025000002,1,1,1,0,1,0
579710321,579610222,2490378,-0.018224714,0.0021702815,-0.0038481818,0.34906584,2.0837932e-07,2.0798062e-07,4.3011534e-07,2490378,-0.26707253,0.30444452,-0.12571368,0.4,0.00050911726,0.00050916336,0.00050456286,396809,0.0,0.0,0.0,0.5,0.0025000002,0.0025000002,0.0025000002,1,1,1,0,1,0
580715772,580615641,2490378,-0.01822736,0.0021753905,-0.0038778821,0.34906584,2.0862045e-07,2.081637e-07,4.2960875e-07,2490378,-0.26707166,0.30442888,-0.1258789,0.4,0.00050919235,0.0005091126,0.0005045631,396809,0.0,0.0,0.0,0.5,0.0025000002,0.0025000002,0.0025000002,1,1,1,0,1,0
581711263,581611106,2490378,-0.01817528,0.002210823,-0.0039169057,0.34906584,2.0920031e-07,2.0870611e-07,4.2972871e-07,2490378,-0.26712117,0.3043316,-0.12740394,0.4,0.0005092712,0.00050905417,0.0005045626,396809,0.0,0.0,0.0,0.5,0.0025000002,0.0025000002,0.0025000002,1,1,1,0,1,0
582318524,582218339,2490378,-0.018181669,0.002187896,-0.0039068856,0.34906584,2.0645513e-07,2.05948e-07,4.2968952e-07,2490378,-0.26710543,0.30424905,-0.12868786,0.4,0.00050932035,0.00050898595,0.0005045629,396809,0.0,0.0,0.0,0.5,0.0025000002,0.0025000002,0.0025000002,1,1,1,0,1,0
583114876,583014710,2490378,-0.018228564,0.0021886814,-0.0039066267,0.34906584,2.0845843e-07,2.0795467e-07,4.2935363e-07,2490378,-0.2670907,0.30431008,-0.12755702,0.4,0.00050938915,0.0005089515,0.0005045632,396809,0.0,0.0,0.0,0.5,0.0025000002,0.0025000002,0.0025000002,1,1,1,0,1,0
583602482,583502488,2490378,-0.018237839,0.0021868246,-0.0039021566,0.34906584,2.0899382e-07,2.0850312e-07,4.296802e-07,2490378,-0.26709378,0.30436411,-0.12655848,0.4,0.00050943106,0.0005089256,0.00050456275,396809,0.0,0.0,0.0,0.5,0.0025000002,0.0025000002,0.0025000002,1,1,1,0,1,0
584110237,584010174,2490378,-0.01824819,0.0022054494,-0.0039062784,0.34906584,2.0810569e-07,2.076442e-07,4.2943364e-07,2490378,-0.26710317,0.30442923,-0.1253619,0.4,0.0005094757,0.00050889375,0.0005045635,396809,0.0,0.0,0.0,0.5,0.0025000002,0.0025000002,0.0025000002,1,1,1,0,1,0
584508549,584408360,2490378,-0.01824702,0.0021829521,-0.0039078114,0.34906584,2.0609417e-07,2.0567778e-07,4.2957535e-07,2490378,-0.26710698,0.30448103,-0.12426555,0.4,0.00050950976,0.00050886144,0.00050456304,396809,0.0,0.0,0.0,0.5,0.0025000002,0.0025000002,0.0025000002,1,1,1,0,1,0
585493826,585393869,2490378,-0.018263567,0.002208092,-0.0039358847,0.34906584,2.0977133e-07,2.0940297e-07,4.2964396e-07,2490378,-0.26711416,0.3045332,-0.12323433,0.4,0.00050959684,0.00050884846,0.0005045634,396809,0.0,0.0,0.0,0.5,0.0025000002,0.0025000002,0.0025000002,1,1,1,0,1,0
586499344,586399287,2490378,-0.01822933,0.0022185438,-0.0039658956,0.34906584,2.0925545e-07,2.0900376e-07,4.2909744e-07,2490378,-0.26709974,0.30454764,-0.123041876,0.4,0.00050968456,0.0005088408,0.0005045641,396809,0.0,0.0,0.0,0.5,0.0025000002,0.0025000002,0.0025000002,1,1,1,0,1,0
587504761,587404704,2490378,-0.018195793,0.002158157,-0.004002124,0.34906584,2.0733513e-07,2.0724386e-07,4.2927763e-07,2490378,-0.26709887,0.30451456,-0.12397717,0.4,0.00050977065,0.0005088478,0.0005045656,396809,0.0,0.0,0.0,0.5,0.0025000002,0.0025000002,0.0025000002,1,1,1,0,1,0
588102040,588001982,2490378,-0.018201623,0.0021512737,-0.0040225973,0.34906584,2.054194e-07,2.0544071e-07,4.2917128e-07,2490378,-0.2671074,0.30447865,-0.12522635,0.4,0.0005098199,0.0005088586,0.0005045659,396809,0.0,0.0,0.0,0.5,0.0025000002,0.0025000002,0.0025000002,1,1,1,0,1,0
589107375,589007399,2490378,-0.018192701,0.002121908,-0.00406857,0.34906584,2.0597511e-07,2.0612207e-07,4.286744e-07,2490378,-0.26711676,0.30446672,-0.1258807,0.4,0.000509905,0.00050889974,0.0005045672,396809,0.0,0.0,0.0,0.5,0.0025000002,0.0025000002,0.0025000002,1,1,1,0,1,0
590113029,590012816,2490378,-0.018169487,0.0021107823,-0.0040918756,0.34906584,2.0746822e-07,2.0772207e-07,4.2894277e-07,2490378,-0.26711017,0.30447686,-0.12623367,0.4,0.00050999026,0.00050895725,0.0005045693,396809,0.0,0.0,0.0,0.5,0.0025000002,0.0025000002,0.0025000002,1,1,1,0,1,0
591118178,591018232,2490378,-0.018153047,0.0020886934,-0.0040890854,0.34906584,2.1067167e-07,2.1099737e-07,4.2851042e-07,2490378,-0.26710722,0.3044959,-0.12560752,0.4,0.00051007676,0.00050902524,0.0005045709,396809,0.0,0.0,0.0,0.5,0.0025000002,0.0025000002,0.0025000002,1,1,1,0,1,0
591536272,591436326,2490378,-0.018149551,0.0020839465,-0.0040824376,0.34906584,2.0954194e-07,2.0993534e-07,4.2889977e-07,2490378,-0.26710328,0.30451176,-0.12459485,0.4,0.00051010965,0.0005090536,0.00050456973,396809,0.0,0.0,0.0,0.5,0.0025000002,0.0025000002,0.0025000002,1,1,1,0,1,0
592113766,592013693,2490378,-0.018171681,0.0021008456,-0.0040827887,0.34906584,2.103949e-07,2.1084003e-07,4.2867075e-07,2490378,-0.2671149,0.30453524,-0.123519175,0.4,0.00051015813,0.00050909753,0.0005045703,396809,0.0,0.0,0.0,0.5,0.0025000002,0.0025000002,0.0025000002,1,1,1,0,1,0
592681052,592581106,2490378,-0.018185683,0.0021084156,-0.004061849,0.34906584,2.1090874e-07,2.1140426e-07,4.2834105e-07,2490378,-0.26712015,0.3045556,-0.122511365,0.4,0.00051020493,0.00050914055,0.00050457014,396809,0.0,0.0,0.0,0.5,0.0025000002,0.0025000002,0.0025000002,1,1,1,0,1,0
593268441,593168428,2490378,-0.018222667,0.002122623,-0.004022537,0.34906584,2.125123e-07,2.1303676e-07,4.2822558e-07,2490378,-0.26713198,0.3045775,-0.121428266,0.4,0.00051025476,0.0005091865,0.00050457,396809,0.0,0.0,0.0,0.5,0.0025000002,0.0025000002,0.0025000002,1,1,1,0,1,0
594273767,594173843,2490378,-0.018241437,0.002138272,-0.003990994,0.34906584,2.1307896e-07,2.1366151e-07,4.285112e-07,2490378,-0.2671306,0.3045986,-0.12058829,0.4,0.0005103399,0.0005092641,0.0005045728,396809,0.0,0.0,0.0,0.5,0.0025000002,0.0025000002,0.0025000002,1,1,1,0,1,0
595279175,595179258,2490378,-0.018278344,0.0021899987,-0.0039707124,0.34906584,2.1311153e-07,2.1375008e-07,4.287908e-07,2490378,-0.26712188,0.30462113,-0.12001848,0.4,0.0005104239,0.00050934084,0.0005045709,396809,0.0,0.0,0.0,0.5,0.0025000002,0.0025000002,0.0025000002,1,1,1,0,1,0
596284614,596184672,2490378,-0.018283056,0.002128652,-0.0039638034,0.34906584,2.1227706e-07,2.1297471e-07,4.2832067e-07,2490378,-0.26715386,0.30460724,-0.120267555,0.4,0.00051050656,0.0005094186,0.0005045751,396809,0.0,0.0,0.0,0.5,0.0025000002,0.0025000002,0.0025000002,1,1,1,0,1,0
597290019,597190085,2490378,-0.018264122,0.0021065755,-0.003970458,0.34906584,2.1169636e-07,2.1245748e-07,4.285923e-07,2490378,-0.26716,0.30460545,-0.120261766,0.4,0.00051058974,0.00050949753,0.00050457485,396809,0.0,0.0,0.0,0.5,0.0025000002,0.0025000002,0.0025000002,1,1,1,0,1,0
598295462,598195499,2490378,-0.018242717,0.0021020565,-0.003979068,0.34906584,2.1203503e-07,2.1284957e-07,4.281384e-07,2490378,-0.2671471,0.30461818,-0.11944189,0.4,0.0005106712,0.00050957623,0.0005045714,396809,0.0,0.0,0.0,0.5,0.0025000002,0.0025000002,0.0025000002,1,1,1,0,1,0
599300830,599200911,2490378,-0.018221082,0.0020955056,-0.0039909948,0.34906584,2.1207234e-07,2.1295129e-07,4.2841552e-07,2490378,-0.26713857,0.3046253,-0.119042575,0.4,0.00051075366,0.0005096585,0.0005045757,396809,0.0,0.0,0.0,0.5,0.0025000002,0.0025000002,0.0025000002,1,1,1,0,1,0
599808547,599708595,2490378,-0.0182059,0.0020958884,-0.0039917785,0.34906584,2.1174324e-07,2.1265838e-07,4.2822822e-07,2490378,-0.26711923,0.30463818,-0.117930315,0.4,0.00051079394,0.0005096995,0.00050457165,396809,0.0,0.0,0.0,0.5,0.0025000002,0.0025000002,0.0025000002,1,1,1,0,1,0
600704580,600604507,2490378,-0.018196715,0.0021109951,-0.0039735255,0.34906584,2.1117499e-07,2.1215715e-07,4.2815498e-07,2490378,-0.26710203,0.3046509,-0.11691581,0.4,0.0005108663,0.00050977425,0.00050457136,396809,0.0,0.0,0.0,0.5,0.0025000002,0.0025000002,0.0025000002,1,1,1,0,1,0
601152412,601052462,2490378,-0.018175706,0.002146708,-0.0039650043,0.34906584,2.1157982e-07,2.125876e-07,4.2812982e-07,2490378,-0.26707986,0.3046611,-0.11588183,0.4,0.0005109036,0.0005098129,0.00050457206,396809,0.0,0.0,0.0,0.5,0.0025000002,0.0025000002,0.0025000002,1,1,1,0,1,0
601530701,601430736,2490378,-0.018147781,0.0021970796,-0.0039541605,0.34906584,2.1233916e-07,2.1336368e-07,4.2816453e-07,2490378,-0.26705563,0.30467024,-0.1148357,0.4,0.00051093474,0.0005098449,0.0005045717,396809,0.0,0.0,0.0,0.5,0.0025000002,0.0025000002,0.0025000002,1,1,1,0,1,0
602536218,602436147,2490378,-0.018127285,0.0021973948,-0.0039139935,0.34906584,2.1377133e-07,2.1484118e-07,4.2772584e-07,2490378,-0.26704544,0.30467123,-0.11443385,0.4,0.0005110195,0.0005099317,0.00050457544,396809,0.0,0.0,0.0,0.5,0.0025000002,0.0025000002,0.0025000002,1,1,1,0,1,0
603541518,603441557,2490378,-0.018155271,0.0021941464,-0.0038749154,0.34906584,2.1385203e-07,2.1498607e-07,4.280039e-07,2490378,-0.26705116,0.30467114,-0.11434384,0.4,0.0005111057,0.0005100194,0.0005045732,396809,0.0,0.0,0.0,0.5,0.0025000002,0.0025000002,0.0025000002,1,1,1,0,1,0
604497307,604397195,2490378,-0.018175518,0.00214898,-0.0038183487,0.34906584,2.1227633e-07,2.1348475e-07,4.2777165e-07,2490378,-0.26705438,0.30466464,-0.115472406,0.4,0.00051118777,0.0005101023,0.000504572,396809,0.0,0.0,0.0,0.5,0.0025000002,0.0025000002,0.0025000002,1,1,1,0,1,0
604905400,604805331,2490378,-0.018190809,0.002153148,-0.0038091566,0.34906584,2.1039851e-07,2.1165354e-07,4.280599e-07,2490378,-0.2670603,0.3046572,-0.11659976,0.4,0.000511224,0.00051013846,0.0005045726,396809,0.0,0.0,0.0,0.5,0.0025000002,0.0025000002,0.0025000002,1,1,1,0,1,0
605910680,605810741,2490378,-0.01819412,0.002108029,-0.0037680364,0.34906584,2.0916279e-07,2.1047725e-07,4.2759126e-07,2490378,-0.26704553,0.30466217,-0.11641273,0.4,0.0005113116,0.0005102249,0.00050457276,396809,0.0,0.0,0.0,0.5,0.0025000002,0.0025000002,0.0025000002,1,1,1,0,1,0
606916099,606816149,2490378,-0.018203285,0.0021022235,-0.0037477403,0.34906584,2.1028286e-07,2.1163339e-07,4.2790106e-07,2490378,-0.2670405,0.30465826,-0.11694263,0.4,0.0005114014,0.0005103135,0.0005045742,396809,0.0,0.0,0.0,0.5,0.0025000002,0.0025000002,0.0025000002,1,1,1,0,1,0
607921553,607821558,2490378,-0.018282546,0.0020599242,-0.003732426,0.34906584,2.0739951e-07,2.0883188e-07,4.27416e-07,2490378,-0.26702383,0.3046673,-0.11669042,0.4,0.00051149004,0.0005104005,0.0005045755,396809,0.0,0.0,0.0,0.5,0.0025000002,0.0025000002,0.0025000002,1,1,1,0,1,0
608926915,608826965,2490378,-0.018290471,0.0020440642,-0.0037196034,0.34906584,2.069498e-07,2.0843913e-07,4.2771552e-07,2490378,-0.26702037,0.30467194,-0.11655535,0.4,0.00051158114,0.0005104903,0.00050457596,396809,0.0,0.0,0.0,0.5,0.0025000002,0.0025000002,0.0025000002,1,1,1,0,1,0
609932373,609832372,2490378,-0.018331517,0.0020426793,-0.0037325018,0.34906584,2.0897346e-07,2.1048126e-07,4.2732592e-07,2490378,-0.2670242,0.30467567,-0.11611531,0.4,0.0005116724,0.0005105811,0.0005045808,396809,0.0,0.0,0.0,0.5,0.0025000002,0.0025000002,0.0025000002,1,1,1,0,1,0
610937735,610837779,2490378,-0.018361498,0.0020390102,-0.0037143307,0.34906584,2.0691868e-07,2.0849706e-07,4.276227e-07,2490378,-0.26702455,0.30467448,-0.11646614,0.4,0.0005117619,0.00051067106,0.00050458097,396809,0.0,0.0,0.0,0.5,0.0025000002,0.0025000002,0.0025000002,1,1,1,0,1,0
611943116,611843185,2490378,-0.018360902,0.0020402728,-0.0036868823,0.34906584,2.068904e-07,2.085071e-07,4.2795727e-07,2490378,-0.2670208,0.3046715,-0.117077656,0.4,0.00051185046,0.0005107603,0.0005045818,396809,0.0,0.0,0.0,0.5,0.0025000002,0.0025000002,0.0025000002,1,1,1,0,1,0
612908879,612808772,2490378,-0.018366031,0.002025267,-0.0036455265,0.34906584,2.0715403e-07,2.0879658e-07,4.279066e-07,2490378,-0.26702484,0.30467173,-0.11607736,0.4,0.0005119351,0.00051084685,0.00050457934,396809,0.0,0.0,0.0,0.5,0.0025000002,0.0025000002,0.0025000002,1,1,1,1,1,0
613515999,613415997,2490378,-0.018392898,0.0020131476,-0.0036142601,0.34906584,2.0857527e-07,2.1021715e-07,4.2801787e-07,2490378,-0.26703,0.30467427,-0.11503765,0.4,0.0005119884,0.00051090086,0.00050457916,396809,0.0,0.0,0.0,0.5,0.0025000002,0.0025000002,0.0025000002,1,1,1,1,1,0
614521350,614421401,2490378,-0.018376218,0.0020572876,-0.0035898234,0.34906584,2.1116766e-07,2.1280087e-07,4.2765294e-07,2490378,-0.2670408,0.3046686,-0.11405188,0.4,0.0005120779,0.0005109912,0.00050458155,396809,0.0,0.0,0.0,0.5,0.0025000002,0.0025000002,0.0025000002,1,1,1,1,1,0
615497032,615396942,2490378,-0.018370833,0.0020633545,-0.0035578308,0.34906584,2.0812344e-07,2.0981163e-07,4.2766396e-07,2490378,-0.2670344,0.30466044,-0.1151389,0.4,0.00051216374,0.0005110781,0.00050457986,396809,0.0,0.0,0.0,0.5,0.0025000002,0.0025000002,0.0025000002,1,1,1,1,1,0
616303334,616203255,2490378,-0.018347908,0.0020476712,-0.003518793,0.34906584,2.0727836e-07,2.0899537e-07,4.2750446e-07,2490378,-0.26702136,0.30465135,-0.11635987,0.4,0.00051223475,0.00051115075,0.0005045811,396809,0.0,0.0,0.0,0.5,0.0025000002,0.0025000002,0.0025000002,1,1,1,1,1,0
617308577,617208658,2490378,-0.018333392,0.0020795155,-0.0034783313,0.34906584,2.0935109e-07,2.1107918e-07,4.278664e-07,2490378,-0.26703504,0.30463848,-0.11588785,0.4,0.0005123205,0.0005112403,0.00050458236,396809,0.0,0.0,0.0,0.5,0.0025000002,0.0025000002,0.0025000002,1,1,1,1,1,0
618313993,618214060,2490378,-0.018302081,0.0021046917,-0.0034611253,0.34906584,2.0779437e-07,2.0958005e-07,4.274474e-07,2490378,-0.26704878,0.30463314,-0.11546021,0.4,0.0005123996,0.0005113294,0.0005045824,396809,0.0,0.0,0.0,0.5,0.0025000002,0.0025000002,0.0025000002,1,1,1,1,1,0
618811771,618711784,2490378,-0.018313853,0.002094733,-0.0034577833,0.34906584,2.0869801e-07,2.105002e-07,4.2794147e-07,2490378,-0.2670583,0.3046372,-0.11445992,0.4,0.00051243854,0.0005113732,0.00050458114,396809,0.0,0.0,0.0,0.5,0.0025000002,0.0025000002,0.0025000002,1,1,1,1,1,0
619130350,619030327,2490378,-0.018322127,0.0021058084,-0.0034519862,0.34906584,2.0592125e-07,2.0777256e-07,4.273634e-07,2490378,-0.26707903,0.30463773,-0.11343293,0.4,0.00051246036,0.0005114015,0.00050458126,396809,0.0,0.0,0.0,0.5,0.0025000002,0.0025000002,0.0025000002,1,1,1,1,1,0
620135645,620035728,2490378,-0.018311633,0.0021047073,-0.0034083528,0.34906584,2.0748116e-07,2.0936406e-07,4.2771202e-07,2490378,-0.26708373,0.30463445,-0.11321107,0.4,0.0005125405,0.000511491,0.000504584,396809,0.0,0.0,0.0,0.5,0.0025000002,0.0025000002,0.0025000002,1,1,1,1,1,0
621101410,621001311,2490378,-0.018284561,0.0021645692,-0.0033744045,0.34906584,2.0794586e-07,2.0986951e-07,4.276545e-07,2490378,-0.26711294,0.30462295,-0.112098046,0.4,0.0005126179,0.0005115764,0.00050458114,396809,0.0,0.0,0.0,0.5,0.0025000002,0.0025000002,0.0025000002,1,1,1,1,1,0
621698650,621598578,2490378,-0.01828529,0.0021594756,-0.0033376934,0.34906584,2.0876278e-07,2.1070558e-07,4.2765544e-07,2490378,-0.2671265,0.30462313,-0.11101121,0.4,0.0005126675,0.0005116296,0.00050458167,396809,0.0,0.0,0.0,0.5,0.0025000002,0.0025000002,0.0025000002,1,1,1,1,1,0
622704143,622603978,2490378,-0.018298032,0.002143643,-0.003293014,0.34906584,2.093518e-07,2.1134355e-07,4.2798823e-07,2490378,-0.2671385,0.30462304,-0.109824724,0.4,0.00051275006,0.00051171903,0.0005045821,396809,0.0,0.0,0.0,0.5,0.0025000002,0.0025000002,0.0025000002,1,1,1,1,1,0
623709474,623609377,2490378,-0.018344825,0.0021225435,-0.0032915622,0.34906584,2.0836283e-07,2.1042209e-07,4.2756838e-07,2490378,-0.26714867,0.3046304,-0.10870437,0.4,0.00051283085,0.0005118092,0.0005045832,396809,0.0,0.0,0.0,0.5,0.0025000002,0.0025000002,0.0025000002,1,1,1,1,1,0
624306718,624206643,2490378,-0.018343816,0.0021185814,-0.0032843566,0.34906584,2.0736027e-07,2.0946771e-07,4.2755005e-07,2490378,-0.26716545,0.3046307,-0.107610606,0.4,0.0005128776,0.0005118637,0.00050458463,396809,0.0,0.0,0.0,0.5,0.0025000002,0.0025000002,0.0025000002,1,1,1,1,1,0
625311963,625212041,2490378,-0.018336508,0.0021136038,-0.0032714016,0.34906584,2.0771189e-07,2.0987139e-07,4.2789162e-07,2490378,-0.26716888,0.30462933,-0.107332714,0.4,0.0005129551,0.0005119552,0.0005045877,396809,0.0,0.0,0.0,0.5,0.0025000002,0.0025000002,0.0025000002,1,1,1,1,1,0
626317380,626217438,2490378,-0.018355334,0.0020979636,-0.003248,0.34906584,2.099668e-07,2.1213617e-07,4.275233e-07,2490378,-0.26716274,0.30462977,-0.10746013,0.4,0.00051303435,0.0005120469,0.00050458923,396809,0.0,0.0,0.0,0.5,0.0025000002,0.0025000002,0.0025000002,1,1,1,1,1,0
627322755,627222835,2490378,-0.01836671,0.002076875,-0.0032324402,0.34906584,2.1117162e-07,2.1336585e-07,4.2787855e-07,2490378,-0.26714674,0.30463266,-0.10817567,0.4,0.0005131112,0.00051213615,0.00050459086,396809,0.0,0.0,0.0,0.5,0.0025000002,0.0025000002,0.0025000002,1,1,1,1,1,0
628328443,628228232,2490378,-0.018387366,0.0020559586,-0.003214416,0.34906584,2.1208852e-07,2.142946e-07,4.27501e-07,2490378,-0.267142,0.304634,-0.108351536,0.4,0.000513188,0.00051222485,0.0005045894,396809,0.0,0.0,0.0,0.5,0.0025000002,0.0025000002,0.0025000002,1,1,1,1,1,0
629333550,629233627,2490378,-0.018421473,0.002044801,-0.0031986898,0.34906584,2.1066853e-07,2.1291117e-07,4.2783984e-07,2490378,-0.26713702,0.3046362,-0.10872684,0.4,0.0005132661,0.0005123142,0.0005045925,396809,0.0,0.0,0.0,0.5,0.0025000002,0.0025000002,0.0025000002,1,1,1,1,1,0
630338936,630239022,2490378,-0.018421378,0.0020682616,-0.0031960548,0.34906584,2.1033333e-07,2.1258249e-07,4.2746012e-07,2490378,-0.26713285,0.3046336,-0.10898904,0.4,0.00051334524,0.0005124032,0.0005045917,396809,0.0,0.0,0.0,0.5,0.0025000002,0.0025000002,0.0025000002,1,1,1,1,1,0
631095630,630995556,2490378,-0.018411158,0.002091754,-0.0031879356,0.34906584,2.112132e-07,2.1345541e-07,4.2758074e-07,2490378,-0.26714543,0.30462402,-0.107905395,0.4,0.00051340694,0.0005124707,0.0005045896,396809,0.0,0.0,0.0,0.5,0.0025000002,0.0025000002,0.0025000002,1,1,1,1,1,0
632091075,631990996,2490378,-0.018415878,0.0021141868,-0.003184843,0.34906584,2.1204748e-07,2.1428123e-07,4.2785254e-07,2490378,-0.26715872,0.30461267,-0.10665424,0.4,0.00051348837,0.0005125583,0.00050458964,396809,0.0,0.0,0.0,0.5,0.0025000002,0.0025000002,0.0025000002,1,1,1,1,1,0
632897959,632797301,2490378,-0.018432641,0.002107898,-0.003172845,0.34906584,2.1193743e-07,2.1416494e-07,4.277192e-07,2490378,-0.26717418,0.30460477,-0.10546702,0.4,0.0005135566,0.0005126304,0.00050459086,396809,0.0,0.0,0.0,0.5,0.0025000002,0.0025000002,0.0025000002,1,1,1,1,1,0
633902635,633802694,2490378,-0.018440165,0.002087511,-0.0031560773,0.34906584,2.1138376e-07,2.1361e-07,4.280761e-07,2490378,-0.26717862,0.3046028,-0.10531613,0.4,0.00051364023,0.0005127186,0.00050459144,396809,0.0,0.0,0.0,0.5,0.0025000002,0.0025000002,0.0025000002,1,1,1,1,1,0
634908040,634808086,2490378,-0.018440632,0.0020638213,-0.0031344702,0.34906584,2.1055084e-07,2.1276765e-07,4.2769733e-07,2490378,-0.26718605,0.30459902,-0.10487535,0.4,0.0005137258,0.000512807,0.0005045917,396809,0.0,0.0,0.0,0.5,0.0025000002,0.0025000002,0.0025000002,1,1,1,1,1,0
635913395,635813480,2490378,-0.018449405,0.002059889,-0.0031197933,0.34906584,2.1202962e-07,2.1422272e-07,4.280728e-07,2490378,-0.26719376,0.30459076,-0.1039308,0.4,0.00051380985,0.00051289296,0.0005045901,396809,0.0,0.0,0.0,0.5,0.0025000002,0.0025000002,0.0025000002,1,1,1,1,1,0
636918818,636818869,2490378,-0.018451482,0.0020453713,-0.0031323845,0.34906584,2.1446237e-07,2.1661656e-07,4.2772507e-07,2490378,-0.2671972,0.304592,-0.103660844,0.4,0.0005138992,0.0005129842,0.0005045915,396809,0.0,0.0,0.0,0.5,0.0025000002,0.0025000002,0.0025000002,1,1,1,1,1,0
637924253,637824259,2490378,-0.018460887,0.001999367,-0.0031338693,0.34906584,2.1371581e-07,2.1586406e-07,4.2808486e-07,2490378,-0.26720262,0.30459505,-0.10377626,0.4,0.00051398773,0.0005130742,0.0005045917,396809,0.0,0.0,0.0,0.5,0.0025000002,0.0025000002,0.0025000002,1,1,1,1,1,0
638909835,638809740,2490378,-0.018457815,0.0019966706,-0.003136788,0.34906584,2.1399417e-07,2.1612523e-07,4.2825673e-07,2490378,-0.2671965,0.30460134,-0.10480843,0.4,0.00051407557,0.0005131627,0.0005045932,396809,0.0,0.0,0.0,0.5,0.0025000002,0.0025000002,0.0025000002,1,1,1,1,1,0
639547122,639446818,2490378,-0.018456515,0.0019846433,-0.0031418616,0.34906584,2.1340911e-07,2.1553137e-07,4.2792087e-07,2490378,-0.2671924,0.304608,-0.10584654,0.4,0.0005141328,0.00051322026,0.0005045946,396809,0.0,0.0,0.0,0.5,0.0025000002,0.0025000002,0.0025000002,1,1,1,1,1,0
640552127,640452207,2490378,-0.018484067,0.0019668408,-0.0031339626,0.34906584,2.0912248e-07,2.1126661e-07,4.2824638e-07,2490378,-0.2671948,0.3046109,-0.10642517,0.4,0.0005142224,0.0005133104,0.0005045998,396809,0.0,0.0,0.0,0.5,0.0025000002,0.0025000002,0.0025000002,1,1,1,1,1,0
641557513,641457595,2490378,-0.01846845,0.0019755277,-0.0031237337,0.34906584,2.0826691e-07,2.1039303e-07,4.2786934e-07,2490378,-0.26718825,0.3046179,-0.10728553,0.4,0.0005143126,0.0005133997,0.00050459895,396809,0.0,0.0,0.0,0.5,0.0025000002,0.0025000002,0.0025000002,1,1,1,1,1,0
642562902,642462982,2490378,-0.018475546,0.0019917155,-0.0031085298,0.34906584,2.0848765e-07,2.1059326e-07,4.2823666e-07,2490378,-0.26719284,0.30460984,-0.10647237,0.4,0.0005144015,0.00051348703,0.000504603,396809,0.0,0.0,0.0,0.5,0.0025000002,0.0025000002,0.0025000002,1,1,1,1,1,0
643568317,643468369,2490378,-0.018499013,0.001987655,-0.0030947877,0.34906584,2.0868926e-07,2.1076417e-07,4.2787042e-07,2490378,-0.26720157,0.30460218,-0.10579438,0.4,0.00051449006,0.0005135733,0.0005046012,396809,0.0,0.0,0.0,0.5,0.0025000002,0.0025000002,0.0025000002,1,1,1,1,1,0
644573709,644473755,2490378,-0.018526953,0.0019595968,-0.0030855387,0.34906584,2.0998488e-07,2.1202374e-07,4.282525e-07,2490378,-0.26721314,0.30459207,-0.10498937,0.4,0.00051457906,0.00051365956,0.0005045997,396809,0.0,0.0,0.0,0.5,0.0025000002,0.0025000002,0.0025000002,1,1,1,1,1,0
645579125,645479141,2490378,-0.018532889,0.0019476502,-0.0030721587,0.34906584,2.1001864e-07,2.1202074e-07,4.2789006e-07,2490378,-0.26721445,0.30459386,-0.10535782,0.4,0.0005146679,0.000513745,0.0005046019,396809,0.0,0.0,0.0,0.5,0.0025000002,0.0025000002,0.0025000002,1,1,1,1,1,0
646584440,646484526,2490378,-0.018544113,0.0019505575,-0.0030583,0.34906584,2.0890373e-07,2.1088036e-07,4.282551e-07,2490378,-0.2672145,0.30459663,-0.105781965,0.4,0.0005147578,0.000513831,0.0005046002,396809,0.0,0.0,0.0,0.5,0.0025000002,0.0025000002,0.0025000002,1,1,1,1,1,0
647589987,647489910,2490378,-0.018526932,0.0019614242,-0.0030149636,0.34906584,2.0681021e-07,2.0875936e-07,4.2787929e-07,2490378,-0.26721367,0.30459478,-0.10602641,0.4,0.00051484816,0.000513917,0.0005045989,396809,0.0,0.0,0.0,0.5,0.0025000002,0.0025000002,0.0025000002,1,1,1,1,1,0
648595209,648495294,2490378,-0.018526424,0.0019808689,-0.002934515,0.34906584,2.0682852e-07,2.0874919e-07,4.2825073e-07,2490378,-0.2672141,0.30458504,-0.10576252,0.4,0.0005149385,0.0005140043,0.000504602,396809,0.0,0.0,0.0,0.5,0.0025000002,0.0025000002,0.0025000002,1,1,1,1,1,0
649600588,649500676,2490378,-0.018541485,0.0019945335,-0.002822278,0.34906584,2.0589627e-07,2.0779665e-07,4.2861694e-07,2490378,-0.26721373,0.3045782,-0.106259294,0.4,0.0005150296,0.000514093,0.0005046015,396809,0.0,0.0,0.0,0.5,0.0025000002,0.0025000002,0.0025000002,1,1,1,1,1,0
650605972,650506059,2490378,-0.018557724,0.0019983805,-0.002693074,0.34906584,2.0620256e-07,2.0807201e-07,4.2825073e-07,2490378,-0.26720968,0.30456996,-0.10694263,0.4,0.00051511853,0.00051417993,0.0005046035,396809,0.0,0.0,0.0,0.5,0.0025000002,0.0025000002,0.0025000002,1,1,1,1,1,0
651611372,651511440,2490378,-0.01856725,0.0020079892,-0.0025734976,0.34906584,2.0845378e-07,2.1028846e-07,4.286346e-07,2490378,-0.26720726,0.3045537,-0.106327966,0.4,0.00051520934,0.0005142694,0.00050460314,396809,0.0,0.0,0.0,0.5,0.0025000002,0.0025000002,0.0025000002,1,1,1,1,1,0
652616739,652516821,2490378,-0.018587515,0.0020729844,-0.0024018798,0.34906584,2.0441314e-07,2.0624526e-07,4.2823848e-07,2490378,-0.2671971,0.30451882,-0.105411485,0.4,0.00051529787,0.0005143572,0.000504603,396809,0.0,0.0,0.0,0.5,0.0025000002,0.0025000002,0.0025000002,1,1,1,1,1,0
653622151,653522202,2490378,-0.01858622,0.0020924357,-0.0021831659,0.34906584,2.0548876e-07,2.0729502e-07,4.2860933e-07,2490378,-0.26718888,0.3045066,-0.10598264,0.4,0.0005153863,0.0005144452,0.0005046057,396809,0.0,0.0,0.0,0.5,0.0025000002,0.0025000002,0.0025000002,1,1,1,1,1,0
654508227,654408130,2490378,-0.018582415,0.0021257605,-0.0019757678,0.34906584,2.0634947e-07,2.0813128e-07,4.2853586e-07,2490378,-0.26718125,0.30448255,-0.104874186,0.4,0.0005154645,0.0005145233,0.0005046054,396809,0.0,0.0,0.0,0.5,0.0025000002,0.0025000002,0.0025000002,1,1,1,1,1,0
655315178,655214425,2490378,-0.018585326,0.0021475044,-0.0017866442,0.34906584,2.0860509e-07,2.103567e-07,4.284193e-07,2490378,-0.26716703,0.30446696,-0.10379652,0.4,0.00051553414,0.00051459303,0.0005046065,396809,0.0,0.0,0.0,0.5,0.0025000002,0.0025000002,0.0025000002,1,1,1,1,1,0
656319868,656219803,2490378,-0.018614799,0.002122526,-0.0015794436,0.34906584,2.0728793e-07,2.0903236e-07,4.287752e-07,2490378,-0.26712286,0.30449563,-0.1040114,0.4,0.0005156153,0.00051467546,0.0005046076,396809,0.0,0.0,0.0,0.5,0.0025000002,0.0025000002,0.0025000002,1,1,1,1,1,0
657325094,657225181,2490378,-0.018610999,0.002135855,-0.0013732084,0.34906584,2.062107e-07,2.0794124e-07,4.2839508e-07,2490378,-0.26710838,0.3044921,-0.10349589,0.4,0.00051569275,0.00051475427,0.0005046082,396809,0.0,0.0,0.0,0.5,0.0025000002,0.0025000002,0.0025000002,1,1,1,1,1,0
658330521,658230558,2490378,-0.01859451,0.002173312,-0.0011935212,0.34906584,2.0802368e-07,2.0973015e-07,4.287706e-07,2490378,-0.2671086,0.30446312,-0.10369665,0.4,0.0005157719,0.0005148346,0.00050460926,396809,0.0,0.0,0.0,0.5,0.0025000002,0.0025000002,0.0025000002,1,1,1,1,1,0
659335846,659235934,2490378,-0.018604033,0.0021791812,-0.001026251,0.34906584,2.0644868e-07,2.0814802e-07,4.2838298e-07,2490378,-0.2670774,0.30447057,-0.10391713,0.4,0.00051584444,0.00051490875,0.0005046106,396809,0.0,0.0,0.0,0.5,0.0025000002,0.0025000002,0.0025000002,1,1,1,1,1,0
660341261,660241310,2490378,-0.018619027,0.0021763612,-0.0008830694,0.34906584,2.051164e-07,2.0681625e-07,4.2873017e-07,2490378,-0.26703966,0.30448768,-0.10421047,0.4,0.00051591446,0.0005149814,0.00050460885,396809,0.0,0.0,0.0,0.5,0.0025000002,0.0025000002,0.0025000002,1,1,1,1,1,0
661346605,661246685,2490378,-0.018601028,0.0022136813,-0.0007420882,0.34906584,2.0862826e-07,2.1029106e-07,4.2837362e-07,2490378,-0.26704612,0.30445337,-0.10406661,0.4,0.00051599275,0.0005150612,0.0005046114,396809,0.0,0.0,0.0,0.5,0.0025000002,0.0025000002,0.0025000002,1,1,1,1,1,0
662352024,662252059,2490378,-0.01860887,0.0022138783,-0.00062651717,0.34906584,2.1064746e-07,2.122911e-07,4.287429e-07,2490378,-0.26702082,0.30446574,-0.10388397,0.4,0.00051606935,0.00051513984,0.0005046104,396809,0.0,0.0,0.0,0.5,0.0025000002,0.0025000002,0.0025000002,1,1,1,1,1,0
663357455,663257433,2490378,-0.018600669,0.0022367588,-0.0005070825,0.34906584,2.1427623e-07,2.1588471e-07,4.2838565e-07,2490378,-0.26701587,0.30445272,-0.103120536,0.4,0.00051614887,0.0005152211,0.0005046089,396809,0.0,0.0,0.0,0.5,0.0025000002,0.0025000002,0.0025000002,1,1,1,1,1,0
664362732,664262806,2490378,-0.018599948,0.002241505,-0.00041281615,0.34906584,2.169758e-07,2.1856277e-07,4.2875834e-07,2490378,-0.26700506,0.3044587,-0.10279077,0.4,0.0005162283,0.00051530224,0.0005046128,396809,0.0,0.0,0.0,0.5,0.0025000002,0.0025000002,0.0025000002,1,1,1,1,1,0
665368277,665268179,2490378,-0.018624084,0.0021593631,-0.0003552026,0.34906584,2.104303e-07,2.1205871e-07,4.28319e-07,2490378,-0.26696977,0.30455318,-0.10286783,0.4,0.000516294,0.00051537127,0.0005046105,396809,0.0,0.0,0.0,0.5,0.0025000002,0.0025000002,0.0025000002,1,1,1,1,1,0
666373464,666273551,2490378,-0.018646182,0.0021057008,-0.00040143926,0.34906584,2.1049193e-07,2.1211956e-07,4.2866256e-07,2490378,-0.26695108,0.30460337,-0.10275329,0.4,0.000516373,0.0005154518,0.0005046139,396809,0.0,0.0,0.0,0.5,0.0025000002,0.0025000002,0.0025000002,1,1,1,1,1,0
667378834,667278921,2490378,-0.018655922,0.002104616,-0.00049089466,0.34906584,2.1128275e-07,2.1290505e-07,4.2901016e-07,2490378,-0.26695088,0.30459794,-0.10274062,0.4,0.0005164574,0.00051553745,0.0005046148,396809,0.0,0.0,0.0,0.5,0.0025000002,0.0025000002,0.0025000002,1,1,1,1,1,0
668384209,668284291,2490378,-0.018676985,0.0020646576,-0.000631769,0.34906584,2.1026845e-07,2.1189254e-07,4.2860313e-07,2490378,-0.26694754,0.30461878,-0.102303416,0.4,0.00051654363,0.00051562476,0.00050461636,396809,0.0,0.0,0.0,0.5,0.0025000002,0.0025000002,0.0025000002,1,1,1,1,1,0
669389575,669289661,2490378,-0.018686127,0.0020245067,-0.0007786121,0.34906584,2.1124352e-07,2.1286041e-07,4.289464e-07,2490378,-0.26695338,0.30463096,-0.102505535,0.4,0.00051663205,0.0005157137,0.00050461915,396809,0.0,0.0,0.0,0.5,0.0025000002,0.0025000002,0.0025000002,1,1,1,1,1,0
670394967,670295029,2490378,-0.018679716,0.0020014406,-0.0009387252,0.34906584,2.1220619e-07,2.1381116e-07,4.2854836e-07,2490378,-0.26696017,0.30463547,-0.10273409,0.4,0.0005167218,0.00051580364,0.000504619,396809,0.0,0.0,0.0,0.5,0.0025000002,0.0025000002,0.0025000002,1,1,1,1,1,0
671400353,671300397,2490378,-0.018662525,0.0019791606,-0.0010699412,0.34906584,2.0834347e-07,2.099776e-07,4.2884793e-07,2490378,-0.26696032,0.30463755,-0.10239464,0.4,0.00051681104,0.0005158931,0.0005046172,396809,0.0,0.0,0.0,0.5,0.0025000002,0.0025000002,0.0025000002,1,1,1,1,1,0
672405681,672305764,2490378,-0.018665146,0.0020073531,-0.0012133946,0.34906584,2.07163e-07,2.0880417e-07,4.2842464e-07,2490378,-0.26695156,0.30465528,-0.102076516,0.4,0.00051689957,0.0005159818,0.00050461927,396809,0.0,0.0,0.0,0.5,0.0025000002,0.0025000002,0.0025000002,1,1,1,1,1,0
673311652,673211590,2490378,-0.018670486,0.0019890778,-0.0013254761,0.34906584,2.0656407e-07,2.0821157e-07,4.284978e-07,2490378,-0.26694694,0.3046524,-0.10080786,0.4,0.0005169765,0.0005160591,0.0005046172,396809,0.0,0.0,0.0,0.5,0.0025000002,0.0025000002,0.0025000002,1,1,1,1,1,0
674316981,674216956,2490378,-0.018672941,0.001969055,-0.0014403403,0.34906584,2.101415e-07,2.1176574e-07,4.2885188e-07,2490378,-0.26694188,0.30464545,-0.10014678,0.4,0.00051706267,0.00051614543,0.0005046213,396809,0.0,0.0,0.0,0.5,0.0025000002,0.0025000002,0.0025000002,1,1,1,1,1,0
675322267,675222321,2490378,-0.01866366,0.0019600107,-0.0015635464,0.34906584,2.0887504e-07,2.1050731e-07,4.2842797e-07,2490378,-0.2669241,0.30464903,-0.1001494,0.4,0.00051714457,0.0005162275,0.0005046198,396809,0.0,0.0,0.0,0.5,0.0025000002,0.0025000002,0.0025000002,1,1,1,1,1,0
676327605,676227685,2490378,-0.018649273,0.0019339419,-0.0016360822,0.34906584,2.0574431e-07,2.0740447e-07,4.2872927e-07,2490378,-0.26690438,0.30463699,-0.10012378,0.4,0.0005172227,0.0005163061,0.00050461857,396809,0.0,0.0,0.0,0.5,0.0025000002,0.0025000002,0.0025000002,1,1,1,1,1,0
677333007,677233049,2490378,-0.018624924,0.0019440377,-0.0017278024,0.34906584,2.0846194e-07,2.1010081e-07,4.2834273e-07,2490378,-0.26686805,0.30466372,-0.100320816,0.4,0.0005173058,0.0005163894,0.0005046216,396809,0.0,0.0,0.0,0.5,0.0025000002,0.0025000002,0.0025000002,1,1,1,1,1,0
678338333,678238412,2490378,-0.018635608,0.0018808348,-0.0018381326,0.34906584,2.0857112e-07,2.1021549e-07,4.286712e-07,2490378,-0.26687086,0.304616,-0.10040594,0.4,0.0005173863,0.0005164699,0.0005046205,396809,0.0,0.0,0.0,0.5,0.0025000002,0.0025000002,0.0025000002,1,1,1,1,1,0
679343807,679243774,2490378,-0.018598378,0.0018968972,-0.0019495098,0.34906584,2.0653673e-07,2.0819962e-07,4.2824078e-07,2490378,-0.2668182,0.30464768,-0.10005322,0.4,0.0005174658,0.0005165493,0.0005046202,396809,0.0,0.0,0.0,0.5,0.0025000002,0.0025000002,0.0025000002,1,1,1,1,1,0
680349234,680249135,2490378,-0.018601602,0.001905104,-0.0020509914,0.34906584,2.0628524e-07,2.0795807e-07,4.285664e-07,2490378,-0.2668101,0.3046711,-0.100353144,0.4,0.0005175483,0.0005166318,0.0005046227,396809,0.0,0.0,0.0,0.5,0.0025000002,0.0025000002,0.0025000002,1,1,1,1,1,0
681354561,681254496,2490378,-0.018581407,0.0019134014,-0.0021437902,0.34906584,2.0648793e-07,2.0816861e-07,4.288972e-07,2490378,-0.26678157,0.304692,-0.10100732,0.4,0.0005176312,0.0005167151,0.00050462474,396809,0.0,0.0,0.0,0.5,0.0025000002,0.0025000002,0.0025000002,1,1,1,1,1,0
682359914,682259856,2490378,-0.018591989,0.0018746827,-0.0022256747,0.34906584,2.0720007e-07,2.0887884e-07,4.2849686e-07,2490378,-0.2667816,0.30466476,-0.100998566,0.4,0.0005177145,0.00051679893,0.0005046261,396809,0.0,0.0,0.0,0.5,0.0025000002,0.0025000002,0.0025000002,1,1,1,1,1,0
683365147,683265215,2490378,-0.018582964,0.0019044253,-0.0023132556,0.34906584,2.08572e-07,2.1024756e-07,4.2884244e-07,2490378,-0.26676446,0.3046961,-0.10001292,0.4,0.0005177979,0.0005168829,0.0005046283,396809,0.0,0.0,0.0,0.5,0.0025000002,0.0025000002,0.0025000002,1,1,1,1,1,0
684370579,684270574,2490378,-0.018566329,0.0019046736,-0.0023987517,0.34906584,2.0420714e-07,2.0591914e-07,4.2840458e-07,2490378,-0.26674098,0.30470115,-0.09952346,0.4,0.00051787775,0.0005169634,0.00050462724,396809,0.0,0.0,0.0,0.5,0.0025000002,0.0025000002,0.0025000002,1,1,1,1,1,0
685375838,685275932,2490378,-0.018583845,0.0019018617,-0.002476185,0.34906584,2.0466824e-07,2.0638228e-07,4.2874356e-07,2490378,-0.26674524,0.30470133,-0.09913562,0.4,0.000517962,0.00051704806,0.00050462905,396809,0.0,0.0,0.0,0.5,0.0025000002,0.0025000002,0.0025000002,1,1,1,1,1,0
686381200,686281289,2490378,-0.018583987,0.0018698148,-0.002555764,0.34906584,2.0714381e-07,2.0883674e-07,4.2836405e-07,2490378,-0.2667355,0.30467954,-0.098936945,0.4,0.00051804824,0.0005171343,0.0005046282,396809,0.0,0.0,0.0,0.5,0.0025000002,0.0025000002,0.0025000002,1,1,1,1,1,0
687386587,687286646,2490378,-0.018570984,0.0018811353,-0.0026231597,0.34906584,2.0940871e-07,2.1108681e-07,4.2872315e-07,2490378,-0.2667172,0.30468726,-0.09860307,0.4,0.0005181351,0.00051722105,0.00050462637,396809,0.0,0.0,0.0,0.5,0.0025000002,0.0025000002,0.0025000002,1,1,1,1,1,0
688391959,688292002,2490378,-0.01858439,0.0018826032,-0.0026857147,0.34906584,2.0945775e-07,2.1113007e-07,4.2832968e-07,2490378,-0.26671672,0.30468827,-0.09922953,0.4,0.0005182208,0.0005173067,0.00050462846,396809,0.0,0.0,0.0,0.5,0.0025000002,0.0025000002,0.0025000002,1,1,1,1,1,0
689397286,689297357,2490378,-0.018572494,0.0018324194,-0.002728384,0.34906584,2.0487867e-07,2.0658507e-07,4.2863934e-07,2490378,-0.26671138,0.30465934,-0.100093015,0.4,0.0005183071,0.00051739276,0.00050462724,396809,0.0,0.0,0.0,0.5,0.0025000002,0.0025000002,0.0025000002,1,1,1,1,1,0
690144046,690043907,2490378,-0.0185775,0.0018264826,-0.0027641146,0.34906584,2.0497917e-07,2.0668215e-07,4.2864173e-07,2490378,-0.26671356,0.30465668,-0.10146126,0.4,0.0005183723,0.000517458,0.00050462666,396809,0.0,0.0,0.0,0.5,0.0025000002,0.0025000002,0.0025000002,1,1,1,1,1,0
691150023,691049261,2490378,-0.018598838,0.0017730905,-0.0028013892,0.34906584,2.0501462e-07,2.0670889e-07,4.282522e-07,2490378,-0.26672146,0.30462986,-0.10125855,0.4,0.00051846093,0.0005175467,0.0005046275,396809,0.0,0.0,0.0,0.5,0.0025000002,0.0025000002,0.0025000002,1,1,1,1,1,0
692154668,692054614,2490378,-0.018602071,0.0017564996,-0.0028138235,0.34906584,2.0714639e-07,2.0882248e-07,4.2861248e-07,2490378,-0.2667214,0.30462095,-0.100655824,0.4,0.0005185511,0.0005176369,0.000504629,396809,0.0,0.0,0.0,0.5,0.0025000002,0.0025000002,0.0025000002,1,1,1,1,1,0
693159875,693059967,2490378,-0.018612687,0.0017490897,-0.0028227845,0.34906584,2.0806634e-07,2.0973147e-07,4.2896403e-07,2490378,-0.26672378,0.30461562,-0.099799104,0.4,0.0005186412,0.0005177271,0.00050463213,396809,0.0,0.0,0.0,0.5,0.0025000002,0.0025000002,0.0025000002,1,1,1,1,1,0
693816871,693716930,2490378,-0.018613443,0.0017490458,-0.0028307685,0.34906584,2.0924607e-07,2.1089696e-07,4.2882542e-07,2490378,-0.266722,0.30461475,-0.09878755,0.4,0.00051870063,0.00051778654,0.00050463143,396809,0.0,0.0,0.0,0.5,0.0025000002,0.0025000002,0.0025000002,1,1,1,1,1,0
694344551,694244491,2490378,-0.018616963,0.0017432807,-0.0028346581,0.34906584,2.0678411e-07,2.0844713e-07,4.288567e-07,2490378,-0.2667209,0.30461222,-0.09762616,0.4,0.00051874825,0.00051783427,0.00050463254,396809,0.0,0.0,0.0,0.5,0.0025000002,0.0025000002,0.0025000002,1,1,1,1,1,0
695349921,695249842,2490378,-0.0186148,0.0017293933,-0.0028561307,0.34906584,2.0835675e-07,2.0999768e-07,4.2847702e-07,2490378,-0.26671988,0.30460492,-0.09724789,0.4,0.0005188404,0.0005179265,0.0005046353,396809,0.0,0.0,0.0,0.5,0.0025000002,0.0025000002,0.0025000002,1,1,1,1,1,0
696355154,696255192,2490378,-0.018608822,0.0017172062,-0.0028847903,0.34906584,2.0956952e-07,2.1119665e-07,4.2883153e-07,2490378,-0.26671603,0.30459887,-0.09661583,0.4,0.00051893113,0.00051801745,0.00050463655,396809,0.0,0.0,0.0,0.5,0.0025000002,0.0025000002,0.0025000002,1,1,1,1,1,0
697360479,697260542,2490378,-0.018584719,0.0017374678,-0.0029219384,0.34906584,2.0748234e-07,2.091135e-07,4.284214e-07,2490378,-0.2667098,0.30459687,-0.09706114,0.4,0.00051902025,0.00051810686,0.0005046398,396809,0.0,0.0,0.0,0.5,0.0025000002,0.0025000002,0.0025000002,1,1,1,1,1,0
698365806,698265892,2490378,-0.018561786,0.00172512,-0.002945079,0.34906584,2.0594445e-07,2.0758553e-07,4.2874723e-07,2490378,-0.26670468,0.3045906,-0.0964493,0.4,0.0005191094,0.00051819615,0.0005046367,396809,0.0,0.0,0.0,0.5,0.0025000002,0.0025000002,0.0025000002,1,1,1,1,1,0
699371199,699271240,2490378,-0.018556528,0.0017424522,-0.0029099062,0.34906584,2.0676548e-07,2.0839666e-07,4.2835046e-07,2490378,-0.26671034,0.30459002,-0.096502356,0.4,0.0005191996,0.0005182865,0.00050463696,396809,0.0,0.0,0.0,0.5,0.0025000002,0.0025000002,0.0025000002,1,1,1,1,1,0
700376512,700276588,2490378,-0.018535027,0.0017567892,-0.0028196624,0.34906584,2.077582e-07,2.0938629e-07,4.2869152e-07,2490378,-0.26671934,0.30459043,-0.09626585,0.4,0.0005192896,0.00051837653,0.0005046379,396809,0.0,0.0,0.0,0.5,0.0025000002,0.0025000002,0.0025000002,1,1,1,1,1,0
701362075,701262027,2490378,-0.018525273,0.0017798927,-0.002681872,0.34906584,2.1065507e-07,2.1226589e-07,4.288498e-07,2490378,-0.26673537,0.30459243,-0.09729472,0.4,0.00051937846,0.0005184654,0.0005046367,396809,0.0,0.0,0.0,0.5,0.0025000002,0.0025000002,0.0025000002,1,1,1,1,1,0
702368191,702267374,2490378,-0.018520473,0.0017652656,-0.00252851,0.34906584,2.1064335e-07,2.1225698e-07,4.2844079e-07,2490378,-0.2667467,0.30459794,-0.097318746,0.4,0.0005194684,0.0005185554,0.0005046367,396809,0.0,0.0,0.0,0.5,0.0025000002,0.0025000002,0.0025000002,1,1,1,1,1,0
703372664,703272720,2490378,-0.018503906,0.0017561323,-0.002431772,0.34906584,2.1035389e-07,2.1197938e-07,4.2876428e-07,2490378,-0.2667569,0.3046016,-0.097504064,0.4,0.0005195578,0.0005186448,0.0005046365,396809,0.0,0.0,0.0,0.5,0.0025000002,0.0025000002,0.0025000002,1,1,1,1,1,0
704378038,704278066,2490378,-0.018493004,0.0017866802,-0.002318783,0.34906584,2.1089218e-07,2.1251734e-07,4.2835438e-07,2490378,-0.26676822,0.3045959,-0.09759429,0.4,0.0005196467,0.0005187337,0.00050463714,396809,0.0,0.0,0.0,0.5,0.0025000002,0.0025000002,0.0025000002,1,1,1,1,1,0
705373534,705273458,2490378,-0.018484548,0.0017770821,-0.002198543,0.34906584,2.0874025e-07,2.1039266e-07,4.2856198e-07,2490378,-0.26677492,0.3046053,-0.09926395,0.4,0.00051973254,0.0005188196,0.0005046353,396809,0.0,0.0,0.0,0.5,0.0025000002,0.0025000002,0.0025000002,1,1,1,1,1,0
706378712,706278801,2490378,-0.018485682,0.0017408262,-0.002072678,0.34906584,2.1039097e-07,2.1203897e-07,4.2890375e-07,2490378,-0.26677462,0.3046315,-0.10020334,0.4,0.0005198227,0.0005189098,0.0005046384,396809,0.0,0.0,0.0,0.5,0.0025000002,0.0025000002,0.0025000002,1,1,1,1,1,0
707384082,707284145,2490378,-0.018469749,0.0017148319,-0.0020291999,0.34906584,2.081835e-07,2.0985381e-07,4.2847338e-07,2490378,-0.26678568,0.30464947,-0.09959,0.4,0.00051990885,0.00051899627,0.0005046394,396809,0.0,0.0,0.0,0.5,0.0025000002,0.0025000002,0.0025000002,1,1,1,1,1,0
708389418,708289488,2490378,-0.018460896,0.0017024068,-0.0020399785,0.34906584,2.0717137e-07,2.0885898e-07,4.2879375e-07,2490378,-0.26679438,0.30465233,-0.10021772,0.4,0.0005199957,0.00051908393,0.0005046434,396809,0.0,0.0,0.0,0.5,0.0025000002,0.0025000002,0.0025000002,1,1,1,1,1,0
709394764,709294830,2490378,-0.018458487,0.0016943228,-0.0020588879,0.34906584,2.087277e-07,2.1040485e-07,4.283933e-07,2490378,-0.26679778,0.3046527,-0.10016455,0.4,0.0005200844,0.00051917345,0.00050464534,396809,0.0,0.0,0.0,0.5,0.0025000002,0.0025000002,0.0025000002,1,1,1,1,1,0
710400110,710300172,2490378,-0.018473655,0.0016600405,-0.002080581,0.34906584,2.1085229e-07,2.1252043e-07,4.287356e-07,2490378,-0.26678646,0.30467066,-0.099660955,0.4,0.00052017247,0.0005192621,0.000504645,396809,0.0,0.0,0.0,0.5,0.0025000002,0.0025000002,0.0025000002,1,1,1,1,1,0
711405427,711305513,2490378,-0.018467199,0.0016631692,-0.0021068733,0.34906584,2.1345718e-07,2.1510542e-07,4.2834452e-07,2490378,-0.26678902,0.30466956,-0.09868484,0.4,0.00052026036,0.0005193504,0.00050464895,396809,0.0,0.0,0.0,0.5,0.0025000002,0.0025000002,0.0025000002,1,1,1,1,1,0
712162169,712062007,2490378,-0.018456701,0.0016930441,-0.0021791747,0.34906584,2.13985e-07,2.156326e-07,4.2843237e-07,2490378,-0.26679406,0.30465668,-0.09761591,0.4,0.0005203262,0.0005194166,0.00050464534,396809,0.0,0.0,0.0,0.5,0.0025000002,0.0025000002,0.0025000002,1,1,1,1,1,0
713167521,713067347,2490378,-0.018448584,0.0016907261,-0.002283644,0.34906584,2.144752e-07,2.1612578e-07,4.2876079e-07,2490378,-0.2667947,0.30465367,-0.09693148,0.4,0.00052041444,0.0005195053,0.00050464546,396809,0.0,0.0,0.0,0.5,0.0025000002,0.0025000002,0.0025000002,1,1,1,1,1,0
714172728,714072687,2490378,-0.018463716,0.0016578952,-0.002397471,0.34906584,2.1536385e-07,2.1700853e-07,4.283556e-07,2490378,-0.26678595,0.30465838,-0.096909314,0.4,0.00052050326,0.0005195941,0.00050464505,396809,0.0,0.0,0.0,0.5,0.0025000002,0.0025000002,0.0025000002,1,1,1,1,1,0
715178221,715078026,2490378,-0.018487057,0.0016011044,-0.002497021,0.34906584,2.1588696e-07,2.1753348e-07,4.2868308e-07,2490378,-0.26677802,0.30466372,-0.09704043,0.4,0.0005205928,0.0005196838,0.00050464587,396809,0.0,0.0,0.0,0.5,0.0025000002,0.0025000002,0.0025000002,1,1,1,1,1,0
716183452,716083364,2490378,-0.018498605,0.0015739634,-0.002595491,0.34906584,2.1348575e-07,2.1514964e-07,4.2825e-07,2490378,-0.26677343,0.30466536,-0.097420804,0.4,0.00052068324,0.0005197741,0.00050464645,396809,0.0,0.0,0.0,0.5,0.0025000002,0.0025000002,0.0025000002,1,1,1,1,1,0
717188731,717088702,2490378,-0.018510709,0.0015744368,-0.0026886873,0.34906584,2.1247908e-07,2.1415444e-07,4.2856794e-07,2490378,-0.26677167,0.30467126,-0.09753392,0.4,0.00052077236,0.00051986333,0.00050464616,396809,0.0,0.0,0.0,0.5,0.0025000002,0.0025000002,0.0025000002,1,1,1,1,1,0
718194127,718094039,2490378,-0.018506344,0.0015544648,-0.002780837,0.34906584,2.1070673e-07,2.1239161e-07,4.2814597e-07,2490378,-0.26676378,0.30466825,-0.09836699,0.4,0.0005208614,0.0005199526,0.0005046477,396809,0.0,0.0,0.0,0.5,0.0025000002,0.0025000002,0.0025000002,1,1,1,1,1,0
719199505,719099376,2490378,-0.018504223,0.0015430454,-0.0028697643,0.34906584,2.1191185e-07,2.1358883e-07,4.2848936e-07,2490378,-0.2667575,0.30467027,-0.09829099,0.4,0.00052094855,0.0005200402,0.0005046453,396809,0.0,0.0,0.0,0.5,0.0025000002,0.0025000002,0.0025000002,1,1,1,1,1,0
720204814,720104712,2490378,-0.018486718,0.001534833,-0.0029622978,0.34906584,2.1438132e-07,2.1604015e-07,4.2884642e-07,2490378,-0.26674056,0.30467352,-0.098470025,0.4,0.0005210362,0.00052012835,0.000504649,396809,0.0,0.0,0.0,0.5,0.0025000002,0.0025000002,0.0025000002,1,1,1,1,1,0
721210039,721110047,2490378,-0.018496938,0.0015062029,-0.0030411202,0.34906584,2.1543367e-07,2.1707889e-07,4.2845303e-07,2490378,-0.2667439,0.30466303,-0.097823724,0.4,0.0005211233,0.00052021624,0.00050464727,396809,0.0,0.0,0.0,0.5,0.0025000002,0.0025000002,0.0025000002,1,1,1,1,1,0
722215399,722115382,2490378,-0.018500306,0.0014718324,-0.0031044073,0.34906584,2.1617875e-07,2.1781825e-07,4.2879518e-07,2490378,-0.26674214,0.30464658,-0.09787576,0.4,0.0005212098,0.00052030367,0.00050464744,396809,0.0,0.0,0.0,0.5,0.0025000002,0.0025000002,0.0025000002,1,1,1,1,1,0
723220719,723120717,2490378,-0.01848478,0.0015148496,-0.0031765304,0.34906584,2.1906735e-07,2.2067869e-07,4.2841856e-07,2490378,-0.26672378,0.30468258,-0.09764779,0.4,0.00052129704,0.00052039145,0.0005046509,396809,0.0,0.0,0.0,0.5,0.0025000002,0.0025000002,0.0025000002,1,1,1,1,1,0
724226119,724126051,2490378,-0.018482352,0.0014934663,-0.003221956,0.34906584,2.1874e-07,2.2035239e-07,4.287556e-07,2490378,-0.2667198,0.30467194,-0.097367994,0.4,0.00052138325,0.0005204787,0.0005046499,396809,0.0,0.0,0.0,0.5,0.0025000002,0.0025000002,0.0025000002,1,1,1,1,1,0
724992475,724892493,2490378,-5.9521236e-14,-4.9905893e-06,-5.4013795e-05,0.34906584,0.009999999,0.009999997,0.00999989,2490378,-0.26669982,0.30469793,-0.09652789,0.4,0.0005214472,0.000520544,0.0005046537,396809,0.0,0.0,0.0,0.5,0.0025000002,0.0025000002,0.0025000002,1,0,1,1,1,0
725141766,725041800,2490378,-1.8445661e-07,-0.00012720919,-0.0013898432,0.34906584,0.010000004,0.009999699,0.009963516,2490378,-0.2666991,0.30469805,-0.096609145,0.4,0.00052146084,0.00052055763,0.000504653,396809,0.0,0.0,0.0,0.5,0.0025000002,0.0025000002,0.0025000002,1,0,1,1,1,0
725221391,725121430,2490378,7.4855474e-05,8.6129345e-05,-0.0028734268,0.34906584,0.00999759,0.009996795,0.009902215,2490378,-0.266697,0.30470335,-0.09644452,0.4,0.00052146777,0.00052056473,0.0005046563,396809,0.0,0.0,0.0,0.5,0.0025000002,0.0025000002,0.0025000002,1,0,1,1,1,0
725291095,725191107,2490378,7.495848e-05,-8.360042e-05,-0.0047345343,0.34906584,0.009997586,0.009995958,0.009802029,2490378,-0.26669648,0.30470327,-0.096455306,0.4,0.0005214737,0.00052057067,0.00050465687,396809,0.0,0.0,0.0,0.5,0.0025000002,0.0025000002,0.0025000002,1,0,1,1,1,0
725370906,725270737,2490378,0.0015654347,0.00083544553,-0.007045866,0.34906584,0.00991924,0.009916968,0.009647464,2490378,-0.2666907,0.30470675,-0.09609753,0.4,0.00052148016,0.0005205774,0.0005046529,396809,0.0,0.0,0.0,0.5,0.0025000002,0.0025000002,0.0025000002,1,0,1,1,1,0
725440376,725340414,2490378,0.001566459,0.0006327833,-0.009279453,0.34906584,0.009919234,0.00991527,0.00944207,2490378,-0.26669025,0.30470663,-0.09609131,0.4,0.00052148604,0.00052058324,0.0005046561,396809,0.0,0.0,0.0,0.5,0.0025000002,0.0025000002,0.0025000002,1,0,1,1,1,0
725520029,725420044,2490378,0.0015682132,0.00037164148,-0.012158849,0.34906584,0.009919242,0.009913073,0.009173989,2490378,-0.26668987,0.30470675,-0.09612543,0.4,0.00052149355,0.00052059075,0.0005046529,396809,0.0,0.0,0.0,0.5,0.0025000002,0.0025000002,0.0025000002,1,0,1,1,1,0
725559921,725459859,2490378,-0.0028870439,-0.0037426047,-0.011726143,0.34906584,0.00926578,0.009264956,0.009168425,2490378,-0.26669723,0.3047002,-0.09593796,0.4,0.0005214956,0.0005205931,0.00050465314,396809,0.0,0.0,0.0,0.5,0.0025000002,0.0025000002,0.0025000002,1,0,1,1,1,0
725589681,725489721,2490378,-0.002891205,-0.003954223,-0.014020375,0.34906584,0.009265769,0.009262229,0.008849195,2490378,-0.2666968,0.30470002,-0.09592348,0.4,0.0005214976,0.0005205951,0.00050465437,396809,0.0,0.0,0.0,0.5,0.0025000002,0.0025000002,0.0025000002,1,0,1,1,1,0
