timestamp,timestamp_sample,ref_timestamp,ref_lat,ref_lon,x,y,z,delta_xy[0],delta_xy[1],delta_z,vx,vy,vz,z_deriv,delta_vxy[0],delta_vxy[1],delta_vz,ax,ay,az,heading,delta_heading,ref_alt,dist_bottom,eph,epv,evh,evv,vxy_max,vz_max,hagl_min,hagl_max,xy_valid,z_valid,v_xy_valid,v_z_valid,xy_reset_counter,z_reset_counter,vxy_reset_counter,vz_reset_counter,heading_reset_counter,heading_good_for_control,xy_global,z_global,dist_bottom_valid,dist_bottom_sensor_bitfield
539798320,539798127,45930887,42.3585499,-71.08724959999999,3.5089526,-2.9769733,5.389644,135.74428,-67.36629,0.004210472,0.050406292,0.012319334,0.02224647,0.014918748,27.919779,-14.272897,-0.8739293,0.04950256,0.060145535,-0.07915712,2.9686444,-0.0044271164,5.8788695,0.10115671,0.6262194,0.46230477,0.20679684,0.12809835,inf,inf,inf,inf,1,1,1,1,8,21,8,28,4,0,1,1,1,0
540298307,540298069,45930887,42.3585499,-71.08724959999999,3.5403814,-2.99996,5.3965306,135.74428,-67.36629,0.004210472,0.05033989,0.007164717,0.017807717,0.012078528,27.919779,-14.272897,-0.8739293,0.055271722,-0.053472374,0.013250342,2.967934,-0.0044271164,5.8788695,0.1,0.6272218,0.45777893,0.20162383,0.12649326,inf,inf,inf,inf,1,1,1,1,8,21,8,28,4,0,1,1,1,0
540798253,540798012,45930887,42.3585499,-71.08724959999999,3.5753448,-3.0442295,5.3888297,135.74428,-67.36629,0.004210472,0.052928474,-0.00824935,0.012853123,2.1549633e-05,27.919779,-14.272897,-0.8739293,0.0052666995,-0.046277896,0.059945147,2.9672108,-0.0044271164,5.8788695,0.1,0.59344846,0.44882485,0.18050034,0.121424235,inf,inf,inf,inf,1,1,1,1,8,21,8,28,4,0,1,1,1,0
541298146,541297954,45930887,42.3585499,-71.08724959999999,3.5831885,-3.1184373,5.37324,135.74428,-67.36629,0.004210472,0.039127383,-0.03012608,0.008712012,-0.017064074,27.919779,-14.272897,-0.8739293,0.016342511,-0.038718853,-0.12380434,2.9663393,-0.0044271164,5.8788695,0.1,0.59695387,0.44901386,0.18223415,0.12152596,inf,inf,inf,inf,1,1,1,1,8,21,8,28,4,0,1,1,1,0
541798218,541797897,45930887,42.3585499,-71.08724959999999,3.5958395,-3.180374,5.351115,135.74428,-67.36629,0.004210472,0.03010956,-0.04023166,0.011345515,-0.023851093,27.919779,-14.272897,-0.8739293,-0.0023168128,0.0035671766,0.120769545,2.966029,-0.0044271164,5.8788695,0.1,0.5834315,0.44416335,0.17988539,0.12043485,inf,inf,inf,inf,1,1,1,1,8,21,8,28,4,0,1,1,1,0
542298283,542297839,45930887,42.3585499,-71.08724959999999,3.6148767,-3.2307322,5.334044,135.74428,-67.36629,0.004210472,0.030048775,-0.04600595,0.0052252742,-0.033714075,27.919779,-14.272897,-0.8739293,0.03619692,0.01892673,-0.0863166,2.9659617,-0.0044271164,5.8788695,0.1,0.57611513,0.4457607,0.18203786,0.12119883,inf,inf,inf,inf,1,1,1,1,8,21,8,28,4,0,1,1,1,0
542797991,542797782,45930887,42.3585499,-71.08724959999999,3.632488,-3.3161228,5.3003044,135.74428,-67.36629,0.004210472,0.022021376,-0.06919226,-0.00015135366,-0.04815384,27.919779,-14.272897,-0.8739293,0.012919773,-0.075730205,-0.08554452,2.965939,-0.0044271164,5.8788695,0.1,0.5844244,0.44815052,0.18639167,0.122259505,inf,inf,inf,inf,1,1,1,1,8,21,8,28,4,0,1,1,1,0
543297944,543297725,45930887,42.3585499,-71.08724959999999,3.6455028,-3.3606417,5.2709846,135.74428,-67.36629,0.004210472,0.017078843,-0.07511681,-0.02221915,-0.06698659,27.919779,-14.272897,-0.8739293,0.045565154,-0.009671874,-0.0708737,2.9658656,-0.0044271164,5.8788695,0.10571337,0.59377235,0.45080227,0.19137242,0.12344086,inf,inf,inf,inf,1,1,1,1,8,21,8,28,4,0,1,1,1,0
543797856,543797667,45930887,42.3585499,-71.08724959999999,3.6491969,-3.3752327,5.2499022,135.74428,-67.36629,0.004210472,0.007963292,-0.06695774,-0.022920558,-0.05623307,27.919779,-14.272897,-0.8739293,-0.027920343,-0.02297,0.02175661,2.966034,-0.0044271164,5.8788695,0.10904789,0.5792826,0.4491845,0.18524969,0.12227042,inf,inf,inf,inf,1,1,1,1,8,21,8,28,4,0,1,1,1,0
544297860,544297610,45930887,42.3585499,-71.08724959999999,3.6814933,-3.381736,5.2343864,135.74428,-67.36629,0.004210472,0.010744159,-0.05447975,-0.011127537,-0.037067503,27.919779,-14.272897,-0.8739293,-0.023088701,0.044888124,0.018689457,2.966122,-0.0044271164,5.8788695,0.1,0.5903816,0.44880578,0.19146788,0.123278886,inf,inf,inf,inf,1,1,1,1,8,21,8,28,4,0,1,1,1,0
544797768,544797553,45930887,42.3585499,-71.08724959999999,3.70364,-3.3733437,5.2280703,135.74428,-67.36629,0.004210472,0.018888114,-0.037766088,-0.010479969,-0.027789993,27.919779,-14.272897,-0.8739293,0.051242705,0.004418403,-0.019637259,2.9662845,-0.0044271164,5.8788695,0.10586786,0.57931054,0.44866836,0.18830757,0.12288589,inf,inf,inf,inf,1,1,1,1,8,21,8,28,4,0,1,1,1,0
545297686,545297496,45930887,42.3585499,-71.08724959999999,3.7385924,-3.3814259,5.2186704,135.74428,-67.36629,0.004210472,0.030021835,-0.03389421,-0.006473805,-0.023790717,27.919779,-14.272897,-0.8739293,0.03260667,-0.066067494,-0.069087505,2.9664574,-0.0044271164,5.8788695,0.1,0.59677327,0.45416245,0.1983872,0.12535653,inf,inf,inf,inf,1,1,1,1,8,21,8,28,4,0,1,1,1,0
545797626,545797438,45930887,42.3585499,-71.08724959999999,3.724528,-3.401962,5.2162185,135.74428,-67.36629,0.004210472,0.017286688,-0.036962233,-0.0057999915,-0.016294498,27.919779,-14.272897,-0.8739293,0.003927105,0.15578431,0.19968593,2.9666772,-0.0044271164,5.8788695,0.10152578,0.5904427,0.45570838,0.19750293,0.12562014,inf,inf,inf,inf,1,1,1,1,8,21,8,28,4,0,1,1,1,0
546297588,546297381,45930887,42.3585499,-71.08724959999999,3.7321556,-3.4146369,5.1977267,135.74428,-67.36629,0.004210472,0.0185211,-0.031874526,-0.011238572,-0.03008389,27.919779,-14.272897,-0.8739293,-0.005029614,-0.02603347,-0.024754,2.9665961,-0.0044271164,5.8788695,0.1,0.604111,0.45533913,0.20214212,0.12624264,inf,inf,inf,inf,1,1,1,1,8,21,8,28,4,0,1,1,1,0
546797673,546797327,45930887,42.3585499,-71.08724959999999,3.7429414,-3.3985376,5.1917,135.74428,-67.36629,0.004210472,0.018898435,-0.019719608,-0.010112921,-0.023580588,27.919779,-14.272897,-0.8739293,0.023802483,0.008074941,0.16149119,2.9663553,-0.0044271164,5.8788695,0.106954575,0.59937495,0.4574465,0.2012618,0.12660582,inf,inf,inf,inf,1,1,1,1,8,21,8,28,4,0,1,1,1,0
547297468,547297267,45930887,42.3585499,-71.08724959999999,3.7844748,-3.360349,5.197986,135.74428,-67.36629,0.004210472,0.028735612,0.004538519,0.00528015,0.0040166085,27.919779,-14.272897,-0.8739293,0.0113584595,0.035155207,0.024895772,2.9664795,-0.0044271164,5.8788695,0.10736418,0.6167982,0.46193343,0.20800711,0.12815574,inf,inf,inf,inf,1,1,1,1,8,21,8,28,4,0,1,1,1,0
547797441,547797210,45930887,42.3585499,-71.08724959999999,3.811824,-3.3243713,5.2013984,135.74428,-67.36629,0.004210472,0.032590102,0.02419387,0.00499293,0.005435521,27.919779,-14.272897,-0.8739293,-0.0053682695,0.029503461,0.12553523,2.9666958,-0.0044271164,5.8788695,0.10243416,0.60852915,0.45884722,0.20403443,0.12723716,inf,inf,inf,inf,1,1,1,1,8,21,8,28,4,0,1,1,1,0
548297393,548297153,45930887,42.3585499,-71.08724959999999,3.8411202,-3.3121972,5.211352,135.74428,-67.36629,0.004210472,0.03479822,0.029496836,0.010450798,0.016077414,27.919779,-14.272897,-0.8739293,-0.03260027,0.020246191,-0.031508904,2.9666927,-0.0044271164,5.8788695,0.10175896,0.620192,0.46117342,0.2060419,0.1276808,inf,inf,inf,inf,1,1,1,1,8,21,8,28,4,0,1,1,1,0
548797279,548797096,45930887,42.3585499,-71.08724959999999,3.9169297,-3.2645688,5.2308426,135.74428,-67.36629,0.004210472,0.05778185,0.046423197,0.01580407,0.026484115,27.919779,-14.272897,-0.8739293,-0.002231958,-0.08855476,-0.004340683,2.966922,-0.0044271164,5.8788695,0.1,0.61474967,0.46275663,0.20446776,0.12775591,inf,inf,inf,inf,1,1,1,1,8,21,8,28,4,0,1,1,1,0
549297226,549297039,45930887,42.3585499,-71.08724959999999,3.936737,-3.2369757,5.244626,135.74428,-67.36629,0.004210472,0.053527754,0.056359448,0.017405309,0.025698492,27.919779,-14.272897,-0.8739293,0.0010822322,0.009700707,-0.011985651,2.9671168,-0.0044271164,5.8788695,0.1,0.63319314,0.46702254,0.21129411,0.12916052,inf,inf,inf,inf,1,1,1,1,8,21,8,28,4,0,1,1,1,0
549797213,549796983,45930887,42.3585499,-71.08724959999999,3.9470427,-3.2354147,5.2564425,135.74428,-67.36629,0.004210472,0.04334267,0.05542452,0.02399021,0.028163716,27.919779,-14.272897,-0.8739293,0.0076105525,0.014939622,0.011981833,2.9668312,-0.0044271164,5.8788695,0.1,0.6131178,0.45985037,0.1989732,0.12628812,inf,inf,inf,inf,1,1,1,1,8,21,8,28,4,0,1,1,1,0
550297111,550296926,45930887,42.3585499,-71.08724959999999,4.0049334,-3.2544234,5.2522445,135.74428,-67.36629,0.004210472,0.057898313,0.04276213,0.018766752,0.008872975,27.919779,-14.272897,-0.8739293,0.014921517,0.01982723,0.009707375,2.9664145,-0.0044271164,5.8788695,0.1,0.62199104,0.46112472,0.20054832,0.12645552,inf,inf,inf,inf,1,1,1,1,8,21,8,28,4,0,1,1,1,0
550797058,550796870,45930887,42.3585499,-71.08724959999999,4.0157576,-3.244197,5.24715,135.74428,-67.36629,0.004210472,0.04498585,0.045651708,0.030903628,0.01075965,27.919779,-14.272897,-0.8739293,-0.0049092155,-0.014670096,-0.00036250576,2.9660416,-0.0044271164,5.8788695,0.1,0.60208726,0.45750555,0.1900633,0.12419814,inf,inf,inf,inf,1,1,1,1,8,21,8,28,4,0,1,1,1,0
551297144,551296812,45930887,42.3585499,-71.08724959999999,4.0251718,-3.2480016,5.2273808,135.74428,-67.36629,0.004210472,0.044116482,0.04109768,0.020238487,-0.017487373,27.919779,-14.272897,-0.8739293,0.0013139481,-0.035607066,0.050617293,2.9654984,-0.0044271164,5.8788695,0.1,0.6088841,0.4583265,0.19240245,0.12446585,inf,inf,inf,inf,1,1,1,1,8,21,8,28,4,0,1,1,1,0
551796984,551796756,45930887,42.3585499,-71.08724959999999,4.0477576,-3.2611005,5.205503,135.74428,-67.36629,0.004210472,0.044839397,0.034158196,0.015862757,-0.029791951,27.919779,-14.272897,-0.8739293,-0.017562686,0.018390067,0.039504252,2.9652689,-0.0044271164,5.8788695,0.1,0.59216815,0.4517981,0.18575014,0.12242082,inf,inf,inf,inf,1,1,1,1,8,21,8,28,4,0,1,1,1,0
552296888,552296699,45930887,42.3585499,-71.08724959999999,4.0960917,-3.2731543,5.1910334,135.74428,-67.36629,0.004210472,0.051225364,0.03369799,0.012308197,-0.03313245,27.919779,-14.272897,-0.8739293,-0.022287704,0.0070581227,0.014964051,2.9654682,-0.0044271164,5.8788695,0.1,0.6028047,0.45430526,0.19191505,0.123691685,inf,inf,inf,inf,1,1,1,1,8,21,8,28,4,0,1,1,1,0
552796829,552796642,45930887,42.3585499,-71.08724959999999,4.1076527,-3.2845187,5.1765704,135.74428,-67.36629,0.004210472,0.041764665,0.034027338,0.015373479,-0.028429711,27.919779,-14.272897,-0.8739293,0.0209218,-0.005022427,-0.017803127,2.9654546,-0.0044271164,5.8788695,0.100596905,0.5829668,0.45018467,0.18216677,0.12145128,inf,inf,inf,inf,1,1,1,1,8,21,8,28,4,0,1,1,1,0
553301855,553296586,45930887,42.3585499,-71.08724959999999,4.1255994,-3.3063848,5.1820426,135.74428,-67.36629,0.004210472,0.0372429,0.030930381,0.025024,-0.005566586,27.919779,-14.272897,-0.8739293,0.009347964,0.01900087,-0.070399314,2.9652984,-0.0044271164,5.8788695,0.10164833,0.58733386,0.45038632,0.18399575,0.121685356,inf,inf,inf,inf,1,1,1,1,8,21,8,28,4,0,1,1,1,0
553796750,553796529,45930887,42.3585499,-71.08724959999999,4.1635466,-3.3598485,5.1985636,135.74428,-67.36629,0.004210472,0.044492267,0.011809786,0.029534224,0.0139997825,27.919779,-14.272897,-0.8739293,0.0031305368,0.028349759,-0.04468105,2.9651742,-0.0044271164,5.8788695,0.1,0.56855845,0.44265285,0.17660415,0.1192488,inf,inf,inf,inf,1,1,1,1,8,21,8,28,4,0,1,1,1,0
554296682,554296473,45930887,42.3585499,-71.08724959999999,4.1606407,-3.3910785,5.19274,135.74428,-67.36629,0.004210472,0.030657666,0.0070831417,0.024837704,0.00033653103,27.919779,-14.272897,-0.8739293,0.00022201307,0.018082919,0.0780734,2.965037,-0.0044271164,5.8788695,0.1,0.57549226,0.4443197,0.18151379,0.120374665,inf,inf,inf,inf,1,1,1,1,8,21,8,28,4,0,1,1,1,0
554796665,554796417,45930887,42.3585499,-71.08724959999999,4.1451893,-3.4010792,5.1796784,135.74428,-67.36629,0.004210472,0.009440135,0.0087611675,0.03298154,-0.0023178295,27.919779,-14.272897,-0.8739293,-0.015538754,-0.0012802214,-0.04958965,2.9648612,-0.0044271164,5.8788695,0.1,0.5641184,0.44371298,0.17969604,0.12015956,inf,inf,inf,inf,1,1,1,1,8,21,8,28,4,0,1,1,1,0
555296565,555296361,45930887,42.3585499,-71.08724959999999,4.089623,-3.3352458,5.1631866,135.74428,-67.36629,0.004210472,-0.010692198,0.040446516,0.023843663,-0.019896518,27.919779,-14.272897,-0.8739293,0.007592702,0.006458917,-0.021379478,2.964803,-0.0044271164,5.8788695,0.1,0.5735456,0.44659433,0.1858879,0.12173832,inf,inf,inf,inf,1,1,1,1,8,21,8,28,4,0,1,1,1,0
555796640,555796304,45930887,42.3585499,-71.08724959999999,4.0565047,-3.3295248,5.1440477,135.74428,-67.36629,0.004210472,-0.027359907,0.037721235,0.026052542,-0.024509983,27.919779,-14.272897,-0.8739293,-0.015393203,0.012965896,0.025839798,2.9647486,-0.0044271164,5.8788695,0.1,0.5519619,0.43773335,0.17349944,0.118299894,inf,inf,inf,inf,1,1,1,1,8,21,8,28,4,0,1,1,1,0
556296432,556296248,45930887,42.3585499,-71.08724959999999,4.0385046,-3.3100955,5.1220727,135.74428,-67.36629,0.004210472,-0.033511072,0.04442872,0.018925883,-0.034889426,27.919779,-14.272897,-0.8739293,0.0062161377,0.0061644525,0.09038824,2.9647522,-0.0044271164,5.8788695,0.1,0.5637743,0.4420512,0.18283716,0.12075269,inf,inf,inf,inf,1,1,1,1,8,21,8,28,4,0,1,1,1,0
556796382,556796192,45930887,42.3585499,-71.08724959999999,4.0621014,-3.308806,5.111108,135.74428,-67.36629,0.004210472,-0.016536545,0.041464563,0.012738154,-0.03282765,27.919779,-14.272897,-0.8739293,0.026451353,-0.004176208,0.0150901275,2.9648118,-0.0044271164,5.8788695,0.10360575,0.55078,0.44076985,0.17838717,0.11992832,inf,inf,inf,inf,1,1,1,1,8,21,8,28,4,0,1,1,1,0
557296323,557296136,45930887,42.3585499,-71.08724959999999,4.0902658,-3.3056812,5.0924373,135.74428,-67.36629,0.004210472,-0.0040007103,0.039558582,0.0035107485,-0.042528134,27.919779,-14.272897,-0.8739293,-0.043510646,0.0018179134,0.025827095,2.965002,-0.0044271164,5.8788695,0.1019187,0.5683099,0.4471573,0.19074956,0.123185046,inf,inf,inf,inf,1,1,1,1,8,21,8,28,4,0,1,1,1,0
557796268,557796079,45930887,42.3585499,-71.08724959999999,4.1063905,-3.310991,5.0689826,135.74428,-67.36629,0.004210472,-0.004833749,0.03590778,0.0043267803,-0.041972265,27.919779,-14.272897,-0.8739293,-0.040031604,0.027056646,-0.041317474,2.9650335,-0.0044271164,5.8788695,0.100997925,0.5632004,0.44564846,0.19102292,0.12334044,inf,inf,inf,inf,1,1,1,1,8,21,8,28,4,0,1,1,1,0
558296209,558296024,45930887,42.3585499,-71.08724959999999,4.127684,-3.3044865,5.062273,135.74428,-67.36629,0.004210472,-0.0040509054,0.035891715,0.0028935578,-0.030390374,27.919779,-14.272897,-0.8739293,0.034746405,-0.010712129,-0.03183055,2.9651928,-0.0044271164,5.8788695,0.11096573,0.57781273,0.450034,0.19724467,0.1250407,inf,inf,inf,inf,1,1,1,1,8,21,8,28,4,0,1,1,1,0
558796155,558795968,45930887,42.3585499,-71.08724959999999,4.1612024,-3.285472,5.0702577,135.74428,-67.36629,0.004210472,0.0048204185,0.040643185,0.007625877,-0.011118252,27.919779,-14.272897,-0.8739293,-0.007952241,0.014910561,-0.046952646,2.9654007,-0.0044271164,5.8788695,0.10319805,0.5660833,0.44975796,0.19120009,0.12418438,inf,inf,inf,inf,1,1,1,1,8,21,8,28,4,0,1,1,1,0
559296126,559295912,45930887,42.3585499,-71.08724959999999,4.1738234,-3.3279371,5.06047,135.74428,-67.36629,0.004210472,0.0071808305,0.017112134,0.0034459503,-0.018871414,27.919779,-14.272897,-0.8739293,-0.0427716,-0.03813294,0.013961551,2.9653559,-0.0044271164,5.8788695,0.1,0.5773971,0.44912323,0.19484389,0.12461545,inf,inf,inf,inf,1,1,1,1,8,21,8,28,4,0,1,1,1,0
559796124,559795856,45930887,42.3585499,-71.08724959999999,4.1809154,-3.334037,5.058627,135.74428,-67.36629,0.004210472,0.0076351566,0.014465589,0.00063951104,-0.014159644,27.919779,-14.272897,-0.8739293,0.025408132,0.035033204,-0.20076366,2.9653306,-0.0044271164,5.8788695,0.11026001,0.5658662,0.4487791,0.18947123,0.12376568,inf,inf,inf,inf,1,1,1,1,8,21,8,28,4,0,1,1,1,0
560296091,560295800,45930887,42.3585499,-71.08724959999999,4.1909103,-3.317487,5.071829,135.74428,-67.36629,0.004210472,0.008977345,0.020210695,0.0085021155,0.007399546,27.919779,-14.272897,-0.8739293,0.004377358,-0.0040061767,0.068236075,2.9653754,-0.0044271164,5.8788695,0.10110283,0.57911175,0.45240533,0.19503522,0.12506114,inf,inf,inf,inf,1,1,1,1,8,21,8,28,4,0,1,1,1,0
560795929,560795744,45930887,42.3585499,-71.08724959999999,4.21206,-3.3189175,5.0742464,135.74428,-67.36629,0.004210472,0.022187775,0.012852247,-0.00039721688,-0.0042975233,27.919779,-14.272897,-0.8739293,0.00014830015,0.0013340833,0.020070307,2.9652555,-0.0044271164,5.8788695,0.100765705,0.57028663,0.45296386,0.19169395,0.12467554,inf,inf,inf,inf,1,1,1,1,8,21,8,28,4,0,1,1,1,0
561295951,561295688,45930887,42.3585499,-71.08724959999999,4.231516,-3.3132055,5.0770106,135.74428,-67.36629,0.004210472,0.030589284,0.006846054,0.007181814,0.0038976606,27.919779,-14.272897,-0.8739293,0.009819444,-0.0012664652,0.076217875,2.9651332,-0.0044271164,5.8788695,0.1,0.58483636,0.45301846,0.1975335,0.12549129,inf,inf,inf,inf,1,1,1,1,8,21,8,28,4,0,1,1,1,0
561795821,561795632,45930887,42.3585499,-71.08724959999999,4.2088327,-3.3140779,5.084895,135.74428,-67.36629,0.004210472,0.020448904,0.00039199056,0.006665024,0.007126751,27.919779,-14.272897,-0.8739293,-0.017629683,-0.023762602,0.025354305,2.965273,-0.0044271164,5.8788695,0.11187315,0.5742363,0.45286217,0.19245741,0.124691136,inf,inf,inf,inf,1,1,1,1,8,21,8,28,4,0,1,1,1,0
562295765,562295577,45930887,42.3585499,-71.08724959999999,4.188741,-3.2841284,5.106518,135.74428,-67.36629,0.004210472,0.014320424,0.008940649,0.028933428,0.03551573,27.919779,-14.272897,-0.8739293,-0.019397177,0.011992732,0.09241328,2.9652562,-0.0044271164,5.8788695,0.1,0.5796853,0.45317256,0.19126318,0.124287985,inf,inf,inf,inf,1,1,1,1,8,21,8,28,4,0,1,1,1,0
562795741,562795521,45930887,42.3585499,-71.08724959999999,4.186315,-3.2421846,5.108121,135.74428,-67.36629,0.004210472,0.0131032765,0.009776129,0.02511407,0.020190705,27.919779,-14.272897,-0.8739293,-0.04197151,0.025889706,0.06881952,2.9653096,-0.0044271164,5.8788695,0.1,0.57247674,0.45394754,0.18958932,0.124168515,inf,inf,inf,inf,1,1,1,1,8,21,8,28,4,0,1,1,1,0
563295657,563295465,45930887,42.3585499,-71.08724959999999,4.1646447,-3.2205472,5.1003075,135.74428,-67.36629,0.004210472,0.0039701518,0.0019612308,0.015329072,-0.0017234103,27.919779,-14.272897,-0.8739293,0.010888101,-0.028298656,-0.017174464,2.9652302,-0.0044271164,5.8788695,0.1,0.5867907,0.45760724,0.19592237,0.1255701,inf,inf,inf,inf,1,1,1,1,8,21,8,28,4,0,1,1,1,0
563795595,563795410,45930887,42.3585499,-71.08724959999999,4.142806,-3.1906252,5.1002526,135.74428,-67.36629,0.004210472,0.0029911508,0.008091479,0.017117482,0.001063687,27.919779,-14.272897,-0.8739293,-0.011297011,0.0062962444,-0.04864189,2.9650483,-0.0044271164,5.8788695,0.100765705,0.5773649,0.4539388,0.19274305,0.12462027,inf,inf,inf,inf,1,1,1,1,8,21,8,28,4,0,1,1,1,0
564295586,564295354,45930887,42.3585499,-71.08724959999999,4.104401,-3.161882,5.112813,135.74428,-67.36629,0.004210472,-0.0047133123,0.0062324735,0.012945941,0.008573908,27.919779,-14.272897,-0.8739293,0.0083183,0.008921864,0.05500053,2.9649112,-0.0044271164,5.8788695,0.10357523,0.5861849,0.45546165,0.19444826,0.12493024,inf,inf,inf,inf,1,1,1,1,8,21,8,28,4,0,1,1,1,0
564795589,564795298,45930887,42.3585499,-71.08724959999999,4.080288,-3.166357,5.1150665,135.74428,-67.36629,0.004210472,0.0025280989,-0.008649396,0.015835261,0.008524748,27.919779,-14.272897,-0.8739293,-0.02089888,0.0038557935,-0.0683399,2.9649289,-0.0044271164,5.8788695,0.1,0.581776,0.45739058,0.19513467,0.12544292,inf,inf,inf,inf,1,1,1,1,8,21,8,28,4,0,1,1,1,0
565305448,565305242,45930887,42.3585499,-71.08724959999999,4.0198236,-3.149157,5.1207914,135.74428,-67.36629,0.004210472,-0.015048147,-0.010153151,0.03510159,0.022609644,27.919779,-14.272897,-0.8739293,0.0062100464,-0.07336724,-0.05589965,2.9646237,-0.0044271164,5.8788695,0.1,0.60193247,0.45925692,0.20422064,0.12703234,inf,inf,inf,inf,1,1,1,1,8,21,8,28,4,0,1,1,1,0
565795441,565795187,45930887,42.3585499,-71.08724959999999,3.9436095,-3.132129,5.1233106,135.74428,-67.36629,0.004210472,-0.02586817,-0.010351977,0.02939556,0.013255508,27.919779,-14.272897,-0.8739293,0.015133884,-0.10073246,0.047456257,2.9641407,-0.0044271164,5.8788695,0.1,0.5865529,0.45680672,0.19525,0.12537976,inf,inf,inf,inf,1,1,1,1,8,21,8,28,4,0,1,1,1,0
566295369,566295132,45930887,42.3585499,-71.08724959999999,3.8676937,-3.1089568,5.132265,135.74428,-67.36629,0.004210472,-0.034981012,-0.013269563,0.026859382,0.013544866,27.919779,-14.272897,-0.8739293,0.033449188,-0.011666105,0.0096661085,2.9637575,-0.0044271164,5.8788695,0.1,0.59715265,0.45862737,0.19752638,0.12580402,inf,inf,inf,inf,1,1,1,1,8,21,8,28,4,0,1,1,1,0
566795279,566795076,45930887,42.3585499,-71.08724959999999,3.789052,-3.0455015,5.1316442,135.74428,-67.36629,0.004210472,-0.05356799,0.009748783,0.026077304,0.007995198,27.919779,-14.272897,-0.8739293,-0.05655263,-0.005831418,0.099353544,2.9639165,-0.0044271164,5.8788695,0.1,0.5930237,0.4602821,0.19758275,0.12616332,inf,inf,inf,inf,1,1,1,1,8,21,8,28,4,0,1,1,1,0
567295282,567295021,45930887,42.3585499,-71.08724959999999,3.7550073,-2.9519653,5.142149,135.74428,-67.36629,0.004210472,-0.051853884,0.03466221,0.0324609,0.016173277,27.919779,-14.272897,-0.8739293,-0.011304146,-0.17409828,0.03528141,2.9637702,-0.0044271164,5.8788695,0.1,0.6097296,0.45998758,0.20385733,0.12695344,inf,inf,inf,inf,1,1,1,1,8,21,8,28,4,0,1,1,1,0
567795203,567794965,45930887,42.3585499,-71.08724959999999,3.7534835,-2.8315697,5.1605396,135.74428,-67.36629,0.004210472,-0.022332706,0.06963092,0.025887653,0.020094072,27.919779,-14.272897,-0.8739293,0.0018560031,0.02704035,0.07242056,2.963767,-0.0044271164,5.8788695,0.101980686,0.60679567,0.46195838,0.20400769,0.12738183,inf,inf,inf,inf,1,1,1,1,8,21,8,28,4,0,1,1,1,0
568305095,568304909,45930887,42.3585499,-71.08724959999999,3.7329142,-2.6933675,5.1794734,135.74428,-67.36629,0.004210472,-0.022113953,0.10441488,0.045459356,0.041511748,27.919779,-14.272897,-0.8739293,-0.0038070648,0.11421624,-0.018823922,2.963828,-0.0044271164,5.8788695,0.1,0.6008618,0.46331075,0.20037267,0.12712383,inf,inf,inf,inf,1,1,1,1,8,21,8,28,4,0,1,1,1,0
568805140,568804854,45930887,42.3585499,-71.08724959999999,3.6459885,-2.6514237,5.191737,135.74428,-67.36629,0.004210472,-0.05044068,0.09077137,0.046052672,0.035887755,27.919779,-14.272897,-0.8739293,-0.04869151,-0.00059807417,0.13625696,2.963713,-0.0044271164,5.8788695,0.1,0.623061,0.4643522,0.20969827,0.12850006,inf,inf,inf,inf,1,1,1,1,8,21,8,28,4,0,1,1,1,0
569295211,569294799,45930887,42.3585499,-71.08724959999999,3.5570853,-2.650997,5.206833,135.74428,-67.36629,0.004210472,-0.06895992,0.07006422,0.05659461,0.041869882,27.919779,-14.272897,-0.8739293,0.0039368663,-0.23201048,-0.24288827,2.963536,-0.0044271164,5.8788695,0.1,0.63984966,0.4669487,0.2143605,0.12937932,inf,inf,inf,inf,1,1,1,1,8,21,8,28,4,0,1,1,1,0
569794926,569794744,45930887,42.3585499,-71.08724959999999,3.54542,-2.6508594,5.2259035,135.74428,-67.36629,0.004210472,-0.0572643,0.04587859,0.063542865,0.046975043,27.919779,-14.272897,-0.8739293,-0.040980313,0.04229128,0.12053907,2.963126,-0.0044271164,5.8788695,0.1,0.63039154,0.4670052,0.20877959,0.12868443,inf,inf,inf,inf,1,1,1,1,8,21,8,28,4,0,1,1,1,0
570294876,570294689,45930887,42.3585499,-71.08724959999999,3.5093522,-2.5961733,5.238561,135.74428,-67.36629,0.004210472,-0.06113621,0.051907256,0.062763944,0.037348542,27.919779,-14.272897,-0.8739293,-0.060656413,0.013288288,-0.0059861136,2.96271,-0.0044271164,5.8788695,0.1,0.65166724,0.471396,0.21660955,0.13022467,inf,inf,inf,inf,1,1,1,1,8,21,8,28,4,0,1,1,1,0
570794817,570794633,45930887,42.3585499,-71.08724959999999,3.47041,-2.5687194,5.2248597,135.74428,-67.36629,0.004210472,-0.053949725,0.04049763,0.047566313,-0.0012241728,27.919779,-14.272897,-0.8739293,0.019290287,-0.044566307,0.05000579,2.9624932,-0.0044271164,5.8788695,0.1,0.6553776,0.47528666,0.22030199,0.13141218,inf,inf,inf,inf,1,1,1,1,8,21,8,28,4,0,1,1,1,0
571294794,571294578,45930887,42.3585499,-71.08724959999999,3.4894905,-2.5116918,5.2140427,135.74428,-67.36629,0.004210472,-0.031076463,0.05108365,0.045626275,-0.008236753,27.919779,-14.272897,-0.8739293,-0.0268618,-0.018310806,-0.0060603945,2.9621227,-0.0044271164,5.8788695,0.1,0.68019485,0.4756837,0.22865713,0.13226579,inf,inf,inf,inf,1,1,1,1,8,21,8,28,4,0,1,1,1,0
571804711,571804521,45930887,42.3585499,-71.08724959999999,3.5365458,-2.500312,5.214995,135.74428,-67.36629,0.004210472,0.00020470459,0.034830004,0.052895516,0.0026882587,27.919779,-14.272897,-0.8739293,0.012506595,-0.011334287,-0.019960307,2.961963,-0.0044271164,5.8788695,0.1,0.68188137,0.4796669,0.22923417,0.1330321,inf,inf,inf,inf,1,1,1,1,8,21,8,28,4,0,1,1,1,0
572304690,572304466,45930887,42.3585499,-71.08724959999999,3.5312243,-2.482833,5.2131906,135.74428,-67.36629,0.004210472,0.00325229,0.028986651,0.04672111,-0.0037187026,27.919779,-14.272897,-0.8739293,0.039149832,-0.0071203364,0.16081032,2.9619334,-0.0044271164,5.8788695,0.1,0.701829,0.48306143,0.23355618,0.13378556,inf,inf,inf,inf,1,1,1,1,8,21,8,28,4,0,1,1,1,0
572794595,572794412,45930887,42.3585499,-71.08724959999999,3.51425,-2.46176,5.207356,135.74428,-67.36629,0.004210472,0.006530761,0.020768538,0.044520378,-0.0074459505,27.919779,-14.272897,-0.8739293,0.0093345875,-0.053931613,-0.08948055,2.9617212,-0.0044271164,5.8788695,0.1,0.68566376,0.48146096,0.22408855,0.13245314,inf,inf,inf,inf,1,1,1,1,8,21,8,28,4,0,1,1,1,0
573294564,573294356,45930887,42.3585499,-71.08724959999999,3.4535658,-2.4386654,5.1950855,135.74428,-67.36629,0.004210472,-0.0099123325,0.018942375,0.036249407,-0.019797644,27.919779,-14.272897,-0.8739293,-0.009557966,0.077470966,-0.038248707,2.961578,-0.0044271164,5.8788695,0.1,0.70974976,0.48118818,0.2323385,0.13309133,inf,inf,inf,inf,1,1,1,1,8,21,8,28,4,0,1,1,1,0
573794648,573794301,45930887,42.3585499,-71.08724959999999,3.3898313,-2.430764,5.191799,135.74428,-67.36629,0.004210472,-0.022605052,0.005488142,0.039134856,-0.013349273,27.919779,-14.272897,-0.8739293,-0.027286343,-0.076691315,0.103976354,2.9616058,-0.0044271164,5.8788695,0.1,0.6836807,0.4776023,0.21776645,0.13077094,inf,inf,inf,inf,1,1,1,1,8,21,8,28,4,0,1,1,1,0
574294506,574294246,45930887,42.3585499,-71.08724959999999,3.3753316,-2.414156,5.169634,135.74428,-67.36629,0.004210472,-0.018985778,-0.010460841,0.022531128,-0.039476104,27.919779,-14.272897,-0.8739293,0.0239738,-0.011622214,-0.41346386,2.9588985,-0.0044271164,5.8788695,0.1,0.69794834,0.47976685,0.22185971,0.13132825,inf,inf,inf,inf,1,1,1,1,8,21,8,28,4,0,1,1,1,0
574804424,574804189,45930887,42.3585499,-71.08724959999999,3.3269744,-2.4022589,5.1207147,135.74428,-67.36629,0.004210472,-0.036691576,-0.055293612,0.016609617,-0.06664175,27.919779,-14.272897,-0.8739293,-0.003655122,-0.062357888,0.11677365,2.9588368,-0.0044271164,5.8788695,0.1,0.6820686,0.47475544,0.21497819,0.12967542,inf,inf,inf,inf,1,1,1,1,8,21,8,28,4,0,1,1,1,0
575304506,575304134,45930887,42.3585499,-71.08724959999999,3.3089032,-2.382881,5.080625,135.74428,-67.36629,0.004210472,-0.040154275,-0.08775871,0.0040263627,-0.08050211,27.919779,-14.272897,-0.8739293,0.32315853,-0.15796469,-0.08133753,2.9596083,-0.0044271164,5.8788695,0.11101866,0.6607917,0.47162,0.20451556,0.12776068,inf,inf,inf,inf,1,1,1,1,8,21,8,28,4,0,1,1,1,0
575804263,575804078,45930887,42.3585499,-71.08724959999999,3.2768364,-2.3183882,5.0707703,135.74428,-67.36629,0.004210472,-0.04221428,-0.0988727,0.010377187,-0.05002354,27.919779,-14.272897,-0.8739293,-0.067074746,-0.06405499,0.06504801,2.9601839,-0.0044271164,5.8788695,0.11031532,0.66980755,0.47260332,0.20743032,0.12808695,inf,inf,inf,inf,1,1,1,1,8,21,8,28,4,0,1,1,1,0
576294212,576294024,45930887,42.3585499,-71.08724959999999,3.2525337,-2.2520173,5.065615,135.74428,-67.36629,0.004210472,-0.043535322,-0.10594732,0.006050956,-0.03644265,27.919779,-14.272897,-0.8739293,-0.059491795,-0.03877155,0.096774966,2.9612033,-0.0044271164,5.8788695,0.12139511,0.6829254,0.47428012,0.21386257,0.12905334,inf,inf,inf,inf,1,1,1,1,8,21,8,28,4,0,1,1,1,0
576794185,576793969,45930887,42.3585499,-71.08724959999999,3.198117,-2.2234256,5.0720744,135.74428,-67.36629,0.004210472,-0.060491856,-0.12678824,-0.0033910854,-0.024724247,27.919779,-14.272897,-0.8739293,-0.12875828,-0.17669691,0.41114548,2.9627395,-0.0044271164,5.8788695,0.1,0.67361134,0.47059107,0.213028,0.12853573,inf,inf,inf,inf,1,1,1,1,8,21,8,28,4,0,1,1,1,0
577294101,577293913,45930887,42.3585499,-71.08724959999999,3.125779,-2.2258646,5.0349464,135.74428,-67.36629,0.004210472,-0.08165241,-0.15427966,-0.01824502,-0.05763276,27.919779,-14.272897,-0.8739293,0.032989074,-0.09562488,0.22482958,2.963437,-0.0044271164,5.8788695,0.1,0.69019186,0.4736474,0.22010441,0.12981056,inf,inf,inf,inf,1,1,1,1,8,21,8,28,4,0,1,1,1,0
577804114,577803857,45930887,42.3585499,-71.08724959999999,3.1011825,-2.209352,5.0054255,135.74428,-67.36629,0.004210472,-0.075087816,-0.15393993,-0.029451422,-0.065074794,27.919779,-14.272897,-0.8739293,-0.0053914906,-0.040110253,0.12152687,2.9641323,-0.0044271164,5.8788695,0.10349369,0.68648833,0.4763866,0.22143114,0.13055019,inf,inf,inf,inf,1,1,1,1,8,21,8,28,4,0,1,1,1,0
578304101,578303801,45930887,42.3585499,-71.08724959999999,3.1130798,-2.1138685,4.9645844,135.74428,-67.36629,0.004210472,-0.053989887,-0.11625825,-0.044135164,-0.08447204,27.919779,-14.272897,-0.8739293,-0.041093502,-0.037209034,0.00019269157,2.965235,-0.0044271164,5.8788695,0.10209608,0.70338297,0.47489232,0.22722831,0.13093492,inf,inf,inf,inf,1,1,1,1,8,21,8,28,4,0,1,1,1,0
578803949,578803746,45930887,42.3585499,-71.08724959999999,3.1129901,-2.0703025,4.9050555,135.74428,-67.36629,0.004210472,-0.045405317,-0.10831929,-0.05296671,-0.10538478,27.919779,-14.272897,-0.8739293,-0.0077150012,-0.040053632,0.016992532,2.96629,-0.0044271164,5.8788695,0.1,0.69249254,0.47513953,0.22271317,0.13060342,inf,inf,inf,inf,1,1,1,1,8,21,8,28,4,0,1,1,1,0
579293877,579293691,45930887,42.3585499,-71.08724959999999,3.077748,-2.0315902,4.868217,135.74428,-67.36629,0.004210472,-0.055910602,-0.09333305,-0.05577828,-0.092634246,27.919779,-14.272897,-0.8739293,-0.0019142542,-0.01384786,-0.011915065,2.9672174,-0.0044271164,5.8788695,0.117918015,0.70308965,0.47579017,0.22432634,0.13077223,inf,inf,inf,inf,1,1,1,1,8,21,8,28,4,0,1,1,1,0
579793819,579793636,45930887,42.3585499,-71.08724959999999,3.027946,-2.0009718,4.8384624,135.74428,-67.36629,0.004210472,-0.06140437,-0.08110423,-0.066604376,-0.08995117,27.919779,-14.272897,-0.8739293,0.035846274,-0.07762859,-0.00293085,2.968235,-0.0044271164,5.8788695,0.11846113,0.6992901,0.47776252,0.22481602,0.13128789,inf,inf,inf,inf,1,1,1,1,8,21,8,28,4,0,1,1,1,0
580293767,580293580,45930887,42.3585499,-71.08724959999999,2.966207,-2.0113716,4.8267436,135.74428,-67.36629,0.004210472,-0.07731683,-0.08834869,-0.038564555,-0.043280467,27.919779,-14.272897,-0.8739293,-0.02272729,-0.030354733,-0.011112865,2.970736,-0.0044271164,5.8788695,0.11992264,0.7227014,0.48198077,0.23365548,0.13283408,inf,inf,inf,inf,1,1,1,1,8,21,8,28,4,0,1,1,1,0
580793791,580793525,45930887,42.3585499,-71.08724959999999,2.9283898,-1.9782788,4.8404346,135.74428,-67.36629,0.004210472,-0.08025462,-0.078048885,-0.022784835,-0.0017098614,27.919779,-14.272897,-0.8739293,-0.024735738,-0.023694597,0.033383418,2.9715834,-0.0044271164,5.8788695,0.12327337,0.7107854,0.47727978,0.22691989,0.13145855,inf,inf,inf,inf,1,1,1,1,8,21,8,28,4,0,1,1,1,0
581303663,581303473,45930887,42.3585499,-71.08724959999999,2.9646153,-1.9146285,4.862728,135.74428,-67.36629,0.004210472,-0.04661436,-0.054397203,-0.024078598,0.013255056,27.919779,-14.272897,-0.8739293,0.049145307,-0.02161316,-0.050327424,2.9733672,-0.0044271164,5.8788695,0.12456179,0.71063876,0.480451,0.22803615,0.13215491,inf,inf,inf,inf,1,1,1,1,8,21,8,28,4,0,1,1,1,0
581803597,581803412,45930887,42.3585499,-71.08724959999999,2.8627367,-1.7802355,4.8928256,135.74428,-67.36629,0.004210472,-0.084241174,-0.0042287633,-0.009398809,0.043414924,27.919779,-14.272897,-0.8739293,-0.18374296,0.09636854,-0.0663359,2.9743574,-0.0044271164,5.8788695,0.118029594,0.7272632,0.4829169,0.23133957,0.13272429,inf,inf,inf,inf,1,1,1,1,8,21,8,28,4,0,1,1,1,0
582303564,582303357,45930887,42.3585499,-71.08724959999999,2.8220015,-1.6585912,4.9326925,135.74428,-67.36629,0.004210472,-0.08938905,0.020907417,-0.0071649817,0.05503294,27.919779,-14.272897,-0.8739293,0.014056377,0.01818022,0.04034855,2.9741623,-0.0044271164,5.8788695,0.10647249,0.7369965,0.48369262,0.23059973,0.13255307,inf,inf,inf,inf,1,1,1,1,8,21,8,28,4,0,1,1,1,0
582803559,582803301,45930887,42.3585499,-71.08724959999999,2.7725852,-1.6511805,4.963628,135.74428,-67.36629,0.004210472,-0.092756264,0.014685454,-0.0020036967,0.055292185,27.919779,-14.272897,-0.8739293,0.012940517,0.0071033426,0.07613009,2.9758728,-0.0044271164,5.8788695,0.1,0.7226758,0.4782473,0.22426693,0.13102204,inf,inf,inf,inf,1,1,1,1,8,21,8,28,4,0,1,1,1,0
583293431,583293246,45930887,42.3585499,-71.08724959999999,2.7334256,-1.6803843,4.9630284,135.74428,-67.36629,0.004210472,-0.08992996,0.003204167,-0.015818853,0.01864876,27.919779,-14.272897,-0.8739293,-0.018775212,0.0054259566,-0.11032836,2.9764402,-0.0044271164,5.8788695,0.1,0.7406131,0.48055893,0.23082094,0.13196911,inf,inf,inf,inf,1,1,1,1,8,21,8,28,4,0,1,1,1,0
583793381,583793190,45930887,42.3585499,-71.08724959999999,2.6940227,-1.700928,4.93879,135.74428,-67.36629,0.004210472,-0.08711,0.0023178905,-0.012070945,-0.004329523,27.919779,-14.272897,-0.8739293,0.0069003515,0.023173291,0.05129925,2.976923,-0.0044271164,5.8788695,0.1,0.7214917,0.47875875,0.2213801,0.13065611,inf,inf,inf,inf,1,1,1,1,8,21,8,28,4,0,1,1,1,0
584303432,584303133,45930887,42.3585499,-71.08724959999999,2.6174161,-1.7203164,4.9176664,135.74428,-67.36629,0.004210472,-0.09819464,0.0020938306,-0.015123027,-0.021392034,27.919779,-14.272897,-0.8739293,0.042075984,0.012402452,0.0049196463,2.9778125,-0.0044271164,5.8788695,0.1,0.7401873,0.4781434,0.22849639,0.13123263,inf,inf,inf,inf,1,1,1,1,8,21,8,28,4,0,1,1,1,0
584803262,584803077,45930887,42.3585499,-71.08724959999999,2.5801094,-1.754384,4.8979135,135.74428,-67.36629,0.004210472,-0.08287579,-0.0001542849,-0.011512684,-0.02487078,27.919779,-14.272897,-0.8739293,0.04245698,0.008438702,-0.0540933,2.9787166,-0.0044271164,5.8788695,0.1,0.7154455,0.4747765,0.21620335,0.12927532,inf,inf,inf,inf,1,1,1,1,8,21,8,28,4,0,1,1,1,0
585303401,585303021,45930887,42.3585499,-71.08724959999999,2.5110736,-1.7999923,4.888445,135.74428,-67.36629,0.004210472,-0.084825836,-0.001844611,-0.009301852,-0.01993016,27.919779,-14.272897,-0.8739293,0.030562362,0.03817558,0.03041369,2.9802444,-0.0044271164,5.8788695,0.1,0.70655155,0.47555265,0.21533228,0.12938431,inf,inf,inf,inf,1,1,1,1,8,21,8,28,4,0,1,1,1,0
585803228,585802965,45930887,42.3585499,-71.08724959999999,2.3999157,-1.8189827,4.889118,135.74428,-67.36629,0.004210472,-0.108253576,0.008650131,-0.00086812256,-0.003786438,27.919779,-14.272897,-0.8739293,0.00466918,0.044231903,-0.016576743,2.9816816,-0.0044271164,5.8788695,0.106349945,0.7266728,0.47977483,0.22531189,0.13115542,inf,inf,inf,inf,1,1,1,1,8,21,8,28,4,0,1,1,1,0
586303123,586302909,45930887,42.3585499,-71.08724959999999,2.3114038,-1.8164636,4.898431,135.74428,-67.36629,0.004210472,-0.114547096,0.024991084,-0.0059205,0.0014011223,27.919779,-14.272897,-0.8739293,0.0034337547,0.049101476,0.039063267,2.983127,-0.0044271164,5.8788695,0.11139822,0.7462316,0.47897634,0.23381065,0.13187584,inf,inf,inf,inf,1,1,1,1,8,21,8,28,4,0,1,1,1,0
586793085,586792855,45930887,42.3585499,-71.08724959999999,2.2812736,-1.7851826,4.920377,135.74428,-67.36629,0.004210472,-0.09835641,0.051785503,-0.009566208,0.015842326,27.919779,-14.272897,-0.8739293,-0.014200894,0.0399222,-0.04735747,2.9845457,-0.0044271164,5.8788695,0.10963917,0.72609407,0.4768191,0.22481045,0.13064978,inf,inf,inf,inf,1,1,1,1,8,21,8,28,4,0,1,1,1,0
587303227,587302797,45930887,42.3585499,-71.08724959999999,2.2945592,-1.7248147,4.9400506,135.74428,-67.36629,0.004210472,-0.070207186,0.07761196,-0.0184365,0.015711952,27.919779,-14.272897,-0.8739293,-0.044551764,0.033813994,-0.013488466,2.9862485,-0.0044271164,5.8788695,0.109051704,0.71774435,0.47866374,0.22306027,0.1308296,inf,inf,inf,inf,1,1,1,1,8,21,8,28,4,0,1,1,1,0
587802944,587802741,45930887,42.3585499,-71.08724959999999,2.3348,-1.6987947,4.96261,135.74428,-67.36629,0.004210472,-0.044795588,0.083322965,-0.0145322,0.03146487,27.919779,-14.272897,-0.8739293,0.016190596,0.036822915,0.024197368,2.9877603,-0.0044271164,5.8788695,0.11755133,0.7129706,0.47567144,0.21394192,0.1289976,inf,inf,inf,inf,1,1,1,1,8,21,8,28,4,0,1,1,1,0
588303055,588302684,45930887,42.3585499,-71.08724959999999,2.329482,-1.7131077,5.008046,135.74428,-67.36629,0.004210472,-0.03835039,0.06883719,-0.012227704,0.052239563,27.919779,-14.272897,-0.8739293,0.035554174,0.008249709,-0.10872138,2.9894595,-0.0044271164,5.8788695,0.109099865,0.6974616,0.46986747,0.20853549,0.12747057,inf,inf,inf,inf,1,1,1,1,8,21,8,28,4,0,1,1,1,0
588802814,588802628,45930887,42.3585499,-71.08724959999999,2.3304443,-1.6894933,5.0270123,135.74428,-67.36629,0.004210472,-0.024745366,0.06486703,-0.0029835473,0.051871385,27.919779,-14.272897,-0.8739293,0.004175808,0.02055406,-0.03333342,2.9908319,-0.0044271164,5.8788695,0.1,0.70759106,0.4712805,0.2124059,0.12806568,inf,inf,inf,inf,1,1,1,1,8,21,8,28,4,0,1,1,1,0
589302891,589302571,45930887,42.3585499,-71.08724959999999,2.3255508,-1.6605523,5.0498576,135.74428,-67.36629,0.004210472,-0.013703674,0.0631371,0.017181162,0.06411758,27.919779,-14.272897,-0.8739293,-0.034584995,0.01912225,0.06317523,2.992873,-0.0044271164,5.8788695,0.1,0.6931572,0.46994853,0.2072429,0.12726721,inf,inf,inf,inf,1,1,1,1,8,21,8,28,4,0,1,1,1,0
589802705,589802515,45930887,42.3585499,-71.08724959999999,2.3339782,-1.6312772,5.065168,135.74428,-67.36629,0.004210472,0.009165527,0.065927975,0.034187037,0.06222055,27.919779,-14.272897,-0.8739293,0.041083675,0.04200589,-0.04880032,2.994,-0.0044271164,5.8788695,0.1,0.7069038,0.4725623,0.21366489,0.12844184,inf,inf,inf,inf,1,1,1,1,8,21,8,28,4,0,1,1,1,0
590302839,590302458,45930887,42.3585499,-71.08724959999999,2.3131497,-1.5761409,5.0832725,135.74428,-67.36629,0.004210472,0.01810201,0.0778746,0.045032892,0.061443668,27.919779,-14.272897,-0.8739293,0.023657085,0.041365325,0.07704022,2.995596,-0.0044271164,5.8788695,0.1,0.7017814,0.4699742,0.21484831,0.12840393,inf,inf,inf,inf,1,1,1,1,8,21,8,28,4,0,1,1,1,0
590802676,590802401,45930887,42.3585499,-71.08724959999999,2.3303528,-1.484774,5.106198,135.74428,-67.36629,0.004210472,0.038777173,0.10365273,0.058135394,0.06539176,27.919779,-14.272897,-0.8739293,0.02575327,0.00089077605,0.038835663,2.996561,-0.0044271164,5.8788695,0.1,0.7281241,0.47581536,0.22873427,0.13095464,inf,inf,inf,inf,1,1,1,1,8,21,8,28,4,0,1,1,1,0
591302554,591302345,45930887,42.3585499,-71.08724959999999,2.3349326,-1.4278165,5.1214633,135.74428,-67.36629,0.004210472,0.04689712,0.1082392,0.05261395,0.048940856,27.919779,-14.272897,-0.8739293,-0.01032381,0.021858288,-0.00839536,2.9969547,-0.0044271164,5.8788695,0.1,0.75253284,0.480605,0.23897114,0.13274454,inf,inf,inf,inf,1,1,1,1,8,21,8,28,4,0,1,1,1,0
591802535,591802288,45930887,42.3585499,-71.08724959999999,2.326538,-1.3641453,5.1216063,135.74428,-67.36629,0.004210472,0.053000495,0.11316782,0.04075458,0.020328853,27.919779,-14.272897,-0.8739293,0.01491018,0.0034590173,0.11836806,2.9968452,-0.0044271164,5.8788695,0.1,0.7354354,0.47987598,0.22980145,0.13177685,inf,inf,inf,inf,1,1,1,1,8,21,8,28,4,0,1,1,1,0
592302484,592302231,45930887,42.3585499,-71.08724959999999,2.2820919,-1.3392234,5.1025205,135.74428,-67.36629,0.004210472,0.037286595,0.079320066,0.021835119,-0.016433217,27.919779,-14.272897,-0.8739293,-0.076101035,-0.24097168,-0.020104703,2.993412,-0.0044271164,5.8788695,0.1,0.761527,0.48053473,0.24110776,0.13299048,inf,inf,inf,inf,1,1,1,1,8,21,8,28,4,0,1,1,1,0
592802364,592802174,45930887,42.3585499,-71.08724959999999,2.211566,-1.3745345,5.0835657,135.74428,-67.36629,0.004210472,0.008395177,-0.03223334,0.016958635,-0.027401343,27.919779,-14.272897,-0.8739293,-0.07254672,0.08129831,-0.23002876,2.9978292,-0.0044271164,5.8788695,0.1,0.74762654,0.48063254,0.23449893,0.13239215,inf,inf,inf,inf,1,1,1,1,8,21,8,28,4,0,1,1,1,0
593302301,593302117,45930887,42.3585499,-71.08724959999999,2.1333044,-1.4691573,5.064311,135.74428,-67.36629,0.004210472,-0.019342398,-0.14232616,0.0033699505,-0.03808907,27.919779,-14.272897,-0.8739293,0.01984839,-0.22650746,-0.10462701,2.9965603,-0.0044271164,5.8788695,0.1,0.7751187,0.48571125,0.24583225,0.13414183,inf,inf,inf,inf,1,1,1,1,8,21,8,28,4,0,1,1,1,0
593802247,593802060,45930887,42.3585499,-71.08724959999999,2.070354,-1.520871,5.055179,135.74428,-67.36629,0.004210472,-0.031035893,-0.20865369,-0.0010400774,-0.031456295,27.919779,-14.272897,-0.8739293,-0.0022137817,-0.14384465,0.004110048,2.9973934,-0.0044271164,5.8788695,0.10923767,0.764308,0.48646846,0.23998907,0.13372576,inf,inf,inf,inf,1,1,1,1,8,21,8,28,4,0,1,1,1,0
594297396,594292004,45930887,42.3585499,-71.08724959999999,2.0019314,-1.6036568,5.042466,135.74428,-67.36629,0.004210472,-0.047813296,-0.26676816,0.013704277,-0.016912881,27.919779,-14.272897,-0.8739293,-0.010340142,-0.14362977,0.01602532,2.997435,-0.0044271164,5.8788695,0.1,0.7643394,0.4839735,0.24177232,0.13358742,inf,inf,inf,inf,1,1,1,1,8,21,8,28,4,0,1,1,1,0
594802132,594801946,45930887,42.3585499,-71.08724959999999,1.8296987,-1.7602401,5.0216217,135.74428,-67.36629,0.004210472,-0.09886268,-0.33496884,0.008168406,-0.029673997,27.919779,-14.272897,-0.8739293,0.030884808,-0.11777601,-0.042401318,2.99758,-0.0044271164,5.8788695,0.1,0.79455113,0.48963374,0.25230822,0.13522078,inf,inf,inf,inf,1,1,1,1,8,21,8,28,4,0,1,1,1,0
595302222,595301888,45930887,42.3585499,-71.08724959999999,1.7044433,-1.8256018,5.0343957,135.74428,-67.36629,0.004210472,-0.11642672,-0.34959874,0.0068447962,-0.007891446,27.919779,-14.272897,-0.8739293,-0.0059964955,-0.08852009,0.09004228,2.9981494,-0.0044271164,5.8788695,0.11574459,0.77363956,0.4881473,0.23930305,0.13372353,inf,inf,inf,inf,1,1,1,1,8,21,8,28,4,0,1,1,1,0
595802076,595801831,45930887,42.3585499,-71.08724959999999,1.6750802,-1.8819963,5.053006,135.74428,-67.36629,0.004210472,-0.09979673,-0.35337988,0.014547177,0.016425213,27.919779,-14.272897,-0.8739293,0.036397684,-0.08129558,-0.030325256,2.9991853,-0.0044271164,5.8788695,0.10448742,0.7954347,0.48657787,0.24556808,0.1338387,inf,inf,inf,inf,1,1,1,1,8,21,8,28,4,0,1,1,1,0
596302017,596301773,45930887,42.3585499,-71.08724959999999,1.701387,-1.964498,5.0555,135.74428,-67.36629,0.004210472,-0.07062457,-0.36103046,0.007955004,0.005700692,27.919779,-14.272897,-0.8739293,0.025311917,-0.08760539,0.07828653,3.0000181,-0.0044271164,5.8788695,0.1,0.81379306,0.48891,0.24937552,0.1343126,inf,inf,inf,inf,1,1,1,1,8,21,8,28,4,0,1,1,1,0
596801921,596801716,45930887,42.3585499,-71.08724959999999,1.7208525,-1.9711344,5.0572133,135.74428,-67.36629,0.004210472,-0.04677391,-0.33054814,0.0066765947,0.0018906523,27.919779,-14.272897,-0.8739293,0.022601582,-0.055725686,-0.025029738,3.0008943,-0.0044271164,5.8788695,0.1,0.7977758,0.48836327,0.24176314,0.1334987,inf,inf,inf,inf,1,1,1,1,8,21,8,28,4,0,1,1,1,0
597301847,597301658,45930887,42.3585499,-71.08724959999999,1.7115269,-1.98337,5.0624976,135.74428,-67.36629,0.004210472,-0.033107094,-0.29915905,0.010755594,0.006700471,27.919779,-14.272897,-0.8739293,0.016122976,-0.042265873,-0.04558674,3.0020864,-0.0044271164,5.8788695,0.1,0.8137485,0.49021658,0.24522002,0.1339012,inf,inf,inf,inf,1,1,1,1,8,21,8,28,4,0,1,1,1,0
597801824,597801600,45930887,42.3585499,-71.08724959999999,1.7083329,-1.9670558,5.0515614,135.74428,-67.36629,0.004210472,-0.017396409,-0.25610843,0.0025183086,-0.010878991,27.919779,-14.272897,-0.8739293,0.026273806,-0.023101928,-0.20926018,3.003346,-0.0044271164,5.8788695,0.1,0.79402554,0.48395833,0.23595054,0.13203442,inf,inf,inf,inf,1,1,1,1,8,21,8,28,4,0,1,1,1,0
598301879,598301543,45930887,42.3585499,-71.08724959999999,1.6741725,-1.9715519,5.035533,135.74428,-67.36629,0.004210472,-0.010797586,-0.22573069,-0.0054234425,-0.025986085,27.919779,-14.272897,-0.8739293,0.02758861,-0.10303478,0.21562928,3.004367,-0.0044271164,5.8788695,0.1,0.78920275,0.4854469,0.23638707,0.13237323,inf,inf,inf,inf,1,1,1,1,8,21,8,28,4,0,1,1,1,0
598801732,598801484,45930887,42.3585499,-71.08724959999999,1.6898495,-1.9744787,5.008218,135.74428,-67.36629,0.004210472,0.01304552,-0.19220065,-0.0022118965,-0.03311353,27.919779,-14.272897,-0.8739293,0.015966121,0.002577074,0.042203315,3.0054603,-0.0044271164,5.8788695,0.102445126,0.80514526,0.48740453,0.24034236,0.13290215,inf,inf,inf,inf,1,1,1,1,8,21,8,28,4,0,1,1,1,0
599301619,599301426,45930887,42.3585499,-71.08724959999999,1.66534,-1.9404559,5.0059447,135.74428,-67.36629,0.004210472,0.020150347,-0.14625224,0.0012961837,-0.01835314,27.919779,-14.272897,-0.8739293,0.045054518,0.016441576,0.001743583,3.006651,-0.0044271164,5.8788695,0.103521824,0.8208188,0.48919043,0.2442561,0.13341032,inf,inf,inf,inf,1,1,1,1,8,21,8,28,4,0,1,1,1,0
599801621,599801368,45930887,42.3585499,-71.08724959999999,1.6236886,-1.9044135,4.989205,135.74428,-67.36629,0.004210472,0.021844503,-0.10406395,-0.011649319,-0.035198677,27.919779,-14.272897,-0.8739293,0.03479489,0.022749413,-0.010580318,3.0077157,-0.0044271164,5.8788695,0.1,0.81167424,0.48514187,0.24167593,0.13262886,inf,inf,inf,inf,1,1,1,1,8,21,8,28,4,0,1,1,1,0
600301600,600301310,45930887,42.3585499,-71.08724959999999,1.592482,-1.842856,4.96818,135.74428,-67.36629,0.004210472,0.024584487,-0.056573,-0.012405323,-0.037830282,27.919779,-14.272897,-0.8739293,-0.0044320817,0.03898637,0.026915742,3.0082877,-0.0044271164,5.8788695,0.1,0.82892436,0.48736307,0.24667682,0.13333124,inf,inf,inf,inf,1,1,1,1,8,21,8,28,4,0,1,1,1,0
600801490,600801252,45930887,42.3585499,-71.08724959999999,1.5367521,-1.801007,4.9396586,135.74428,-67.36629,0.004210472,0.023884919,-0.027774906,-0.025746573,-0.05333269,27.919779,-14.272897,-0.8739293,0.029982032,0.022543285,-0.009054495,3.00888,-0.0044271164,5.8788695,0.10856676,0.8184061,0.48810783,0.2441182,0.13331266,inf,inf,inf,inf,1,1,1,1,8,21,8,28,4,0,1,1,1,0
601301626,601301193,45930887,42.3585499,-71.08724959999999,1.413768,-1.6937377,4.909225,135.74428,-67.36629,0.004210472,-0.007747396,0.023093319,-0.038629975,-0.06783295,27.919779,-14.272897,-0.8739293,0.028727965,0.01574178,0.020720072,3.009948,-0.0044271164,5.8788695,0.1,0.80687267,0.48879147,0.24097958,0.13324483,inf,inf,inf,inf,1,1,1,1,8,21,8,28,4,0,1,1,1,0
601801351,601801135,45930887,42.3585499,-71.08724959999999,1.1798102,-1.5193985,4.858227,135.74428,-67.36629,0.004210472,-0.08656559,0.066724434,-0.044248164,-0.0840846,27.919779,-14.272897,-0.8739293,0.004355432,0.0045723165,0.045990683,3.0100663,-0.0044271164,5.8788695,0.1043725,0.82981807,0.48769984,0.2501043,0.13384485,inf,inf,inf,inf,1,1,1,1,8,21,8,28,4,0,1,1,1,0
602301404,602301077,45930887,42.3585499,-71.08724959999999,1.0398399,-1.3792465,4.8355527,135.74428,-67.36629,0.004210472,-0.114321075,0.104149416,-0.05316495,-0.07432707,27.919779,-14.272897,-0.8739293,-0.016301803,0.045839395,-0.10135182,3.009096,-0.0044271164,5.8788695,0.11801338,0.82383835,0.48951116,0.24963218,0.13421243,inf,inf,inf,inf,1,1,1,1,8,21,8,28,4,0,1,1,1,0
602801202,602801018,45930887,42.3585499,-71.08724959999999,0.9436781,-1.228617,4.8253536,135.74428,-67.36629,0.004210472,-0.12319098,0.14437668,-0.045836657,-0.04696475,27.919779,-14.272897,-0.8739293,-0.02164013,0.044303346,0.14772592,3.0093691,-0.0044271164,5.8788695,0.119250774,0.8486686,0.49317363,0.2584517,0.13542043,inf,inf,inf,inf,1,1,1,1,8,21,8,28,4,0,1,1,1,0
603301143,603300959,45930887,42.3585499,-71.08724959999999,0.83548784,-1.1229593,4.8271813,135.74428,-67.36629,0.004210472,-0.13558465,0.16196723,-0.042702552,-0.025465965,27.919779,-14.272897,-0.8739293,0.022459079,0.03920467,0.007837589,3.009441,-0.0044271164,5.8788695,0.11203146,0.8722517,0.49633145,0.26533625,0.1363349,inf,inf,inf,inf,1,1,1,1,8,21,8,28,4,0,1,1,1,0
603801088,603800900,45930887,42.3585499,-71.08724959999999,0.75790274,-1.0501236,4.8209944,135.74428,-67.36629,0.004210472,-0.13548951,0.16311441,-0.04331815,-0.02322786,27.919779,-14.272897,-0.8739293,-0.030916989,0.031406578,0.061711766,3.0095253,-0.0044271164,5.8788695,0.114592075,0.85844564,0.49181458,0.258952,0.13517094,inf,inf,inf,inf,1,1,1,1,8,21,8,28,4,0,1,1,1,0
604301167,604300841,45930887,42.3585499,-71.08724959999999,0.6995628,-1.0136583,4.832964,135.74428,-67.36629,0.004210472,-0.12708385,0.13996702,-0.03847858,-0.0014898868,27.919779,-14.272897,-0.8739293,0.14371338,-0.03642845,-0.15229438,3.007806,-0.0044271164,5.8788695,0.11755848,0.84381515,0.49184224,0.25192896,0.13462536,inf,inf,inf,inf,1,1,1,1,8,21,8,28,4,0,1,1,1,0
604800988,604800783,45930887,42.3585499,-71.08724959999999,0.7211239,-0.93874234,4.8632045,135.74428,-67.36629,0.004210472,-0.09873738,0.13101108,-0.021853445,0.036323596,27.919779,-14.272897,-0.8739293,0.004024793,0.068891704,0.029188432,3.004254,-0.0044271164,5.8788695,0.124042034,0.8449116,0.49084106,0.24540824,0.13366221,inf,inf,inf,inf,1,1,1,1,8,21,8,28,4,0,1,1,1,0
605301143,605300723,45930887,42.3585499,-71.08724959999999,0.7248383,-0.87416875,4.8853197,135.74428,-67.36629,0.004210472,-0.07890249,0.11219297,-0.014298359,0.04024227,27.919779,-14.272897,-0.8739293,-0.023857439,-0.03086345,0.053846348,3.0080342,-0.0044271164,5.8788695,0.1,0.8282063,0.4903003,0.23914298,0.1330242,inf,inf,inf,inf,1,1,1,1,8,21,8,28,4,0,1,1,1,0
605800916,605800664,45930887,42.3585499,-71.08724959999999,0.69843435,-0.7763146,4.884141,135.74428,-67.36629,0.004210472,-0.07579097,0.116104536,-0.00513256,0.028456662,27.919779,-14.272897,-0.8739293,0.04088824,-0.033541385,-0.21717338,3.0087085,-0.0044271164,5.8788695,0.10112858,0.82932556,0.48460835,0.23528081,0.13159999,inf,inf,inf,inf,1,1,1,1,8,21,8,28,4,0,1,1,1,0
606300963,606300605,45930887,42.3585499,-71.08724959999999,0.6642867,-0.6757903,4.8967013,135.74428,-67.36629,0.004210472,-0.07793115,0.12578683,0.0024223877,0.033150002,27.919779,-14.272897,-0.8739293,0.03495742,0.017879002,-0.0321804,3.0091186,-0.0044271164,5.8788695,0.11419678,0.8089013,0.48309892,0.2278359,0.13066058,inf,inf,inf,inf,1,1,1,1,8,21,8,28,4,0,1,1,1,0
606800791,606800545,45930887,42.3585499,-71.08724959999999,0.65368235,-0.5873189,4.9216247,135.74428,-67.36629,0.004210472,-0.06197614,0.14525937,0.0055599203,0.039678905,27.919779,-14.272897,-0.8739293,-0.021759918,0.061010297,0.06340108,3.0096762,-0.0044271164,5.8788695,0.1,0.82346076,0.48553878,0.2349374,0.13170916,inf,inf,inf,inf,1,1,1,1,8,21,8,28,4,0,1,1,1,0
607300832,607300486,45930887,42.3585499,-71.08724959999999,0.6148534,-0.52795637,4.930371,135.74428,-67.36629,0.004210472,-0.05311576,0.15651517,0.014385683,0.03756185,27.919779,-14.272897,-0.8739293,-0.027984153,0.04170388,-0.09268149,3.0100336,-0.0044271164,5.8788695,0.1,0.79810745,0.48291442,0.22416931,0.13024572,inf,inf,inf,inf,1,1,1,1,8,21,8,28,4,0,1,1,1,0
607800677,607800426,45930887,42.3585499,-71.08724959999999,0.6168776,-0.55941415,4.9349127,135.74428,-67.36629,0.004210472,-0.032193806,0.13784595,0.016612895,0.027139394,27.919779,-14.272897,-0.8739293,0.07425249,0.027907435,-0.07403928,3.010561,-0.0044271164,5.8788695,0.1,0.80888003,0.4801845,0.22938013,0.13037923,inf,inf,inf,inf,1,1,1,1,8,21,8,28,4,0,1,1,1,0
608300556,608300367,45930887,42.3585499,-71.08724959999999,0.60617477,-0.60620546,4.9310417,135.74428,-67.36629,0.004210472,-0.015134186,0.11913679,0.00792891,0.007068198,27.919779,-14.272897,-0.8739293,0.04358089,0.04008311,0.021493487,3.0107985,-0.0044271164,5.8788695,0.1,0.81181085,0.48009747,0.22944525,0.130303,inf,inf,inf,inf,1,1,1,1,8,21,8,28,4,0,1,1,1,0
608800495,608800307,45930887,42.3585499,-71.08724959999999,0.59399384,-0.57968843,4.9286366,135.74428,-67.36629,0.004210472,0.0013887724,0.13429692,0.0032891755,-0.0021379224,27.919779,-14.272897,-0.8739293,0.055003967,0.029523069,0.0010855609,3.011001,-0.0044271164,5.8788695,0.1,0.7948355,0.47968912,0.22593467,0.13001485,inf,inf,inf,inf,1,1,1,1,8,21,8,28,4,0,1,1,1,0
609300603,609300247,45930887,42.3585499,-71.08724959999999,0.6061577,-0.59630245,4.926547,135.74428,-67.36629,0.004210472,0.013796523,0.13390443,0.018027188,0.009389267,27.919779,-14.272897,-0.8739293,0.0072745034,0.051516175,-0.020830492,3.0116775,-0.0044271164,5.8788695,0.1,0.7652695,0.47528687,0.2124981,0.12783849,inf,inf,inf,inf,1,1,1,1,8,21,8,28,4,0,1,1,1,0
609800411,609800187,45930887,42.3585499,-71.08724959999999,0.6080351,-0.62554556,4.9257154,135.74428,-67.36629,0.004210472,0.020897856,0.1332171,0.009449758,0.0015352241,27.919779,-14.272897,-0.8739293,-0.014831924,0.06550264,0.053595793,3.01295,-0.0044271164,5.8788695,0.102813244,0.781073,0.47493792,0.22369006,0.12920696,inf,inf,inf,inf,1,1,1,1,8,21,8,28,4,0,1,1,1,0
610300521,610300127,45930887,42.3585499,-71.08724959999999,0.5820066,-0.68875223,4.9333997,135.74428,-67.36629,0.004210472,0.018004075,0.11763158,0.018772934,0.012206453,27.919779,-14.272897,-0.8739293,0.060486022,0.037429072,-0.18178156,3.0138736,-0.0044271164,5.8788695,0.1,0.7601241,0.47318807,0.21576357,0.12817207,inf,inf,inf,inf,1,1,1,1,8,21,8,28,4,0,1,1,1,0
610800251,610800067,45930887,42.3585499,-71.08724959999999,0.5746797,-0.76700884,4.9403334,135.74428,-67.36629,0.004210472,0.023599898,0.093234256,0.019300207,0.017462727,27.919779,-14.272897,-0.8739293,-0.012431169,0.06122556,0.087906964,3.0139267,-0.0044271164,5.8788695,0.10483265,0.75853896,0.4718411,0.21191378,0.12740634,inf,inf,inf,inf,1,1,1,1,8,21,8,28,4,0,1,1,1,0
611300361,611300006,45930887,42.3585499,-71.08724959999999,0.5627737,-0.8343851,4.953183,135.74428,-67.36629,0.004210472,0.02658389,0.07295253,0.014888837,0.014928865,27.919779,-14.272897,-0.8739293,0.046341207,0.010649267,-0.10938863,3.014466,-0.0044271164,5.8788695,0.1,0.7452971,0.46789277,0.21094419,0.12689279,inf,inf,inf,inf,1,1,1,1,8,21,8,28,4,0,1,1,1,0
611800260,611799946,45930887,42.3585499,-71.08724959999999,0.55728835,-0.8736998,4.9619293,135.74428,-67.36629,0.004210472,0.027167808,0.05862144,0.019977434,0.021285012,27.919779,-14.272897,-0.8739293,0.06323139,0.007919188,-0.08541561,3.014753,-0.0044271164,5.8788695,0.1,0.75099385,0.46899208,0.213578,0.12738664,inf,inf,inf,inf,1,1,1,1,8,21,8,28,4,0,1,1,1,0
612300099,612299886,45930887,42.3585499,-71.08724959999999,0.5621959,-0.92793626,4.968152,135.74428,-67.36629,0.004210472,0.034293387,0.03358309,0.016963683,0.013402332,27.919779,-14.272897,-0.8739293,0.025749166,-0.00915813,-0.11223815,3.0143633,-0.0044271164,5.8788695,0.1,0.7566847,0.47008592,0.21606623,0.12785766,inf,inf,inf,inf,1,1,1,1,8,21,8,28,4,0,1,1,1,0
612800013,612799825,45930887,42.3585499,-71.08724959999999,0.56965315,-0.98995996,4.9629316,135.74428,-67.36629,0.004210472,0.03627328,0.014997764,0.023336707,0.008527505,27.919779,-14.272897,-0.8739293,0.13317809,-0.16328412,0.36219552,3.009804,-0.0044271164,5.8788695,0.1,0.7391565,0.46898073,0.21142754,0.12723586,inf,inf,inf,inf,1,1,1,1,8,21,8,28,4,0,1,1,1,0
613300223,613299764,45930887,42.3585499,-71.08724959999999,0.6238036,-1.0867625,4.954592,135.74428,-67.36629,0.004210472,0.058119908,-0.02430244,0.01962732,-0.0031414023,27.919779,-14.272897,-0.8739293,-0.06208879,0.07734607,0.11804061,3.0128517,-0.0044271164,5.8788695,0.1,0.73365384,0.46758702,0.21581908,0.12782885,inf,inf,inf,inf,1,1,1,1,8,21,8,28,4,0,1,1,1,0
613799906,613799704,45930887,42.3585499,-71.08724959999999,0.6653697,-1.2016667,4.9403534,135.74428,-67.36629,0.004210472,0.07088982,-0.042549316,0.02278642,-0.010427535,27.919779,-14.272897,-0.8739293,-0.0435143,0.07337449,0.11454848,3.0121174,-0.0044271164,5.8788695,0.1,0.7508176,0.47208682,0.22579972,0.1297525,inf,inf,inf,inf,1,1,1,1,8,21,8,28,4,0,1,1,1,0
614299992,614299643,45930887,42.3585499,-71.08724959999999,0.6485849,-1.2502005,4.934873,135.74428,-67.36629,0.004210472,0.058696296,-0.03571774,0.018209936,-0.012819447,27.919779,-14.272897,-0.8739293,0.00025157322,0.050468575,0.000370695,3.012713,-0.0044271164,5.8788695,0.1,0.74822676,0.4755345,0.22967851,0.13093299,inf,inf,inf,inf,1,1,1,1,8,21,8,28,4,0,1,1,1,0
614799779,614799582,45930887,42.3585499,-71.08724959999999,0.6286889,-1.3202759,4.9196677,135.74428,-67.36629,0.004210472,0.043416835,-0.03783018,0.012650029,-0.022890002,27.919779,-14.272897,-0.8739293,0.029951604,0.007502481,0.0950116,3.0124946,-0.0044271164,5.8788695,0.1,0.76680076,0.4798209,0.23735377,0.13239077,inf,inf,inf,inf,1,1,1,1,8,21,8,28,4,0,1,1,1,0
615299755,615299521,45930887,42.3585499,-71.08724959999999,0.61813986,-1.3797401,4.931893,135.74428,-67.36629,0.004210472,0.03191244,-0.051195256,0.008205805,-0.0056352667,27.919779,-14.272897,-0.8739293,-0.01520169,-0.051702343,-0.04963511,3.0139885,-0.0044271164,5.8788695,0.109238625,0.7727193,0.47638556,0.235358,0.13154411,inf,inf,inf,inf,1,1,1,1,8,21,8,28,4,0,1,1,1,0
615799646,615799459,45930887,42.3585499,-71.08724959999999,0.6317983,-1.4421612,4.9566207,135.74428,-67.36629,0.004210472,0.028886508,-0.069740646,0.012592655,0.018238338,27.919779,-14.272897,-0.8739293,0.05967956,-0.055096734,-0.1389992,3.0142305,-0.0044271164,5.8788695,0.10726166,0.75268424,0.47532883,0.22608921,0.13043761,inf,inf,inf,inf,1,1,1,1,8,21,8,28,4,0,1,1,1,0
616299733,616299398,45930887,42.3585499,-71.08724959999999,0.6760485,-1.4976846,4.965752,135.74428,-67.36629,0.004210472,0.042010713,-0.083014764,0.02263428,0.026934978,27.919779,-14.272897,-0.8739293,0.03991404,-0.05319917,-0.00926659,3.0147479,-0.0044271164,5.8788695,0.11256552,0.7336557,0.47413492,0.21778779,0.1293221,inf,inf,inf,inf,1,1,1,1,8,21,8,28,4,0,1,1,1,0
616799525,616799337,45930887,42.3585499,-71.08724959999999,0.7099482,-1.5575708,4.9838514,135.74428,-67.36629,0.004210472,0.046003327,-0.08930448,0.041548245,0.04130838,27.919779,-14.272897,-0.8739293,0.07203585,-0.038531404,0.0676693,3.0139678,-0.0044271164,5.8788695,0.1,0.7501963,0.47807977,0.225986,0.13080133,inf,inf,inf,inf,1,1,1,1,8,21,8,28,4,0,1,1,1,0
617299642,617299275,45930887,42.3585499,-71.08724959999999,0.7025991,-1.6097187,4.9938507,135.74428,-67.36629,0.004210472,0.031645533,-0.08567339,0.06851103,0.054342277,27.919779,-14.272897,-0.8739293,-0.056402005,0.05483869,0.042151093,3.013349,-0.0044271164,5.8788695,0.1,0.74289495,0.47570735,0.22630635,0.13060062,inf,inf,inf,inf,1,1,1,1,8,21,8,28,4,0,1,1,1,0
617799397,617799214,45930887,42.3585499,-71.08724959999999,0.66479677,-1.6630781,5.006541,135.74428,-67.36629,0.004210472,0.012654541,-0.07984712,0.05800031,0.032637946,27.919779,-14.272897,-0.8739293,-0.058883462,0.03320387,0.07488513,3.0132313,-0.0044271164,5.8788695,0.1,0.76431596,0.4803905,0.23635586,0.1322914,inf,inf,inf,inf,1,1,1,1,8,21,8,28,4,0,1,1,1,0
618299395,618299152,45930887,42.3585499,-71.08724959999999,0.6210828,-1.7164361,5.0148544,135.74428,-67.36629,0.004210472,-0.0016977275,-0.07463781,0.06510822,0.033690568,27.919779,-14.272897,-0.8739293,0.019137831,0.007414079,-0.07523875,3.0128632,-0.0044271164,5.8788695,0.1,0.76841277,0.48060396,0.23320118,0.13181011,inf,inf,inf,inf,1,1,1,1,8,21,8,28,4,0,1,1,1,0
618799273,618799090,45930887,42.3585499,-71.08724959999999,0.6059405,-1.6879492,5.010983,135.74428,-67.36629,0.004210472,-0.001299425,-0.03201404,0.040288717,-0.0042307978,27.919779,-14.272897,-0.8739293,0.044393033,0.024626277,0.048970055,3.0127294,-0.0044271164,5.8788695,0.1,0.7479113,0.47918218,0.22433922,0.13063945,inf,inf,inf,inf,1,1,1,1,8,21,8,28,4,0,1,1,1,0
619299484,619299028,45930887,42.3585499,-71.08724959999999,0.58393896,-1.7296269,4.9835153,135.74428,-67.36629,0.004210472,-0.0055265427,-0.044126954,0.033883475,-0.028347818,27.919779,-14.272897,-0.8739293,-0.03653665,-0.019430816,-0.014106332,3.0100508,-0.0044271164,5.8788695,0.1,0.71992886,0.47076055,0.21085355,0.12769732,inf,inf,inf,inf,1,1,1,1,8,21,8,28,4,0,1,1,1,0
619799203,619798966,45930887,42.3585499,-71.08724959999999,0.57706,-1.7647368,4.9676113,135.74428,-67.36629,0.004210472,-0.0050552944,-0.062098708,0.027744304,-0.029648324,27.919779,-14.272897,-0.8739293,-0.017503936,-0.035850268,0.098450124,3.0101075,-0.0044271164,5.8788695,0.10678673,0.7297513,0.47293216,0.21572423,0.12852554,inf,inf,inf,inf,1,1,1,1,8,21,8,28,4,0,1,1,1,0
