timestamp,lat,lon,alt,x,y,z,yaw,valid_alt,valid_hpos,valid_lpos,manual_home
482715723,42.358578803438675,-71.08727530327212,0.2623725,3.213916,-2.1119523,5.616879,2.6293142,1,1,1,0
542110635,42.3585823436321,-71.08728858488497,0.53214884,3.607568,-3.203258,5.3471026,2.5824063,1,1,1,0
579317638,42.358577975728736,-71.08727302287271,0.95951414,3.1218789,-1.9245795,4.9197373,2.6190124,1,1,1,0
600904176,42.35856334913593,-71.08727018294012,0.8821249,1.4954759,-1.6912321,4.9971266,2.6953225,1,1,1,0
632905639,42.35854873530653,-71.08726971042138,1.0804629,-0.12950781,-1.6524072,4.7987885,2.736307,1,1,1,0
665112638,42.358547619438845,-71.08725089057425,1.3210382,-0.25358683,-0.10604224,4.558213,2.7308056,1,1,1,0
679755641,42.35855835943762,-71.0872589464891,1.2682858,0.9406466,-0.76797014,4.6109657,2.726892,1,1,1,0
690145639,42.35856980590411,-71.08726410632218,1.248322,2.2134356,-1.1919364,4.6309295,2.7228143,1,1,1,0
696554682,42.358579272104855,-71.08727503462633,1.3791046,3.2660294,-2.0898786,4.500147,2.7219536,1,1,1,0
707962561,42.35858753496393,-71.08728864741286,1.4791393,4.184818,-3.2083955,4.400112,2.7211485,1,1,1,0
732167639,42.358601138594,-71.08729207770472,1.564673,5.6974726,-3.4902503,4.3145785,2.6405118,1,1,1,0
739725639,42.35861468036671,-71.08730206888416,1.6514778,7.2032495,-4.311191,4.2277737,2.6396768,1,1,1,0
757132645,42.35860352868096,-71.08730477885064,1.773438,5.9632387,-4.5338607,4.1058135,2.6435206,1,1,1,0
763735639,42.358592357892654,-71.08729352857715,1.6696081,4.721103,-3.6094642,4.2096434,2.6503973,1,1,1,0
778138639,42.358596170895005,-71.0872773767524,1.7822056,5.145089,-2.2823226,4.097046,2.6520603,1,1,1,0
794734639,42.35858872788424,-71.08726623700397,1.7775369,4.317464,-1.367007,4.1017146,2.646235,1,1,1,0
805535639,42.35857818161612,-71.08726086178429,1.7841649,3.1447723,-0.92534333,4.0950866,2.6466296,1,1,1,0
823534638,42.35856774915572,-71.08725944108392,1.6491613,1.9847356,-0.80860925,4.23009,2.650545,1,1,1,0
851968639,42.35857026435143,-71.08727520881136,1.8407397,2.2644129,-2.104191,4.0385118,2.6324258,1,1,1,0
872571638,42.35857718722959,-71.08728500927654,1.9476886,3.034202,-2.9094625,3.931563,2.6489856,1,1,1,0
899797640,42.358571792809,-71.08727334095748,2.1212316,2.4343696,-1.9507157,3.75802,2.633971,1,1,1,0
953382638,42.35857127054329,-71.08725981590162,2.5360742,2.376296,-0.8394067,3.3431773,2.6449723,1,1,1,0
981737640,42.35857688365344,-71.08725050273917,2.3105197,3.0004454,-0.074175075,3.5687318,2.643866,1,1,1,0
1000526933,42.35856586120543,-71.08725168399353,2.3631005,1.7748051,-0.17123485,3.516151,2.6445832,1,1,1,0
1004463639,42.358555797485515,-71.08725420885142,2.3704164,0.6557705,-0.37869412,3.508835,2.6446314,1,1,1,0
1019125641,42.358552893746996,-71.08726460648347,2.398158,0.3328896,-1.2330333,3.4810934,2.649116,1,1,1,0
1026718640,42.35855989815381,-71.08726919491001,2.5366786,1.1117442,-1.610049,3.342573,2.6521792,1,1,1,0
1037102659,42.35854928590101,-71.08726583108974,2.6192458,-0.06828456,-1.3336552,3.2600057,2.5232732,1,1,1,0
1038620649,42.35854212370399,-71.08725637284655,2.7337103,-0.86468464,-0.5565026,3.1455412,1.9751914,1,1,1,0
1042513606,42.3585426456694,-71.08724317613411,2.4631245,-0.80664474,0.527828,3.416127,1.5051337,1,1,1,0
1049585639,42.35853807975628,-71.08723080971684,2.0475137,-1.314351,1.543936,3.8317378,1.1778128,1,1,1,0
1054177640,42.358534420994424,-71.08724441731744,1.6301985,-1.7211869,0.42584407,4.249053,1.7596948,1,1,1,0
1067121638,42.35853251166327,-71.08725614037236,1.7595496,-1.9334948,-0.537401,4.119702,2.8226569,1,1,1,0
1073750639,42.35853469964495,-71.08726591976891,1.870122,-1.6902022,-1.340942,4.0091295,2.9200792,1,1,1,0
1098511638,42.35852955890123,-71.08727150312899,1.9372859,-2.2618268,-1.7997086,3.9419656,3.0239425,1,1,1,0
1104921255,42.358523062559925,-71.0872742184845,1.9492579,-2.984187,-2.0228207,3.9299936,2.0078368,1,1,1,0
1106116640,42.358519573800216,-71.08726622622638,1.9952378,-3.3721194,-1.366123,3.8840137,1.9309607,1,1,1,0
1106904734,42.35851630138041,-71.08725773425402,1.9382069,-3.735996,-0.66836524,3.9410446,1.8495201,1,1,1,0
1107535833,42.358512929960305,-71.08724975152086,1.970299,-4.110881,-0.012449978,3.9089525,1.7942262,1,1,1,0
1108122703,42.35851034033736,-71.08724125805513,1.7796245,-4.3988338,0.6854306,4.099627,1.7676105,1,1,1,0
1108643638,42.35850875026055,-71.08723201218663,1.7723231,-4.575642,1.4451337,4.1069283,1.732363,1,1,1,0
1109109638,42.35850690704474,-71.08722300973966,1.7309651,-4.780598,2.1848357,4.1482863,1.7209458,1,1,1,0
1109553639,42.35850544033247,-71.08721437054383,1.6835165,-4.943689,2.8946905,4.195735,1.7355549,1,1,1,0
1109997638,42.358503805260895,-71.08720571543881,1.6303515,-5.1255,3.6058526,4.2489,1.7530613,1,1,1,0
1110474842,42.358502175643196,-71.08719663317189,1.5586915,-5.306705,4.3521132,4.32056,1.7796484,1,1,1,0
1110940638,42.35850055745345,-71.08718821035583,1.6186018,-5.486639,5.044189,4.2606497,1.8015684,1,1,1,0
1111347654,42.35849824018905,-71.08718024064981,1.6175089,-5.7443066,5.699034,4.2617426,1.8158809,1,1,1,0
1111714639,42.35849545966796,-71.0871726992099,1.6490479,-6.053486,6.3186903,4.2302036,1.8261274,1,1,1,0
1112049799,42.358492545732936,-71.08716497335409,1.6765552,-6.3775,6.9534993,4.2026963,1.8348632,1,1,1,0
1112346638,42.358489957605336,-71.08715733750745,1.7218194,-6.665286,7.5809126,4.157432,1.8467764,1,1,1,0
1112615101,42.35848768485573,-71.08714946565881,1.7540417,-6.9180036,8.227717,4.12521,1.8593369,1,1,1,0
1112867658,42.35848557540393,-71.0871415014454,1.7855096,-7.152563,8.882112,4.093742,1.8678738,1,1,1,0
1113103659,42.358483655674405,-71.08713340333884,1.784358,-7.3660264,9.547507,4.0948935,1.8725947,1,1,1,0
1113324306,42.358481930663366,-71.08712552978461,1.7589808,-7.557838,10.194452,4.1202707,1.8737135,1,1,1,0
1113535673,42.35848025547331,-71.08711769916339,1.7482762,-7.7441096,10.83787,4.1309752,1.8708745,1,1,1,0
1113744638,42.35847864377508,-71.08710970144273,1.7772632,-7.9233212,11.495017,4.1019883,1.8601342,1,1,1,0
1113942639,42.35847697422306,-71.08710187397931,1.7964516,-8.108966,12.138175,4.0828,1.8519365,1,1,1,0
1114144651,42.35847536856988,-71.08709361590101,1.7859797,-8.287505,12.816715,4.0932717,1.8446661,1,1,1,0
1114331638,42.3584737727106,-71.08708537819264,1.7899737,-8.464955,13.493582,4.0892777,1.8353037,1,1,1,0
1114522639,42.35847213657479,-71.08707697346632,1.7910876,-8.646884,14.184172,4.088164,1.8225296,1,1,1,0
1114709875,42.35847062597383,-71.08706844078935,1.7892799,-8.814854,14.885275,4.0899715,1.8099436,1,1,1,0
1114885689,42.3584693417176,-71.08706010176759,1.773696,-8.957655,15.570466,4.1055555,1.797306,1,1,1,0
1115054638,42.35846787892191,-71.08705188268897,1.7640848,-9.120309,16.245802,4.1151667,1.7863829,1,1,1,0
1115219641,42.35846640986495,-71.0870438071491,1.7876763,-9.283659,16.909344,4.091575,1.7774714,1,1,1,0
1115373638,42.358464897014976,-71.08703554492982,1.7953277,-9.451879,17.588224,4.083924,1.7738998,1,1,1,0
1115531639,42.35846339390712,-71.08702712502415,1.7931099,-9.619015,18.280062,4.0861416,1.7713772,1,1,1,0
1115696639,42.358461848043824,-71.08701847277888,1.7710361,-9.790905,18.99099,4.1082153,1.7750397,1,1,1,0
1115839916,42.358460413316166,-71.08701015795957,1.7603168,-9.950438,19.674192,4.1189346,1.7814431,1,1,1,0
1115982639,42.35845902710656,-71.08700223374765,1.7545271,-10.104575,20.3253,4.1247244,1.7853624,1,1,1,0
1116128747,42.35845744107734,-71.08699365030746,1.7811766,-10.280931,21.030575,4.098075,1.7897711,1,1,1,0
1116282662,42.35845583429221,-71.08698511071738,1.8187108,-10.459596,21.732246,4.0605407,1.7929667,1,1,1,0
1116425639,42.358454117049455,-71.08697700363507,1.8220291,-10.650542,22.39838,4.0572224,1.7975957,1,1,1,0
1116550639,42.35845240550196,-71.08696929509924,1.8447404,-10.840856,23.031767,4.034511,1.802525,1,1,1,0
1116693640,42.35845043816356,-71.0869608316047,1.8571267,-11.059611,23.727186,4.022125,1.8058636,1,1,1,0
1116825659,42.35844835271609,-71.08695232932216,1.8660059,-11.2915,24.425793,4.0132456,1.8152734,1,1,1,0
1116957704,42.35844632391826,-71.08694451373034,1.8629894,-11.51709,25.067976,4.016262,1.8224477,1,1,1,0
1117094117,42.35844403658508,-71.08693603582367,1.87113,-11.771427,25.76458,4.0081215,1.8314722,1,1,1,0
1117225682,42.358441834195446,-71.08692810500389,1.8816016,-12.016319,26.416231,3.99765,1.8423468,1,1,1,0
1117346639,42.358439750232094,-71.08692057688518,1.8987582,-12.248043,27.034794,3.9804933,1.8522205,1,1,1,0
1117467638,42.358437623015746,-71.08691280215108,1.9100957,-12.484576,27.67362,3.9691558,1.861347,1,1,1,0
1117581769,42.35843539632667,-71.08690475717097,1.9195807,-12.73217,28.334652,3.9596708,1.8707519,1,1,1,0
1117702829,42.3584330652844,-71.08689634087506,1.9406295,-12.991367,29.026194,3.938622,1.8797868,1,1,1,0
1117812982,42.35843074433751,-71.08688834715122,1.9680781,-13.249442,29.683014,3.9111733,1.8881629,1,1,1,0
1117911644,42.35842857335337,-71.08688081571619,2.0165513,-13.490842,30.30185,3.8627002,1.8969902,1,1,1,0
1118010651,42.35842633010175,-71.08687310874457,2.0843058,-13.740277,30.935108,3.7949457,1.9065048,1,1,1,0
1118113677,42.35842405151363,-71.08686528213336,2.1675067,-13.993642,31.578197,3.7117448,1.9144324,1,1,1,0
1118212792,42.358421602328534,-71.08685766142403,2.2745023,-14.265976,32.20437,3.6047492,1.9230969,1,1,1,0
1118311659,42.358419125534134,-71.08684983235464,2.3967226,-14.54138,32.84766,3.482529,1.9298239,1,1,1,0
1118410660,42.35841660796582,-71.08684193555028,2.530841,-14.821318,33.496517,3.3484104,1.9335818,1,1,1,0
1118509698,42.358414029648216,-71.08683384547464,2.671045,-15.10801,34.161255,3.2082064,1.9346222,1,1,1,0
1118612640,42.35841141476746,-71.08682561342856,2.8112578,-15.398768,34.837658,3.0679936,1.9349082,1,1,1,0
1118711642,42.35840869876738,-71.08681720830694,2.9576824,-15.70077,35.528282,2.921569,1.9361198,1,1,1,0
1118799639,42.358405926840696,-71.08680933198094,3.0857604,-16.008991,36.175457,2.7934911,1.9364508,1,1,1,0
1118887639,42.35840308711524,-71.08680140031609,3.2234545,-16.32475,36.82718,2.655797,1.9362326,1,1,1,0
1118975653,42.35840020707897,-71.08679340351627,3.367467,-16.644993,37.484253,2.5117846,1.935222,1,1,1,0
1119078638,42.35839691208546,-71.08678449894879,3.5428414,-17.011375,38.215916,2.33641,1.9352356,1,1,1,0
1119170660,42.3583964,-71.0867887,4.6410003,0.0,0.0,0.0,0.0,1,1,0,0
1119489686,42.3583804,-71.0867485,5.2980003,0.0,0.0,0.0,0.0,1,1,0,0
1119911644,42.3583618,-71.08671199999999,6.3160005,0.0,0.0,0.0,0.0,1,1,0,0
1120300666,42.358341599999996,-71.08667439999999,7.346,0.0,0.0,0.0,0.0,1,1,0,0
1120700677,42.3583232,-71.0866404,7.3190002,0.0,0.0,0.0,0.0,1,1,0,0
1121096645,42.3583029,-71.0866053,6.846,0.0,0.0,0.0,0.0,1,1,0,0
1121496645,42.358281,-71.08657029999999,6.774,0.0,0.0,0.0,0.0,1,1,0,0
1121896666,42.3582605,-71.0865359,7.0290003,0.0,0.0,0.0,0.0,1,1,0,0
1122061657,42.35824994038569,-71.08651335815829,10.228346,-33.353725,60.494858,-4.349095,1.9282805,1,1,1,0
1122186640,42.35824446405139,-71.08650206530905,10.460852,-33.962658,61.422764,-4.5815997,1.9223604,1,1,1,0
1122318658,42.35823877013723,-71.0864896218404,10.712534,-34.595783,62.445213,-4.833283,1.9173435,1,1,1,0
1122439638,42.35823368423187,-71.08647686522262,10.941511,-35.1613,63.493393,-5.062259,1.9109894,1,1,1,0
1122560821,42.35822883435811,-71.08646483647198,11.142883,-35.700573,64.481766,-5.2636323,1.9013692,1,1,1,0
1122696675,42.35822348600317,-71.08645166156266,11.351081,-36.295273,65.564316,-5.4718294,1.8865029,1,1,1,0
1122817639,42.35821786964546,-71.08643852704972,11.537853,-36.919773,66.64355,-5.6586013,1.8669845,1,1,1,0
1123371766,42.35819385049863,-71.08638162035159,12.105886,-39.590534,71.319435,-6.226635,1.781395,1,1,1,0
1123904642,42.3581722956807,-71.08632363834091,12.526386,-41.98727,76.08368,-6.6471353,1.7557533,1,1,1,0
1124448707,42.358150222084205,-71.08626538385741,13.26652,-44.44169,80.870316,-7.3872685,1.7600521,1,1,1,0
1124980642,42.35812608577157,-71.08620931221382,14.444623,-47.12547,85.4776,-8.5653715,1.7686689,1,1,1,0
1125512659,42.358099609447876,-71.08615547504368,15.40669,-50.069447,89.90129,-9.527438,1.759047,1,1,1,0
1126044642,42.35807244185184,-71.08610088053842,16.109018,-53.090286,94.387215,-10.229767,1.7661842,1,1,1,0
1126586643,42.35804673501713,-71.08604499949675,17.041876,-55.948692,98.97885,-11.162624,1.7462273,1,1,1,0
1127117641,42.35802245601248,-71.08598826627791,17.724346,-58.648327,103.64051,-11.845094,1.7021767,1,1,1,0
1127675667,42.35799831136963,-71.08592955266387,18.50502,-61.333015,108.4649,-12.625769,1.6801616,1,1,1,0
1128218642,42.35797506804287,-71.08587201624997,18.78521,-63.91748,113.19256,-12.905957,1.6963154,1,1,1,0
1128361644,42.35796847964936,-71.08585597894469,18.806952,-64.650055,114.510315,-12.9277,1.6914487,1,1,1,0
1128505734,42.35796214019435,-71.08584104796586,18.81321,-65.35495,115.73717,-12.933959,1.6832923,1,1,1,0
1128648639,42.35795558844853,-71.08582604364197,18.832214,-66.08345,116.97005,-12.952962,1.6771021,1,1,1,0
1128784639,42.35794867483752,-71.08581109011939,18.876934,-66.85219,118.19875,-12.997682,1.6738042,1,1,1,0
1128927638,42.35794140608658,-71.08579628182842,18.960846,-67.660416,119.41553,-13.081594,1.6749854,1,1,1,0
1129059639,42.35793387310833,-71.08578166695716,19.099567,-68.498024,120.61641,-13.220316,1.6821715,1,1,1,0
1129206638,42.357926067464774,-71.08576734569293,19.276714,-69.36595,121.79317,-13.397462,1.6940155,1,1,1,0
1129338639,42.35791786832798,-71.08575324914271,19.495064,-70.27763,122.95146,-13.615811,1.7107865,1,1,1,0
1129485639,42.3579092951162,-71.08573943450287,19.732426,-71.23091,124.08659,-13.853174,1.7286389,1,1,1,0
1129617639,42.357900591681144,-71.08572603213132,19.961693,-72.19867,125.18785,-14.082441,1.748414,1,1,1,0
1129925661,42.357880280002824,-71.08569831306818,20.40769,-74.457184,127.4655,-14.528439,1.7931666,1,1,1,0
1130082640,42.35786996739535,-71.08568551521263,20.585667,-75.603874,128.51709,-14.706415,1.8142933,1,1,1,0
1130225639,42.35785952278412,-71.08567334968403,20.721933,-76.76524,129.51672,-14.842682,1.837606,1,1,1,0
1130368638,42.35784938131778,-71.08566226253016,20.842506,-77.89291,130.42775,-14.963256,1.8637446,1,1,1,0
1130503724,42.3578387892067,-71.08565154568342,20.965305,-79.07068,131.30835,-15.086054,1.8935623,1,1,1,0
1130650980,42.3578502,-71.08566499999999,14.198001,0.0,0.0,0.0,0.0,1,1,0,0
1131090647,42.3578025,-71.0856253,14.371,0.0,0.0,0.0,0.0,1,1,0,0
1131692644,42.3577491,-71.0855973,14.601001,0.0,0.0,0.0,0.0,1,1,0,0
1132088659,42.3577094,-71.0855861,14.689001,0.0,0.0,0.0,0.0,1,1,0,0
1132488645,42.357666699999996,-71.0855823,15.025001,0.0,0.0,0.0,0.0,1,1,0,0
1132888646,42.3576245,-71.0855888,14.907001,0.0,0.0,0.0,0.0,1,1,0,0
1133298821,42.3575807,-71.08560179999999,14.7890005,0.0,0.0,0.0,0.0,1,1,0,0
1133698661,42.357539599999996,-71.0856202,13.900001,0.0,0.0,0.0,0.0,1,1,0,0
1134105644,42.3574979,-71.0856445,13.707001,0.0,0.0,0.0,0.0,1,1,0,0
1134493645,42.3574585,-71.0856735,13.792001,0.0,0.0,0.0,0.0,1,1,0,0
1134893677,42.357419199999995,-71.0857073,13.709001,0.0,0.0,0.0,0.0,1,1,0,0
1135293644,42.3573808,-71.0857484,13.695001,0.0,0.0,0.0,0.0,1,1,0,0
1135693645,42.357344499999996,-71.08579499999999,13.589001,0.0,0.0,0.0,0.0,1,1,0,0
1136100644,42.357312199999996,-71.0858476,13.629001,0.0,0.0,0.0,0.0,1,1,0,0
1136489692,42.3572813,-71.0859045,13.556001,0.0,0.0,0.0,0.0,1,1,0,0
1136900659,42.3572523,-71.0859649,13.549001,0.0,0.0,0.0,0.0,1,1,0,0
1137300644,42.3572285,-71.0860257,13.660001,0.0,0.0,0.0,0.0,1,1,0,0
1137686644,42.3572029,-71.0860896,13.854001,0.0,0.0,0.0,0.0,1,1,0,0
1138097644,42.3571768,-71.08615089999999,13.794001,0.0,0.0,0.0,0.0,1,1,0,0
1138497645,42.3571525,-71.08621389999999,13.613001,0.0,0.0,0.0,0.0,1,1,0,0
1138897644,42.3571301,-71.08627659999999,13.621,0.0,0.0,0.0,0.0,1,1,0,0
1139297659,42.357108,-71.086339,13.634001,0.0,0.0,0.0,0.0,1,1,0,0
1139693933,42.357086599999995,-71.08640299999999,13.936001,0.0,0.0,0.0,0.0,1,1,0,0
1140093689,42.357065299999995,-71.08646809999999,14.012001,0.0,0.0,0.0,0.0,1,1,0,0
1140494644,42.3570458,-71.0865331,13.743001,0.0,0.0,0.0,0.0,1,1,0,0
1140905645,42.357025799999995,-71.08660139999999,14.0720005,0.0,0.0,0.0,0.0,1,1,0,0
1141290645,42.357006399999996,-71.0866698,14.370001,0.0,0.0,0.0,0.0,1,1,0,0
1141690643,42.3569866,-71.086741,14.548,0.0,0.0,0.0,0.0,1,1,0,0
1142090647,42.3569666,-71.08681039999999,14.912001,0.0,0.0,0.0,0.0,1,1,0,0
1142490828,42.3569473,-71.0868775,15.098001,0.0,0.0,0.0,0.0,1,1,0,0
1142890651,42.3569268,-71.0869428,15.429001,0.0,0.0,0.0,0.0,1,1,0,0
1143297645,42.3569083,-71.0870083,15.848001,0.0,0.0,0.0,0.0,1,1,0,0
1143697666,42.3568913,-71.0870733,16.038,0.0,0.0,0.0,0.0,1,1,0,0
1144097644,42.3568739,-71.08713709999999,16.433,0.0,0.0,0.0,0.0,1,1,0,0
1144229638,42.35686380219079,-71.08717344985146,32.028023,-187.48552,6.257175,-26.148771,-1.9643692,1,1,1,0
1144321638,42.35686011879017,-71.08718778029235,32.12675,-187.8951,5.0796585,-26.2475,-1.9495413,1,1,1,0
1144409639,42.35685648080953,-71.08720232423458,32.21614,-188.29962,3.8845987,-26.336891,-1.9369986,1,1,1,0
1144497639,42.356852918438335,-71.08721680256778,32.300907,-188.69574,2.6949298,-26.421656,-1.9264925,1,1,1,0
1144596638,42.35684908820122,-71.08723288561627,32.396812,-189.12164,1.3734031,-26.517561,-1.9179945,1,1,1,0
1144695869,42.35684534839351,-71.08724899442271,32.48323,-189.53749,0.04975964,-26.60398,-1.9125035,1,1,1,0
1144787639,42.356842053469094,-71.08726362063794,32.551327,-189.90387,-1.152061,-26.672075,-1.9096575,1,1,1,0
1144886638,42.35683849548096,-71.08727982905468,32.603558,-190.2995,-2.4838896,-26.724306,-1.9087209,1,1,1,0
1144974638,42.3568353508145,-71.08729482203607,32.62845,-190.64917,-3.7158473,-26.749195,-1.9100441,1,1,1,0
1145074130,42.35683197382231,-71.0873114310947,32.636005,-191.02467,-5.0805964,-26.756754,-1.9135691,1,1,1,0
1145172639,42.35682893893222,-71.08732639089952,32.632256,-191.36214,-6.3098283,-26.753002,-1.9187533,1,1,1,0
1145264639,42.35682568928078,-71.08734304434019,32.61547,-191.72348,-7.6782246,-26.736221,-1.924356,1,1,1,0
1145352881,42.35682281397989,-71.08735805504729,32.591953,-192.0432,-8.911639,-26.712702,-1.9271342,1,1,1,0
1145451643,42.356820026913034,-71.08737312089453,32.5652,-192.3531,-10.149585,-26.685947,-1.9266514,1,1,1,0
1145539639,42.356817237099634,-71.08738823465107,32.540215,-192.66331,-11.391467,-26.660961,-1.923315,1,1,1,0
1145627641,42.35681446457462,-71.08740339322966,32.511196,-192.9716,-12.6370325,-26.631945,-1.9173487,1,1,1,0
1145715773,42.35681177836247,-71.08741857485718,32.472557,-193.2703,-13.884492,-26.593307,-1.9075475,1,1,1,0
1145808281,42.35680918463843,-71.08743371586178,32.42044,-193.5587,-15.128613,-26.541191,-1.8937691,1,1,1,0
1145895639,42.35680657403355,-71.08744891077613,32.370174,-193.84898,-16.377165,-26.490923,-1.8774552,1,1,1,0
1146115638,42.356799581496915,-71.0874857189695,32.213196,-194.62651,-19.401659,-26.333942,-1.8322967,1,1,1,0
1146203686,42.3567967767108,-71.08750098703283,32.155704,-194.93839,-20.656221,-26.276453,-1.8148863,1,1,1,0
1146295663,42.35679411340198,-71.08751636807065,32.09728,-195.23453,-21.920067,-26.218027,-1.7980251,1,1,1,0
1146383639,42.35679165510546,-71.08753202638148,32.038597,-195.50787,-23.206696,-26.159348,-1.7809349,1,1,1,0
1146471640,42.356789325798694,-71.08754774666909,31.992247,-195.76688,-24.498417,-26.112995,-1.7642245,1,1,1,0
1146559640,42.356786999508486,-71.08756355811106,31.946152,-196.02554,-25.797628,-26.0669,-1.7502303,1,1,1,0
1146636791,42.356786999508486,-71.08756355811106,31.946152,-196.02554,-25.797628,-26.0669,-1.5241565,1,1,1,0
1146647788,42.35678482732026,-71.08757943596363,31.912258,-196.26707,-27.102297,-26.033007,-1.5110348,1,1,1,0
1146746639,42.35678270754416,-71.08759725902317,31.898834,-196.50278,-28.566801,-26.019583,-1.4986253,1,1,1,0
1146838190,42.35678105173062,-71.0876133102971,31.897839,-196.68689,-29.88572,-26.018587,-1.4915444,1,1,1,0
1146925639,42.356779543569296,-71.08762944132921,31.884504,-196.85458,-31.211191,-26.005253,-1.4900804,1,1,1,0
1147025024,42.356778052003456,-71.08764747796778,31.858198,-197.02043,-32.693245,-25.978947,-1.4922677,1,1,1,0
1147123639,42.35677686727766,-71.08766372039725,31.839169,-197.15216,-34.02787,-25.959917,-1.4909712,1,1,1,0
1147211639,42.35677576378678,-71.08768005293756,31.823551,-197.27486,-35.3699,-25.9443,-1.4889663,1,1,1,0
1147303794,42.35677476910645,-71.08769819233912,31.809431,-197.38545,-36.860397,-25.93018,-1.4805385,1,1,1,0
1147402659,42.35677401622093,-71.08771480236312,31.803741,-197.46916,-38.225227,-25.92449,-1.4742901,1,1,1,0
1147490659,42.35677345970316,-71.08773133402283,31.803747,-197.53104,-39.58362,-25.924496,-1.4622679,1,1,1,0
1147567676,42.356773088306795,-71.08774637107729,31.801846,-197.57233,-40.8192,-25.922594,-1.4511206,1,1,1,0
1147655658,42.35677283985504,-71.08776310236648,31.811954,-197.59995,-42.193993,-25.932703,-1.4310584,1,1,1,0
1147732658,42.35677271038265,-71.08777826551294,31.820717,-197.61433,-43.439934,-25.941465,-1.4088161,1,1,1,0
1147813639,42.35677267120158,-71.08779366361702,31.82515,-197.61868,-44.70518,-25.945898,-1.3847398,1,1,1,0
1147891318,42.356772761422874,-71.08780892179729,31.83846,-197.60864,-45.95893,-25.95921,-1.3587064,1,1,1,0
1147978641,42.356772896925854,-71.08782432686672,31.845272,-197.59357,-47.22475,-25.96602,-1.3315428,1,1,1,0
1148055640,42.356773186532195,-71.08783951754702,31.861465,-197.56136,-48.472954,-25.982214,-1.306735,1,1,1,0
1148132639,42.35677374358868,-71.08785480818305,31.879314,-197.4994,-49.72937,-26.000063,-1.2840122,1,1,1,0
1148209686,42.35677449838543,-71.0878700572245,31.90081,-197.41547,-50.98237,-26.021559,-1.2636337,1,1,1,0
1148297826,42.35677536749029,-71.08788508407744,31.92745,-197.31882,-52.21711,-26.048199,-1.2490908,1,1,1,0
1148378782,42.35677648839115,-71.08790205479464,31.960672,-197.19417,-53.611576,-26.08142,-1.2326319,1,1,1,0
1148466640,42.35677761575142,-71.08791690398274,32.001205,-197.0688,-54.83172,-26.121956,-1.2203647,1,1,1,0
1148543638,42.35677890736867,-71.08793177587498,32.05503,-196.92517,-56.053726,-26.17578,-1.2067138,1,1,1,0
1148620639,42.35678036049956,-71.08794647506862,32.1211,-196.76358,-57.261543,-26.241848,-1.1941684,1,1,1,0
1148697639,42.356782001491425,-71.08796100927059,32.19423,-196.5811,-58.455803,-26.31498,-1.1833986,1,1,1,0
1148785638,42.35678386519866,-71.08797553056972,32.269905,-196.37386,-59.649002,-26.390656,-1.1730515,1,1,1,0
1148876638,42.35678649172037,-71.0879932671356,32.382935,-196.08179,-61.106396,-26.503683,-1.1639814,1,1,1,0
1148964646,42.35678899201562,-71.08800739415679,32.4786,-195.80376,-62.267197,-26.59935,-1.1595376,1,1,1,0
1149052810,42.356792022265125,-71.0880228971766,32.59667,-195.4668,-63.54106,-26.717417,-1.1567442,1,1,1,0
1149145128,42.356792299999995,-71.088019,16.591002,0.0,0.0,0.0,0.0,1,1,0,0
1149496645,42.3568101,-71.0880853,16.632,0.0,0.0,0.0,0.0,1,1,0,0
1149896659,42.356831899999996,-71.0881481,16.730001,0.0,0.0,0.0,0.0,1,1,0,0
1150296695,42.3568565,-71.08820759999999,16.915,0.0,0.0,0.0,0.0,1,1,0,0
1150696644,42.3568819,-71.0882663,17.268002,0.0,0.0,0.0,0.0,1,1,0,0
1151103646,42.3569095,-71.0883231,17.916,0.0,0.0,0.0,0.0,1,1,0,0
1151491668,42.3569393,-71.0883771,17.75,0.0,0.0,0.0,0.0,1,1,0,0
1151890645,42.356967999999995,-71.0884301,17.802,0.0,0.0,0.0,0.0,1,1,0,0
1152279675,42.3569982,-71.088478,17.862001,0.0,0.0,0.0,0.0,1,1,0,0
1152687069,42.357029499999996,-71.0885193,17.689001,0.0,0.0,0.0,0.0,1,1,0,0
1153087698,42.357061,-71.0885579,17.766,0.0,0.0,0.0,0.0,1,1,0,0
1153486923,42.3570929,-71.0885918,17.938002,0.0,0.0,0.0,0.0,1,1,0,0
1153885645,42.3571257,-71.088622,17.67,0.0,0.0,0.0,0.0,1,1,0,0
1154295658,42.3571592,-71.0886474,17.900002,0.0,0.0,0.0,0.0,1,1,0,0
1154691751,42.357193099999996,-71.0886651,17.499,0.0,0.0,0.0,0.0,1,1,0,0
1155293940,42.3572414,-71.0886786,17.400002,0.0,0.0,0.0,0.0,1,1,0,0
1155880644,42.357286599999995,-71.0886751,16.945002,0.0,0.0,0.0,0.0,1,1,0,0
1156489645,42.3573264,-71.0886565,16.632,0.0,0.0,0.0,0.0,1,1,0,0
1157098685,42.3573589,-71.0886266,16.113,0.0,0.0,0.0,0.0,1,1,0,0
1157686671,42.3573861,-71.0885893,15.154,0.0,0.0,0.0,0.0,1,1,0,0
1158283672,42.3574127,-71.0885478,14.527,0.0,0.0,0.0,0.0,1,1,0,0
1158884796,42.3574333,-71.08850319999999,14.160001,0.0,0.0,0.0,0.0,1,1,0,0
1159493645,42.357453899999996,-71.0884626,13.332001,0.0,0.0,0.0,0.0,1,1,0,0
1160091696,42.357478,-71.0884258,12.839001,0.0,0.0,0.0,0.0,1,1,0,0
1160700663,42.3575041,-71.08838709999999,11.897,0.0,0.0,0.0,0.0,1,1,0,0
1161299319,42.357531,-71.0883492,11.080001,0.0,0.0,0.0,0.0,1,1,0,0
1161889644,42.357555399999995,-71.0883083,10.92,0.0,0.0,0.0,0.0,1,1,0,0
1162487645,42.3575746,-71.0882654,10.856001,0.0,0.0,0.0,0.0,1,1,0,0
1163294645,42.357597899999995,-71.0882163,10.181001,0.0,0.0,0.0,0.0,1,1,0,0
1164083664,42.3576197,-71.08816809999999,10.09,0.0,0.0,0.0,0.0,1,1,0,0
1164878674,42.3576437,-71.0881198,9.804001,0.0,0.0,0.0,0.0,1,1,0,0
1165491706,42.3576628,-71.0880719,9.275001,0.0,0.0,0.0,0.0,1,1,0,0
1166078674,42.3576884,-71.0880293,8.687,0.0,0.0,0.0,0.0,1,1,0,0
1166688707,42.357718,-71.08798639999999,8.629001,0.0,0.0,0.0,0.0,1,1,0,0
1167296665,42.357745099999995,-71.08794,8.548,0.0,0.0,0.0,0.0,1,1,0,0
1167883673,42.3577696,-71.0878992,9.114,0.0,0.0,0.0,0.0,1,1,0,0
1168481646,42.3577959,-71.0878632,8.797001,0.0,0.0,0.0,0.0,1,1,0,0
1168892659,42.357816927349965,-71.08784238225161,17.0254,-81.50267,-48.707535,-11.146149,0.8342185,1,1,1,0
1169083641,42.35782372138413,-71.08782982999305,16.825907,-80.747215,-47.67614,-10.946655,0.8394345,1,1,1,0
1169284655,42.3578245,-71.0878158,8.434,0.0,0.0,0.0,0.0,1,1,0,0
1169881645,42.3578438,-71.087778,8.026,0.0,0.0,0.0,0.0,1,1,0,0
1170281655,42.35786378933841,-71.08775632294649,16.059612,-76.2919,-41.63621,-10.18036,1.0133225,1,1,1,0
1170461638,42.357870323042555,-71.08774463251596,15.92302,-75.56539,-40.675632,-10.043769,1.0086416,1,1,1,0
1170637754,42.35787674833676,-71.08773306664263,15.75674,-74.85094,-39.72529,-9.877488,0.9771243,1,1,1,0
1170817639,42.35788277245132,-71.0877213761106,15.54596,-74.18109,-38.7647,-9.666709,0.94119,1,1,1,0
1171004638,42.357888738796085,-71.08770884002237,15.291979,-73.51767,-37.73464,-9.412727,0.9088669,1,1,1,0
1171118741,42.3578858,-71.0877015,7.583,0.0,0.0,0.0,0.0,1,1,0,0
1171688645,42.3579042,-71.08766059999999,7.5190005,0.0,0.0,0.0,0.0,1,1,0,0
1172286664,42.357921999999995,-71.08762279999999,7.3980002,0.0,0.0,0.0,0.0,1,1,0,0
1172887645,42.3579467,-71.0875889,6.9670005,0.0,0.0,0.0,0.0,1,1,0,0
1173294639,42.35797457693256,-71.0875669919462,12.452233,-63.972958,-26.07929,-6.572982,0.83276767,1,1,1,0
1173563784,42.35798840430526,-71.08755127543384,12.365689,-62.43543,-24.787899,-6.486438,0.75440115,1,1,1,0
1173717639,42.35799641854256,-71.08754241292988,12.359125,-61.54429,-24.059687,-6.4798737,0.71831656,1,1,1,0
1173874640,42.358004926828194,-71.08753250106108,12.345043,-60.598213,-23.24525,-6.465792,0.69623625,1,1,1,0
1174270651,42.35802813073259,-71.08751025393116,12.227944,-58.018063,-21.417253,-6.348693,0.6574877,1,1,1,0
1174428639,42.35803769215077,-71.08750145867053,12.200924,-56.954884,-20.694567,-6.321672,0.64563864,1,1,1,0
1174582638,42.358046761853174,-71.08749338595547,12.1705475,-55.94638,-20.03125,-6.291296,0.6326701,1,1,1,0
1174736744,42.35805645195301,-71.08748476190904,12.121351,-54.868893,-19.322632,-6.2420993,0.6178569,1,1,1,0
1174894639,42.35806558416059,-71.08747664366874,12.050201,-53.85344,-18.655575,-6.17095,0.60705936,1,1,1,0
1175026640,42.3580741217004,-71.0874685853599,11.994658,-52.90411,-17.993443,-6.115407,0.5999961,1,1,1,0
1175169638,42.35808280991328,-71.08746056047607,11.966682,-51.938026,-17.334057,-6.0874314,0.5962907,1,1,1,0
1175301640,42.35809094098867,-71.08745312603376,11.966816,-51.033894,-16.723186,-6.087565,0.5960083,1,1,1,0
1175436639,42.35809956820375,-71.08744507154891,11.990267,-50.074593,-16.061369,-6.111015,0.59820735,1,1,1,0
1175580652,42.35810822135379,-71.08743708184937,12.019809,-49.112408,-15.404875,-6.1405573,0.60429853,1,1,1,0
1175712638,42.3581167411886,-71.08742909521139,12.054891,-48.165047,-14.748632,-6.175639,0.61273026,1,1,1,0
1175858787,42.35812496880115,-71.08742099951576,12.090313,-47.25018,-14.083429,-6.211062,0.61988544,1,1,1,0
1175991008,42.35813310879486,-71.08741271773076,12.105676,-46.345055,-13.402936,-6.226424,0.6253884,1,1,1,0
1176133651,42.35814107653603,-71.08740407969319,12.126736,-45.459084,-12.693171,-6.247484,0.6319323,1,1,1,0
1176276816,42.35814884320717,-71.08739511697262,12.148218,-44.59547,-11.956727,-6.268967,0.64307714,1,1,1,0
1176411659,42.35815636808642,-71.08738591529459,12.142944,-43.758743,-11.200649,-6.2636924,0.6624315,1,1,1,0
1176554652,42.35816362455196,-71.08737645413875,12.11289,-42.951862,-10.423251,-6.2336392,0.6890291,1,1,1,0
1176697674,42.35817110551885,-71.08736593940037,12.065025,-42.120018,-9.559283,-6.1857743,0.7220977,1,1,1,0
1176840701,42.358177716748685,-71.0873557853651,12.020498,-41.384884,-8.724954,-6.1412473,0.7558385,1,1,1,0
1176976639,42.35818408464227,-71.08734572283308,11.989898,-40.676807,-7.898143,-6.1106462,0.79233795,1,1,1,0
1177119661,42.35819015400087,-71.08733544822442,11.9514475,-40.001926,-7.0539064,-6.072196,0.82930773,1,1,1,0
1177263021,42.35819583271186,-71.08732480860009,11.902659,-39.370483,-6.179678,-6.023408,0.8641317,1,1,1,0
1177398639,42.35820115847763,-71.08731421255013,11.879421,-38.778286,-5.30903,-6.0001693,0.89659137,1,1,1,0
1177541652,42.358206260462026,-71.08730313692861,11.855517,-38.21097,-4.3989773,-5.976266,0.9238233,1,1,1,0
1177674639,42.35821110343226,-71.08729149610552,11.844658,-37.67246,-3.4424837,-5.965406,0.9491832,1,1,1,0
1177817666,42.358215639908025,-71.08727963905982,11.86677,-37.168026,-2.4682238,-5.9875183,0.97723,1,1,1,0
1177942013,42.35821956432209,-71.0872682293651,11.922243,-36.73165,-1.5307217,-6.042991,1.0030279,1,1,1,0
1178073639,42.3582232167196,-71.08725647382879,12.001524,-36.325523,-0.5648028,-6.122272,1.0272478,1,1,1,0
1178205638,42.358226375000875,-71.08724442269563,12.076731,-35.97434,0.42540425,-6.1974797,1.0484359,1,1,1,0
1178337639,42.35822934473293,-71.08723230123667,12.147751,-35.64412,1.4213897,-6.268499,1.0627593,1,1,1,0
1178461741,42.35823211634425,-71.08722014662337,12.193312,-35.33593,2.4200993,-6.3140607,1.0753989,1,1,1,0
1178593667,42.35823454910989,-71.08720765885714,12.258923,-35.06542,3.446183,-6.3796716,1.0920619,1,1,1,0
1178725640,42.358236890035926,-71.08719514173131,12.353924,-34.80512,4.474679,-6.474673,1.1109664,1,1,1,0
1178857714,42.3582289,-71.0872023,5.9680004,0.0,0.0,0.0,0.0,1,1,0,0
1179278674,42.358239,-71.08714669999999,6.229,0.0,0.0,0.0,0.0,1,1,0,0
1179890646,42.3582463,-71.0870928,6.4340005,0.0,0.0,0.0,0.0,1,1,0,0
1180487645,42.358250399999996,-71.0870391,6.2510004,0.0,0.0,0.0,0.0,1,1,0,0
1181085646,42.3582472,-71.086984,6.4680004,0.0,0.0,0.0,0.0,1,1,0,0
1181694864,42.358241299999996,-71.0869282,6.4670005,0.0,0.0,0.0,0.0,1,1,0,0
1182280644,42.3582293,-71.0868754,6.295,0.0,0.0,0.0,0.0,1,1,0,0
1182889377,42.3582129,-71.0868278,5.978,0.0,0.0,0.0,0.0,1,1,0,0
1183490645,42.3581868,-71.08678379999999,5.905,0.0,0.0,0.0,0.0,1,1,0,0
1184088646,42.358152499999996,-71.0867512,5.748,0.0,0.0,0.0,0.0,1,1,0,0
1184686645,42.358111,-71.0867304,5.76,0.0,0.0,0.0,0.0,1,1,0,0
1185295645,42.358068499999995,-71.0867236,6.064,0.0,0.0,0.0,0.0,1,1,0,0
1185881989,42.3580264,-71.0867318,6.5650005,0.0,0.0,0.0,0.0,1,1,0,0
1186490645,42.3579843,-71.0867559,7.117,0.0,0.0,0.0,0.0,1,1,0,0
1187092645,42.357939699999996,-71.08678379999999,7.451,0.0,0.0,0.0,0.0,1,1,0,0
1187690696,42.3578951,-71.0868086,7.5590005,0.0,0.0,0.0,0.0,1,1,0,0
1188288898,42.3578492,-71.0868335,7.4630003,0.0,0.0,0.0,0.0,1,1,0,0
1188886663,42.3578043,-71.0868651,8.141001,0.0,0.0,0.0,0.0,1,1,0,0
1189484644,42.3577599,-71.0868876,7.9600005,0.0,0.0,0.0,0.0,1,1,0,0
1190086655,42.3577191,-71.08689509999999,7.0010004,0.0,0.0,0.0,0.0,1,1,0,0
1190882644,42.3576701,-71.0868823,6.9420004,0.0,0.0,0.0,0.0,1,1,0,0
1191693646,42.3576328,-71.08685129999999,7.484,0.0,0.0,0.0,0.0,1,1,0,0
1192681187,42.357613,-71.0867959,7.1340003,0.0,0.0,0.0,0.0,1,1,0,0
1193487667,42.3576301,-71.0867442,6.3050003,0.0,0.0,0.0,0.0,1,1,0,0
1194308645,42.357669099999995,-71.0867057,6.5540004,0.0,0.0,0.0,0.0,1,1,0,0
1194884665,42.3577112,-71.0866892,6.3380003,0.0,0.0,0.0,0.0,1,1,0,0
1195482646,42.357760299999995,-71.0866909,6.5610003,0.0,0.0,0.0,0.0,1,1,0,0
1195882645,42.357794999999996,-71.086702,6.551,0.0,0.0,0.0,0.0,1,1,0,0
1196282644,42.35783,-71.0867205,7.1050005,0.0,0.0,0.0,0.0,1,1,0,0
1196693644,42.3578652,-71.0867434,7.0360003,0.0,0.0,0.0,0.0,1,1,0,0
1197092645,42.357897799999996,-71.08677519999999,7.5340004,0.0,0.0,0.0,0.0,1,1,0,0
1197488856,42.3579295,-71.086812,7.945,0.0,0.0,0.0,0.0,1,1,0,0
1197888663,42.3579608,-71.0868563,7.8610005,0.0,0.0,0.0,0.0,1,1,0,0
1198288644,42.3579924,-71.0869089,7.7920003,0.0,0.0,0.0,0.0,1,1,0,0
1198688646,42.3580203,-71.0869675,7.9720006,0.0,0.0,0.0,0.0,1,1,0,0
1199084644,42.358046699999996,-71.0870303,8.235001,0.0,0.0,0.0,0.0,1,1,0,0
1199484826,42.358069,-71.087098,8.284,0.0,0.0,0.0,0.0,1,1,0,0
1199895646,42.3580853,-71.0871705,8.284,0.0,0.0,0.0,0.0,1,1,0,0
1199928638,42.35809218857173,-71.0871974765145,14.506542,-50.895187,4.2828465,-8.627291,-1.293936,1,1,1,0
1200010088,42.35809408390362,-71.08721432806256,14.490733,-50.684437,2.8982,-8.611482,-1.3284001,1,1,1,0
1200097639,42.358095478119225,-71.087229408587,14.477088,-50.529408,1.659074,-8.5978365,-1.3605492,1,1,1,0
1200174638,42.358096627179336,-71.08724465792062,14.464345,-50.401638,0.40607733,-8.5850935,-1.3931007,1,1,1,0
1200251660,42.35809752607519,-71.08725992902927,14.451583,-50.301685,-0.84870845,-8.572331,-1.4265697,1,1,1,0
1200328638,42.358098169763714,-71.08727528164123,14.439107,-50.23011,-2.110191,-8.559855,-1.4599572,1,1,1,0
1200416655,42.35809855268724,-71.08729070840505,14.43025,-50.18753,-3.3777666,-8.550999,-1.4933388,1,1,1,0
1200493639,42.3580986921705,-71.08730612584593,14.424846,-50.17202,-4.644576,-8.545594,-1.5265404,1,1,1,0
1200570639,42.3580986182316,-71.08732155428378,14.421007,-50.18024,-5.912289,-8.541756,-1.5582279,1,1,1,0
1200647638,42.35809833337494,-71.08733695321179,14.4161625,-50.211914,-7.1775775,-8.536911,-1.5906117,1,1,1,0
1200735639,42.358097732348476,-71.08735232137613,14.4140835,-50.278744,-8.440338,-8.534832,-1.6239928,1,1,1,0
1200812639,42.358096848155,-71.0873676580222,14.417356,-50.37706,-9.700509,-8.538104,-1.657262,1,1,1,0
1200889639,42.35809578827647,-71.08738296257552,14.426621,-50.49491,-10.958043,-8.54737,-1.6903311,1,1,1,0
1200970638,42.35809424223996,-71.08739826003561,14.439447,-50.66682,-12.214994,-8.560196,-1.721832,1,1,1,0
1201047691,42.35809257784441,-71.08741350875896,14.455242,-50.85189,-13.467941,-8.575991,-1.7518556,1,1,1,0
1201124870,42.358090732103264,-71.08742873476709,14.468902,-51.057125,-14.719022,-8.58965,-1.7807983,1,1,1,0
1201212638,42.358088667862695,-71.08744394736813,14.482853,-51.286655,-15.969001,-8.603601,-1.8092219,1,1,1,0
1201289706,42.35808648196975,-71.0874590899226,14.504551,-51.529713,-17.213224,-8.625299,-1.8375398,1,1,1,0
1201366665,42.35808409534807,-71.0874742430256,14.532825,-51.79509,-18.458315,-8.653574,-1.8647023,1,1,1,0
1201447638,42.35808158649091,-71.0874892937345,14.56574,-52.07406,-19.694992,-8.686488,-1.8906825,1,1,1,0
1201524641,42.35807889206863,-71.08750427963082,14.598378,-52.37366,-20.926344,-8.719127,-1.9168903,1,1,1,0
1201612695,42.35807563985252,-71.08752103876306,14.635513,-52.735287,-22.303398,-8.756262,-1.9469461,1,1,1,0
1201700640,42.35807257440302,-71.0875357867915,14.676659,-53.076145,-23.515205,-8.797407,-1.9739349,1,1,1,0
1201777640,42.35806941385462,-71.08755040923583,14.714404,-53.427578,-24.716694,-8.835153,-2.0002484,1,1,1,0
1201854639,42.35806607014297,-71.08756486614602,14.757894,-53.799377,-25.904581,-8.878642,-2.025382,1,1,1,0
1201935813,42.358062655450105,-71.08757913579524,14.802021,-54.17907,-27.077082,-8.92277,-2.0496187,1,1,1,0
1202012639,42.35805914287985,-71.08759322656317,14.845202,-54.569645,-28.234884,-8.965951,-2.0745327,1,1,1,0
1202100653,42.35805487871864,-71.08760882712023,14.8948145,-55.043793,-29.516743,-9.015563,-2.1048393,1,1,1,0
1202188639,42.358050745235005,-71.08762238365776,14.935495,-55.50341,-30.63065,-9.056244,-2.1328046,1,1,1,0
1202265659,42.35804640985728,-71.08763574603898,14.975436,-55.985477,-31.728603,-9.096185,-2.1604655,1,1,1,0
1202342639,42.35804180767829,-71.08764878445645,15.010939,-56.49721,-32.79994,-9.131687,-2.1894922,1,1,1,0
1202419639,42.358036976366286,-71.08766157282045,15.053213,-57.034424,-33.850727,-9.173962,-2.2217028,1,1,1,0
1202499658,42.358031952525955,-71.08767420398298,15.094535,-57.593044,-34.8886,-9.215283,-2.2537954,1,1,1,0
1202588199,42.3580260662843,-71.08768833780542,15.132251,-58.24756,-36.049942,-9.252999,-2.2892356,1,1,1,0
1202675639,42.35802064575775,-71.08770056449814,15.1619,-58.85029,-37.05458,-9.282648,-2.3208654,1,1,1,0
1202752638,42.35801507174456,-71.08771242242656,15.184127,-59.470085,-38.02892,-9.304875,-2.354382,1,1,1,0
1202840639,42.358008575192514,-71.08772532516107,15.210016,-60.192463,-39.089108,-9.330765,-2.3939548,1,1,1,0
1202917637,42.35800263547401,-71.08773637360007,15.235613,-60.852924,-39.996933,-9.356361,-2.429981,1,1,1,0
1203009639,42.35799577753981,-71.08774832863472,15.265724,-61.615486,-40.97925,-9.386473,-2.4723992,1,1,1,0
1203097639,42.357988688107106,-71.08775976661966,15.3071575,-62.40379,-41.919086,-9.427906,-2.521718,1,1,1,0
1203185654,42.35798139822349,-71.0877706533393,15.372591,-63.214382,-42.813625,-9.49334,-2.5770354,1,1,1,0
1203284863,42.35797309626355,-71.08778202733396,15.447929,-64.13751,-43.748203,-9.568678,-2.6356606,1,1,1,0
1203383639,42.357965497832225,-71.08779161217113,15.524142,-64.982414,-44.53577,-9.644891,-2.688554,1,1,1,0
1203475662,42.35795689792619,-71.08780152703872,15.611518,-65.938675,-45.350456,-9.732266,-2.7453177,1,1,1,0
1203574638,42.35794814323216,-71.08781076134542,15.695373,-66.91215,-46.109222,-9.816121,-2.8007126,1,1,1,0
1203673660,42.357939279927116,-71.08781923068968,15.77644,-67.8977,-46.805134,-9.897188,-2.8563023,1,1,1,0
1203772657,42.3579302374091,-71.08782684969393,15.844067,-68.903175,-47.431175,-9.964815,-2.909759,1,1,1,0
1203882651,42.35792024117288,-71.08783444663483,15.905041,-70.0147,-48.055405,-10.025789,-2.9655542,1,1,1,0
1203985639,42.35791101327022,-71.08784048483297,15.954611,-71.040794,-48.551556,-10.075359,-3.0197845,1,1,1,0
1204084640,42.35790178681192,-71.08784578652995,16.002758,-72.06673,-48.98719,-10.123507,-3.0810194,1,1,1,0
1204194638,42.35789154035901,-71.08785043477211,16.041782,-73.20608,-49.369133,-10.162531,3.1341028,1,1,1,0
1204304640,42.35788144005495,-71.08785436559599,16.066803,-74.32918,-49.692127,-10.187552,3.06848,1,1,1,0
1204414638,42.35787147855906,-71.08785741799717,16.073383,-75.436844,-49.942944,-10.194132,3.0016663,1,1,1,0
1204529418,42.35786165943854,-71.08785973766034,16.07116,-76.52868,-50.133553,-10.191908,2.9314668,1,1,1,0
1204638897,42.35785115302757,-71.08786131454976,16.065536,-77.69694,-50.26313,-10.186285,2.8537726,1,1,1,0
1204759639,42.3578409592904,-71.08786189003744,16.040539,-78.83043,-50.310425,-10.161288,2.7767675,1,1,1,0
1204891640,42.357830351549644,-71.08786133547099,16.004362,-80.00996,-50.264866,-10.125111,2.6927445,1,1,1,0
1205016895,42.35782030287314,-71.087859423142,15.972102,-81.12732,-50.107742,-10.092851,2.607048,1,1,1,0
1205159639,42.35781010908831,-71.0878560375834,15.942845,-82.26082,-49.829567,-10.063594,2.515874,1,1,1,0
1205302807,42.35780074072111,-71.08785153985835,15.916667,-83.302536,-49.460007,-10.0374155,2.4329605,1,1,1,0
1205456640,42.35779134450378,-71.08784572178601,15.89127,-84.34735,-48.981956,-10.012018,2.3455982,1,1,1,0
1205614638,42.35778292561494,-71.08783831322496,15.840297,-85.28349,-48.37322,-9.961045,2.2605298,1,1,1,0
1205790662,42.35777496644005,-71.0878291807896,15.768623,-86.16852,-47.622833,-9.889372,2.172342,1,1,1,0
1205955639,42.3577678882581,-71.08781895243865,15.710104,-86.95558,-46.7824,-9.8308525,2.0774336,1,1,1,0
1206124639,42.357761704514736,-71.08780808379431,15.662494,-87.64319,-45.88935,-9.783242,1.9866878,1,1,1,0
1206301895,42.35775631620356,-71.0877961433283,15.657078,-88.24235,-44.908234,-9.777826,1.8924744,1,1,1,0
1206503639,42.357751589875235,-71.0877825093989,15.683625,-88.7679,-43.787968,-9.804374,1.8001732,1,1,1,0
1206679712,42.35774837851068,-71.08777000195775,15.75144,-89.12499,-42.76026,-9.872189,1.7283441,1,1,1,0
1206888639,42.3577457371885,-71.08775552927541,15.854389,-89.4187,-41.571075,-9.975138,1.6588144,1,1,1,0
1207089639,42.357744167866905,-71.08774196538609,15.961598,-89.59321,-40.456562,-10.082347,1.60504,1,1,1,0
1207287639,42.357743170293936,-71.08772844825248,16.07729,-89.70414,-39.34589,-10.198038,1.5617497,1,1,1,0
1207496639,42.35774324685358,-71.08771470271273,16.187916,-89.69563,-38.21645,-10.308665,1.5282573,1,1,1,0
1207708658,42.35774389008527,-71.08770079607979,16.281515,-89.624115,-37.073772,-10.402264,1.5020379,1,1,1,0
1207928654,42.35774532785263,-71.08768656911464,16.406784,-89.46425,-35.904774,-10.527534,1.4758321,1,1,1,0
1208152659,42.357747467185526,-71.08767194335664,16.526442,-89.22637,-34.703007,-10.64719,1.4459348,1,1,1,0
1208383659,42.35774994127818,-71.08765737721043,16.597038,-88.95127,-33.506138,-10.717788,1.4169383,1,1,1,0
1208607640,42.35775284289358,-71.0876433103744,16.608227,-88.62863,-32.350296,-10.728975,1.3933251,1,1,1,0
1208827639,42.35775644936678,-71.0876291584894,16.592367,-88.227615,-31.187466,-10.713116,1.375678,1,1,1,0
1209051639,42.357760823822936,-71.08761446841699,16.52476,-87.7412,-29.980413,-10.645508,1.3593398,1,1,1,0
1209271640,42.357765514304646,-71.08760079583385,16.366014,-87.21965,-28.856966,-10.486763,1.3396072,1,1,1,0
1209491639,42.357770992183276,-71.08758776188535,16.187656,-86.61054,-27.785994,-10.308406,1.3201699,1,1,1,0
1209715639,42.35777713560567,-71.0875743181612,16.03085,-85.92743,-26.68135,-10.151599,1.2954186,1,1,1,0
1209924638,42.357783049788665,-71.08756179693606,15.9525795,-85.269806,-25.652508,-10.073328,1.271867,1,1,1,0
1210137645,42.35778897995817,-71.08754885485921,15.910193,-84.610405,-24.589085,-10.030942,1.2490532,1,1,1,0
1210335639,42.35779484610935,-71.08753636324874,15.909755,-83.95812,-23.562675,-10.030503,1.2288074,1,1,1,0
1210533638,42.35780086855931,-71.08752379932848,15.914327,-83.28846,-22.530325,-10.035075,1.2218286,1,1,1,0
1210735638,42.35780695001486,-71.08751124580544,15.881514,-82.612236,-21.498829,-10.002262,1.2252136,1,1,1,0
1210922716,42.357812842439664,-71.08749922315788,15.82368,-81.95703,-20.510954,-9.944428,1.2327774,1,1,1,0
1211113656,42.35781910722377,-71.08748771221433,15.803676,-81.26042,-19.565125,-9.924424,1.2421913,1,1,1,0
1211300640,42.35782578340889,-71.08747627494766,15.808203,-80.51807,-18.625349,-9.928951,1.2469699,1,1,1,0
1211488169,42.35783244271412,-71.08746484334246,15.785982,-79.77759,-17.686039,-9.906731,1.2510301,1,1,1,0
1211677900,42.35783911258554,-71.08745287389213,15.72431,-79.035934,-16.702536,-9.845058,1.253782,1,1,1,0
1211875639,42.35784605985877,-71.08743997226823,15.616887,-78.263435,-15.642438,-9.737636,1.2535944,1,1,1,0
1212073637,42.3578525210768,-71.08742755065963,15.493159,-77.54498,-14.621782,-9.613908,1.252867,1,1,1,0
1212253641,42.35785930127446,-71.08741505010225,15.341954,-76.79106,-13.59464,-9.462703,1.2530667,1,1,1,0
1212495639,42.357867906096196,-71.08739843392192,15.129849,-75.83425,-12.229326,-9.250598,1.2498491,1,1,1,0
1212664660,42.357873653530625,-71.08738619493073,14.948694,-75.19517,-11.223677,-9.069443,1.247336,1,1,1,0
1213295639,42.35789482611132,-71.08734083938585,14.86889,-72.84089,-7.496918,-8.989638,1.2720152,1,1,1,0
1213449639,42.357900655874666,-71.08732904265993,14.878404,-72.19265,-6.5276093,-8.999152,1.2793255,1,1,1,0
1213614639,42.35790638786364,-71.08731713433562,14.872068,-71.55528,-5.549131,-8.992817,1.2820951,1,1,1,0
1213772638,42.35791214091542,-71.08730544826126,14.871376,-70.91557,-4.5889144,-8.992125,1.2794225,1,1,1,0
1213937640,42.35791824334254,-71.08729325679035,14.851535,-70.237015,-3.5871708,-8.972283,1.2726525,1,1,1,0
1214113639,42.35792429067222,-71.087281282886,14.769537,-69.56458,-2.6033044,-8.8902855,1.264185,1,1,1,0
1214294389,42.35793102117847,-71.08726804804027,14.63857,-68.816185,-1.5158297,-8.759318,1.2498947,1,1,1,0
1214480640,42.35793740793306,-71.08725543422787,14.5473385,-68.10601,-0.47938398,-8.668087,1.230554,1,1,1,0
1214645639,42.35794342651004,-71.08724317472135,14.50992,-67.436775,0.5279491,-8.630669,1.214107,1,1,1,0
1214814660,42.35794929475513,-71.08723117330881,14.499187,-66.784256,1.514075,-8.619936,1.2010716,1,1,1,0
1214990920,42.35795558874119,-71.08721860016497,14.480424,-66.0844,2.5471785,-8.601172,1.1878376,1,1,1,0
1215170638,42.35796208321274,-71.08720674171298,14.476797,-65.36224,3.5215573,-8.597546,1.1729375,1,1,1,0
1215357638,42.35796869459955,-71.0871954956071,14.488907,-64.62709,4.445621,-8.609655,1.1575128,1,1,1,0
1215533638,42.35797523579445,-71.08718437533051,14.51943,-63.899742,5.3593454,-8.640179,1.1372243,1,1,1,0
1215713658,42.35798164504602,-71.08717348509785,14.534885,-63.187065,6.2541676,-8.655634,1.1137011,1,1,1,0
1215889661,42.35798810767768,-71.0871630891072,14.491337,-62.468452,7.108379,-8.612085,1.0937679,1,1,1,0
1216076673,42.35799513701554,-71.08715242144075,14.38041,-61.686825,7.984913,-8.501159,1.0795549,1,1,1,0
1216267684,42.358002232632664,-71.08714205626562,14.264761,-60.897827,8.836592,-8.3855095,1.065502,1,1,1,0
1216454640,42.358009674160115,-71.08713156661962,14.151395,-60.070366,9.698498,-8.272143,1.0483592,1,1,1,0
1216641640,42.35801685835502,-71.08712169290432,14.042938,-59.27152,10.509794,-8.163687,1.0324332,1,1,1,0
1216810659,42.35802377451354,-71.08711209977402,13.905757,-58.502476,11.298036,-8.026505,1.0230765,1,1,1,0
1216975658,42.35803078316149,-71.08710265715426,13.723295,-57.72315,12.07391,-7.8440437,1.014359,1,1,1,0
1217141091,42.35803804701378,-71.08709308565336,13.507803,-56.915443,12.8603735,-7.628552,1.0127208,1,1,1,0
1217308639,42.3580452008795,-71.08708388841326,13.338469,-56.11997,13.616085,-7.4592175,1.0162649,1,1,1,0
1217473664,42.358052792151135,-71.08707475022362,13.199633,-55.275856,14.366944,-7.3203816,1.0165482,1,1,1,0
1217638741,42.35806041851677,-71.08706516346416,13.044429,-54.42784,15.154661,-7.1651773,1.0105631,1,1,1,0
1217807947,42.35806823037655,-71.08705572207309,12.911964,-53.5592,15.930433,-7.0327125,0.9976646,1,1,1,0
1217983639,42.358075763633735,-71.08704653140396,12.813404,-52.72154,16.685604,-6.934153,0.982754,1,1,1,0
1218148639,42.35808309407051,-71.08703719542002,12.740889,-51.90643,17.452715,-6.8616376,0.96900034,1,1,1,0
1218317827,42.358090359358215,-71.08702761941188,12.699576,-51.098564,18.239548,-6.820325,0.9621832,1,1,1,0
1218493638,42.35809751589401,-71.08701812803648,12.698356,-50.30279,19.019426,-6.819104,0.9668038,1,1,1,0
1218658734,42.35810451208002,-71.08700820359795,12.702137,-49.52485,19.834888,-6.822885,0.9822184,1,1,1,0
1218827639,42.35811142867416,-71.08699820130116,12.730089,-48.755756,20.656748,-6.850838,1.0045592,1,1,1,0
1218992638,42.35811837789339,-71.08698845337004,12.782595,-47.983036,21.457706,-6.9033437,1.0316757,1,1,1,0
1219157638,42.358124971013076,-71.08697941213484,12.8258915,-47.249912,22.200598,-6.9466405,1.0578854,1,1,1,0
1219315756,42.358131500253634,-71.08697041646516,12.851344,-46.52389,22.939745,-6.9720926,1.0725898,1,1,1,0
1219480638,42.358138205552464,-71.08696083977131,12.869163,-45.778294,23.726633,-6.989911,1.0735791,1,1,1,0
1219656917,42.35814487705891,-71.08695134866193,12.831258,-45.036453,24.506489,-6.9520063,1.0687084,1,1,1,0
1219825868,42.35815118217261,-71.0869419841793,12.778298,-44.335354,25.27594,-6.899047,1.06542,1,1,1,0
1220001639,42.35815784317945,-71.08693238131858,12.715363,-43.59468,26.064978,-6.8361115,1.0643691,1,1,1,0
1220167230,42.358164375332514,-71.08692343113678,12.654287,-42.868336,26.800386,-6.7750354,1.0656494,1,1,1,0
1220346639,42.35817161340614,-71.08691397989642,12.5636215,-42.063496,27.576965,-6.68437,1.0706757,1,1,1,0
1220511639,42.35817832052166,-71.08690545557585,12.459234,-41.317696,28.277382,-6.5799823,1.0721576,1,1,1,0
1220665638,42.35818514866877,-71.08689668428943,12.320919,-40.558437,28.99809,-6.441668,1.0710468,1,1,1,0
1220824154,42.358192144642764,-71.08688812500469,12.222168,-39.780518,29.70138,-6.3429165,1.0644436,1,1,1,0
1220988661,42.3581993275521,-71.0868796989365,12.145889,-38.98181,30.393723,-6.2666373,1.0506815,1,1,1,0
1221142690,42.35820662024155,-71.0868713504669,12.041291,-38.1709,31.079689,-6.1620398,1.0325673,1,1,1,0
1221300639,42.358213552852064,-71.08686347972176,11.906709,-37.400024,31.726402,-6.027457,1.0111525,1,1,1,0
1221443655,42.35822074838618,-71.08685558627089,11.787103,-36.599915,32.37498,-5.907851,0.9876658,1,1,1,0
1221597734,42.358227963372215,-71.08684790122471,11.651032,-35.79764,33.006435,-5.771781,0.96968806,1,1,1,0
1221740641,42.35823531633818,-71.08684025443098,11.498841,-34.980026,33.634747,-5.61959,0.9556528,1,1,1,0
1221897640,42.358242839703166,-71.08683250805038,11.332071,-34.143463,34.27124,-5.45282,0.94526565,1,1,1,0
1222106639,42.35825293709681,-71.0868209653425,11.172045,-33.02068,35.219666,-5.2927938,0.9421908,1,1,1,0
1222249675,42.35826017101561,-71.08681274169912,11.078453,-32.2163,35.895374,-5.199202,0.94797015,1,1,1,0
1222397000,42.35826736983744,-71.08680427389925,10.988653,-31.415825,36.591145,-5.1094017,0.958036,1,1,1,0
1222539656,42.35827413447928,-71.08679641210054,10.905515,-30.663628,37.23712,-5.026263,0.9709825,1,1,1,0
1222693640,42.358281427111365,-71.08678809903445,10.817056,-29.85272,37.920177,-4.937804,0.9856233,1,1,1,0
1222840639,42.35828872749727,-71.08678007315834,10.733223,-29.04095,38.579636,-4.853972,0.9980647,1,1,1,0
1222984129,42.35829606567043,-71.08677188037817,10.631723,-28.22498,39.252808,-4.7524724,1.0087273,1,1,1,0
1223126639,42.35830271426891,-71.08676407604882,10.5452,-27.485685,39.894062,-4.6659484,1.0177523,1,1,1,0
1223280683,42.35830949477199,-71.08675558033882,10.476288,-26.731724,40.592125,-4.5970364,1.0280712,1,1,1,0
1223427638,42.35831602840421,-71.08674676382432,10.417024,-26.005213,41.316547,-4.537772,1.0358995,1,1,1,0
1223581638,42.358322863500675,-71.08673737575327,10.357523,-25.24518,42.087933,-4.478271,1.0425742,1,1,1,0
1223735639,42.358329023191494,-71.08672849526288,10.301481,-24.56025,42.81761,-4.42223,1.0513984,1,1,1,0
1223893660,42.35833530464885,-71.08671889372512,10.23971,-23.861778,43.606537,-4.360458,1.0648916,1,1,1,0
1224059266,42.35834182686448,-71.08670860869748,10.156483,-23.136536,44.451622,-4.2772307,1.0881616,1,1,1,0
1224223638,42.35834800854171,-71.0866993596705,10.079304,-22.44916,45.211582,-4.2000527,1.1176517,1,1,1,0
1224381653,42.358354404925926,-71.08669034467411,9.9977665,-21.73791,45.952312,-4.1185155,1.1479043,1,1,1,0
1224546905,42.35836144191121,-71.08668101290431,9.926435,-20.955427,46.71907,-4.047184,1.1785072,1,1,1,0
1224712639,42.358368108339285,-71.08667249656521,9.874369,-20.21415,47.418827,-3.9951177,1.2050214,1,1,1,0
1224881671,42.35837494060122,-71.08666346322082,9.825385,-19.454432,48.161064,-3.9461336,1.2265952,1,1,1,0
1225046781,42.35838154091748,-71.08665454246014,9.813509,-18.720505,48.89405,-3.934257,1.2401972,1,1,1,0
1225233859,42.358388510072366,-71.08664449678739,9.802107,-17.945564,49.719467,-3.922855,1.2450882,1,1,1,0
1225413639,42.35839463717707,-71.08663467749477,9.785322,-17.264256,50.526283,-3.9060707,1.2412262,1,1,1,0
1225600639,42.35840021669823,-71.08662464283456,9.743695,-16.643835,51.350796,-3.864444,1.2315335,1,1,1,0
1225776640,42.35840528762401,-71.08661421578343,9.649868,-16.079967,52.20755,-3.7706163,1.2279797,1,1,1,0
1225956640,42.35840983171042,-71.08660313575137,9.516251,-15.574681,53.117958,-3.636999,1.2345784,1,1,1,0
1226132641,42.35841381484041,-71.08659155218491,9.399319,-15.13177,54.06974,-3.5200667,1.2522048,1,1,1,0
1226308766,42.35841729399018,-71.08657980798766,9.315372,-14.744899,55.03472,-3.4361205,1.2780766,1,1,1,0
1226488639,42.35842036170952,-71.08656786137526,9.26766,-14.403776,56.016335,-3.3884087,1.3206968,1,1,1,0
1226687044,42.35842334906499,-71.0865545099052,9.2218895,-14.0715885,57.11338,-3.342638,1.3818097,1,1,1,0
1226884669,42.358425718161506,-71.0865417938301,9.158553,-13.808148,58.15822,-3.279302,1.4363098,1,1,1,0
1227076640,42.35842785626189,-71.08652888843055,9.090008,-13.570394,59.218613,-3.210756,1.4871238,1,1,1,0
1227274673,42.35842992619437,-71.08651603985662,9.073383,-13.340219,60.274338,-3.1941319,1.5320649,1,1,1,0
1227487656,42.358431437149974,-71.08650254698533,9.072312,-13.172198,61.383003,-3.1930606,1.5733509,1,1,1,0
1227696638,42.358432279497926,-71.08648903550458,9.114663,-13.078524,62.4932,-3.235412,1.6095667,1,1,1,0
1227894639,42.358432549188436,-71.08647607074576,9.155763,-13.048526,63.55847,-3.276511,1.6297164,1,1,1,0
1228096638,42.35843238189971,-71.08646309944618,9.188899,-13.067118,64.62428,-3.3096478,1.646731,1,1,1,0
1228305639,42.358431782028745,-71.08644971755864,9.211597,-13.13381,65.72383,-3.3323462,1.6613702,1,1,1,0
1228518662,42.358430669023484,-71.08643585804501,9.245064,-13.25756,66.862625,-3.3658128,1.6726708,1,1,1,0
1228738639,42.358429337203496,-71.0864222354942,9.291408,-13.405641,67.98195,-3.4121563,1.6804978,1,1,1,0
1228973749,42.358427308825256,-71.0864086744216,9.36542,-13.631175,69.09622,-3.4861686,1.6870451,1,1,1,0
1229215671,42.35842462053107,-71.08639442866497,9.45355,-13.930088,70.266754,-3.5742989,1.6938907,1,1,1,0
1229472658,42.358421740844186,-71.08638077317514,9.528201,-14.250283,71.38879,-3.6489494,1.7022262,1,1,1,0
1229703675,42.35841863704402,-71.08636756755972,9.56275,-14.595399,72.473854,-3.6834989,1.7096838,1,1,1,0
1229949640,42.3584150947865,-71.0863539847853,9.563794,-14.989268,73.58991,-3.6845427,1.713997,1,1,1,0
1230180918,42.3584112417283,-71.08634036580447,9.575785,-15.417697,74.70895,-3.6965337,1.7149172,1,1,1,0
1230422640,42.358407197333406,-71.08632678146208,9.568669,-15.867401,75.825134,-3.6894176,1.7215983,1,1,1,0
1230678977,42.35840265324837,-71.08631230156742,9.5247555,-16.372667,77.01491,-3.6455042,1.7325033,1,1,1,0
1230931638,42.35839817615352,-71.08629888344102,9.526348,-16.870485,78.11744,-3.6470966,1.7427859,1,1,1,0
1231188659,42.358393702934706,-71.0862855803606,9.560684,-17.367872,79.21052,-3.6814327,1.760831,1,1,1,0
1231463659,42.3583892198654,-71.08627192156472,9.658833,-17.866354,80.332825,-3.779581,1.7911223,1,1,1,0
1231720667,42.358384722044285,-71.08625844578307,9.728815,-18.366476,81.440094,-3.8495638,1.8226136,1,1,1,0
1231962719,42.35837973240766,-71.08624526416754,9.791033,-18.921286,82.52319,-3.9117813,1.8391812,1,1,1,0
1232230639,42.35837413439413,-71.08623175377373,9.859513,-19.543743,83.63331,-3.980262,1.8495158,1,1,1,0
1232483654,42.358368034106256,-71.08621904572776,9.877694,-20.222052,84.6775,-3.9984426,1.8571271,1,1,1,0
1232740638,42.35836170449899,-71.08620668142746,9.86096,-20.92586,85.69344,-3.981708,1.8716618,1,1,1,0
1233008639,42.358355482967085,-71.08619370634516,9.869751,-21.61765,86.759575,-3.9904995,1.8966041,1,1,1,0
1233294822,42.35834896774861,-71.08618017248511,9.868445,-22.342094,87.87162,-3.9891937,1.9162306,1,1,1,0
1233562641,42.35834241770956,-71.08616685033176,9.783441,-23.070412,88.96627,-3.9041893,1.9262317,1,1,1,0
1233826639,42.358335971135624,-71.08615337850146,9.6387,-23.787224,90.07322,-3.7594483,1.9339298,1,1,1,0
1234094726,42.35832963703929,-71.08614049312706,9.550321,-24.49153,91.13198,-3.6710694,1.951777,1,1,1,0
1234369656,42.35832248356717,-71.0861275715575,9.507305,-25.286945,92.19372,-3.628054,1.9779224,1,1,1,0
1234637639,42.35831461017875,-71.08611514388514,9.452888,-26.162413,93.214874,-3.5736363,2.0000172,1,1,1,0
1234879651,42.358306561396034,-71.08610428830079,9.381729,-27.057384,94.10686,-3.5024772,2.0288525,1,1,1,0
1235135639,42.3582980298389,-71.08609376903895,9.346421,-28.006039,94.97121,-3.4671698,2.0688057,1,1,1,0
1235377639,42.35828868664456,-71.0860834121936,9.342652,-29.044943,95.82221,-3.463401,2.1199732,1,1,1,0
1235623639,42.3582785095576,-71.08607413551685,9.345816,-30.176573,96.584465,-3.4665644,2.1754498,1,1,1,0
1235854990,42.358267350938334,-71.08606571031636,9.320974,-31.417345,97.27676,-3.4417226,2.230572,1,1,1,0
1236089640,42.35825593536214,-71.08605880669256,9.31217,-32.68669,97.844025,-3.4329188,2.2893238,1,1,1,0
1236298638,42.358244869846985,-71.08605345453157,9.313439,-33.917114,98.28381,-3.434188,2.3390281,1,1,1,0
1236507639,42.35823327091693,-71.08604958838856,9.337675,-35.206852,98.6015,-3.4584231,2.3885515,1,1,1,0
1236709658,42.35822149562735,-71.08604665931416,9.345821,-36.5162,98.84219,-3.4665697,2.4367192,1,1,1,0
1236896659,42.35820964284935,-71.08604466591315,9.324474,-37.834167,99.006004,-3.4452229,2.4836617,1,1,1,0
1237087638,42.358197296649855,-71.08604338237672,9.287119,-39.207,99.11149,-3.407867,2.5305765,1,1,1,0
1237263640,42.35818510734252,-71.08604295855521,9.249912,-40.56239,99.14633,-3.370661,2.5803728,1,1,1,0
1237439711,42.35817264500199,-71.08604362389389,9.2368,-41.94814,99.09168,-3.357549,2.6327314,1,1,1,0
1237608720,42.35816048453516,-71.08604540920788,9.243426,-43.300323,98.94501,-3.3641746,2.6876528,1,1,1,0
1237784639,42.35814823377919,-71.0860477040949,9.2771225,-44.662548,98.75646,-3.3978713,2.7431512,1,1,1,0
1237938639,42.35813661391879,-71.0860500929352,9.312269,-45.95462,98.560196,-3.433018,2.795095,1,1,1,0
1238107639,42.35812420127526,-71.08605281224996,9.310498,-47.334846,98.33678,-3.4312465,2.8474987,1,1,1,0
1238272639,42.358112450505544,-71.0860555877265,9.29302,-48.641476,98.10874,-3.4137688,2.8912559,1,1,1,0
1238426639,42.35810067109637,-71.086058985125,9.261623,-49.95129,97.829605,-3.3823714,2.9279234,1,1,1,0
1238580640,42.3580895054974,-71.08606240600217,9.213267,-51.192852,97.54854,-3.3340156,2.956735,1,1,1,0
1238727639,42.35807821372623,-71.08606649318594,9.161363,-52.448444,97.21272,-3.282111,2.9877021,1,1,1,0
1238870832,42.35806681376219,-71.08607152244574,9.1161995,-53.71607,96.7995,-3.2369485,3.0221403,1,1,1,0
1239013910,42.358056299833535,-71.08607697137775,9.067885,-54.88517,96.35179,-3.1886342,3.050824,1,1,1,0
1239149638,42.35804581339313,-71.08608331809224,9.016233,-56.051216,95.830315,-3.136982,3.0792978,1,1,1,0
1239292640,42.3580353088482,-71.08609061802217,8.952444,-57.219276,95.230515,-3.0731924,3.1097732,1,1,1,0
1239424638,42.35802549228678,-71.08609826511012,8.877449,-58.310837,94.60219,-2.9981973,3.1401083,1,1,1,0
1239556639,42.35801578691677,-71.08610640570116,8.79662,-59.390034,93.93331,-2.9173687,-3.1110642,1,1,1,0
1239681812,42.35800618241412,-71.08611526886075,8.7177725,-60.458015,93.20506,-2.8385212,-3.076391,1,1,1,0
1239901640,42.357989719926614,-71.0861313513676,8.697567,-62.288578,91.88363,-2.8183155,-3.0081537,1,1,1,0
1240022780,42.357980859433475,-71.08614110764788,8.686678,-63.27383,91.08199,-2.8074265,-2.9644713,1,1,1,0
1240132639,42.357972849221134,-71.08615061042516,8.692835,-64.164536,90.301186,-2.8135831,-2.9168067,1,1,1,0
1240246765,42.35796424102611,-71.0861614772956,8.72254,-65.121735,89.408295,-2.843288,-2.8609319,1,1,1,0
1240356639,42.35795644122225,-71.08617194470098,8.761161,-65.989044,88.548225,-2.8819091,-2.8084066,1,1,1,0
1240466673,42.357948772264926,-71.08618272296916,8.8123045,-66.841805,87.66261,-2.933053,-2.7565334,1,1,1,0
1240576639,42.35794125446417,-71.08619389399496,8.860597,-67.67776,86.74473,-2.9813452,-2.7076726,1,1,1,0
1240690639,42.35793387567399,-71.08620530132339,8.908691,-68.49825,85.80743,-3.0294394,-2.6645389,1,1,1,0
1240804638,42.357925873207876,-71.08621843449396,8.953774,-69.3881,84.72832,-3.0745227,-2.6259592,1,1,1,0
1240904181,42.357919316873804,-71.08622950196617,8.994057,-70.11714,83.81894,-3.1148057,-2.5986245,1,1,1,0
1241013712,42.35791219456285,-71.08624183622067,9.046019,-70.90912,82.80547,-3.1667671,-2.5736182,1,1,1,0
1241112639,42.35790587281641,-71.08625321965854,9.101181,-71.612076,81.87013,-3.2219298,-2.55468,1,1,1,0
1241222639,42.357899090001986,-71.08626590256037,9.172437,-72.3663,80.82802,-3.2931852,-2.5375028,1,1,1,0
1241336710,42.35789247281904,-71.08627877366722,9.244652,-73.10211,79.77044,-3.3654,-2.5248394,1,1,1,0
