timestamp,timestamp_sample,baro_device_id,bias,bias_var,innov,innov_var,innov_test_ratio
539702677,539594937,4028193,2.923653,0.007464529,-6.9101534,16.608864,0.31944272
540110771,539969340,4028193,2.9172173,0.0074583204,-7.1224184,16.592186,0.33971038
540708019,540567024,4028193,2.9074535,0.0074490677,-7.3484583,16.550636,0.36252278
541106225,540999114,4028193,2.9010766,0.0074429396,-7.119321,16.50929,0.34111923
541713501,541596720,4028193,2.8911211,0.0074336464,-7.4416084,16.394594,0.37531027
542101648,541971129,4028193,2.88453,0.007427397,-7.3183618,16.358057,0.3637923
542708881,542561526,4028193,2.8745801,0.0074180732,-7.262825,16.337822,0.3587356
543117034,542993497,4028193,2.8680298,0.007411924,-7.298416,16.337816,0.36226028
543714302,543591092,4028193,2.8581765,0.0074026464,-7.3388968,16.301527,0.3671054
544112578,543972685,4028193,2.851782,0.007396443,-7.0291176,16.28545,0.33710048
544709820,544563081,4028193,2.8426118,0.0073871794,-6.9446654,16.325682,0.32823798
545108608,544995098,4028193,2.836589,0.0073811025,-6.6026096,16.394543,0.2954537
545715205,545585518,4028193,2.8278008,0.0073719784,-6.3534956,16.500977,0.2718149
546113444,545967183,4028193,2.8219829,0.007365937,-6.5134697,16.5713,0.28446293
546720676,546615107,4028193,2.8135896,0.007357034,-6.187499,16.65477,0.2554166
547108819,546996711,4028193,2.80812,0.007351074,-6.2418656,16.709455,0.25907412
547716075,547587156,4028193,2.799961,0.007342203,-6.0963297,16.78573,0.24601078
548114235,547961595,4028193,2.79467,0.0073363036,-6.059864,16.849789,0.2421524
548711531,548609523,4028193,2.7872164,0.0073276623,-5.6130486,17.001015,0.20591134
549109771,548991130,4028193,2.7822785,0.0073218937,-5.6648817,17.084133,0.20871143
549716977,549588697,4028193,2.774854,0.007313315,-5.6437826,17.123753,0.20668031
550105208,549963122,4028193,2.7700868,0.007307577,-5.572462,17.136992,0.20133401
550712475,550611092,4028193,2.7631676,0.007299107,-5.275255,17.114918,0.18066317
551110566,550985478,4028193,2.7584765,0.0072933813,-5.438742,17.101698,0.19218309
551717834,551583104,4028193,2.751606,0.007284868,-5.2961435,17.097288,0.1822845
552106108,551964694,4028193,2.747296,0.007279184,-4.985448,17.097282,0.16152462
552703399,552555110,4028193,2.741184,0.0072706793,-4.767166,17.070911,0.1479181
553111455,552987195,4028193,2.7372658,0.0072650625,-4.5722637,17.031494,0.13638522
553708734,553577507,4028193,2.7312112,0.0072565214,-4.559685,16.914223,0.13657625
554097646,553959104,4028193,2.7272117,0.0072508035,-4.714076,16.86257,0.14642894
554704249,554556711,4028193,2.7211683,0.007242235,-4.4965696,16.751646,0.13411047
555112353,554988699,4028193,2.7172358,0.00723653,-4.4481153,16.646265,0.13206653
555709614,555579100,4028193,2.711649,0.007227861,-4.4020777,16.567007,0.12996574
556127722,556011084,4028193,2.7080374,0.00722213,-4.037937,16.529715,0.10960019
556715017,556601493,4028193,2.7022882,0.0072134486,-4.3653417,16.480244,0.12847847
557113256,556983092,4028193,2.6985452,0.007207657,-4.2367067,16.480238,0.12101824
557720450,557580686,4028193,2.6927922,0.0071990318,-4.530879,16.5173,0.13809672
558108719,557955111,4028193,2.6890013,0.007193268,-4.430839,16.537958,0.13190083
558715908,558603113,4028193,2.6833913,0.007184773,-4.3938055,16.562815,0.1295105
559114154,558977547,4028193,2.6797595,0.0071790507,-4.152458,16.579424,0.11555762
559711524,559575139,4028193,2.6741145,0.007170565,-4.362692,16.629456,0.12717114
560109620,560007107,4028193,2.6705856,0.007164971,-4.096525,16.642004,0.11204259
560706878,560604695,4028193,2.6650217,0.007156535,-4.3774605,16.633625,0.12800151
561105049,560979118,4028193,2.661376,0.007150879,-4.2666683,16.625256,0.12166535
561712256,561569495,4028193,2.6556304,0.00714244,-4.3696547,16.583546,0.12793057
562110494,562001536,4028193,2.6518674,0.007136868,-4.2826595,16.558615,0.123072386
562707763,562599137,4028193,2.646376,0.007128478,-4.3295155,16.604357,0.12543364
563106576,562980757,4028193,2.6426904,0.00712289,-4.299087,16.629408,0.12349039
563723150,563571186,4028193,2.6372857,0.0071145166,-4.3824263,16.562744,0.1288411
564111361,564003083,4028193,2.6334846,0.007108978,-4.4398623,16.521338,0.13257185
564718551,564593540,4028193,2.6278245,0.007100591,-4.336834,16.496584,0.12668028
565116746,564975100,4028193,2.6240244,0.0070950002,-4.489068,16.488348,0.1357978
565714017,565572683,4028193,2.6183748,0.0070866616,-4.314687,16.484226,0.12548375
566122162,566004723,4028193,2.6145504,0.0070811566,-4.384508,16.48422,0.12957786
566719532,566595095,4028193,2.6088529,0.0070728348,-4.2698364,16.492441,0.12282732
567107733,566969513,4028193,2.6051378,0.007067283,-4.3350353,16.52956,0.12632273
567714960,567567108,4028193,2.5995069,0.0070590656,-4.374753,16.604288,0.12806909
568103198,567999100,4028193,2.5957634,0.0070536663,-4.4548745,16.662859,0.13233629
568700471,568596758,4028193,2.590599,0.0070455642,-3.9067595,16.75569,0.10121119
569108561,568971114,4028193,2.587249,0.0070401556,-4.031849,16.80247,0.10749614
569715795,569561481,4028193,2.5822527,0.007032133,-3.9375157,16.883835,0.10203073
570114032,569993479,4028193,2.5788713,0.007026876,-3.9756634,16.931274,0.103725865
570711303,570591089,4028193,2.573943,0.0070189927,-3.7996514,17.08383,0.093898736
571109477,570972688,4028193,2.5708,0.0070137796,-3.8369877,17.203194,0.09508878
571716677,571563117,4028193,2.5661316,0.007006057,-3.8002195,17.369131,0.092384
572115431,571995108,4028193,2.5631847,0.007001022,-3.6890147,17.491947,0.08644505
572712225,572585553,4028193,2.5586839,0.0069934605,-3.778784,17.620853,0.09003984
573110338,572967093,4028193,2.5557613,0.006988447,-3.76336,17.685892,0.08897788
573727555,573615099,4028193,2.5513422,0.006981049,-3.8305228,17.681225,0.09220643
574115775,573996689,4028193,2.5483196,0.0069760536,-3.7393973,17.653309,0.08801053
574713082,574587085,4028193,2.5440724,0.0069685676,-3.4198847,17.588453,0.0738844
575111320,574961475,4028193,2.5412996,0.0069635385,-3.5032458,17.53777,0.0777543
575718525,575609533,4028193,2.5372646,0.0069561107,-3.3217266,17.50564,0.07003372
576106754,575991114,4028193,2.5344217,0.0069511095,-3.7328248,17.52398,0.08834866
576713926,576588758,4028193,2.5302165,0.006943678,-3.3995557,17.606916,0.072932065
577112116,576963106,4028193,2.52746,0.006938729,-3.4498105,17.709166,0.07467064
577719452,577611089,4028193,2.5234568,0.006931501,-3.170588,17.859625,0.062541
578107628,577985522,4028193,2.5207932,0.006926643,-3.56328,17.945156,0.07861586
578704911,578583090,4028193,2.5171483,0.0069194715,-3.0431662,18.036139,0.057051264
579112983,578964716,4028193,2.5146554,0.0069146967,-3.1257505,18.089144,0.060013384
579710303,579555138,4028193,2.510916,0.006907607,-3.3041663,18.230047,0.06654164
580108447,579987138,4028193,2.508433,0.006902978,-3.312793,18.318352,0.06656711
580715753,580577522,4028193,2.5047867,0.006895998,-3.1810226,18.397383,0.06111319
581114548,581009490,4028193,2.5026493,0.0068914257,-2.7597241,18.442062,0.04588591
581502118,581391084,4028193,2.500828,0.0068867975,-2.3289788,18.427147,0.032706227
581910236,581772719,4028193,2.4991302,0.006882171,-2.2140312,18.422174,0.02956542
582497585,582363146,4028193,2.496463,0.006875274,-2.6994889,18.511879,0.043739125
583114858,583011114,4028193,2.4935195,0.0068685156,-2.7715678,18.572039,0.045956712
583712091,583601546,4028193,2.4906626,0.006861699,-2.8294435,18.58209,0.04787017
583911149,583767114,4028193,2.4896543,0.0068593975,-2.734358,18.607264,0.044646326
584707554,584580738,4028193,2.485607,0.006850409,-2.8077517,18.617338,0.047049746
585115699,585012699,4028193,2.4835439,0.0068459483,-2.8526378,18.592138,0.048631918
585713694,585603123,4028193,2.4804707,0.006839162,-2.858784,18.52185,0.04902705
586101236,585977474,4028193,2.4783864,0.006834617,-2.8414779,18.531862,0.048409097
586499321,586359183,4028193,2.476268,0.0068301028,-2.7481167,18.551914,0.045231305
586907473,586791174,4028193,2.4743106,0.0068256673,-2.7544336,18.587084,0.045353506
587713826,587604762,4028193,2.4704208,0.0068167835,-2.8171864,18.65772,0.047263958
588102022,587979087,4028193,2.46835,0.0068123126,-2.8402624,18.68811,0.0479633
588500371,588353492,4028193,2.466435,0.006807854,-2.5525057,18.708412,0.038694926
588898404,588785488,4028193,2.464519,0.0068034884,-2.5784993,18.723656,0.039454892
589704811,589599106,4028193,2.460901,0.006794723,-2.5736427,18.749102,0.039253063
590103498,589980691,4028193,2.4592688,0.0067903264,-2.208209,18.779709,0.028850213
590501132,590355151,4028193,2.4576936,0.006785935,-2.3485615,18.861689,0.032492325
590909227,590787131,4028193,2.4561079,0.0067816474,-2.157646,18.897715,0.027372127
591705654,591593475,4028193,2.453277,0.0067729573,-1.821671,18.749079,0.019666063
592113748,591975117,4028193,2.4520802,0.0067685903,-1.7092309,18.769476,0.017294452
592511963,592407148,4028193,2.4508152,0.0067642992,-1.882415,18.784792,0.020959547
592910139,592788682,4028193,2.4496171,0.0067599528,-1.7913725,18.805243,0.018960526
593706480,593595181,4028193,2.446913,0.0067513795,-1.9340351,18.964855,0.021914756
594104698,593969555,4028193,2.445668,0.006747099,-1.9385777,19.089746,0.021873774
594503046,594401504,4028193,2.4445763,0.0067429407,-1.5472608,19.221066,0.013839074
594901057,594783100,4028193,2.4434266,0.006738754,-1.8156917,19.337662,0.01894252
595707414,595596684,4028193,2.4411035,0.0067305416,-1.627332,19.530542,0.015065914
596105608,595971108,4028193,2.4399858,0.006726411,-1.5851989,19.557533,0.014276145
596523627,596403111,4028193,2.4388916,0.0067223846,-1.5833986,19.64425,0.014180859
596912430,596777484,4028193,2.437767,0.0067183017,-1.661933,19.726011,0.015557693
597708224,597591136,4028193,2.4354951,0.0067103147,-1.6035903,19.907469,0.014352524
598106418,597972685,4028193,2.4343026,0.0067063347,-1.7866364,20.035229,0.017702537
598713679,598563104,4028193,2.4327981,0.0067004403,-1.7003264,20.226032,0.015882228
599112401,598995087,4028193,2.4316194,0.006696606,-1.8583422,20.345036,0.01886038
599500053,599369519,4028193,2.430358,0.006692717,-1.9110947,20.453465,0.01984061
599908304,599801532,4028193,2.4291039,0.006688944,-1.9548502,20.585688,0.020626193
600704562,600564706,4028193,2.4264567,0.0066813356,-2.0762389,20.672485,0.023169646
601112691,600996703,4028193,2.4249923,0.0066776024,-2.28333,20.66668,0.028030068
601500913,601371093,4028193,2.4235554,0.0066738133,-2.2511873,20.812302,0.027055817
601899131,601745486,4028193,2.421996,0.0066700554,-2.5270257,20.935589,0.033891566
602705483,602559108,4028193,2.4191396,0.0066627385,-2.4009767,21.22669,0.030175265
603103664,602991088,4028193,2.4175792,0.0066591613,-2.65704,21.358952,0.036726013
603502017,603372712,4028193,2.416006,0.006655545,-2.5619574,21.449682,0.034000117
603909940,603804722,4028193,2.4145277,0.0066520106,-2.4755173,21.522593,0.031636965
604696373,604553519,4028193,2.411774,0.0066448147,-2.1385913,21.504328,0.023631277
605104471,604985555,4028193,2.4105902,0.0066412794,-1.834301,21.40122,0.017468683
605502666,605367114,4028193,2.4093704,0.006637665,-2.0676827,21.298689,0.02230347
605901645,605799087,4028193,2.4081376,0.0066341017,-1.9658353,21.220673,0.020234507
606707151,606555128,4028193,2.4058282,0.006626759,-1.9147561,20.882597,0.019507423
607105332,606987089,4028193,2.404571,0.0066231117,-2.0099776,20.707275,0.021677889
607503546,607361489,4028193,2.4032187,0.00661935,-2.1715188,20.528,0.02552337
607901724,607793527,4028193,2.4017024,0.006615645,-2.365206,20.384819,0.030492187
608698128,608556696,4028193,2.3985791,0.0066080373,-2.3519049,20.158333,0.030488946
609106191,608988708,4028193,2.3969467,0.0066042687,-2.3818061,20.023977,0.03147893
609504381,609363116,4028193,2.3952641,0.0066003897,-2.5410738,19.863167,0.036119655
609902614,609795117,4028193,2.3935206,0.006596556,-2.5630813,19.665884,0.03711665
610698915,610551097,4028193,2.3897529,0.0065886453,-2.809821,19.353489,0.045326848
611097149,610983160,4028193,2.38782,0.0065847198,-2.81148,19.205084,0.045731064
611495391,611364714,4028193,2.3857672,0.006580703,-3.0971212,19.068684,0.05589246
612102624,611955080,4028193,2.3826852,0.0065746685,-2.984039,18.985413,0.05211305
612709786,612603089,4028193,2.3796878,0.0065686963,-2.888657,18.902655,0.049048606
613107943,612977530,4028193,2.377547,0.0065646386,-3.07477,18.928457,0.05549675
613705249,613575085,4028193,2.3744335,0.006558638,-3.0545998,18.990585,0.054591846
614093440,613956692,4028193,2.372293,0.006554652,-3.2036166,19.110481,0.059671503
614700662,614547152,4028193,2.3691328,0.0065487507,-3.0328302,19.294962,0.052967533
615098829,614979105,4028193,2.3670459,0.0065448936,-3.1325421,19.294958,0.056507684
615696068,615569517,4028193,2.3639913,0.0065390235,-3.09778,19.241991,0.055412613
616094303,615951092,4028193,2.3619192,0.0065350947,-3.0367894,19.210306,0.053339943
616711433,616599092,4028193,2.3588035,0.0065293172,-3.1706867,19.273733,0.057955988
617100275,616980684,4028193,2.356632,0.006525431,-3.3039703,19.358753,0.06265452
617707001,617571091,4028193,2.3533947,0.006519667,-3.2610059,19.524939,0.060516108
618105095,618003131,4028193,2.3512962,0.0065158852,-3.1626782,19.417494,0.057236668
618702357,618593489,4028193,2.3479934,0.006510107,-3.3913605,19.326794,0.06612194
619100551,618975091,4028193,2.3458061,0.006506223,-3.1184163,19.226109,0.05619974
619707731,619572707,4028193,2.3424456,0.006500444,-3.3708076,19.263111,0.065538876
620105932,620004736,4028193,2.3402236,0.0064966567,-3.3720694,19.348068,0.06529995
620703238,620595108,4028193,2.3369446,0.006490927,-3.250464,19.428177,0.060424928
621101392,620969509,4028193,2.3347034,0.0064871013,-3.2288916,19.454979,0.0595434
621698632,621567110,4028193,2.331464,0.006481453,-3.203221,19.5681,0.058261633
622106801,621999121,4028193,2.3291414,0.006477766,-3.570681,19.70392,0.071896374
622704125,622596725,4028193,2.3256922,0.006472243,-3.4093554,19.90723,0.06487706
623102198,622971110,4028193,2.3233478,0.0064685517,-3.6486392,20.00156,0.07395294
623709456,623561537,4028193,2.3194218,0.0064631044,-4.108964,20.152567,0.093087584
624107626,623993509,4028193,2.316935,0.00645956,-4.110983,20.242739,0.09276402
624704938,624591135,4028193,2.3130407,0.0064542377,-4.179027,20.464682,0.09482064
625103088,624972710,4028193,2.310492,0.0064507057,-4.0124855,20.58545,0.08690087
625710310,625563108,4028193,2.3068168,0.0064454987,-3.8377652,20.888292,0.078345016
626109096,625995094,4028193,2.3044887,0.0064421375,-3.882785,21.11302,0.0793403
626705831,626585497,4028193,2.3009298,0.006437102,-3.9122148,21.461597,0.07923934
627103884,626967086,4028193,2.2985613,0.006433797,-4.0543947,21.724365,0.08407414
627711185,627564682,4028193,2.2951295,0.006428972,-3.871853,22.153748,0.075187914
628099354,627996722,4028193,2.2928774,0.006425855,-3.9086685,22.368828,0.0758878
628696631,628587085,4028193,2.2894726,0.006421144,-3.9910438,22.528448,0.07855959
629094808,628961512,4028193,2.2873025,0.006417996,-3.727984,22.599075,0.06833055
629701990,629559103,4028193,2.2839694,0.006413371,-4.0383596,22.754015,0.07963599
630100200,629991091,4028193,2.2816412,0.0064103487,-4.2586465,22.818914,0.088309154
630687514,630531096,4028193,2.2780151,0.006405717,-4.4789286,23.047632,0.09671179
631095611,630963089,4028193,2.275514,0.0064027593,-4.476216,23.199268,0.09596332
631692985,631553491,4028193,2.2715435,0.0063982913,-4.9901752,23.445425,0.118013315
632091057,631985486,4028193,2.2689707,0.006395401,-4.5473456,23.586353,0.097412035
632698335,632583122,4028193,2.2650912,0.0063910494,-4.7923183,23.843609,0.10702292
633096589,632964729,4028193,2.262566,0.0063881697,-4.714486,24.055614,0.102662005
633703662,633555115,4028193,2.2588367,0.0063838935,-4.7869787,24.158886,0.10539101
634101821,633987150,4028193,2.2562747,0.0063811187,-4.9224925,24.297283,0.11080769
634689158,634577520,4028193,2.252457,0.006376913,-4.6963034,24.478394,0.10011217
635097864,634959087,4028193,2.249877,0.006374122,-4.876979,24.576479,0.107532464
635704518,635556717,4028193,2.2459502,0.0063700094,-5.1894617,24.823397,0.1205427
636092749,635988682,4028193,2.2432046,0.006367343,-5.398315,25.00841,0.12947558
636709867,636579080,4028193,2.2391593,0.0063633206,-5.5315714,25.34629,0.13413438
637108050,636953548,4028193,2.2364004,0.0063606454,-5.4333096,25.520529,0.1285277
637705334,637601493,4028193,2.2322438,0.006356794,-5.5422363,25.72526,0.1326685
638103539,637983132,4028193,2.2294292,0.006354184,-5.554048,25.828213,0.13270351
638700819,638580721,4028193,2.2252162,0.0063503166,-5.934386,25.879833,0.15119852
639108865,638955167,4028193,2.2223527,0.006347704,-5.8045063,25.909376,0.14448778
639696198,639545537,4028193,2.218202,0.006343834,-5.5411825,25.901983,0.13171323
640094401,639977476,4028193,2.2154295,0.006341303,-5.5519047,25.813467,0.13267685
640691740,640575096,4028193,2.211367,0.006337445,-5.6157236,25.820827,0.13570592
641089857,640956697,4028193,2.2085373,0.0063348613,-5.7659926,25.872437,0.1427803
641707266,641604709,4028193,2.2040825,0.006331044,-6.0427647,25.462288,0.15934242
642105136,641979112,4028193,2.2010615,0.0063283923,-6.070894,25.418716,0.16110505
642712374,642569493,4028193,2.1965997,0.0063244454,-5.898257,25.245142,0.15311827
643110606,643001561,4028193,2.1937292,0.00632185,-5.798368,25.122892,0.14869604
643697829,643548708,4028193,2.1893315,0.0063178246,-5.8529863,25.072721,0.15181373
644106558,643980738,4028193,2.186374,0.0063152257,-5.943981,25.094208,0.15643679
644703211,644571113,4028193,2.1818967,0.006311271,-6.0976467,25.230719,0.16373911
645101444,644945490,4028193,2.1789114,0.0063086203,-5.8954954,25.266758,0.15284407
645708620,645593524,4028193,2.174565,0.006304783,-5.7671804,25.331764,0.14588787
646106783,645975091,4028193,2.1717467,0.006302162,-5.5812855,25.27397,0.13694699
646724013,646623109,4028193,2.1673543,0.006298314,-5.8945203,25.165949,0.15340556
647112170,647004683,4028193,2.1645498,0.0062956754,-5.495041,25.07986,0.13377477
647709422,647595087,4028193,2.1603522,0.0062917066,-5.546277,24.873001,0.13741446
648107568,647969593,4028193,2.1575577,0.006289006,-5.4776225,24.66782,0.1351484
648704853,648567152,4028193,2.1533804,0.006284971,-5.3654337,24.345818,0.13138409
649103092,648999105,4028193,2.15066,0.0062822863,-5.2239637,24.110535,0.12576243
649700414,649596688,4028193,2.1467438,0.006278137,-4.808617,23.707735,0.10836969
650098462,649971153,4028193,2.1442091,0.006275293,-4.759358,23.48548,0.10716545
650705942,650561509,4028193,2.1405573,0.006270967,-4.3873863,22.805779,0.09378304
651103876,650993479,4028193,2.1380608,0.0062680617,-4.572622,22.464296,0.10341779
651720971,651591093,4028193,2.134379,0.0062635792,-4.2425575,22.134714,0.09035227
652109203,651972727,4028193,2.1319706,0.006260527,-4.2087746,21.88487,0.08993419
652716455,652563145,4028193,2.128306,0.0062558865,-4.1349754,21.510023,0.088320695
653105331,652995230,4028193,2.1259537,0.006252806,-3.9690845,21.298304,0.08218511
653721835,653585488,4028193,2.1224513,0.0062480518,-3.7926888,21.047476,0.075936735
654100053,653967104,4028193,2.1201177,0.006244843,-3.8376513,20.888092,0.07834111
654707396,654564718,4028193,2.116639,0.0062400233,-3.8454206,20.706892,0.079346955
655115442,654996683,4028193,2.114242,0.0062368438,-3.9524782,20.67204,0.083967865
655712705,655587116,4028193,2.1106017,0.0062320046,-4.0970078,20.735977,0.089942835
656110877,655961526,4028193,2.1082225,0.00622877,-3.9954631,20.788473,0.0853236
656718032,656609477,4028193,2.104672,0.0062240646,-3.8589654,20.864582,0.079303
657116185,656991089,4028193,2.1024249,0.006220873,-3.716532,20.85285,0.07359831
657723425,657588686,4028193,2.0988815,0.0062161293,-4.2318306,20.89394,0.095234364
658101798,657963095,4028193,2.0966427,0.0062129335,-3.7515223,20.893936,0.07484319
658708955,658553477,4028193,2.0932822,0.006208187,-3.7165298,20.870438,0.0735362
659107028,658985550,4028193,2.0910268,0.006205083,-3.8623533,20.893929,0.07933072
659714765,659583137,4028193,2.087636,0.0062003704,-3.7920146,20.882172,0.07651064
660102455,659964688,4028193,2.0853393,0.0061972095,-3.9297907,20.876295,0.08219453
660709650,660555176,4028193,2.0819483,0.0061924886,-3.901879,20.882164,0.08100831
661107838,660987101,4028193,2.079788,0.006189405,-3.735005,20.91744,0.07410224
661715119,661577478,4028193,2.0765383,0.0061847186,-3.615159,20.982304,0.06920846
662113221,662009516,4028193,2.0744123,0.0061816634,-3.6970997,21.017784,0.07225915
674954090,674811122,4028193,2.0729678,0.006197161,-4.8458457,20.794285,0.1254737
675163180,675027107,4028193,2.0715537,0.0061956085,-4.748192,20.811823,0.120366015
675352508,675243101,4028193,2.0702171,0.0061940574,-4.491665,20.823524,0.10765097
675949468,675833494,4028193,2.0662785,0.006189329,-4.440709,20.835232,0.1051632
676347638,676215095,4028193,2.063652,0.0061861747,-4.407213,20.841087,0.10355361
676755785,676646948,4028193,2.061114,0.0061830874,-4.1887784,20.835226,0.09356944
677362946,677244606,4028193,2.0572186,0.006178386,-4.4487686,20.735924,0.106050745
677960207,677834974,4028193,2.0532377,0.006173632,-4.464011,20.573631,0.107621014
678358389,678209333,4028193,2.0505507,0.0061704167,-4.5666995,20.493073,0.11307205
678955609,678806963,4028193,2.0466456,0.006165644,-4.3412104,20.407192,0.10261147
679353814,679238893,4028193,2.0439355,0.0061624935,-4.4697895,20.338814,0.10914555
679951649,679836496,4028193,2.0400395,0.006157697,-4.368103,20.27072,0.104586124
680349216,680210905,4028193,2.0374427,0.0061544515,-4.2281966,20.219841,0.0982404
680956375,680801307,4028193,2.0334713,0.0061496235,-4.3544655,20.19164,0.10434115
681354542,681233295,4028193,2.0307705,0.006146459,-4.36677,20.15787,0.10510744
681762650,681614886,4028193,2.0281336,0.006143231,-4.416423,20.146626,0.10757132
682359895,682212556,4028193,2.0240927,0.0061384216,-4.6027822,20.118557,0.117004216
682947193,682802921,4028193,2.0198684,0.0061335983,-4.57644,20.101738,0.115765564
683345434,683234892,4028193,2.0170848,0.006130441,-4.5544395,20.101734,0.11465523
683942697,683825337,4028193,2.0129652,0.00612562,-4.49994,20.062565,0.112146184
684351090,684206922,4028193,2.0102444,0.006122401,-4.5831428,20.056974,0.116364054
684958024,684855044,4028193,2.006207,0.0061176764,-4.441948,20.056969,0.10930477
685346151,685236517,4028193,2.0035412,0.006114459,-4.41856,20.001207,0.108458295
685953301,685826937,4028193,1.9995375,0.0061096423,-4.419356,19.978952,0.10861823
686351462,686201292,4028193,1.9967213,0.006106409,-4.7248783,19.990068,0.12408648
686740552,686633299,4028193,1.9937782,0.006103271,-4.8375363,20.045788,0.1297128
687356868,687230951,4028193,1.9894466,0.0060985433,-4.7124033,20.214142,0.12206386
687944160,687828489,4028193,1.9850748,0.0060938317,-5.05738,20.118513,0.14125793
688362234,688260539,4028193,1.9820298,0.00609072,-5.0137773,20.056942,0.13925886
688950106,688793367,4028193,1.9774923,0.006085887,-4.9426594,20.073706,0.13522324
689347655,689225425,4028193,1.9744654,0.00608279,-4.910551,20.112894,0.13321202
689944897,689822962,4028193,1.9699014,0.0060780747,-4.911926,20.045763,0.13373297
690352978,690204545,4028193,1.966861,0.0060749077,-5.1841245,20.023447,0.14913154
690950224,690794951,4028193,1.9624902,0.0060701612,-4.651818,19.917896,0.12071449
691358350,691226909,4028193,1.959637,0.0060670334,-4.680995,19.818571,0.12284614
691945649,691817349,4028193,1.9553457,0.00606225,-4.8035917,19.774628,0.12965263
692353782,692249327,4028193,1.9524311,0.006059116,-4.742486,19.758183,0.12648022
692951045,692846902,4028193,1.9480298,0.0060543553,-4.896616,19.73628,0.13498461
693359745,693228496,4028193,1.9450496,0.006051159,-4.830713,19.703495,0.13159418
693946400,693818888,4028193,1.9403732,0.006046372,-5.1723976,19.659891,0.15120292
694344533,694193340,4028193,1.9373071,0.0060431533,-4.9075537,19.638136,0.13626595
694951715,694841309,4028193,1.9326855,0.006038445,-4.8303547,19.583889,0.13237824
695349903,695222911,4028193,1.929619,0.006035241,-5.0475426,19.55684,0.14475007
695957068,695820514,4028193,1.9250646,0.0060304557,-4.889757,19.492132,0.13629274
696345283,696194992,4028193,1.9219348,0.0060272254,-5.1578107,19.481375,0.15172903
696753519,696626912,4028193,1.9187661,0.006024076,-5.128837,19.443789,0.15031919
697370564,697217375,4028193,1.9140823,0.006019259,-5.104895,19.347591,0.14965947
697957834,697814947,4028193,1.9091825,0.0060144407,-5.2549076,19.257332,0.1593278
698346038,698196515,4028193,1.9058547,0.006011195,-5.5884256,19.178175,0.18093774
698754173,698628490,4028193,1.9023077,0.0060080015,-5.8484316,19.109934,0.1988736
699361315,699218908,4028193,1.8970916,0.0060031204,-5.6257896,19.047241,0.1846258
699759518,699650923,4028193,1.893546,0.0059999144,-5.644851,18.995218,0.1863881
700356731,700241287,4028193,1.8880928,0.005995014,-5.7629604,18.943394,0.19480091
700953965,700838912,4028193,1.8824552,0.0059901346,-5.943723,18.922718,0.20743935
701362057,701220531,4028193,1.8786454,0.0059868647,-6.037712,18.92788,0.21399337
701780162,701652499,4028193,1.8747588,0.005983666,-6.334519,18.943382,0.23535705
702368173,702242936,4028193,1.8689529,0.0059788013,-6.124614,18.979631,0.21959737
702765580,702617338,4028193,1.8651165,0.0059755356,-6.149211,18.964079,0.22154629
703362814,703214940,4028193,1.8594508,0.0059707058,-6.1491957,18.969254,0.22148477
703780915,703647046,4028193,1.8555896,0.0059675286,-6.2706213,18.938194,0.23069598
704368146,704244693,4028193,1.849933,0.005962697,-6.032015,18.907206,0.21382326
704776287,704619094,4028193,1.8461118,0.0059594386,-5.976405,18.902044,0.20995624
705373516,705267118,4028193,1.8403058,0.005954683,-6.238552,18.896887,0.22884154
705781792,705641476,4028193,1.8365049,0.0059514334,-6.163731,18.902037,0.22332443
706368896,706239117,4028193,1.8308569,0.005946631,-6.020419,18.902033,0.21306023
706757477,706620712,4028193,1.827145,0.005943408,-5.965135,18.876276,0.20945065
707364356,707211090,4028193,1.8213341,0.0059385886,-6.0467043,18.865984,0.21533543
707772385,707643130,4028193,1.8174973,0.0059354347,-6.1415105,18.845427,0.22238317
708359674,708233479,4028193,1.8117784,0.005930613,-6.1349163,18.799297,0.22245039
708747863,708615130,4028193,1.8080939,0.0059273946,-5.8470488,18.80441,0.20200923
709374955,709263113,4028193,1.8025165,0.0059226803,-5.8870316,18.881401,0.20394637
709783083,709644711,4028193,1.7986958,0.0059194984,-6.128835,18.953665,0.22020146
710370392,710235112,4028193,1.793207,0.005914776,-5.8461294,19.099373,0.19882695
710768570,710667140,4028193,1.7895373,0.005911713,-6.0489225,19.193869,0.21181223
711356394,711207102,4028193,1.7841057,0.0059070187,-5.934725,19.374134,0.20199302
711783798,711639105,4028193,1.7805246,0.0059040193,-6.0185723,19.497387,0.20642774
712162151,712020689,4028193,1.7768205,0.005900981,-6.22798,19.610847,0.2197635
733931053,733779310,4028193,1.7756171,0.00592886,-4.4862294,22.109251,0.10114547
734130146,733995310,4028193,1.774388,0.0059275622,-4.583285,22.109251,0.105569184
734329225,734211385,4028193,1.7732078,0.0059262654,-4.4014993,22.10925,0.09736094
734926418,734801801,4028193,1.7697574,0.0059223007,-4.2835035,22.14066,0.092079975
735314627,735183397,4028193,1.7675431,0.005919648,-4.044182,22.084146,0.08228832
735922402,735781028,4028193,1.7641399,0.005915697,-4.1944456,22.034046,0.08871813
747120380,747013155,4028193,1.7628258,0.005929129,-4.373762,19.741629,0.10766755
747318806,747171498,4028193,1.7615123,0.005927557,-4.3709373,19.730688,0.10758815
747537746,747387493,4028193,1.7602413,0.005926063,-4.216422,19.665213,0.10044932
747925979,747819559,4028193,1.7577133,0.0059230668,-4.272914,19.610868,0.10344487
748523158,748409920,4028193,1.7535956,0.0059185172,-4.5750113,19.736145,0.117836416
749120382,749007511,4028193,1.7493113,0.0059140446,-4.83328,19.934359,0.13020845
749518537,749389154,4028193,1.7464228,0.005911068,-4.765972,20.017708,0.12607999
750115800,749979521,4028193,1.7420275,0.0059066527,-5.1041903,20.168879,0.14352563
750533837,750411536,4028193,1.7390811,0.005903793,-5.1953244,20.287462,0.14782746
750931952,750785908,4028193,1.7360921,0.0059008696,-5.1012383,20.372705,0.14192536
751529666,751383497,4028193,1.7316049,0.005896586,-5.2650595,20.533028,0.15000685
751927329,751815509,4028193,1.7286597,0.0058937925,-5.0950966,20.590666,0.1400851
752524579,752413090,4028193,1.7242053,0.0058895145,-5.102235,20.378393,0.14194119
752922749,752787520,4028193,1.721084,0.0058865882,-5.374826,20.185745,0.15901625
753529874,753377912,4028193,1.7161775,0.0058822017,-5.5483646,19.995409,0.17106344
753938011,753809918,4028193,1.7128478,0.0058793104,-5.7220955,19.873482,0.18306012
754525280,754407539,4028193,1.7074485,0.005874879,-6.2474265,19.665161,0.22052726
754923518,754789133,4028193,1.7036933,0.0058718743,-6.2746224,19.540474,0.22387089
755520647,755379501,4028193,1.6978016,0.005867347,-6.412211,19.374094,0.23580426
755938797,755811531,4028193,1.6939526,0.005864366,-6.228403,19.278368,0.22358398
756525962,756401895,4028193,1.6881267,0.0058598,-6.4368253,19.225462,0.23945513
757123218,756999522,4028193,1.682358,0.0058552492,-6.4376903,19.172758,0.2401779
757531226,757381109,4028193,1.6784694,0.005852189,-6.3361444,19.13074,0.23317172
757939326,757813087,4028193,1.6747168,0.0058491845,-6.1312237,19.041878,0.21935223
758526597,758403503,4028193,1.6690812,0.005844565,-6.110491,18.922571,0.2192449
758924792,758777898,4028193,1.6653925,0.005841454,-6.0028486,18.896774,0.21187738
759512052,759375503,4028193,1.6598133,0.005836841,-5.820871,18.824808,0.1999875
760119179,759973086,4028193,1.6545348,0.0058322186,-5.5708637,18.7992,0.18342698
760527853,760405093,4028193,1.651132,0.005829196,-5.3479257,18.876162,0.16835055
760925470,760779604,4028193,1.6477785,0.0058261133,-5.4331484,18.97429,0.17286023
761522682,761369933,4028193,1.6426215,0.0058215726,-5.5849442,19.130709,0.18116076
761920851,761801924,4028193,1.6391579,0.005818632,-5.677474,19.251846,0.18603532
772919555,772818105,4028193,1.6380861,0.0058319126,-3.8098254,20.735577,0.07777706
773118609,772983686,4028193,1.6370423,0.0058305045,-3.7186205,20.776394,0.07395219
773317681,773199756,4028193,1.6360294,0.005829163,-3.6141536,20.805607,0.0697574
773516771,773415693,4028193,1.6350175,0.005827824,-3.6165638,20.83487,0.06975237
774114016,774013323,4028193,1.6319616,0.005823756,-3.7662826,20.864182,0.07554086
774920255,774819712,4028193,1.6280041,0.0058183684,-3.4719312,21.005585,0.06376244
775318364,775194037,4028193,1.6262052,0.0058156564,-3.226695,21.088602,0.054856177
775726593,775625919,4028193,1.6244138,0.005813045,-3.1930637,21.18396,0.05347681
776125032,776007511,4028193,1.6228108,0.005810387,-2.9989953,21.27382,0.04697465
776920918,776763510,4028193,1.6200361,0.005805098,-2.5622528,21.406431,0.034076672
777319727,777195509,4028193,1.6187401,0.005802534,-2.3535533,21.376205,0.028792206
777717168,777569912,4028193,1.6175158,0.0057998793,-2.178288,21.315903,0.02473343
778135187,778001960,4028193,1.616362,0.005797309,-1.9850131,21.315899,0.020539062
778712573,778599531,4028193,1.6148468,0.0057934,-1.9167325,21.34602,0.019123334
779319748,779197108,4028193,1.6137102,0.005789494,-1.0739999,21.309872,0.0060143005
780116001,780003490,4028193,1.6126059,0.005784322,-0.83279526,21.479155,0.0035877055
781519406,781407503,4028193,1.6115927,0.005775396,-0.45524883,21.570482,0.0010675675
783321003,783185920,4028193,1.6104673,0.005763677,-0.59978926,20.864122,0.0019158203
785133232,785029127,4028193,1.6094238,0.0057515707,-0.41821063,20.179977,0.00096300145
786924195,786807483,4028193,1.6082959,0.005739146,-0.46326542,19.984142,0.0011932509
788347541,788211510,4028193,1.6072888,0.005729489,-0.6914532,19.862295,0.0026745682
789133912,789017890,4028193,1.6062053,0.0057239556,-0.8393935,19.785263,0.003956825
789731120,789615522,4028193,1.6051782,0.005719777,-1.3019233,19.61609,0.009600986
790318393,790213088,4028193,1.6041081,0.0057155695,-1.4666941,19.507965,0.0122524975
790925488,790803524,4028193,1.6028216,0.0057113376,-1.6015483,19.486433,0.014625315
791512786,791393949,4028193,1.6013472,0.0057071373,-1.7009833,19.6378,0.016370606
791920839,791775509,4028193,1.600281,0.0057043578,-1.8697987,19.757828,0.019661108
792328962,792207489,4028193,1.5991765,0.0057016574,-1.9058082,19.818205,0.02036346
792926359,792805123,4028193,1.5977129,0.0056975354,-1.767448,19.719524,0.017601687
793513497,793395532,4028193,1.5961995,0.0056933793,-1.868514,19.659538,0.019732261
794130538,793985939,4028193,1.5947924,0.005689227,-1.5475254,19.637783,0.013550041
794727725,794583523,4028193,1.5935954,0.0056851003,-1.271349,19.648647,0.009140172
795315000,795181093,4028193,1.5924647,0.0056809955,-1.2834338,19.741379,0.009271008
795922159,795771499,4028193,1.5913872,0.0056769084,-1.3397928,19.86776,0.010038848
796519421,796361891,4028193,1.590233,0.005672857,-1.2382072,19.978516,0.008526699
797116734,797009990,4028193,1.588989,0.0056689177,-1.4600016,20.05652,0.011808876
797733702,797607516,4028193,1.5879054,0.005664939,-1.2702405,20.140532,0.008901404
798340849,798205113,4028193,1.5866492,0.0056609917,-1.4286486,20.24194,0.011203564
798928114,798795493,4028193,1.5852749,0.005657048,-1.5952415,20.28155,0.013941491
799525325,799385884,4028193,1.5838921,0.0056531,-1.6825186,20.23063,0.01554776
800122526,799983484,4028193,1.5823848,0.0056491867,-1.9396981,20.292875,0.02060071
800530730,800415484,4028193,1.5813552,0.0056466293,-1.870543,20.315569,0.019136561
800948690,800847560,4028193,1.5802962,0.0056440793,-1.8400589,20.343983,0.018492047
801326935,801171515,4028193,1.5792184,0.0056413887,-1.9037111,20.361053,0.019776952
801735045,801603517,4028193,1.5780956,0.0056388495,-2.060986,20.378141,0.023160238
802123201,801977922,4028193,1.5768635,0.005636236,-2.1606393,20.418087,0.025404284
802521317,802410010,4028193,1.5754999,0.005633703,-2.416325,20.34966,0.031879466
802929990,802791527,4028193,1.5740687,0.005631098,-2.60646,20.281523,0.03721852
803327640,803223509,4028193,1.5725039,0.0056285337,-3.031719,20.09003,0.050834056
804124033,803979515,4028193,1.5691369,0.0056231986,-3.07312,19.823626,0.05293385
804531912,804411503,4028193,1.5672415,0.005620561,-3.3244767,19.556427,0.06279348
804920098,804785903,4028193,1.5653667,0.0056177783,-3.119464,19.093843,0.05662707
805328185,805217881,4028193,1.5634645,0.005615016,-3.2426586,18.783642,0.062198535
805726364,805599497,4028193,1.5615976,0.005612147,-3.0846152,18.530638,0.05705177
806532589,806413109,4028193,1.5581508,0.005606357,-2.565501,18.083004,0.040441874
806930811,806787489,4028193,1.5564185,0.005603347,-2.6493623,17.83465,0.04372961
807329164,807219495,4028193,1.5546854,0.0056003802,-2.6458464,17.624092,0.044134684
807726973,807593928,4028193,1.5529395,0.005597313,-2.7461011,17.53181,0.04779294
808533402,808407480,4028193,1.5496861,0.0055912035,-2.461018,17.25529,0.039000023
808921428,808789090,4028193,1.548127,0.0055880826,-2.323485,17.130856,0.035015322
809329502,809221166,4028193,1.5466822,0.0055850064,-2.226592,17.029812,0.03234662
810115858,809969879,4028193,1.5436708,0.00557866,-2.2651308,16.92118,0.033690963
810523906,810401965,4028193,1.5421947,0.0055755572,-2.134057,16.860893,0.030011587
810931983,810783512,4028193,1.5408672,0.005572382,-2.0780911,16.796736,0.028566813
811330143,811215488,4028193,1.5395036,0.0055692606,-1.9891433,16.741495,0.026260037
811738263,811597174,4028193,1.5381559,0.0055660703,-2.1050143,16.699232,0.029482959
812534506,812403488,4028193,1.5355351,0.005559728,-2.0072281,16.657166,0.026875088
812932736,812777932,4028193,1.5342292,0.0055565154,-1.8675888,16.640394,0.023289297
813330834,813209901,4028193,1.532992,0.0055533824,-1.8872241,16.581957,0.023865396
813738880,813591482,4028193,1.5316547,0.0055501764,-2.001269,16.528042,0.026924463
814525178,814405154,4028193,1.5287504,0.0055438094,-2.1347551,16.441662,0.030796964
814923368,814779535,4028193,1.5275167,0.005540568,-1.884821,16.408987,0.024055587
815321600,815211490,4028193,1.5262352,0.005537413,-1.7170719,16.41714,0.019954322
815739484,815585890,4028193,1.5248876,0.005534184,-2.054781,16.44165,0.028532717
816525892,816399505,4028193,1.5222436,0.005527863,-1.9158278,16.503252,0.024711601
816924038,816781110,4028193,1.5208688,0.005524688,-2.0388346,16.540426,0.027923819
817322107,817213204,4028193,1.5194747,0.005521592,-2.1483915,16.590248,0.03091231
817730194,817587518,4028193,1.5181079,0.005518427,-1.9268583,16.63617,0.02479726
818536918,818393929,4028193,1.5151157,0.0055122306,-2.3140788,16.758398,0.03550433
818934572,818825882,4028193,1.5136411,0.005509199,-2.1745782,16.813736,0.031249518
819322732,819207556,4028193,1.5122226,0.0055061225,-2.1931622,16.886614,0.03164874
819730999,819589106,4028193,1.5108275,0.0055030696,-2.1637533,16.981781,0.030633012
820517136,820395492,4028193,1.5080005,0.0054970775,-2.2910132,17.183899,0.03393837
820925213,820769931,4028193,1.5065608,0.0054940805,-2.2730565,17.29552,0.033192832
821313407,821201962,4028193,1.505137,0.0054911906,-2.2741396,17.394783,0.03303488
822109682,821965087,4028193,1.5023456,0.0054853503,-2.1637568,17.573124,0.029602299
822517834,822397102,4028193,1.5008285,0.0054825223,-2.402348,17.651814,0.036327876
822925950,822771618,4028193,1.499472,0.0054796305,-2.2266822,17.726404,0.031078018
823333943,823203505,4028193,1.4980212,0.0054768384,-2.2917502,17.787382,0.03280802
823742060,823635534,4028193,1.4965137,0.005474057,-2.4734573,17.825077,0.03813598
824528390,824391509,4028193,1.4937112,0.0054683667,-2.312052,17.848696,0.033277154
824926631,824823561,4028193,1.4922364,0.005465604,-2.4389045,17.867628,0.036989644
825325334,825205088,4028193,1.490865,0.0054627866,-2.3658113,17.90084,0.034741156
825722766,825579518,4028193,1.4893899,0.0054599596,-2.36443,17.93415,0.034636147
826529028,826385936,4028193,1.48632,0.0054544155,-2.2971275,17.996273,0.032579552
826927216,826817930,4028193,1.4848024,0.0054517016,-2.5442843,18.04429,0.03986107
827335229,827199485,4028193,1.4832278,0.0054489356,-2.6947298,18.087677,0.04460722
827743317,827631512,4028193,1.4816254,0.0054462445,-2.6369162,18.136074,0.04259973
828519667,828387513,4028193,1.4782951,0.0054407334,-2.7742066,18.116682,0.047201566
828937696,828819482,4028193,1.4765424,0.005438054,-2.9686165,18.136066,0.053991154
829325887,829193886,4028193,1.474843,0.005435301,-2.853921,18.179794,0.049779717
830122204,830007490,4028193,1.4713361,0.005429937,-2.9412925,18.297197,0.052535072
830530243,830389101,4028193,1.4694569,0.005427246,-3.2446628,18.366213,0.06369085
830918599,830763537,4028193,1.4675478,0.005424556,-3.1632495,18.485443,0.060144305
831346418,831195518,4028193,1.4657,0.005421975,-3.208115,18.620953,0.061412316
831734640,831627501,4028193,1.4639848,0.0054193996,-2.8936028,18.57059,0.05009676
832530943,832383489,4028193,1.4608747,0.0054140408,-2.543127,18.272625,0.039327167
832929005,832815496,4028193,1.4593326,0.005411412,-2.6441731,18.22855,0.042617224
833317187,833197121,4028193,1.457837,0.005408718,-2.4907784,18.204132,0.037866723
834123674,834003487,4028193,1.4550464,0.0054033594,-2.4573116,18.092463,0.037083462
834521566,834377946,4028193,1.4536791,0.005400622,-2.2841377,18.00101,0.032203656
834919713,834809937,4028193,1.452384,0.005397951,-2.1607494,17.87704,0.029018212
835317893,835191550,4028193,1.451086,0.0053951964,-2.1357074,17.754421,0.028545288
836114108,836005089,4028193,1.4487169,0.0053897006,-1.9254643,17.559202,0.023459764
836522186,836379548,4028193,1.447372,0.0053868857,-2.139804,17.499489,0.029072346
836930326,836811500,4028193,1.445955,0.0053841514,-2.3863807,17.476612,0.03620593
837338342,837185888,4028193,1.4442989,0.0053813355,-2.811066,17.472038,0.0502523
837736486,837617932,4028193,1.4427043,0.005378604,-2.348713,17.458342,0.03510867
838542732,838431523,4028193,1.4398743,0.0053731096,-2.2863812,17.609972,0.032983452
838990593,838863549,4028193,1.4383533,0.0053704428,-2.5341735,17.801397,0.040084466
839368829,839245090,4028193,1.4366082,0.005367745,-2.6972334,17.953138,0.045025047
839787103,839677090,4028193,1.4350293,0.0053651393,-2.7045894,18.092424,0.044922445
840573174,840425909,4028193,1.4319129,0.0053598303,-2.603434,18.297127,0.041159283
840971905,840857912,4028193,1.4301367,0.0053572874,-3.2470293,18.385937,0.06371536
841369506,841239510,4028193,1.4284127,0.0053546997,-3.0922098,18.480381,0.057488967
841787484,841671484,4028193,1.4267071,0.0053521954,-2.7690535,18.590643,0.04582746
842554006,842427600,4028193,1.4236456,0.0053470945,-2.5448937,18.737465,0.038404845
842952043,842801879,4028193,1.422113,0.005344549,-2.7146592,18.773157,0.0436165
843350211,843233905,4028193,1.4204421,0.0053420984,-2.9389663,18.829441,0.05096937
843778168,843665939,4028193,1.418739,0.0053396598,-2.9622893,18.891117,0.05161249
844564467,844429171,4028193,1.4154246,0.0053345794,-3.012455,18.385914,0.054842018
844962637,844861159,4028193,1.413694,0.005332043,-3.0867555,18.18943,0.05820267
845559882,845451502,4028193,1.4106578,0.0053281114,-3.574,17.929255,0.07915973
845967918,845825887,4028193,1.4084179,0.0053254087,-3.7036476,17.642368,0.086389296
846545294,846423482,4028193,1.4046606,0.005321355,-4.1609874,17.421852,0.1104221
846953289,846805143,4028193,1.4021746,0.005318622,-4.0536995,17.39461,0.104965344
847561039,847453111,4028193,1.3986508,0.0053146333,-3.8584256,17.453716,0.094774134
847958554,847827518,4028193,1.3962547,0.005311902,-3.9226716,17.47654,0.09782863
848565735,848417889,4028193,1.3926457,0.005307866,-3.911566,17.536114,0.096945
848963852,848849905,4028193,1.3901895,0.0053052446,-4.1286373,17.586788,0.10769224
849561033,849447486,4028193,1.3865329,0.0053012823,-4.116538,17.716873,0.10627587
849969138,849829092,4028193,1.3841282,0.005298645,-4.0531073,17.815464,0.1024558
850566310,850419550,4028193,1.3805493,0.005294739,-4.227884,17.962618,0.11056915
850964606,850851535,4028193,1.3782938,0.0052922117,-3.7291522,18.03451,0.08567879
851571687,851441893,4028193,1.3746822,0.005288365,-4.191723,18.135916,0.10764731
851959935,851823515,4028193,1.3724215,0.005285815,-4.002214,18.238203,0.09758343
852576919,852471522,4028193,1.3690718,0.0052821366,-3.706941,18.470333,0.08266356
852965089,852853175,4028193,1.3670255,0.0052796574,-3.5867102,18.630907,0.076721326
853373148,853227487,4028193,1.3648777,0.0052771852,-3.8587985,18.778196,0.08810647
853960427,853817879,4028193,1.3618348,0.0052735577,-3.5961218,18.927166,0.07591728
854557652,854415604,4028193,1.3588709,0.005269992,-3.6288447,19.103962,0.076589786
854955727,854847533,4028193,1.3569838,0.0052676834,-3.5835154,19.219591,0.07423896
855552928,855445142,4028193,1.3540326,0.0052641905,-3.7262697,19.373491,0.07963394
855752085,855603509,4028193,1.3530056,0.0052629733,-3.7898688,19.426949,0.08214881
856558752,856409882,4028193,1.3490467,0.0052584135,-3.5030913,19.735485,0.06908959
856956299,856841890,4028193,1.3470117,0.0052561983,-3.7792883,19.730015,0.08043594
857553528,857439504,4028193,1.3439225,0.0052527715,-3.8521886,19.432297,0.084849335
857961609,857821091,4028193,1.3417209,0.0052504367,-4.144051,19.283052,0.098953664
858568799,858411511,4028193,1.338394,0.005246912,-3.9598064,19.030859,0.091547616
858986772,858843534,4028193,1.3361056,0.005244575,-4.0361986,18.773056,0.0964201
859564137,859433911,4028193,1.332469,0.005240924,-4.2818413,18.460325,0.11035176
859962449,859815541,4028193,1.3300922,0.005238449,-4.241939,18.297005,0.10927136
860559394,860413087,4028193,1.3266443,0.0052347295,-3.8008564,18.077805,0.08879218
860968063,860845101,4028193,1.32434,0.0052322713,-3.9457574,17.98647,0.09617724
861395485,861277147,4028193,1.322122,0.0052298023,-3.8220115,17.910116,0.09062397
861793580,861651506,4028193,1.3210429,0.0052287797,-3.7019987,17.943457,0.08486409
862579884,862457880,4028193,1.3177611,0.0052252896,-3.8281665,17.853184,0.09120601
862978024,862839625,4028193,1.3155048,0.005222728,-3.8614202,17.660849,0.09380804
863565292,863437338,4028193,1.3122178,0.0052188537,-3.7981176,17.36282,0.092315376
863794216,863653416,4028193,1.3110801,0.0052175676,-3.7604194,17.250444,0.09108142
864570530,864459697,4028193,1.30773,0.005213876,-3.7517586,16.99019,0.0920511
864978683,864834126,4028193,1.3053727,0.005211154,-3.7927046,16.817709,0.09503613
865575870,865431693,4028193,1.3015403,0.005207078,-4.186829,16.560835,0.117610395
865974090,865863790,4028193,1.2989641,0.005204359,-4.04992,16.363935,0.111368574
866581213,866461479,4028193,1.2947953,0.005200168,-4.4479833,16.183525,0.13583468
866979285,866836005,4028193,1.2920389,0.005197323,-4.3817296,16.143984,0.1321411
867566672,867426401,4028193,1.2877146,0.0051930947,-4.500367,16.112492,0.139666
867974537,867858512,4028193,1.2848656,0.0051903278,-4.409446,16.081127,0.13434114
868571736,868456087,4028193,1.2805403,0.005186117,-4.5166664,16.069397,0.14105678
868979820,868837683,4028193,1.2774959,0.005183289,-4.856334,16.049889,0.16326857
869577001,869428111,4028193,1.2728325,0.005179061,-4.845128,16.042097,0.16259487
869955810,869802509,4028193,1.2695637,0.0051762215,-5.168545,16.057678,0.18484654
870572314,870450485,4028193,1.2647302,0.0051721036,-5.109642,16.100697,0.1801747
870980406,870832102,4028193,1.2614309,0.005169308,-5.1235723,16.132132,0.18080544
871587646,871480112,4028193,1.2564386,0.005165216,-5.3021946,16.112463,0.19386834
871975727,871861688,4028193,1.253085,0.005162426,-5.223916,16.108532,0.18823218
872563056,872452126,4028193,1.2480662,0.005158259,-5.226819,16.104605,0.18848743
872980985,872826521,4028193,1.2447629,0.005155456,-5.0969963,16.088923,0.17941517
873578199,873474480,4028193,1.2397808,0.0051513733,-5.100154,16.053755,0.18003106
873966367,873856292,4028193,1.2364064,0.0051485873,-5.1118574,16.034286,0.18107784
874573552,874453922,4028193,1.2313031,0.0051444382,-5.489924,16.007114,0.20920743
874971764,874828328,4028193,1.2279363,0.00514163,-5.1860867,15.976185,0.1870527
875578817,875476308,4028193,1.2229422,0.0051375474,-5.1625757,15.995496,0.18513677
875797779,875692337,4028193,1.2213178,0.005136191,-5.062376,16.010983,0.17784771
876574736,876448299,4028193,1.2165633,0.005132282,-4.992388,16.018734,0.17288046
876972224,876829941,4028193,1.21356,0.0051295073,-4.687177,15.96846,0.15286821
877579434,877477936,4028193,1.2089763,0.0051254244,-4.765288,15.884152,0.15884434
877977488,877852299,4028193,1.2059239,0.0051226183,-4.877473,15.880341,0.16645138
878574702,878442684,4028193,1.201366,0.005118445,-4.804635,15.812117,0.16221398
878962860,878824319,4028193,1.1981885,0.005115646,-4.9118385,15.763247,0.17005914
879570004,879421920,4028193,1.193459,0.0051114717,-4.8997645,15.72961,0.16958597
879968272,879853971,4028193,1.1903293,0.00510874,-4.8336325,15.76324,0.16468698
880565345,880444339,4028193,1.1855593,0.0051045865,-4.8374395,15.83477,0.16420138
880973733,880818742,4028193,1.1823752,0.005101796,-4.8001027,15.823424,0.16179238
881401369,881250778,4028193,1.1791164,0.0050990833,-5.0644674,15.770726,0.18070632
881968708,881848371,4028193,1.175848,0.0050966004,-5.009834,15.763227,0.17691268
882575894,882445995,4028193,1.1710893,0.0050924597,-4.7512307,15.699831,0.15976247
882964022,882820513,4028193,1.1679971,0.005089658,-4.7233663,15.688701,0.15800607
883581110,883468505,4028193,1.1636214,0.0050855847,-4.4533453,15.688696,0.140457
883790159,883684555,4028193,1.1621889,0.0050842282,-4.417901,15.684991,0.13826275
884576478,884440726,4028193,1.1579604,0.0050803176,-4.455226,15.699819,0.14047606
884984547,884872720,4028193,1.1551193,0.005077619,-4.514648,15.725848,0.14400952
885562470,885412768,4028193,1.1509584,0.0050734365,-4.219156,15.733301,0.12571548
885959966,885844810,4028193,1.148289,0.005070749,-4.2737055,15.7258415,0.12904844
886567061,886435095,4028193,1.1441694,0.005066644,-4.159244,15.744492,0.122083694
886955262,886816732,4028193,1.1414167,0.0050639072,-4.385325,15.75945,0.1355876
887562372,887414381,4028193,1.1371018,0.0050598574,-4.4016647,15.8385105,0.13591802
887970466,887846350,4028193,1.1342216,0.0050572185,-4.4799314,15.899341,0.14025587
888567647,888436687,4028193,1.1298342,0.0050532203,-4.737857,16.053656,0.15536295
888975750,888868737,4028193,1.1268941,0.005050641,-4.819141,16.163582,0.1596464
889562999,889459104,4028193,1.1224192,0.005046718,-4.649021,16.239065,0.14788343
889971749,889840753,4028193,1.1195217,0.005044108,-4.6879177,16.271063,0.15007265
890558341,890438336,4028193,1.1149791,0.005040239,-4.9792933,16.295141,0.16905764
890966364,890812725,4028193,1.1116934,0.005037619,-5.3828936,16.251041,0.19811068
891563667,891460717,4028193,1.1068192,0.0050338013,-5.2627735,16.215136,0.18978691
891971624,891835138,4028193,1.1034132,0.0050311824,-5.507405,16.23905,0.20753478
892568816,892432703,4028193,1.0982552,0.0050273277,-5.4636116,16.271048,0.20384574
892976885,892864765,4028193,1.0947692,0.0050248066,-5.72446,16.267035,0.22382994
893574090,893462304,4028193,1.0894786,0.005020954,-5.6083307,16.183346,0.21595158
893812964,893678299,4028193,1.0876298,0.005019688,-5.9541917,16.171463,0.24358684
894569402,894427118,4028193,1.0820768,0.005016035,-6.0421476,16.223082,0.25003844
894977595,894859160,4028193,1.0783165,0.0050135185,-5.9158816,16.219095,0.23975617
895574799,895456710,4028193,1.0728096,0.0050096833,-5.9947467,16.207155,0.2463726
895803590,895672678,4028193,1.0709083,0.005008427,-6.150442,16.207155,0.25933635
896580202,896428735,4028193,1.065095,0.005004826,-6.3109145,16.26301,0.27210787
896788941,896644691,4028193,1.0630934,0.0050035776,-6.501722,16.259007,0.28888187
897575240,897451167,4028193,1.0570726,0.0050000683,-6.5163527,16.331362,0.2888978
897804243,897667148,4028193,1.0550882,0.0049988297,-6.4812293,16.331362,0.28579187
898391432,898264816,4028193,1.0511063,0.004996598,-6.4478803,16.404367,0.28159952
898799934,898696814,4028193,1.0491421,0.004995666,-6.4687743,16.457499,0.2825125
899565901,899452725,4028193,1.0431445,0.004992152,-6.5694575,16.461596,0.29130274
899794807,899668729,4028193,1.041143,0.004990928,-6.588256,16.432928,0.29348335
900571214,900424730,4028193,1.0350267,0.0049874,-6.7779016,16.367775,0.31185907
900959335,900856720,4028193,1.030866,0.004984937,-6.950491,16.303131,0.3292437
901576430,901454301,4028193,1.0245249,0.00498118,-6.770218,16.299103,0.31246334
901974542,901828741,4028193,1.0201133,0.0049786377,-7.0849066,16.291061,0.34235474
902561747,902419071,4028193,1.013652,0.0049748695,-7.0640945,16.295076,0.3402625
902969910,902851170,4028193,1.0092337,0.004972417,-7.2262,16.27901,0.35640964
903557087,903448705,4028193,1.0027148,0.0049686735,-6.970786,16.279007,0.33166
903965203,903830307,4028193,0.99848276,0.004966167,-7.0398283,16.311163,0.33759555
904562351,904420687,4028193,0.99211764,0.004962438,-7.0712366,16.375866,0.33926883
904960538,904852706,4028193,0.9878617,0.004960022,-6.900677,16.424725,0.32213864
905558221,905443142,4028193,0.98162895,0.004956336,-6.7552605,16.486208,0.30755368
905955840,905824770,4028193,0.977497,0.0049538855,-6.8909273,16.539856,0.31899297
906562904,906422297,4028193,0.9713024,0.0049502677,-6.975092,16.635601,0.32495174
906961083,906854319,4028193,0.96720576,0.004947914,-6.867399,16.685974,0.314044
907548291,907444744,4028193,0.9611095,0.004944321,-6.858802,16.753588,0.31199396
907956365,907819091,4028193,0.95706624,0.00494191,-6.820231,16.791843,0.30779195
908573547,908467089,4028193,0.95103866,0.0049384385,-6.9713955,16.86455,0.32020062
908792470,908683131,4028193,0.9490641,0.004937287,-6.7512407,16.886044,0.299914
909558783,909446295,4028193,0.9435043,0.004934039,-6.455596,17.068573,0.2712895
909947305,909820708,4028193,0.9397935,0.0049316967,-6.357501,17.130198,0.26216096
910544181,910411099,4028193,0.9344999,0.0049282513,-6.083441,17.245687,0.23843805
910942262,910792731,4028193,0.93102175,0.0049259695,-6.122141,17.348976,0.2400437
911539465,911390292,4028193,0.926104,0.0049226186,-6.005038,17.531136,0.2285488
911947530,911822339,4028193,0.9228679,0.004920454,-5.7701893,17.660545,0.20947562
912504978,912355094,4028193,0.91829073,0.004917233,-5.7149644,18.534956,0.19579111
913092141,912952733,4028193,0.91378635,0.0049141506,-5.4927835,18.6457,0.17978926
913500304,913384740,4028193,0.9109465,0.004912153,-5.4274273,18.711596,0.17491807
914097520,913982318,4028193,0.9068047,0.0049091303,-5.287912,18.937134,0.16406338
914506120,914356731,4028193,0.9040749,0.0049071005,-5.3351793,19.067009,0.16587195
915112662,915004724,4028193,0.8999043,0.004904204,-5.4350686,19.166548,0.17124726
915500801,915379146,4028193,0.8972073,0.0049022017,-5.2657075,19.213947,0.1603446
916097982,915976693,4028193,0.89328444,0.004899272,-5.090113,19.272102,0.14937685
916506059,916358285,4028193,0.89060724,0.004897309,-5.279146,19.33582,0.1601483
917113231,917006301,4028193,0.88667095,0.0048944894,-5.0091066,19.512533,0.14287768
917501366,917380708,4028193,0.88411295,0.004892545,-5.099263,19.598995,0.14741394
918098573,917971131,4028193,0.8802448,0.0048896894,-5.292377,19.702332,0.15795793
918506715,918403087,4028193,0.8777676,0.004887858,-4.965172,19.81739,0.13822277
919113904,919000708,4028193,0.8740608,0.0048850668,-4.8752375,19.872488,0.13289139
919511932,919382315,4028193,0.8715959,0.0048831855,-5.023545,19.855936,0.14121722
919910042,919756717,4028193,0.8691962,0.00488129,-4.865413,19.900108,0.13217261
920556972,920404959,4028193,0.86560756,0.004878572,-4.846427,19.839396,0.13154441
920965068,920836895,4028193,0.8632947,0.00487675,-4.695144,19.756998,0.123975076
921512493,921376906,4028193,0.85984975,0.0048738527,-4.477739,19.561085,0.11388908
922109684,921974516,4028193,0.85675764,0.0048710085,-4.02099,19.437271,0.09242472
922358659,922240902,4028193,0.85572976,0.0048701386,-4.0856795,19.362429,0.09579135
922756598,922622542,4028193,0.85384655,0.004868198,-3.6948931,19.235035,0.078862086
923552877,923428898,4028193,0.8500298,0.0048643327,-3.6341808,19.087862,0.07687998
923961009,923803292,4028193,0.84813064,0.0048623574,-3.6508336,19.103554,0.077522434
924359081,924235319,4028193,0.84632707,0.0048604687,-3.4883704,19.114023,0.07073764
924767144,924616933,4028193,0.844605,0.0048585148,-3.4672616,19.077404,0.07001828
925563801,925430510,4028193,0.8411872,0.004854671,-3.4548395,19.087852,0.06947941
925951543,925804903,4028193,0.83941483,0.0048527108,-3.5039296,19.161238,0.07119421
926359659,926236970,4028193,0.83765465,0.004850847,-3.4826105,19.256168,0.06998378
926777804,926668968,4028193,0.8358603,0.0048489976,-3.5394783,19.34642,0.071950756
927544141,927424893,4028193,0.8320683,0.0048451843,-3.9605527,19.480192,0.08946967
927952128,927806500,4028193,0.8302165,0.004843303,-3.6572642,19.555649,0.07599726
928370388,928238548,4028193,0.8282299,0.004841497,-4.0700073,19.631498,0.093755
928788185,928670503,4028193,0.8262255,0.004839693,-4.1184654,19.636932,0.095974244
929564652,929419407,4028193,0.8231667,0.004837156,-4.2459135,19.87244,0.10079723
929793556,929693112,4028193,0.82211703,0.004836358,-4.3254466,19.933279,0.10428952
930569815,930449228,4028193,0.81895715,0.004833916,-4.4836884,20.286392,0.11010917
930967907,930830890,4028193,0.8171159,0.0048321113,-3.9112158,20.033354,0.08484522
931366083,931262911,4028193,0.81531334,0.00483036,-3.6908743,19.961008,0.07582869
931784131,931637300,4028193,0.8134644,0.0048285266,-3.7818594,19.98879,0.07950268
932560426,932443747,4028193,0.81007653,0.004824937,-3.3830547,19.866907,0.06400962
932968525,932825320,4028193,0.8083942,0.004823101,-3.418922,19.691355,0.0659569
933376645,933257305,4028193,0.80684316,0.004821304,-2.8252387,19.47479,0.045540206
933774688,933638933,4028193,0.805401,0.004819423,-2.7842078,19.298536,0.044630982
934571684,934445286,4028193,0.80235934,0.0048156776,-3.008887,19.21386,0.05235457
934949233,934819683,4028193,0.800896,0.0048137596,-3.0403504,19.145441,0.05364625
935367180,935251814,4028193,0.7993619,0.0048119207,-3.0118108,19.103502,0.0527594
935785244,935683885,4028193,0.79779637,0.0048100753,-3.047851,19.030422,0.054237112
936571511,936447175,4028193,0.795215,0.0048062364,-2.3424776,18.926697,0.032213178
936959734,936821528,4028193,0.7940179,0.0048042987,-2.2383165,18.942202,0.029388001
937357895,937253709,4028193,0.7928898,0.004802454,-2.1692114,19.009607,0.02750351
937755939,937628284,4028193,0.79176164,0.0048005404,-2.3521557,19.113962,0.03216169
938562164,938441992,4028193,0.7896245,0.004796864,-2.150241,19.341043,0.026561454
938950781,938823504,4028193,0.78853357,0.004795015,-2.203362,19.437197,0.027752083
939358565,939255532,4028193,0.78747296,0.0047932407,-2.086654,19.50166,0.024807716
939776420,939629913,4028193,0.7864088,0.0047913943,-2.1115932,19.588058,0.025292201
940552835,940436341,4028193,0.78421724,0.0047878246,-2.4106188,19.789816,0.032626674
940960822,940817944,4028193,0.78313506,0.0047860374,-2.3127477,19.877909,0.029898081
941359025,941249905,4028193,0.7819883,0.004784326,-2.480963,19.966516,0.034252774
941757098,941631479,4028193,0.7808166,0.004782562,-2.4316435,20.044466,0.032776516
942553319,942437889,4028193,0.7786354,0.0047791004,-2.3001564,20.128418,0.02920536
942951532,942812295,4028193,0.7775724,0.004777333,-2.1132307,20.122803,0.024658283
943359810,943244281,4028193,0.77653635,0.004775643,-2.0716977,20.044458,0.023791177
943777645,943676325,4028193,0.7754905,0.0047739507,-2.225223,20.011002,0.027493864
944563968,944439501,4028193,0.7734339,0.004770428,-2.3297498,19.927673,0.030263523
944962041,944813891,4028193,0.772364,0.004768642,-2.1589603,19.877892,0.026054125
945559501,945404303,4028193,0.77083343,0.004766,-2.2686486,19.822767,0.028848795
945967271,945836302,4028193,0.76978606,0.004764283,-2.1725364,19.691296,0.02663283
946365371,946217915,4028193,0.7687086,0.0047624805,-2.2271955,19.46936,0.028308867
946773531,946649927,4028193,0.7675308,0.004760715,-2.3924882,19.240213,0.033055764
947569812,947463496,4028193,0.7650861,0.004757063,-2.5379486,18.92665,0.03781372
948196757,948053914,4028193,0.7637893,0.0047554495,-2.5959291,18.741966,0.03995103
948783972,948644318,4028193,0.7625046,0.0047538094,-2.554873,18.52978,0.039140455
949162170,949025975,4028193,0.7612953,0.00475188,-2.2154217,18.415077,0.029613977
949560416,949457893,4028193,0.7601157,0.0047500045,-2.3748145,18.330976,0.03418466
950168111,950055505,4028193,0.7589112,0.0047483537,-2.1490684,18.311272,0.0280246
950555685,950429889,4028193,0.7577616,0.004746385,-2.2506273,18.227884,0.030876523
950973656,950861881,4028193,0.75668937,0.0047444906,-2.0025334,18.149931,0.024549466
951401656,951293940,4028193,0.75560874,0.004742584,-1.9640021,18.029154,0.023772018
951968968,951833971,4028193,0.7545712,0.004740816,-1.8888788,17.95251,0.022082105
952377626,952265910,4028193,0.7535459,0.0047388785,-1.9048266,17.78194,0.02267197
952974260,952863509,4028193,0.75220615,0.0047358777,-1.6363603,17.563154,0.016939977
953561491,953453899,4028193,0.7511137,0.004732805,-1.3971229,17.312737,0.012527401
954367733,954260374,4028193,0.7497806,0.004728681,-1.2258322,17.112347,0.009756858
955173902,955023482,4028193,0.7486366,0.0047244662,-0.8995554,16.92897,0.005311079
956159258,956045885,4028193,0.74753,0.004719219,-0.67924273,16.77885,0.0030552396
957373535,957233921,4028193,0.74640965,0.004712832,-0.60266346,16.647932,0.00242408
958776948,958637881,4028193,0.7454044,0.004706798,-0.3516134,16.907356,0.00081247994
960160452,960041908,4028193,0.7442575,0.0046995785,-0.6782188,16.959263,0.0030136316
961394642,961287709,4028193,0.7431172,0.0046934523,-0.60032696,16.907343,0.002368415
962768165,962634144,4028193,0.7420515,0.0046887766,-0.5917501,16.8901,0.0023035726
964380535,964254136,4028193,0.7409871,0.0046818187,-0.4794007,16.753325,0.0015242415
966142312,966039924,4028193,0.7399127,0.004672376,-0.4847628,16.502396,0.001582228
967565521,967436913,4028193,0.7387623,0.004664973,-0.57819676,16.347195,0.0022722993
969377003,969222547,4028193,0.7377144,0.0046553495,-0.21809745,16.163185,0.00032698794
976792522,976674682,4028193,0.73885316,0.004619993,0.8238867,15.967951,0.004723275
978185524,978078759,4028193,0.74007535,0.004615221,0.8504804,15.983378,0.005028257
979170854,979050762,4028193,0.7412471,0.0046111997,1.1144425,15.967942,0.00864219
979927353,979806888,4028193,0.74228823,0.00460823,1.1910803,15.998835,0.009852609
980514523,980397392,4028193,0.74343354,0.0046050353,1.4692557,15.933331,0.0150537845
981121714,980995085,4028193,0.74447733,0.004601848,1.2087679,15.872208,0.010228359
981728802,981592754,4028193,0.74568456,0.0045986455,1.595181,15.785241,0.017911263
