timestamp,timestamp_sample,gps_hvel[0],gps_hvel[1],gps_vvel,gps_hpos[0],gps_hpos[1],gps_vpos,ev_hvel[0],ev_hvel[1],ev_vvel,ev_hpos[0],ev_hpos[1],ev_vpos,rng_vpos,baro_vpos,aux_hvel[0],aux_hvel[1],aux_vvel,flow[0],flow[1],heading,mag_field[0],mag_field[1],mag_field[2],drag[0],drag[1],airspeed,beta,hagl,hagl_rate
539708809,539608149,0.34379154,0.3437894,0.73984385,4.130856,4.130854,0.0,0.0,0.0,0.0,0.0,0.0,0.0,0.0,12.465168,0.0,0.0,nan,0.0,0.0,0.09040768,0.0,0.0,0.0,0.0,0.0,0.0,0.0,0.0,0.0
540208469,540108091,0.14682506,0.14682306,0.29694355,4.072612,4.0726104,0.0,0.0,0.0,0.0,0.0,0.0,0.0,0.0,12.461255,0.0,0.0,nan,0.0,0.0,0.090406336,0.0,0.0,0.0,0.0,0.0,0.0,0.0,0.0,0.0
540718422,540618032,0.15183796,0.1518366,0.31672448,3.961825,3.9618244,0.0,0.0,0.0,0.0,0.0,0.0,0.0,0.0,12.451952,0.0,0.0,nan,0.0,0.0,0.09040502,0.0,0.0,0.0,0.0,0.0,0.0,0.0,0.0,0.0
541208348,541107976,0.2048868,0.20488547,0.43862638,3.8914328,3.8914325,0.0,0.0,0.0,0.0,0.0,0.0,0.0,0.0,12.451339,0.0,0.0,nan,0.0,0.0,0.09040381,0.0,0.0,0.0,0.0,0.0,0.0,0.0,0.0,0.0
541708314,541607919,0.1822404,0.18223906,0.38744003,3.8429947,3.8429945,0.0,0.0,0.0,0.0,0.0,0.0,0.0,0.0,12.451532,0.0,0.0,nan,0.0,0.0,0.09040256,0.0,0.0,0.0,0.0,0.0,0.0,0.0,0.0,0.0
542208182,542107861,0.2952619,0.2952604,0.6398972,3.806712,3.8067114,0.0,0.0,0.0,0.0,0.0,0.0,0.0,0.0,12.452591,0.0,0.0,nan,0.0,0.0,0.09040142,0.0,0.0,0.0,0.0,0.0,0.0,0.0,0.0,0.0
542708433,542607804,0.17724222,0.1772404,0.37182885,3.7794316,3.779431,0.0,0.0,0.0,0.0,0.0,0.0,0.0,0.0,12.455046,0.0,0.0,nan,0.0,0.0,0.09040021,0.0,0.0,0.0,0.0,0.0,0.0,0.0,0.0,0.0
543208082,543107746,0.23646203,0.2364602,0.50592315,3.7638597,3.7638593,0.0,0.0,0.0,0.0,0.0,0.0,0.0,0.0,12.452314,0.0,0.0,nan,0.0,0.0,0.09039904,0.0,0.0,0.0,0.0,0.0,0.0,0.0,0.0,0.0
543708293,543607689,0.16921929,0.16921738,0.35404825,3.7346704,3.73467,0.0,0.0,0.0,0.0,0.0,0.0,0.0,0.0,12.455195,0.0,0.0,nan,0.0,0.0,0.09039816,0.0,0.0,0.0,0.0,0.0,0.0,0.0,0.0,0.0
544217960,544117631,0.2419722,0.24197045,0.5186377,3.7007477,3.7007473,0.0,0.0,0.0,0.0,0.0,0.0,0.0,0.0,12.452062,0.0,0.0,nan,0.0,0.0,0.09039703,0.0,0.0,0.0,0.0,0.0,0.0,0.0,0.0,0.0
544708324,544607575,0.2815679,0.28156626,0.607452,3.6894197,3.689419,0.0,0.0,0.0,0.0,0.0,0.0,0.0,0.0,12.453751,0.0,0.0,nan,0.0,0.0,0.09039572,0.0,0.0,0.0,0.0,0.0,0.0,0.0,0.0,0.0
545207970,545107517,0.2725825,0.27258074,0.58488375,3.7339056,3.7339046,0.0,0.0,0.0,0.0,0.0,0.0,0.0,0.0,12.455898,0.0,0.0,nan,0.0,0.0,0.09039492,0.0,0.0,0.0,0.0,0.0,0.0,0.0,0.0,0.0
545707797,545607460,0.3330708,0.33306924,0.72126436,3.7687137,3.7687128,0.0,0.0,0.0,0.0,0.0,0.0,0.0,0.0,12.457622,0.0,0.0,nan,0.0,0.0,0.09039388,0.0,0.0,0.0,0.0,0.0,0.0,0.0,0.0,0.0
546207780,546107403,0.23510543,0.23510371,0.4984166,3.8136244,3.8136234,0.0,0.0,0.0,0.0,0.0,0.0,0.0,0.0,12.458046,0.0,0.0,nan,0.0,0.0,0.090392895,0.0,0.0,0.0,0.0,0.0,0.0,0.0,0.0,0.0
546707713,546607346,0.31923136,0.31922975,0.6869206,3.8370388,3.8370376,0.0,0.0,0.0,0.0,0.0,0.0,0.0,0.0,12.46204,0.0,0.0,nan,0.0,0.0,0.0903919,0.0,0.0,0.0,0.0,0.0,0.0,0.0,0.0,0.0
547217600,547117288,0.3339253,0.33392373,0.7193818,3.8743734,3.874372,0.0,0.0,0.0,0.0,0.0,0.0,0.0,0.0,12.463087,0.0,0.0,nan,0.0,0.0,0.09039091,0.0,0.0,0.0,0.0,0.0,0.0,0.0,0.0,0.0
547717843,547617230,0.31678453,0.31678295,0.67991805,3.9090364,3.9090352,0.0,0.0,0.0,0.0,0.0,0.0,0.0,0.0,12.465034,0.0,0.0,nan,0.0,0.0,0.09039001,0.0,0.0,0.0,0.0,0.0,0.0,0.0,0.0,0.0
548207522,548107175,0.26744676,0.26744527,0.5699762,3.9421453,3.9421444,0.0,0.0,0.0,0.0,0.0,0.0,0.0,0.0,12.463583,0.0,0.0,nan,0.0,0.0,0.09038906,0.0,0.0,0.0,0.0,0.0,0.0,0.0,0.0,0.0
548707791,548607118,0.32328188,0.32328036,0.69474083,4.0168905,4.0168896,0.0,0.0,0.0,0.0,0.0,0.0,0.0,0.0,12.46701,0.0,0.0,nan,0.0,0.0,0.09038838,0.0,0.0,0.0,0.0,0.0,0.0,0.0,0.0,0.0
549207442,549107061,0.30965698,0.30965537,0.66304314,4.047324,4.0473228,0.0,0.0,0.0,0.0,0.0,0.0,0.0,0.0,12.467937,0.0,0.0,nan,0.0,0.0,0.09038749,0.0,0.0,0.0,0.0,0.0,0.0,0.0,0.0,0.0
549707364,549607004,0.22369882,0.22369726,0.47023535,4.0181026,4.0181017,0.0,0.0,0.0,0.0,0.0,0.0,0.0,0.0,12.468622,0.0,0.0,nan,0.0,0.0,0.09038641,0.0,0.0,0.0,0.0,0.0,0.0,0.0,0.0,0.0
550207276,550106947,0.22115415,0.22115277,0.46775138,3.9819856,3.9819849,0.0,0.0,0.0,0.0,0.0,0.0,0.0,0.0,12.4636545,0.0,0.0,nan,0.0,0.0,0.09038579,0.0,0.0,0.0,0.0,0.0,0.0,0.0,0.0,0.0
550717438,550616889,0.16216247,0.16216105,0.335841,3.9163682,3.9163678,0.0,0.0,0.0,0.0,0.0,0.0,0.0,0.0,12.459982,0.0,0.0,nan,0.0,0.0,0.09038496,0.0,0.0,0.0,0.0,0.0,0.0,0.0,0.0,0.0
551217207,551116833,0.26045015,0.2604489,0.56006926,3.8635182,3.8635175,0.0,0.0,0.0,0.0,0.0,0.0,0.0,0.0,12.459901,0.0,0.0,nan,0.0,0.0,0.09038414,0.0,0.0,0.0,0.0,0.0,0.0,0.0,0.0,0.0
551707106,551606777,0.19417433,0.19417301,0.41050076,3.8342392,3.834239,0.0,0.0,0.0,0.0,0.0,0.0,0.0,0.0,12.45969,0.0,0.0,nan,0.0,0.0,0.090383366,0.0,0.0,0.0,0.0,0.0,0.0,0.0,0.0,0.0
552207053,552106721,0.24871255,0.24871115,0.53376806,3.8140833,3.8140829,0.0,0.0,0.0,0.0,0.0,0.0,0.0,0.0,12.456478,0.0,0.0,nan,0.0,0.0,0.09038258,0.0,0.0,0.0,0.0,0.0,0.0,0.0,0.0,0.0
552707321,552606664,0.14796208,0.1479606,0.3069558,3.752139,3.7521386,0.0,0.0,0.0,0.0,0.0,0.0,0.0,0.0,12.457232,0.0,0.0,nan,0.0,0.0,0.09038185,0.0,0.0,0.0,0.0,0.0,0.0,0.0,0.0,0.0
553206916,553106607,0.19934808,0.19934675,0.42504525,3.699599,3.6995986,0.0,0.0,0.0,0.0,0.0,0.0,0.0,0.0,12.451826,0.0,0.0,nan,0.0,0.0,0.09038111,0.0,0.0,0.0,0.0,0.0,0.0,0.0,0.0,0.0
553716867,553616550,0.27812612,0.27812487,0.604212,3.6163545,3.6163542,0.0,0.0,0.0,0.0,0.0,0.0,0.0,0.0,12.449724,0.0,0.0,nan,0.0,0.0,0.09038038,0.0,0.0,0.0,0.0,0.0,0.0,0.0,0.0,0.0
554216830,554116493,0.17420323,0.17420177,0.3692213,3.5768855,3.5768852,0.0,0.0,0.0,0.0,0.0,0.0,0.0,0.0,12.448068,0.0,0.0,nan,0.0,0.0,0.090379894,0.0,0.0,0.0,0.0,0.0,0.0,0.0,0.0,0.0
554716888,554616437,0.18858653,0.18858495,0.40044665,3.5397563,3.539756,0.0,0.0,0.0,0.0,0.0,0.0,0.0,0.0,12.447301,0.0,0.0,nan,0.0,0.0,0.090379,0.0,0.0,0.0,0.0,0.0,0.0,0.0,0.0,0.0
555206813,555106382,0.19049843,0.19049686,0.4042034,3.4915285,3.4915283,0.0,0.0,0.0,0.0,0.0,0.0,0.0,0.0,12.448331,0.0,0.0,nan,0.0,0.0,0.09037856,0.0,0.0,0.0,0.0,0.0,0.0,0.0,0.0,0.0
555706666,555606326,0.1968473,0.19684589,0.41925997,3.4529738,3.4529734,0.0,0.0,0.0,0.0,0.0,0.0,0.0,0.0,12.449033,0.0,0.0,nan,0.0,0.0,0.090377904,0.0,0.0,0.0,0.0,0.0,0.0,0.0,0.0,0.0
556206632,556106270,0.27556553,0.27556425,0.59741807,3.396656,3.3966556,0.0,0.0,0.0,0.0,0.0,0.0,0.0,0.0,12.445903,0.0,0.0,nan,0.0,0.0,0.09037727,0.0,0.0,0.0,0.0,0.0,0.0,0.0,0.0,0.0
556716805,556616212,0.20261432,0.202613,0.4325938,3.3872206,3.3872201,0.0,0.0,0.0,0.0,0.0,0.0,0.0,0.0,12.447147,0.0,0.0,nan,0.0,0.0,0.090376645,0.0,0.0,0.0,0.0,0.0,0.0,0.0,0.0,0.0
557216470,557116156,0.38605353,0.38605207,0.8439553,3.4086845,3.4086838,0.0,0.0,0.0,0.0,0.0,0.0,0.0,0.0,12.448727,0.0,0.0,nan,0.0,0.0,0.09037605,0.0,0.0,0.0,0.0,0.0,0.0,0.0,0.0,0.0
557716460,557616100,0.23475629,0.23475473,0.50181514,3.430802,3.4308016,0.0,0.0,0.0,0.0,0.0,0.0,0.0,0.0,12.451749,0.0,0.0,nan,0.0,0.0,0.090375446,0.0,0.0,0.0,0.0,0.0,0.0,0.0,0.0,0.0
558216455,558116043,0.21525781,0.21525598,0.45540047,3.4387527,3.4387517,0.0,0.0,0.0,0.0,0.0,0.0,0.0,0.0,12.452877,0.0,0.0,nan,0.0,0.0,0.09037489,0.0,0.0,0.0,0.0,0.0,0.0,0.0,0.0,0.0
558706395,558605988,0.22461276,0.22461097,0.4773882,3.4129834,3.4129827,0.0,0.0,0.0,0.0,0.0,0.0,0.0,0.0,12.454821,0.0,0.0,nan,0.0,0.0,0.09037433,0.0,0.0,0.0,0.0,0.0,0.0,0.0,0.0,0.0
559206295,559105933,0.20769563,0.20769374,0.43950197,3.3982852,3.3982842,0.0,0.0,0.0,0.0,0.0,0.0,0.0,0.0,12.45385,0.0,0.0,nan,0.0,0.0,0.09037397,0.0,0.0,0.0,0.0,0.0,0.0,0.0,0.0,0.0
559706296,559605877,0.24734008,0.24733825,0.529722,3.394603,3.3946023,0.0,0.0,0.0,0.0,0.0,0.0,0.0,0.0,12.455142,0.0,0.0,nan,0.0,0.0,0.090373434,0.0,0.0,0.0,0.0,0.0,0.0,0.0,0.0,0.0
560216200,560115821,0.29333892,0.2933371,0.63343877,3.409995,3.4099941,0.0,0.0,0.0,0.0,0.0,0.0,0.0,0.0,12.455082,0.0,0.0,nan,0.0,0.0,0.090372734,0.0,0.0,0.0,0.0,0.0,0.0,0.0,0.0,0.0
560716107,560615764,0.25360492,0.25360295,0.5429269,3.437042,3.437041,0.0,0.0,0.0,0.0,0.0,0.0,0.0,0.0,12.454789,0.0,0.0,nan,0.0,0.0,0.09037241,0.0,0.0,0.0,0.0,0.0,0.0,0.0,0.0,0.0
561216122,561115708,0.2635379,0.2635359,0.5649054,3.4564335,3.4564323,0.0,0.0,0.0,0.0,0.0,0.0,0.0,0.0,12.457536,0.0,0.0,nan,0.0,0.0,0.090371914,0.0,0.0,0.0,0.0,0.0,0.0,0.0,0.0,0.0
561715959,561615652,0.19811688,0.19811474,0.41670403,3.464728,3.4647272,0.0,0.0,0.0,0.0,0.0,0.0,0.0,0.0,12.46002,0.0,0.0,nan,0.0,0.0,0.09037144,0.0,0.0,0.0,0.0,0.0,0.0,0.0,0.0,0.0
562205910,562105598,0.16277713,0.16277522,0.33900127,3.4647968,3.464796,0.0,0.0,0.0,0.0,0.0,0.0,0.0,0.0,12.455266,0.0,0.0,nan,0.0,0.0,0.090370975,0.0,0.0,0.0,0.0,0.0,0.0,0.0,0.0,0.0
562706289,562605542,0.2136902,0.21368837,0.45339873,3.5074134,3.5074124,0.0,0.0,0.0,0.0,0.0,0.0,0.0,0.0,12.455754,0.0,0.0,nan,0.0,0.0,0.09037053,0.0,0.0,0.0,0.0,0.0,0.0,0.0,0.0,0.0
563215825,563115485,0.25537273,0.25537086,0.54715693,3.5050416,3.5050406,0.0,0.0,0.0,0.0,0.0,0.0,0.0,0.0,12.45745,0.0,0.0,nan,0.0,0.0,0.09037007,0.0,0.0,0.0,0.0,0.0,0.0,0.0,0.0,0.0
563716032,563615430,0.3510161,0.3510143,0.76225364,3.5000873,3.5000865,0.0,0.0,0.0,0.0,0.0,0.0,0.0,0.0,12.459077,0.0,0.0,nan,0.0,0.0,0.090369634,0.0,0.0,0.0,0.0,0.0,0.0,0.0,0.0,0.0
564216074,564115374,0.19925785,0.199256,0.4202417,3.5128474,3.5128467,0.0,0.0,0.0,0.0,0.0,0.0,0.0,0.0,12.457977,0.0,0.0,nan,0.0,0.0,0.090369225,0.0,0.0,0.0,0.0,0.0,0.0,0.0,0.0,0.0
564715994,564615318,0.34807062,0.34806874,0.7545752,3.5575862,3.5575855,0.0,0.0,0.0,0.0,0.0,0.0,0.0,0.0,12.4604225,0.0,0.0,nan,0.0,0.0,0.090368986,0.0,0.0,0.0,0.0,0.0,0.0,0.0,0.0,0.0
565215586,565115263,0.34886476,0.34886286,0.7548742,3.6053288,3.605328,0.0,0.0,0.0,0.0,0.0,0.0,0.0,0.0,12.461779,0.0,0.0,nan,0.0,0.0,0.09036839,0.0,0.0,0.0,0.0,0.0,0.0,0.0,0.0,0.0
565705594,565605208,0.27830186,0.27829993,0.5947676,3.652223,3.6522222,0.0,0.0,0.0,0.0,0.0,0.0,0.0,0.0,12.464738,0.0,0.0,nan,0.0,0.0,0.0903682,0.0,0.0,0.0,0.0,0.0,0.0,0.0,0.0,0.0
566207995,566105153,0.17358106,0.1735792,0.3601395,3.6975462,3.6975455,0.0,0.0,0.0,0.0,0.0,0.0,0.0,0.0,12.459548,0.0,0.0,nan,0.0,0.0,0.090367824,0.0,0.0,0.0,0.0,0.0,0.0,0.0,0.0,0.0
566715740,566615096,0.33396417,0.33396244,0.72164357,3.7619581,3.7619572,0.0,0.0,0.0,0.0,0.0,0.0,0.0,0.0,12.463317,0.0,0.0,nan,0.0,0.0,0.09036745,0.0,0.0,0.0,0.0,0.0,0.0,0.0,0.0,0.0
567215352,567115041,0.2758797,0.2758781,0.5900317,3.8165781,3.8165772,0.0,0.0,0.0,0.0,0.0,0.0,0.0,0.0,12.463403,0.0,0.0,nan,0.0,0.0,0.09036708,0.0,0.0,0.0,0.0,0.0,0.0,0.0,0.0,0.0
567715770,567614985,0.39369678,0.39369512,0.8536903,3.9039729,3.903972,0.0,0.0,0.0,0.0,0.0,0.0,0.0,0.0,12.46664,0.0,0.0,nan,0.0,0.0,0.09036675,0.0,0.0,0.0,0.0,0.0,0.0,0.0,0.0,0.0
568215294,568114930,0.2624088,0.26240715,0.55693066,3.9712756,3.9712744,0.0,0.0,0.0,0.0,0.0,0.0,0.0,0.0,12.467476,0.0,0.0,nan,0.0,0.0,0.090366386,0.0,0.0,0.0,0.0,0.0,0.0,0.0,0.0,0.0
568715381,568614875,0.39966804,0.39966652,0.86506766,4.0917196,4.091718,0.0,0.0,0.0,0.0,0.0,0.0,0.0,0.0,12.468485,0.0,0.0,nan,0.0,0.0,0.09036607,0.0,0.0,0.0,0.0,0.0,0.0,0.0,0.0,0.0
569215200,569114819,0.260702,0.26070035,0.5505893,4.1418414,4.14184,0.0,0.0,0.0,0.0,0.0,0.0,0.0,0.0,12.470101,0.0,0.0,nan,0.0,0.0,0.09036576,0.0,0.0,0.0,0.0,0.0,0.0,0.0,0.0,0.0
569710412,569604765,0.23435631,0.23435453,0.49106935,4.216669,4.2166677,0.0,0.0,0.0,0.0,0.0,0.0,0.0,0.0,12.472623,0.0,0.0,nan,0.0,0.0,0.09036561,0.0,0.0,0.0,0.0,0.0,0.0,0.0,0.0,0.0
570215097,570114709,0.4561076,0.4561058,0.99101144,4.2823906,4.282389,0.0,0.0,0.0,0.0,0.0,0.0,0.0,0.0,12.473098,0.0,0.0,nan,0.0,0.0,0.090365134,0.0,0.0,0.0,0.0,0.0,0.0,0.0,0.0,0.0
570715349,570614653,0.6616441,0.66164196,1.4500661,4.4285326,4.4285307,0.0,0.0,0.0,0.0,0.0,0.0,0.0,0.0,12.476475,0.0,0.0,nan,0.0,0.0,0.09036485,0.0,0.0,0.0,0.0,0.0,0.0,0.0,0.0,0.0
571214919,571114598,0.42561412,0.42561156,0.91633564,4.5172205,4.5172186,0.0,0.0,0.0,0.0,0.0,0.0,0.0,0.0,12.4777565,0.0,0.0,nan,0.0,0.0,0.09036473,0.0,0.0,0.0,0.0,0.0,0.0,0.0,0.0,0.0
571715171,571614542,0.4371804,0.4371774,0.9395624,4.6030583,4.603056,0.0,0.0,0.0,0.0,0.0,0.0,0.0,0.0,12.48225,0.0,0.0,nan,0.0,0.0,0.090364456,0.0,0.0,0.0,0.0,0.0,0.0,0.0,0.0,0.0
572214816,572114487,0.35270467,0.35270151,0.74893796,4.6728854,4.6728835,0.0,0.0,0.0,0.0,0.0,0.0,0.0,0.0,12.482555,0.0,0.0,nan,0.0,0.0,0.09036416,0.0,0.0,0.0,0.0,0.0,0.0,0.0,0.0,0.0
572715031,572614432,0.28545046,0.28544736,0.5985142,4.7544584,4.7544565,0.0,0.0,0.0,0.0,0.0,0.0,0.0,0.0,12.485055,0.0,0.0,nan,0.0,0.0,0.09036392,0.0,0.0,0.0,0.0,0.0,0.0,0.0,0.0,0.0
573214937,573114376,0.51963234,0.51962936,1.1266396,4.8028665,4.8028646,0.0,0.0,0.0,0.0,0.0,0.0,0.0,0.0,12.484308,0.0,0.0,nan,0.0,0.0,0.09036368,0.0,0.0,0.0,0.0,0.0,0.0,0.0,0.0,0.0
573714652,573614321,0.3112977,0.31129518,0.6613493,4.7769356,4.776934,0.0,0.0,0.0,0.0,0.0,0.0,0.0,0.0,12.482157,0.0,0.0,nan,0.0,0.0,0.090363406,0.0,0.0,0.0,0.0,0.0,0.0,0.0,0.0,0.0
574214583,574114265,0.31150708,0.31150454,0.6613975,4.737341,4.7373395,0.0,0.0,0.0,0.0,0.0,0.0,0.0,0.0,12.480442,0.0,0.0,nan,0.0,0.0,0.090363175,0.0,0.0,0.0,0.0,0.0,0.0,0.0,0.0,0.0
574714517,574614210,0.33786765,0.3378654,0.7226839,4.720879,4.7208776,0.0,0.0,0.0,0.0,0.0,0.0,0.0,0.0,12.481082,0.0,0.0,nan,0.0,0.0,0.090363085,0.0,0.0,0.0,0.0,0.0,0.0,0.0,0.0,0.0
575214463,575114155,0.29240066,0.2923989,0.62080383,4.702018,4.7020164,0.0,0.0,0.0,0.0,0.0,0.0,0.0,0.0,12.478459,0.0,0.0,nan,0.0,0.0,0.09036267,0.0,0.0,0.0,0.0,0.0,0.0,0.0,0.0,0.0
575714918,575614099,0.3305671,0.3305665,0.70975107,4.6840096,4.6840086,0.0,0.0,0.0,0.0,0.0,0.0,0.0,0.0,12.473556,0.0,0.0,nan,0.0,0.0,0.09036243,0.0,0.0,0.0,0.0,0.0,0.0,0.0,0.0,0.0
576214354,576114044,0.35678247,0.3567827,0.76826173,4.696372,4.696371,0.0,0.0,0.0,0.0,0.0,0.0,0.0,0.0,12.475147,0.0,0.0,nan,0.0,0.0,0.09036235,0.0,0.0,0.0,0.0,0.0,0.0,0.0,0.0,0.0
576714596,576613991,0.41922057,0.41922212,0.9069721,4.7423944,4.7423935,0.0,0.0,0.0,0.0,0.0,0.0,0.0,0.0,12.477129,0.0,0.0,nan,0.0,0.0,0.090362124,0.0,0.0,0.0,0.0,0.0,0.0,0.0,0.0,0.0
577214295,577113933,0.33914188,0.33914432,0.72514844,4.80798,4.8079796,0.0,0.0,0.0,0.0,0.0,0.0,0.0,0.0,12.4759445,0.0,0.0,nan,0.0,0.0,0.09036188,0.0,0.0,0.0,0.0,0.0,0.0,0.0,0.0,0.0
577714774,577613878,0.45963782,0.45964152,0.9943787,4.878395,4.878395,0.0,0.0,0.0,0.0,0.0,0.0,0.0,0.0,12.477143,0.0,0.0,nan,0.0,0.0,0.090361685,0.0,0.0,0.0,0.0,0.0,0.0,0.0,0.0,0.0
578214146,578113822,0.43388075,0.43388525,0.9359233,4.9230404,4.923041,0.0,0.0,0.0,0.0,0.0,0.0,0.0,0.0,12.47903,0.0,0.0,nan,0.0,0.0,0.0903615,0.0,0.0,0.0,0.0,0.0,0.0,0.0,0.0,0.0
578714116,578613767,0.32654762,0.32655305,0.69303185,4.981079,4.98108,0.0,0.0,0.0,0.0,0.0,0.0,0.0,0.0,12.480597,0.0,0.0,nan,0.0,0.0,0.09036127,0.0,0.0,0.0,0.0,0.0,0.0,0.0,0.0,0.0
579214059,579113711,0.24712858,0.24713415,0.5144559,5.00559,5.0055914,0.0,0.0,0.0,0.0,0.0,0.0,0.0,0.0,12.478037,0.0,0.0,nan,0.0,0.0,0.09036108,0.0,0.0,0.0,0.0,0.0,0.0,0.0,0.0,0.0
579714353,579613656,0.4514802,0.45148537,0.97399765,5.1590495,5.1590524,0.0,0.0,0.0,0.0,0.0,0.0,0.0,0.0,12.479404,0.0,0.0,nan,0.0,0.0,0.09036092,0.0,0.0,0.0,0.0,0.0,0.0,0.0,0.0,0.0
580213910,580113600,0.5788118,0.5788163,1.2595797,5.2704363,5.2704406,0.0,0.0,0.0,0.0,0.0,0.0,0.0,0.0,12.482574,0.0,0.0,nan,0.0,0.0,0.0903607,0.0,0.0,0.0,0.0,0.0,0.0,0.0,0.0,0.0
580714214,580613545,0.2922121,0.292216,0.6122091,5.422893,5.4228973,0.0,0.0,0.0,0.0,0.0,0.0,0.0,0.0,12.484313,0.0,0.0,nan,0.0,0.0,0.09036054,0.0,0.0,0.0,0.0,0.0,0.0,0.0,0.0,0.0
581213825,581113489,0.52593774,0.52594,1.1392374,5.5154505,5.5154557,0.0,0.0,0.0,0.0,0.0,0.0,0.0,0.0,12.483505,0.0,0.0,nan,0.0,0.0,0.09036051,0.0,0.0,0.0,0.0,0.0,0.0,0.0,0.0,0.0
581714090,581613433,0.2933333,0.2933343,0.61251557,5.575772,5.575777,0.0,0.0,0.0,0.0,0.0,0.0,0.0,0.0,12.483516,0.0,0.0,nan,0.0,0.0,0.09036035,0.0,0.0,0.0,0.0,0.0,0.0,0.0,0.0,0.0
582214028,582113378,0.29167512,0.2916744,0.6121094,5.590332,5.5903363,0.0,0.0,0.0,0.0,0.0,0.0,0.0,0.0,12.482364,0.0,0.0,nan,0.0,0.0,0.0903602,0.0,0.0,0.0,0.0,0.0,0.0,0.0,0.0,0.0
582713722,582613322,0.46551785,0.46551538,1.0063652,5.677899,5.6779027,0.0,0.0,0.0,0.0,0.0,0.0,0.0,0.0,12.482782,0.0,0.0,nan,0.0,0.0,0.09036,0.0,0.0,0.0,0.0,0.0,0.0,0.0,0.0,0.0
583213576,583113267,0.36805746,0.36805332,0.7850079,5.682275,5.6822786,0.0,0.0,0.0,0.0,0.0,0.0,0.0,0.0,12.482786,0.0,0.0,nan,0.0,0.0,0.090359844,0.0,0.0,0.0,0.0,0.0,0.0,0.0,0.0,0.0
583713920,583613210,0.29995704,0.29995075,0.63277966,5.637734,5.637737,0.0,0.0,0.0,0.0,0.0,0.0,0.0,0.0,12.483083,0.0,0.0,nan,0.0,0.0,0.09035965,0.0,0.0,0.0,0.0,0.0,0.0,0.0,0.0,0.0
584213505,584113154,0.44453898,0.444531,0.9591696,5.6350007,5.6350036,0.0,0.0,0.0,0.0,0.0,0.0,0.0,0.0,12.481398,0.0,0.0,nan,0.0,0.0,0.0903595,0.0,0.0,0.0,0.0,0.0,0.0,0.0,0.0,0.0
584713723,584613099,0.48778617,0.48777843,1.0603507,5.6185455,5.618548,0.0,0.0,0.0,0.0,0.0,0.0,0.0,0.0,12.479125,0.0,0.0,nan,0.0,0.0,0.09035935,0.0,0.0,0.0,0.0,0.0,0.0,0.0,0.0,0.0
585213354,585113043,0.52326816,0.5232598,1.1385945,5.612608,5.6126094,0.0,0.0,0.0,0.0,0.0,0.0,0.0,0.0,12.479689,0.0,0.0,nan,0.0,0.0,0.090359345,0.0,0.0,0.0,0.0,0.0,0.0,0.0,0.0,0.0
585713679,585612987,0.5589614,0.5589509,1.2163912,5.576069,5.5760684,0.0,0.0,0.0,0.0,0.0,0.0,0.0,0.0,12.480476,0.0,0.0,nan,0.0,0.0,0.09035904,0.0,0.0,0.0,0.0,0.0,0.0,0.0,0.0,0.0
586213313,586112931,0.51263654,0.5126247,1.1104529,5.5874624,5.5874605,0.0,0.0,0.0,0.0,0.0,0.0,0.0,0.0,12.482209,0.0,0.0,nan,0.0,0.0,0.09035892,0.0,0.0,0.0,0.0,0.0,0.0,0.0,0.0,0.0
586713380,586612874,0.29968345,0.29967138,0.630563,5.5756702,5.575668,0.0,0.0,0.0,0.0,0.0,0.0,0.0,0.0,12.483703,0.0,0.0,nan,0.0,0.0,0.09035893,0.0,0.0,0.0,0.0,0.0,0.0,0.0,0.0,0.0
587213158,587112818,0.48939002,0.48937878,1.0579087,5.6115294,5.611525,0.0,0.0,0.0,0.0,0.0,0.0,0.0,0.0,12.4819,0.0,0.0,nan,0.0,0.0,0.09035879,0.0,0.0,0.0,0.0,0.0,0.0,0.0,0.0,0.0
587713418,587612762,0.2003056,0.20029536,0.4104041,5.653945,5.6539435,0.0,0.0,0.0,0.0,0.0,0.0,0.0,0.0,12.476533,0.0,0.0,nan,0.0,0.0,0.090358585,0.0,0.0,0.0,0.0,0.0,0.0,0.0,0.0,0.0
588213038,588112706,0.26650444,0.2664957,0.56349283,5.634097,5.6340957,0.0,0.0,0.0,0.0,0.0,0.0,0.0,0.0,12.475198,0.0,0.0,nan,0.0,0.0,0.09035845,0.0,0.0,0.0,0.0,0.0,0.0,0.0,0.0,0.0
588713065,588612649,0.52697384,0.52696776,1.1507145,5.6862106,5.686208,0.0,0.0,0.0,0.0,0.0,0.0,0.0,0.0,12.474564,0.0,0.0,nan,0.0,0.0,0.09035835,0.0,0.0,0.0,0.0,0.0,0.0,0.0,0.0,0.0
589212959,589112593,0.35362026,0.35361445,0.7604637,5.711772,5.7117696,0.0,0.0,0.0,0.0,0.0,0.0,0.0,0.0,12.473069,0.0,0.0,nan,0.0,0.0,0.09035818,0.0,0.0,0.0,0.0,0.0,0.0,0.0,0.0,0.0
589712905,589612536,0.4153038,0.41529888,0.89837354,5.7650313,5.765028,0.0,0.0,0.0,0.0,0.0,0.0,0.0,0.0,12.472585,0.0,0.0,nan,0.0,0.0,0.090358116,0.0,0.0,0.0,0.0,0.0,0.0,0.0,0.0,0.0
590212886,590112480,0.32935926,0.32935482,0.7024016,5.7867355,5.786731,0.0,0.0,0.0,0.0,0.0,0.0,0.0,0.0,12.474231,0.0,0.0,nan,0.0,0.0,0.09035818,0.0,0.0,0.0,0.0,0.0,0.0,0.0,0.0,0.0
590712771,590612423,0.69067115,0.69066745,1.511717,5.9074545,5.907448,0.0,0.0,0.0,0.0,0.0,0.0,0.0,0.0,12.478546,0.0,0.0,nan,0.0,0.0,0.09035795,0.0,0.0,0.0,0.0,0.0,0.0,0.0,0.0,0.0
591212934,591112366,0.45746145,0.4574573,0.9830102,5.919987,5.9199796,0.0,0.0,0.0,0.0,0.0,0.0,0.0,0.0,12.481215,0.0,0.0,nan,0.0,0.0,0.090357915,0.0,0.0,0.0,0.0,0.0,0.0,0.0,0.0,0.0
591713004,591612309,0.41085643,0.41085282,0.8795724,5.871588,5.8715816,0.0,0.0,0.0,0.0,0.0,0.0,0.0,0.0,12.482159,0.0,0.0,nan,0.0,0.0,0.09035798,0.0,0.0,0.0,0.0,0.0,0.0,0.0,0.0,0.0
592212561,592112253,0.56158346,0.56158024,1.2167566,5.917201,5.917194,0.0,0.0,0.0,0.0,0.0,0.0,0.0,0.0,12.483704,0.0,0.0,nan,0.0,0.0,0.090357944,0.0,0.0,0.0,0.0,0.0,0.0,0.0,0.0,0.0
592712822,592612196,0.6459601,0.64595795,1.4077299,5.994824,5.9948173,0.0,0.0,0.0,0.0,0.0,0.0,0.0,0.0,12.484517,0.0,0.0,nan,0.0,0.0,0.090357855,0.0,0.0,0.0,0.0,0.0,0.0,0.0,0.0,0.0
593212500,593112139,0.73160744,0.73160434,1.5980043,6.0835032,6.0834966,0.0,0.0,0.0,0.0,0.0,0.0,0.0,0.0,12.486294,0.0,0.0,nan,0.0,0.0,0.09035785,0.0,0.0,0.0,0.0,0.0,0.0,0.0,0.0,0.0
593712674,593612082,0.34242567,0.34241876,0.71867085,6.268357,6.268351,0.0,0.0,0.0,0.0,0.0,0.0,0.0,0.0,12.489559,0.0,0.0,nan,0.0,0.0,0.09035784,0.0,0.0,0.0,0.0,0.0,0.0,0.0,0.0,0.0
594212336,594112025,0.63307816,0.6330696,1.373029,6.384354,6.384349,0.0,0.0,0.0,0.0,0.0,0.0,0.0,0.0,12.489912,0.0,0.0,nan,0.0,0.0,0.090357736,0.0,0.0,0.0,0.0,0.0,0.0,0.0,0.0,0.0
594712287,594611967,0.6807481,0.6807358,1.4764929,6.5177693,6.517764,0.0,0.0,0.0,0.0,0.0,0.0,0.0,0.0,12.492719,0.0,0.0,nan,0.0,0.0,0.09035773,0.0,0.0,0.0,0.0,0.0,0.0,0.0,0.0,0.0
595212455,595111910,0.50126535,0.50125265,1.0741814,6.596055,6.5960503,0.0,0.0,0.0,0.0,0.0,0.0,0.0,0.0,12.492111,0.0,0.0,nan,0.0,0.0,0.09035768,0.0,0.0,0.0,0.0,0.0,0.0,0.0,0.0,0.0
595712355,595611853,0.57436955,0.5743577,1.2404331,6.719383,6.7193785,0.0,0.0,0.0,0.0,0.0,0.0,0.0,0.0,12.491009,0.0,0.0,nan,0.0,0.0,0.09035758,0.0,0.0,0.0,0.0,0.0,0.0,0.0,0.0,0.0
596212121,596111795,0.3695914,0.36958024,0.7778366,6.7879558,6.787952,0.0,0.0,0.0,0.0,0.0,0.0,0.0,0.0,12.491358,0.0,0.0,nan,0.0,0.0,0.09035752,0.0,0.0,0.0,0.0,0.0,0.0,0.0,0.0,0.0
596712501,596611738,0.53166676,0.5316595,1.1459211,6.8754807,6.8754773,0.0,0.0,0.0,0.0,0.0,0.0,0.0,0.0,12.491008,0.0,0.0,nan,0.0,0.0,0.09035761,0.0,0.0,0.0,0.0,0.0,0.0,0.0,0.0,0.0
597212046,597111680,0.5597947,0.5597902,1.2103041,6.9264936,6.9264903,0.0,0.0,0.0,0.0,0.0,0.0,0.0,0.0,12.490937,0.0,0.0,nan,0.0,0.0,0.090357594,0.0,0.0,0.0,0.0,0.0,0.0,0.0,0.0,0.0
597712334,597611622,0.3800592,0.38005745,0.80633026,7.001138,7.0011353,0.0,0.0,0.0,0.0,0.0,0.0,0.0,0.0,12.490446,0.0,0.0,nan,0.0,0.0,0.090357594,0.0,0.0,0.0,0.0,0.0,0.0,0.0,0.0,0.0
598211934,598111565,0.6010494,0.60104907,1.3037844,7.078806,7.078803,0.0,0.0,0.0,0.0,0.0,0.0,0.0,0.0,12.489676,0.0,0.0,nan,0.0,0.0,0.090357505,0.0,0.0,0.0,0.0,0.0,0.0,0.0,0.0,0.0
598712111,598611506,0.34914705,0.3491485,0.7337881,7.2131586,7.213156,0.0,0.0,0.0,0.0,0.0,0.0,0.0,0.0,12.492311,0.0,0.0,nan,0.0,0.0,0.09035751,0.0,0.0,0.0,0.0,0.0,0.0,0.0,0.0,0.0
599211884,599111449,0.6039471,0.6039493,1.3104489,7.297064,7.2970614,0.0,0.0,0.0,0.0,0.0,0.0,0.0,0.0,12.489939,0.0,0.0,nan,0.0,0.0,0.090357445,0.0,0.0,0.0,0.0,0.0,0.0,0.0,0.0,0.0
599712002,599611391,0.40068942,0.40069324,0.84968,7.350363,7.3503613,0.0,0.0,0.0,0.0,0.0,0.0,0.0,0.0,12.491565,0.0,0.0,nan,0.0,0.0,0.09035745,0.0,0.0,0.0,0.0,0.0,0.0,0.0,0.0,0.0
600211834,600111332,0.42515144,0.42515567,0.9053358,7.356675,7.356674,0.0,0.0,0.0,0.0,0.0,0.0,0.0,0.0,12.489891,0.0,0.0,nan,0.0,0.0,0.09035746,0.0,0.0,0.0,0.0,0.0,0.0,0.0,0.0,0.0
600711972,600611274,0.54790926,0.54791373,1.1811769,7.2928925,7.2928925,0.0,0.0,0.0,0.0,0.0,0.0,0.0,0.0,12.491718,0.0,0.0,nan,0.0,0.0,0.090357386,0.0,0.0,0.0,0.0,0.0,0.0,0.0,0.0,0.0
601211528,601111216,0.5378766,0.5378806,1.1585205,7.2408085,7.240809,0.0,0.0,0.0,0.0,0.0,0.0,0.0,0.0,12.490249,0.0,0.0,nan,0.0,0.0,0.0903574,0.0,0.0,0.0,0.0,0.0,0.0,0.0,0.0,0.0
601711581,601611157,0.615966,0.6159696,1.3314016,7.343329,7.3433313,0.0,0.0,0.0,0.0,0.0,0.0,0.0,0.0,12.493149,0.0,0.0,nan,0.0,0.0,0.09035742,0.0,0.0,0.0,0.0,0.0,0.0,0.0,0.0,0.0
602211457,602111099,0.53449136,0.5344954,1.1461533,7.448741,7.448744,0.0,0.0,0.0,0.0,0.0,0.0,0.0,0.0,12.493575,0.0,0.0,nan,0.0,0.0,0.09035754,0.0,0.0,0.0,0.0,0.0,0.0,0.0,0.0,0.0
602711408,602611040,0.68083155,0.6808344,1.4729408,7.6259775,7.6259823,0.0,0.0,0.0,0.0,0.0,0.0,0.0,0.0,12.493949,0.0,0.0,nan,0.0,0.0,0.09035756,0.0,0.0,0.0,0.0,0.0,0.0,0.0,0.0,0.0
603211342,603110981,0.5753994,0.5754008,1.2342049,7.722657,7.7226624,0.0,0.0,0.0,0.0,0.0,0.0,0.0,0.0,12.496103,0.0,0.0,nan,0.0,0.0,0.090357475,0.0,0.0,0.0,0.0,0.0,0.0,0.0,0.0,0.0
603711539,603610923,0.5295505,0.52955025,1.1305385,7.8804436,7.8804483,0.0,0.0,0.0,0.0,0.0,0.0,0.0,0.0,12.497845,0.0,0.0,nan,0.0,0.0,0.090357475,0.0,0.0,0.0,0.0,0.0,0.0,0.0,0.0,0.0
604211256,604110864,0.4586393,0.4586383,0.97211057,7.95534,7.955344,0.0,0.0,0.0,0.0,0.0,0.0,0.0,0.0,12.496447,0.0,0.0,nan,0.0,0.0,0.09035748,0.0,0.0,0.0,0.0,0.0,0.0,0.0,0.0,0.0
604711354,604610805,0.24754578,0.24754497,0.49872681,7.933481,7.933484,0.0,0.0,0.0,0.0,0.0,0.0,0.0,0.0,12.496758,0.0,0.0,nan,0.0,0.0,0.09035759,0.0,0.0,0.0,0.0,0.0,0.0,0.0,0.0,0.0
605211094,605110746,0.45925987,0.45925897,0.98034376,7.868126,7.868129,0.0,0.0,0.0,0.0,0.0,0.0,0.0,0.0,12.492822,0.0,0.0,nan,0.0,0.0,0.09035757,0.0,0.0,0.0,0.0,0.0,0.0,0.0,0.0,0.0
605710994,605610687,0.46700746,0.46700716,1.0035882,7.7186785,7.7186804,0.0,0.0,0.0,0.0,0.0,0.0,0.0,0.0,12.490575,0.0,0.0,nan,0.0,0.0,0.09035769,0.0,0.0,0.0,0.0,0.0,0.0,0.0,0.0,0.0
606210998,606110627,0.46082154,0.46082118,0.9888704,7.68641,7.6864114,0.0,0.0,0.0,0.0,0.0,0.0,0.0,0.0,12.488535,0.0,0.0,nan,0.0,0.0,0.0903577,0.0,0.0,0.0,0.0,0.0,0.0,0.0,0.0,0.0
606711223,606610568,0.59383625,0.59383494,1.2899272,7.596218,7.5962195,0.0,0.0,0.0,0.0,0.0,0.0,0.0,0.0,12.487956,0.0,0.0,nan,0.0,0.0,0.09035751,0.0,0.0,0.0,0.0,0.0,0.0,0.0,0.0,0.0
607210896,607110509,0.23497371,0.23497184,0.47937316,7.5143194,7.514321,0.0,0.0,0.0,0.0,0.0,0.0,0.0,0.0,12.485971,0.0,0.0,nan,0.0,0.0,0.090357624,0.0,0.0,0.0,0.0,0.0,0.0,0.0,0.0,0.0
607710759,607610449,0.3687213,0.36871856,0.78465194,7.385294,7.385295,0.0,0.0,0.0,0.0,0.0,0.0,0.0,0.0,12.485631,0.0,0.0,nan,0.0,0.0,0.09035762,0.0,0.0,0.0,0.0,0.0,0.0,0.0,0.0,0.0
608210730,608110389,0.48277605,0.48277313,1.0451835,7.297194,7.2971945,0.0,0.0,0.0,0.0,0.0,0.0,0.0,0.0,12.481651,0.0,0.0,nan,0.0,0.0,0.09035755,0.0,0.0,0.0,0.0,0.0,0.0,0.0,0.0,0.0
608710701,608610329,0.31226373,0.31225953,0.65884,7.2207212,7.2207212,0.0,0.0,0.0,0.0,0.0,0.0,0.0,0.0,12.48056,0.0,0.0,nan,0.0,0.0,0.09035756,0.0,0.0,0.0,0.0,0.0,0.0,0.0,0.0,0.0
609210793,609110269,0.27596253,0.27595893,0.58149046,7.114371,7.1143713,0.0,0.0,0.0,0.0,0.0,0.0,0.0,0.0,12.476889,0.0,0.0,nan,0.0,0.0,0.090357564,0.0,0.0,0.0,0.0,0.0,0.0,0.0,0.0,0.0
609710678,609610210,0.46790504,0.4679002,1.0118595,7.00123,7.001229,0.0,0.0,0.0,0.0,0.0,0.0,0.0,0.0,12.479529,0.0,0.0,nan,0.0,0.0,0.09035749,0.0,0.0,0.0,0.0,0.0,0.0,0.0,0.0,0.0
610210543,610110150,0.34914,0.3491339,0.7429945,6.9531345,6.9531326,0.0,0.0,0.0,0.0,0.0,0.0,0.0,0.0,12.478921,0.0,0.0,nan,0.0,0.0,0.0903575,0.0,0.0,0.0,0.0,0.0,0.0,0.0,0.0,0.0
610710468,610610089,0.15848294,0.15847738,0.31512794,6.865282,6.8652816,0.0,0.0,0.0,0.0,0.0,0.0,0.0,0.0,12.472927,0.0,0.0,nan,0.0,0.0,0.09035762,0.0,0.0,0.0,0.0,0.0,0.0,0.0,0.0,0.0
611210390,611110029,0.41984937,0.41984463,0.90674466,6.8053637,6.8053617,0.0,0.0,0.0,0.0,0.0,0.0,0.0,0.0,12.475693,0.0,0.0,nan,0.0,0.0,0.09035762,0.0,0.0,0.0,0.0,0.0,0.0,0.0,0.0,0.0
611710277,611609969,0.2791866,0.27918285,0.59035915,6.706428,6.7064266,0.0,0.0,0.0,0.0,0.0,0.0,0.0,0.0,12.475902,0.0,0.0,nan,0.0,0.0,0.09035745,0.0,0.0,0.0,0.0,0.0,0.0,0.0,0.0,0.0
612210248,612109909,0.23740679,0.23740369,0.49682403,6.655958,6.6559567,0.0,0.0,0.0,0.0,0.0,0.0,0.0,0.0,12.471696,0.0,0.0,nan,0.0,0.0,0.090357564,0.0,0.0,0.0,0.0,0.0,0.0,0.0,0.0,0.0
612710589,612609848,0.38189492,0.38189292,0.8237217,6.5621986,6.562197,0.0,0.0,0.0,0.0,0.0,0.0,0.0,0.0,12.470145,0.0,0.0,nan,0.0,0.0,0.09035761,0.0,0.0,0.0,0.0,0.0,0.0,0.0,0.0,0.0
613210103,613109787,0.51165015,0.5116483,1.1128312,6.536227,6.536225,0.0,0.0,0.0,0.0,0.0,0.0,0.0,0.0,12.474111,0.0,0.0,nan,0.0,0.0,0.090357505,0.0,0.0,0.0,0.0,0.0,0.0,0.0,0.0,0.0
613710181,613609727,0.55882543,0.5588236,1.2159668,6.4846363,6.484633,0.0,0.0,0.0,0.0,0.0,0.0,0.0,0.0,12.476165,0.0,0.0,nan,0.0,0.0,0.09035756,0.0,0.0,0.0,0.0,0.0,0.0,0.0,0.0,0.0
614209995,614109666,0.60979044,0.6097884,1.3272396,6.5010095,6.5010056,0.0,0.0,0.0,0.0,0.0,0.0,0.0,0.0,12.477937,0.0,0.0,nan,0.0,0.0,0.090357594,0.0,0.0,0.0,0.0,0.0,0.0,0.0,0.0,0.0
614710017,614609605,0.42384583,0.42384383,0.9051286,6.486608,6.4866033,0.0,0.0,0.0,0.0,0.0,0.0,0.0,0.0,12.480514,0.0,0.0,nan,0.0,0.0,0.09035755,0.0,0.0,0.0,0.0,0.0,0.0,0.0,0.0,0.0
615209859,615109544,0.2727751,0.2727736,0.5666587,6.4008465,6.4008427,0.0,0.0,0.0,0.0,0.0,0.0,0.0,0.0,12.479614,0.0,0.0,nan,0.0,0.0,0.09035762,0.0,0.0,0.0,0.0,0.0,0.0,0.0,0.0,0.0
615709864,615609483,0.3230582,0.32305858,0.6831928,6.3179636,6.3179607,0.0,0.0,0.0,0.0,0.0,0.0,0.0,0.0,12.480916,0.0,0.0,nan,0.0,0.0,0.09035764,0.0,0.0,0.0,0.0,0.0,0.0,0.0,0.0,0.0
616209785,616109422,0.33983356,0.3398348,0.7228432,6.245981,6.2459784,0.0,0.0,0.0,0.0,0.0,0.0,0.0,0.0,12.477542,0.0,0.0,nan,0.0,0.0,0.09035777,0.0,0.0,0.0,0.0,0.0,0.0,0.0,0.0,0.0
616710027,616609360,0.50794905,0.507952,1.1008172,6.2145123,6.2145095,0.0,0.0,0.0,0.0,0.0,0.0,0.0,0.0,12.479916,0.0,0.0,nan,0.0,0.0,0.090357624,0.0,0.0,0.0,0.0,0.0,0.0,0.0,0.0,0.0
617209671,617109300,0.525485,0.5254888,1.138803,6.2069235,6.2069216,0.0,0.0,0.0,0.0,0.0,0.0,0.0,0.0,12.4810095,0.0,0.0,nan,0.0,0.0,0.09035776,0.0,0.0,0.0,0.0,0.0,0.0,0.0,0.0,0.0
617709932,617609237,0.55734134,0.55734724,1.2068968,6.2592816,6.2592807,0.0,0.0,0.0,0.0,0.0,0.0,0.0,0.0,12.484592,0.0,0.0,nan,0.0,0.0,0.090357766,0.0,0.0,0.0,0.0,0.0,0.0,0.0,0.0,0.0
618209666,618109175,0.31078863,0.31079438,0.6543851,6.2257323,6.2257314,0.0,0.0,0.0,0.0,0.0,0.0,0.0,0.0,12.481918,0.0,0.0,nan,0.0,0.0,0.090357766,0.0,0.0,0.0,0.0,0.0,0.0,0.0,0.0,0.0
618709818,618609114,0.34251395,0.34251955,0.72788393,6.106254,6.1062536,0.0,0.0,0.0,0.0,0.0,0.0,0.0,0.0,12.482108,0.0,0.0,nan,0.0,0.0,0.09035769,0.0,0.0,0.0,0.0,0.0,0.0,0.0,0.0,0.0
619209365,619109052,0.37065226,0.37065646,0.79723155,5.9448776,5.944877,0.0,0.0,0.0,0.0,0.0,0.0,0.0,0.0,12.47645,0.0,0.0,nan,0.0,0.0,0.09035769,0.0,0.0,0.0,0.0,0.0,0.0,0.0,0.0,0.0
619709654,619608990,0.30982208,0.30982727,0.6584709,5.825927,5.825927,0.0,0.0,0.0,0.0,0.0,0.0,0.0,0.0,12.478598,0.0,0.0,nan,0.0,0.0,0.09035764,0.0,0.0,0.0,0.0,0.0,0.0,0.0,0.0,0.0
620209289,620108928,0.43158722,0.43159255,0.93272305,5.820576,5.820576,0.0,0.0,0.0,0.0,0.0,0.0,0.0,0.0,12.477028,0.0,0.0,nan,0.0,0.0,0.09035766,0.0,0.0,0.0,0.0,0.0,0.0,0.0,0.0,0.0
620709452,620608866,0.5868309,0.5868354,1.2823163,5.828816,5.8288164,0.0,0.0,0.0,0.0,0.0,0.0,0.0,0.0,12.477178,0.0,0.0,nan,0.0,0.0,0.09035768,0.0,0.0,0.0,0.0,0.0,0.0,0.0,0.0,0.0
621209113,621108804,0.3867603,0.38676453,0.82968247,5.8200197,5.8200207,0.0,0.0,0.0,0.0,0.0,0.0,0.0,0.0,12.478056,0.0,0.0,nan,0.0,0.0,0.090357825,0.0,0.0,0.0,0.0,0.0,0.0,0.0,0.0,0.0
621709068,621608741,0.4900442,0.4900486,1.0606116,5.80439,5.804392,0.0,0.0,0.0,0.0,0.0,0.0,0.0,0.0,12.479528,0.0,0.0,nan,0.0,0.0,0.09035769,0.0,0.0,0.0,0.0,0.0,0.0,0.0,0.0,0.0
622209092,622108679,0.43019754,0.43020248,0.92462075,5.801195,5.801197,0.0,0.0,0.0,0.0,0.0,0.0,0.0,0.0,12.480226,0.0,0.0,nan,0.0,0.0,0.0903577,0.0,0.0,0.0,0.0,0.0,0.0,0.0,0.0,0.0
622709125,622608616,0.63697135,0.6369759,1.38983,5.860486,5.860489,0.0,0.0,0.0,0.0,0.0,0.0,0.0,0.0,12.480205,0.0,0.0,nan,0.0,0.0,0.09035784,0.0,0.0,0.0,0.0,0.0,0.0,0.0,0.0,0.0
623208943,623108553,0.41597345,0.41597724,0.8907997,5.914311,5.914314,0.0,0.0,0.0,0.0,0.0,0.0,0.0,0.0,12.482116,0.0,0.0,nan,0.0,0.0,0.09035787,0.0,0.0,0.0,0.0,0.0,0.0,0.0,0.0,0.0
623709154,623608493,0.33125013,0.33125162,0.70061874,5.95561,5.9556127,0.0,0.0,0.0,0.0,0.0,0.0,0.0,0.0,12.482718,0.0,0.0,nan,0.0,0.0,0.09035779,0.0,0.0,0.0,0.0,0.0,0.0,0.0,0.0,0.0
624208811,624108428,0.22979528,0.22979617,0.47297728,5.936203,5.936205,0.0,0.0,0.0,0.0,0.0,0.0,0.0,0.0,12.479217,0.0,0.0,nan,0.0,0.0,0.090357795,0.0,0.0,0.0,0.0,0.0,0.0,0.0,0.0,0.0
624709032,624608365,0.4607054,0.46070674,0.99433684,5.906748,5.9067497,0.0,0.0,0.0,0.0,0.0,0.0,0.0,0.0,12.481913,0.0,0.0,nan,0.0,0.0,0.0903578,0.0,0.0,0.0,0.0,0.0,0.0,0.0,0.0,0.0
625208609,625108302,0.2945646,0.29456615,0.6209428,5.8638196,5.863821,0.0,0.0,0.0,0.0,0.0,0.0,0.0,0.0,12.478917,0.0,0.0,nan,0.0,0.0,0.090357706,0.0,0.0,0.0,0.0,0.0,0.0,0.0,0.0,0.0
625708849,625608238,0.47818887,0.47818974,1.0333865,5.8836246,5.8836255,0.0,0.0,0.0,0.0,0.0,0.0,0.0,0.0,12.481536,0.0,0.0,nan,0.0,0.0,0.09035772,0.0,0.0,0.0,0.0,0.0,0.0,0.0,0.0,0.0
626208580,626108177,0.5631005,0.5631008,1.2229545,5.9018593,5.90186,0.0,0.0,0.0,0.0,0.0,0.0,0.0,0.0,12.482728,0.0,0.0,nan,0.0,0.0,0.09035784,0.0,0.0,0.0,0.0,0.0,0.0,0.0,0.0,0.0
626708703,626608112,0.5731054,0.57310563,1.2430463,5.945928,5.945929,0.0,0.0,0.0,0.0,0.0,0.0,0.0,0.0,12.484458,0.0,0.0,nan,0.0,0.0,0.090357855,0.0,0.0,0.0,0.0,0.0,0.0,0.0,0.0,0.0
627208506,627108048,0.57117325,0.5711735,1.2366449,5.998407,5.9984074,0.0,0.0,0.0,0.0,0.0,0.0,0.0,0.0,12.485986,0.0,0.0,nan,0.0,0.0,0.09035767,0.0,0.0,0.0,0.0,0.0,0.0,0.0,0.0,0.0
627708739,627607984,0.67604756,0.67604756,1.4690115,6.106562,6.1065617,0.0,0.0,0.0,0.0,0.0,0.0,0.0,0.0,12.489552,0.0,0.0,nan,0.0,0.0,0.090357795,0.0,0.0,0.0,0.0,0.0,0.0,0.0,0.0,0.0
628218227,628117919,0.68922055,0.68922025,1.4981769,6.1677203,6.167719,0.0,0.0,0.0,0.0,0.0,0.0,0.0,0.0,12.48994,0.0,0.0,nan,0.0,0.0,0.0903578,0.0,0.0,0.0,0.0,0.0,0.0,0.0,0.0,0.0
628708180,628607856,0.4454476,0.44544697,0.9484803,6.1943784,6.194377,0.0,0.0,0.0,0.0,0.0,0.0,0.0,0.0,12.492039,0.0,0.0,nan,0.0,0.0,0.090357736,0.0,0.0,0.0,0.0,0.0,0.0,0.0,0.0,0.0
629208158,629107793,0.32124767,0.3212471,0.66953105,6.186867,6.186866,0.0,0.0,0.0,0.0,0.0,0.0,0.0,0.0,12.490061,0.0,0.0,nan,0.0,0.0,0.09035774,0.0,0.0,0.0,0.0,0.0,0.0,0.0,0.0,0.0
629708321,629607729,0.4229836,0.42298356,0.89994615,6.2102823,6.2102795,0.0,0.0,0.0,0.0,0.0,0.0,0.0,0.0,12.492349,0.0,0.0,nan,0.0,0.0,0.090357766,0.0,0.0,0.0,0.0,0.0,0.0,0.0,0.0,0.0
630208054,630107664,0.4499778,0.44997814,0.9628903,6.1925645,6.1925616,0.0,0.0,0.0,0.0,0.0,0.0,0.0,0.0,12.490651,0.0,0.0,nan,0.0,0.0,0.0903577,0.0,0.0,0.0,0.0,0.0,0.0,0.0,0.0,0.0
630707957,630607600,0.6387796,0.6387804,1.3870325,6.2755556,6.2755523,0.0,0.0,0.0,0.0,0.0,0.0,0.0,0.0,12.491122,0.0,0.0,nan,0.0,0.0,0.09035771,0.0,0.0,0.0,0.0,0.0,0.0,0.0,0.0,0.0
631207897,631107535,0.69530946,0.6953104,1.512622,6.354196,6.3541927,0.0,0.0,0.0,0.0,0.0,0.0,0.0,0.0,12.492723,0.0,0.0,nan,0.0,0.0,0.09035774,0.0,0.0,0.0,0.0,0.0,0.0,0.0,0.0,0.0
631717905,631617470,0.7301704,0.7301721,1.5871927,6.4901595,6.4901557,0.0,0.0,0.0,0.0,0.0,0.0,0.0,0.0,12.494356,0.0,0.0,nan,0.0,0.0,0.090357855,0.0,0.0,0.0,0.0,0.0,0.0,0.0,0.0,0.0
632207859,632107406,0.49705756,0.4970597,1.0620023,6.554795,6.554791,0.0,0.0,0.0,0.0,0.0,0.0,0.0,0.0,12.495859,0.0,0.0,nan,0.0,0.0,0.09035768,0.0,0.0,0.0,0.0,0.0,0.0,0.0,0.0,0.0
632707738,632607342,0.53594065,0.53594375,1.1494046,6.6347146,6.6347113,0.0,0.0,0.0,0.0,0.0,0.0,0.0,0.0,12.496533,0.0,0.0,nan,0.0,0.0,0.09035781,0.0,0.0,0.0,0.0,0.0,0.0,0.0,0.0,0.0
633207587,633107276,0.28229612,0.2822999,0.57870805,6.7032037,6.7032003,0.0,0.0,0.0,0.0,0.0,0.0,0.0,0.0,12.492609,0.0,0.0,nan,0.0,0.0,0.09035782,0.0,0.0,0.0,0.0,0.0,0.0,0.0,0.0,0.0
633707930,633607212,0.5827817,0.58278596,1.2571106,6.731892,6.7318892,0.0,0.0,0.0,0.0,0.0,0.0,0.0,0.0,12.494869,0.0,0.0,nan,0.0,0.0,0.09035784,0.0,0.0,0.0,0.0,0.0,0.0,0.0,0.0,0.0
634207482,634107147,0.5919663,0.5919709,1.2770965,6.769349,6.7693467,0.0,0.0,0.0,0.0,0.0,0.0,0.0,0.0,12.4949045,0.0,0.0,nan,0.0,0.0,0.09035777,0.0,0.0,0.0,0.0,0.0,0.0,0.0,0.0,0.0
634717391,634617080,0.70555735,0.7055624,1.5314033,6.84195,6.841948,0.0,0.0,0.0,0.0,0.0,0.0,0.0,0.0,12.495341,0.0,0.0,nan,0.0,0.0,0.09035779,0.0,0.0,0.0,0.0,0.0,0.0,0.0,0.0,0.0
635217373,635117015,0.62753713,0.62754196,1.3591373,6.856108,6.8561063,0.0,0.0,0.0,0.0,0.0,0.0,0.0,0.0,12.494603,0.0,0.0,nan,0.0,0.0,0.09035781,0.0,0.0,0.0,0.0,0.0,0.0,0.0,0.0,0.0
635707533,635606950,0.63325596,0.6332616,1.3697722,6.93483,6.934829,0.0,0.0,0.0,0.0,0.0,0.0,0.0,0.0,12.495466,0.0,0.0,nan,0.0,0.0,0.09035774,0.0,0.0,0.0,0.0,0.0,0.0,0.0,0.0,0.0
636207219,636106885,0.6941063,0.6941124,1.5056638,7.0053425,7.0053425,0.0,0.0,0.0,0.0,0.0,0.0,0.0,0.0,12.495997,0.0,0.0,nan,0.0,0.0,0.09035775,0.0,0.0,0.0,0.0,0.0,0.0,0.0,0.0,0.0
636707560,636606819,0.86678624,0.8667934,1.8900056,7.138898,7.1388993,0.0,0.0,0.0,0.0,0.0,0.0,0.0,0.0,12.498861,0.0,0.0,nan,0.0,0.0,0.09035787,0.0,0.0,0.0,0.0,0.0,0.0,0.0,0.0,0.0
637207156,637106754,0.888404,0.8884115,1.9356978,7.2165394,7.2165422,0.0,0.0,0.0,0.0,0.0,0.0,0.0,0.0,12.500509,0.0,0.0,nan,0.0,0.0,0.090357706,0.0,0.0,0.0,0.0,0.0,0.0,0.0,0.0,0.0
637717022,637616686,0.913393,0.9134001,1.9941971,7.289488,7.2894907,0.0,0.0,0.0,0.0,0.0,0.0,0.0,0.0,12.4983425,0.0,0.0,nan,0.0,0.0,0.09035771,0.0,0.0,0.0,0.0,0.0,0.0,0.0,0.0,0.0
638216935,638116621,0.80347013,0.80347705,1.745316,7.3415847,7.3415885,0.0,0.0,0.0,0.0,0.0,0.0,0.0,0.0,12.500359,0.0,0.0,nan,0.0,0.0,0.09035784,0.0,0.0,0.0,0.0,0.0,0.0,0.0,0.0,0.0
638716860,638616555,0.6880751,0.6880826,1.4841043,7.372795,7.3727994,0.0,0.0,0.0,0.0,0.0,0.0,0.0,0.0,12.502305,0.0,0.0,nan,0.0,0.0,0.09035786,0.0,0.0,0.0,0.0,0.0,0.0,0.0,0.0,0.0
639206799,639106489,0.65327084,0.65327847,1.4054496,7.36574,7.3657446,0.0,0.0,0.0,0.0,0.0,0.0,0.0,0.0,12.500846,0.0,0.0,nan,0.0,0.0,0.09035778,0.0,0.0,0.0,0.0,0.0,0.0,0.0,0.0,0.0
639706798,639606423,0.37105808,0.37106535,0.7730796,7.321901,7.3219037,0.0,0.0,0.0,0.0,0.0,0.0,0.0,0.0,12.497931,0.0,0.0,nan,0.0,0.0,0.09035779,0.0,0.0,0.0,0.0,0.0,0.0,0.0,0.0,0.0
640206715,640106357,0.16741255,0.16741908,0.31819358,7.242072,7.242073,0.0,0.0,0.0,0.0,0.0,0.0,0.0,0.0,12.4925995,0.0,0.0,nan,0.0,0.0,0.09035781,0.0,0.0,0.0,0.0,0.0,0.0,0.0,0.0,0.0
640716728,640616289,0.49192905,0.49193358,1.058142,7.1581016,7.1581025,0.0,0.0,0.0,0.0,0.0,0.0,0.0,0.0,12.492836,0.0,0.0,nan,0.0,0.0,0.090357736,0.0,0.0,0.0,0.0,0.0,0.0,0.0,0.0,0.0
641216782,641116222,0.25520197,0.25520647,0.5234769,7.141174,7.141175,0.0,0.0,0.0,0.0,0.0,0.0,0.0,0.0,12.490206,0.0,0.0,nan,0.0,0.0,0.09035774,0.0,0.0,0.0,0.0,0.0,0.0,0.0,0.0,0.0
641716527,641616156,0.21255387,0.2125573,0.43350944,6.9419336,6.9419346,0.0,0.0,0.0,0.0,0.0,0.0,0.0,0.0,12.483622,0.0,0.0,nan,0.0,0.0,0.09035776,0.0,0.0,0.0,0.0,0.0,0.0,0.0,0.0,0.0
642206408,642106090,0.4868898,0.4868929,1.0543551,6.888559,6.8885593,0.0,0.0,0.0,0.0,0.0,0.0,0.0,0.0,12.4846115,0.0,0.0,nan,0.0,0.0,0.09035787,0.0,0.0,0.0,0.0,0.0,0.0,0.0,0.0,0.0
642706633,642606023,0.33812818,0.33813182,0.71773744,6.7969227,6.796923,0.0,0.0,0.0,0.0,0.0,0.0,0.0,0.0,12.484742,0.0,0.0,nan,0.0,0.0,0.0903577,0.0,0.0,0.0,0.0,0.0,0.0,0.0,0.0,0.0
643206291,643105956,0.30029008,0.30029368,0.63267726,6.7110653,6.711066,0.0,0.0,0.0,0.0,0.0,0.0,0.0,0.0,12.481912,0.0,0.0,nan,0.0,0.0,0.0903578,0.0,0.0,0.0,0.0,0.0,0.0,0.0,0.0,0.0
643716214,643615888,0.4196093,0.41961288,0.9017045,6.6872125,6.6872125,0.0,0.0,0.0,0.0,0.0,0.0,0.0,0.0,12.480957,0.0,0.0,nan,0.0,0.0,0.090357825,0.0,0.0,0.0,0.0,0.0,0.0,0.0,0.0,0.0
644216178,644115820,0.5015947,0.5015984,1.0852873,6.652485,6.652485,0.0,0.0,0.0,0.0,0.0,0.0,0.0,0.0,12.481759,0.0,0.0,nan,0.0,0.0,0.09035784,0.0,0.0,0.0,0.0,0.0,0.0,0.0,0.0,0.0
644716058,644615753,0.46361154,0.4636161,0.99750555,6.6229825,6.622983,0.0,0.0,0.0,0.0,0.0,0.0,0.0,0.0,12.483791,0.0,0.0,nan,0.0,0.0,0.09035777,0.0,0.0,0.0,0.0,0.0,0.0,0.0,0.0,0.0
645216121,645115685,0.39678392,0.39678887,0.8465357,6.570722,6.5707226,0.0,0.0,0.0,0.0,0.0,0.0,0.0,0.0,12.483426,0.0,0.0,nan,0.0,0.0,0.09035778,0.0,0.0,0.0,0.0,0.0,0.0,0.0,0.0,0.0
645716352,645615618,0.34326288,0.343268,0.7256111,6.494367,6.494368,0.0,0.0,0.0,0.0,0.0,0.0,0.0,0.0,12.483957,0.0,0.0,nan,0.0,0.0,0.09035771,0.0,0.0,0.0,0.0,0.0,0.0,0.0,0.0,0.0
646205874,646105551,0.43619367,0.43619847,0.936159,6.412631,6.412632,0.0,0.0,0.0,0.0,0.0,0.0,0.0,0.0,12.482398,0.0,0.0,nan,0.0,0.0,0.09035773,0.0,0.0,0.0,0.0,0.0,0.0,0.0,0.0,0.0
646705859,646605483,0.292323,0.29232788,0.61201257,6.3343277,6.3343287,0.0,0.0,0.0,0.0,0.0,0.0,0.0,0.0,12.482985,0.0,0.0,nan,0.0,0.0,0.09035773,0.0,0.0,0.0,0.0,0.0,0.0,0.0,0.0,0.0
647215844,647115414,0.17726699,0.17727137,0.35591978,6.227042,6.227042,0.0,0.0,0.0,0.0,0.0,0.0,0.0,0.0,12.477432,0.0,0.0,nan,0.0,0.0,0.090357855,0.0,0.0,0.0,0.0,0.0,0.0,0.0,0.0,0.0
647715683,647615347,0.28573942,0.28574333,0.60427225,6.119574,6.1195745,0.0,0.0,0.0,0.0,0.0,0.0,0.0,0.0,12.477849,0.0,0.0,nan,0.0,0.0,0.090357676,0.0,0.0,0.0,0.0,0.0,0.0,0.0,0.0,0.0
648215640,648115278,0.28253213,0.28253615,0.5974187,6.0535097,6.0535097,0.0,0.0,0.0,0.0,0.0,0.0,0.0,0.0,12.47518,0.0,0.0,nan,0.0,0.0,0.09035768,0.0,0.0,0.0,0.0,0.0,0.0,0.0,0.0,0.0
648715571,648615209,0.2771032,0.2771076,0.5859706,5.947576,5.9475765,0.0,0.0,0.0,0.0,0.0,0.0,0.0,0.0,12.476187,0.0,0.0,nan,0.0,0.0,0.09035781,0.0,0.0,0.0,0.0,0.0,0.0,0.0,0.0,0.0
649215540,649115141,0.2575106,0.25751495,0.54364544,5.855813,5.8558135,0.0,0.0,0.0,0.0,0.0,0.0,0.0,0.0,12.47255,0.0,0.0,nan,0.0,0.0,0.09035781,0.0,0.0,0.0,0.0,0.0,0.0,0.0,0.0,0.0
649715437,649615072,0.38022164,0.38022625,0.8210253,5.682645,5.6826453,0.0,0.0,0.0,0.0,0.0,0.0,0.0,0.0,12.470591,0.0,0.0,nan,0.0,0.0,0.09035774,0.0,0.0,0.0,0.0,0.0,0.0,0.0,0.0,0.0
650215407,650115003,0.3003225,0.3003276,0.63904786,5.6256056,5.6256065,0.0,0.0,0.0,0.0,0.0,0.0,0.0,0.0,12.471986,0.0,0.0,nan,0.0,0.0,0.09035775,0.0,0.0,0.0,0.0,0.0,0.0,0.0,0.0,0.0
650715371,650614935,0.4743307,0.47433588,1.0324371,5.54327,5.543271,0.0,0.0,0.0,0.0,0.0,0.0,0.0,0.0,12.470796,0.0,0.0,nan,0.0,0.0,0.090357766,0.0,0.0,0.0,0.0,0.0,0.0,0.0,0.0,0.0
651215226,651114866,0.3552109,0.3552168,0.76293945,5.486841,5.486842,0.0,0.0,0.0,0.0,0.0,0.0,0.0,0.0,12.472047,0.0,0.0,nan,0.0,0.0,0.09035769,0.0,0.0,0.0,0.0,0.0,0.0,0.0,0.0,0.0
651715435,651614796,0.2691652,0.2691723,0.56595063,5.4380693,5.4380713,0.0,0.0,0.0,0.0,0.0,0.0,0.0,0.0,12.474888,0.0,0.0,nan,0.0,0.0,0.0903577,0.0,0.0,0.0,0.0,0.0,0.0,0.0,0.0,0.0
652215042,652114727,0.18267268,0.18267833,0.3764164,5.329571,5.3295717,0.0,0.0,0.0,0.0,0.0,0.0,0.0,0.0,12.466575,0.0,0.0,nan,0.0,0.0,0.09035781,0.0,0.0,0.0,0.0,0.0,0.0,0.0,0.0,0.0
652715241,652614658,0.2729075,0.27291244,0.58297473,5.1796517,5.179652,0.0,0.0,0.0,0.0,0.0,0.0,0.0,0.0,12.466347,0.0,0.0,nan,0.0,0.0,0.09035783,0.0,0.0,0.0,0.0,0.0,0.0,0.0,0.0,0.0
653214901,653114588,0.36794955,0.3679549,0.79659426,5.1295958,5.1295967,0.0,0.0,0.0,0.0,0.0,0.0,0.0,0.0,12.465974,0.0,0.0,nan,0.0,0.0,0.09035765,0.0,0.0,0.0,0.0,0.0,0.0,0.0,0.0,0.0
653715176,653614519,0.32184047,0.32184628,0.69171673,5.052423,5.0524244,0.0,0.0,0.0,0.0,0.0,0.0,0.0,0.0,12.467022,0.0,0.0,nan,0.0,0.0,0.09035777,0.0,0.0,0.0,0.0,0.0,0.0,0.0,0.0,0.0
654214800,654114449,0.36530614,0.36531225,0.78880453,5.0167074,5.016709,0.0,0.0,0.0,0.0,0.0,0.0,0.0,0.0,12.466909,0.0,0.0,nan,0.0,0.0,0.09035777,0.0,0.0,0.0,0.0,0.0,0.0,0.0,0.0,0.0
654714743,654614380,0.27144343,0.27145064,0.57457495,4.9697022,4.9697046,0.0,0.0,0.0,0.0,0.0,0.0,0.0,0.0,12.470543,0.0,0.0,nan,0.0,0.0,0.09035771,0.0,0.0,0.0,0.0,0.0,0.0,0.0,0.0,0.0
655214824,655114310,0.6468524,0.6468602,1.4173915,4.9988074,4.9988112,0.0,0.0,0.0,0.0,0.0,0.0,0.0,0.0,12.47195,0.0,0.0,nan,0.0,0.0,0.09035772,0.0,0.0,0.0,0.0,0.0,0.0,0.0,0.0,0.0
655714967,655614240,0.64014316,0.6401527,1.3968058,5.057672,5.057678,0.0,0.0,0.0,0.0,0.0,0.0,0.0,0.0,12.477091,0.0,0.0,nan,0.0,0.0,0.090357736,0.0,0.0,0.0,0.0,0.0,0.0,0.0,0.0,0.0
656214511,656114169,0.17883494,0.17884487,0.35643414,5.081763,5.0817676,0.0,0.0,0.0,0.0,0.0,0.0,0.0,0.0,12.475228,0.0,0.0,nan,0.0,0.0,0.09035766,0.0,0.0,0.0,0.0,0.0,0.0,0.0,0.0,0.0
656714880,656614099,0.21713313,0.21714137,0.44705656,5.1063504,5.1063547,0.0,0.0,0.0,0.0,0.0,0.0,0.0,0.0,12.47304,0.0,0.0,nan,0.0,0.0,0.090357676,0.0,0.0,0.0,0.0,0.0,0.0,0.0,0.0,0.0
657214382,657114029,0.42297673,0.4229834,0.91543025,5.103474,5.103478,0.0,0.0,0.0,0.0,0.0,0.0,0.0,0.0,12.47362,0.0,0.0,nan,0.0,0.0,0.09035769,0.0,0.0,0.0,0.0,0.0,0.0,0.0,0.0,0.0
657714315,657613959,0.24551633,0.24552347,0.5140471,5.107801,5.107805,0.0,0.0,0.0,0.0,0.0,0.0,0.0,0.0,12.475342,0.0,0.0,nan,0.0,0.0,0.09035781,0.0,0.0,0.0,0.0,0.0,0.0,0.0,0.0,0.0
658214196,658113888,0.43469006,0.4346976,0.9387145,5.123045,5.1230497,0.0,0.0,0.0,0.0,0.0,0.0,0.0,0.0,12.476183,0.0,0.0,nan,0.0,0.0,0.09035765,0.0,0.0,0.0,0.0,0.0,0.0,0.0,0.0,0.0
658714226,658613817,0.373407,0.37341547,0.7979984,5.124271,5.1242766,0.0,0.0,0.0,0.0,0.0,0.0,0.0,0.0,12.477545,0.0,0.0,nan,0.0,0.0,0.090357766,0.0,0.0,0.0,0.0,0.0,0.0,0.0,0.0,0.0
659214072,659113746,0.1905055,0.19051406,0.38638872,5.100088,5.100092,0.0,0.0,0.0,0.0,0.0,0.0,0.0,0.0,12.476699,0.0,0.0,nan,0.0,0.0,0.09035778,0.0,0.0,0.0,0.0,0.0,0.0,0.0,0.0,0.0
659714428,659613676,0.44181982,0.44182724,0.95591927,5.053777,5.0537815,0.0,0.0,0.0,0.0,0.0,0.0,0.0,0.0,12.477185,0.0,0.0,nan,0.0,0.0,0.090357795,0.0,0.0,0.0,0.0,0.0,0.0,0.0,0.0,0.0
660213975,660113605,0.44845527,0.4484629,0.9705827,5.0189195,5.0189238,0.0,0.0,0.0,0.0,0.0,0.0,0.0,0.0,12.477125,0.0,0.0,nan,0.0,0.0,0.09035773,0.0,0.0,0.0,0.0,0.0,0.0,0.0,0.0,0.0
660713898,660613533,0.4165166,0.41652346,0.9012796,4.97783,4.9778337,0.0,0.0,0.0,0.0,0.0,0.0,0.0,0.0,12.473834,0.0,0.0,nan,0.0,0.0,0.090357736,0.0,0.0,0.0,0.0,0.0,0.0,0.0,0.0,0.0
661213773,661113465,0.72327894,0.72328645,1.589391,4.983999,4.9840035,0.0,0.0,0.0,0.0,0.0,0.0,0.0,0.0,12.47775,0.0,0.0,nan,0.0,0.0,0.09035768,0.0,0.0,0.0,0.0,0.0,0.0,0.0,0.0,0.0
661714052,661613391,1.0174365,1.017446,2.245069,5.094254,5.094262,0.0,0.0,0.0,0.0,0.0,0.0,0.0,0.0,12.481811,0.0,0.0,nan,0.0,0.0,0.09035769,0.0,0.0,0.0,0.0,0.0,0.0,0.0,0.0,0.0
662213646,662113319,0.25508004,0.2550909,0.52563345,5.181918,5.1819253,0.0,0.0,0.0,0.0,0.0,0.0,0.0,0.0,12.482306,0.0,0.0,nan,0.0,0.0,0.090357706,0.0,0.0,0.0,0.0,0.0,0.0,0.0,0.0,0.0
662713620,662613248,1.0079042,1.0079148,2.2188287,5.358315,5.358326,0.0,0.0,0.0,0.0,0.0,0.0,0.0,0.0,12.486477,0.0,0.0,nan,0.0,0.0,0.09035783,0.0,0.0,0.0,0.0,0.0,0.0,0.0,0.0,0.0
663213506,663113176,0.8583856,0.85839784,1.8774928,5.471432,5.4714465,0.0,0.0,0.0,0.0,0.0,0.0,0.0,0.0,12.490333,0.0,0.0,nan,0.0,0.0,0.09035766,0.0,0.0,0.0,0.0,0.0,0.0,0.0,0.0,0.0
663713774,663613104,1.2754003,1.2754139,2.8109968,5.628299,5.628318,0.0,0.0,0.0,0.0,0.0,0.0,0.0,0.0,12.494701,0.0,0.0,nan,0.0,0.0,0.090357676,0.0,0.0,0.0,0.0,0.0,0.0,0.0,0.0,0.0
664213404,664113032,1.382034,1.3820487,3.0467002,5.7541065,5.7541294,0.0,0.0,0.0,0.0,0.0,0.0,0.0,0.0,12.498767,0.0,0.0,nan,0.0,0.0,0.090357795,0.0,0.0,0.0,0.0,0.0,0.0,0.0,0.0,0.0
664713280,664612960,1.0883132,1.0883299,2.3788447,6.0143447,6.0143733,0.0,0.0,0.0,0.0,0.0,0.0,0.0,0.0,12.501603,0.0,0.0,nan,0.0,0.0,0.090357825,0.0,0.0,0.0,0.0,0.0,0.0,0.0,0.0,0.0
665213196,665112888,0.14592358,0.14594068,0.2557498,6.0964336,6.0964456,0.0,0.0,0.0,0.0,0.0,0.0,0.0,0.0,12.494959,0.0,0.0,nan,0.0,0.0,0.09035776,0.0,0.0,0.0,0.0,0.0,0.0,0.0,0.0,0.0
665713445,665612815,0.6986512,0.6986617,1.5167569,6.174932,6.174946,0.0,0.0,0.0,0.0,0.0,0.0,0.0,0.0,12.49824,0.0,0.0,nan,0.0,0.0,0.09035777,0.0,0.0,0.0,0.0,0.0,0.0,0.0,0.0,0.0
666213106,666112743,0.4212415,0.42125195,0.89194393,6.183394,6.183407,0.0,0.0,0.0,0.0,0.0,0.0,0.0,0.0,12.497369,0.0,0.0,nan,0.0,0.0,0.090357795,0.0,0.0,0.0,0.0,0.0,0.0,0.0,0.0,0.0
666713360,666612670,0.628749,0.628758,1.3628199,6.1732736,6.1732845,0.0,0.0,0.0,0.0,0.0,0.0,0.0,0.0,12.49541,0.0,0.0,nan,0.0,0.0,0.09035773,0.0,0.0,0.0,0.0,0.0,0.0,0.0,0.0,0.0
667212919,667112597,0.7176717,0.71768105,1.5609199,6.1847363,6.1847477,0.0,0.0,0.0,0.0,0.0,0.0,0.0,0.0,12.497953,0.0,0.0,nan,0.0,0.0,0.090357736,0.0,0.0,0.0,0.0,0.0,0.0,0.0,0.0,0.0
667712834,667612524,0.63719994,0.6372092,1.3802825,6.1891203,6.1891313,0.0,0.0,0.0,0.0,0.0,0.0,0.0,0.0,12.49779,0.0,0.0,nan,0.0,0.0,0.090357855,0.0,0.0,0.0,0.0,0.0,0.0,0.0,0.0,0.0
668212813,668112451,0.41002762,0.41003615,0.87193,6.2033777,6.2033863,0.0,0.0,0.0,0.0,0.0,0.0,0.0,0.0,12.493264,0.0,0.0,nan,0.0,0.0,0.09035787,0.0,0.0,0.0,0.0,0.0,0.0,0.0,0.0,0.0
668713255,668612378,0.3673131,0.36732188,0.7751188,6.23816,6.238168,0.0,0.0,0.0,0.0,0.0,0.0,0.0,0.0,12.492846,0.0,0.0,nan,0.0,0.0,0.090357706,0.0,0.0,0.0,0.0,0.0,0.0,0.0,0.0,0.0
669212632,669112305,0.7676301,0.7676382,1.6781216,6.2635,6.263508,0.0,0.0,0.0,0.0,0.0,0.0,0.0,0.0,12.493114,0.0,0.0,nan,0.0,0.0,0.090357825,0.0,0.0,0.0,0.0,0.0,0.0,0.0,0.0,0.0
669712557,669612231,0.7589801,0.7589893,1.6552299,6.3042893,6.304298,0.0,0.0,0.0,0.0,0.0,0.0,0.0,0.0,12.494332,0.0,0.0,nan,0.0,0.0,0.09035784,0.0,0.0,0.0,0.0,0.0,0.0,0.0,0.0,0.0
670212464,670112158,0.52685344,0.52686346,1.1301723,6.318101,6.3181095,0.0,0.0,0.0,0.0,0.0,0.0,0.0,0.0,12.494572,0.0,0.0,nan,0.0,0.0,0.09035777,0.0,0.0,0.0,0.0,0.0,0.0,0.0,0.0,0.0
670712720,670612084,0.6176362,0.61764616,1.3349506,6.3093824,6.309391,0.0,0.0,0.0,0.0,0.0,0.0,0.0,0.0,12.495777,0.0,0.0,nan,0.0,0.0,0.09035778,0.0,0.0,0.0,0.0,0.0,0.0,0.0,0.0,0.0
671212322,671112010,0.41981912,0.41982594,0.90186995,6.221595,6.2215996,0.0,0.0,0.0,0.0,0.0,0.0,0.0,0.0,12.485912,0.0,0.0,nan,0.0,0.0,0.0903578,0.0,0.0,0.0,0.0,0.0,0.0,0.0,0.0,0.0
671712241,671611936,0.36934823,0.3693556,0.7874622,6.1520715,6.152076,0.0,0.0,0.0,0.0,0.0,0.0,0.0,0.0,12.486678,0.0,0.0,nan,0.0,0.0,0.09035773,0.0,0.0,0.0,0.0,0.0,0.0,0.0,0.0,0.0
672212227,672111862,0.2119026,0.21190986,0.43521672,5.9742208,5.9742236,0.0,0.0,0.0,0.0,0.0,0.0,0.0,0.0,12.481126,0.0,0.0,nan,0.0,0.0,0.09035775,0.0,0.0,0.0,0.0,0.0,0.0,0.0,0.0,0.0
672712469,672611788,0.4770891,0.4770963,1.0330011,5.879622,5.879625,0.0,0.0,0.0,0.0,0.0,0.0,0.0,0.0,12.482896,0.0,0.0,nan,0.0,0.0,0.09035776,0.0,0.0,0.0,0.0,0.0,0.0,0.0,0.0,0.0
673212118,673111713,0.2989574,0.29896462,0.6324246,5.8019934,5.8019958,0.0,0.0,0.0,0.0,0.0,0.0,0.0,0.0,12.48006,0.0,0.0,nan,0.0,0.0,0.09035789,0.0,0.0,0.0,0.0,0.0,0.0,0.0,0.0,0.0
673712343,673611639,0.571163,0.57117003,1.2456831,5.7017164,5.7017193,0.0,0.0,0.0,0.0,0.0,0.0,0.0,0.0,12.480701,0.0,0.0,nan,0.0,0.0,0.090357706,0.0,0.0,0.0,0.0,0.0,0.0,0.0,0.0,0.0
674212012,674111564,0.34526932,0.34527746,0.7330878,5.6925344,5.692538,0.0,0.0,0.0,0.0,0.0,0.0,0.0,0.0,12.480386,0.0,0.0,nan,0.0,0.0,0.09035783,0.0,0.0,0.0,0.0,0.0,0.0,0.0,0.0,0.0
674711851,674611489,0.49084276,0.49085075,1.0607382,5.64619,5.646194,0.0,0.0,0.0,0.0,0.0,0.0,0.0,0.0,12.482615,0.0,0.0,nan,0.0,0.0,0.09035783,0.0,0.0,0.0,0.0,0.0,0.0,0.0,0.0,0.0
675211771,675111415,0.3450815,0.3450887,0.73535264,5.5712576,5.5712605,0.0,0.0,0.0,0.0,0.0,0.0,0.0,0.0,12.478662,0.0,0.0,nan,0.0,0.0,0.090357855,0.0,0.0,0.0,0.0,0.0,0.0,0.0,0.0,0.0
675711668,675611340,0.41156104,0.41156808,0.88485444,5.5378885,5.5378914,0.0,0.0,0.0,0.0,0.0,0.0,0.0,0.0,12.479802,0.0,0.0,nan,0.0,0.0,0.09035779,0.0,0.0,0.0,0.0,0.0,0.0,0.0,0.0,0.0
676211721,676111264,0.46626952,0.46627435,1.0171481,5.453704,5.4537053,0.0,0.0,0.0,0.0,0.0,0.0,0.0,0.0,12.47127,0.0,0.0,nan,0.0,0.0,0.0903578,0.0,0.0,0.0,0.0,0.0,0.0,0.0,0.0,0.0
676711528,676611189,0.36225635,0.36226177,0.78102434,5.41654,5.4165416,0.0,0.0,0.0,0.0,0.0,0.0,0.0,0.0,12.473108,0.0,0.0,nan,0.0,0.0,0.090357736,0.0,0.0,0.0,0.0,0.0,0.0,0.0,0.0,0.0
677211420,677111114,0.4246887,0.42469504,0.9182262,5.3610225,5.361025,0.0,0.0,0.0,0.0,0.0,0.0,0.0,0.0,12.473049,0.0,0.0,nan,0.0,0.0,0.09035774,0.0,0.0,0.0,0.0,0.0,0.0,0.0,0.0,0.0
677711384,677611038,0.5319592,0.53196603,1.1575711,5.3185105,5.318514,0.0,0.0,0.0,0.0,0.0,0.0,0.0,0.0,12.476705,0.0,0.0,nan,0.0,0.0,0.090357766,0.0,0.0,0.0,0.0,0.0,0.0,0.0,0.0,0.0
678211403,678110962,0.22161955,0.22162695,0.4566863,5.220772,5.220775,0.0,0.0,0.0,0.0,0.0,0.0,0.0,0.0,12.474906,0.0,0.0,nan,0.0,0.0,0.09035789,0.0,0.0,0.0,0.0,0.0,0.0,0.0,0.0,0.0
678711189,678610886,0.36904475,0.3690517,0.78970176,5.204014,5.204017,0.0,0.0,0.0,0.0,0.0,0.0,0.0,0.0,12.477064,0.0,0.0,nan,0.0,0.0,0.09035771,0.0,0.0,0.0,0.0,0.0,0.0,0.0,0.0,0.0
679211188,679110810,0.14167795,0.1416848,0.27729833,5.1347747,5.1347766,0.0,0.0,0.0,0.0,0.0,0.0,0.0,0.0,12.471643,0.0,0.0,nan,0.0,0.0,0.09035772,0.0,0.0,0.0,0.0,0.0,0.0,0.0,0.0,0.0
679711037,679610734,0.5213604,0.52136505,1.1408917,5.1211753,5.121177,0.0,0.0,0.0,0.0,0.0,0.0,0.0,0.0,12.47145,0.0,0.0,nan,0.0,0.0,0.090357855,0.0,0.0,0.0,0.0,0.0,0.0,0.0,0.0,0.0
680211037,680110658,0.3473256,0.34733126,0.7451527,5.0883036,5.088306,0.0,0.0,0.0,0.0,0.0,0.0,0.0,0.0,12.4727545,0.0,0.0,nan,0.0,0.0,0.09035786,0.0,0.0,0.0,0.0,0.0,0.0,0.0,0.0,0.0
680710891,680610582,0.34902677,0.34903273,0.7477771,5.05463,5.0546327,0.0,0.0,0.0,0.0,0.0,0.0,0.0,0.0,12.474156,0.0,0.0,nan,0.0,0.0,0.09035779,0.0,0.0,0.0,0.0,0.0,0.0,0.0,0.0,0.0
681210877,681110505,0.35267773,0.35268372,0.75558865,5.0150485,5.0150514,0.0,0.0,0.0,0.0,0.0,0.0,0.0,0.0,12.47297,0.0,0.0,nan,0.0,0.0,0.09035781,0.0,0.0,0.0,0.0,0.0,0.0,0.0,0.0,0.0
681710793,681610429,0.46788105,0.4678869,1.0149015,4.9936438,4.9936466,0.0,0.0,0.0,0.0,0.0,0.0,0.0,0.0,12.475593,0.0,0.0,nan,0.0,0.0,0.09035783,0.0,0.0,0.0,0.0,0.0,0.0,0.0,0.0,0.0
682210659,682110352,0.51421607,0.5142223,1.1164227,4.9770713,4.977075,0.0,0.0,0.0,0.0,0.0,0.0,0.0,0.0,12.476074,0.0,0.0,nan,0.0,0.0,0.09035776,0.0,0.0,0.0,0.0,0.0,0.0,0.0,0.0,0.0
682710708,682610275,0.48091465,0.48092055,1.0422294,4.9577074,4.957711,0.0,0.0,0.0,0.0,0.0,0.0,0.0,0.0,12.47772,0.0,0.0,nan,0.0,0.0,0.090357766,0.0,0.0,0.0,0.0,0.0,0.0,0.0,0.0,0.0
683210523,683110198,0.49105188,0.49105763,1.0637681,4.9341984,4.9342027,0.0,0.0,0.0,0.0,0.0,0.0,0.0,0.0,12.477813,0.0,0.0,nan,0.0,0.0,0.09035789,0.0,0.0,0.0,0.0,0.0,0.0,0.0,0.0,0.0
683710542,683610121,0.3461232,0.3461293,0.73577845,4.931441,4.931445,0.0,0.0,0.0,0.0,0.0,0.0,0.0,0.0,12.479851,0.0,0.0,nan,0.0,0.0,0.09035791,0.0,0.0,0.0,0.0,0.0,0.0,0.0,0.0,0.0
684210343,684110043,0.5554397,0.5554451,1.209718,4.907604,4.907608,0.0,0.0,0.0,0.0,0.0,0.0,0.0,0.0,12.478512,0.0,0.0,nan,0.0,0.0,0.09035772,0.0,0.0,0.0,0.0,0.0,0.0,0.0,0.0,0.0
684710320,684609966,0.23323552,0.23323958,0.4905564,4.891168,4.89117,0.0,0.0,0.0,0.0,0.0,0.0,0.0,0.0,12.47276,0.0,0.0,nan,0.0,0.0,0.09035784,0.0,0.0,0.0,0.0,0.0,0.0,0.0,0.0,0.0
685210229,685109889,0.20626022,0.20626414,0.43049243,4.8998504,4.899852,0.0,0.0,0.0,0.0,0.0,0.0,0.0,0.0,12.46949,0.0,0.0,nan,0.0,0.0,0.09035786,0.0,0.0,0.0,0.0,0.0,0.0,0.0,0.0,0.0
685710167,685609811,0.5305438,0.53054774,1.1602472,4.9043403,4.904342,0.0,0.0,0.0,0.0,0.0,0.0,0.0,0.0,12.472383,0.0,0.0,nan,0.0,0.0,0.09035779,0.0,0.0,0.0,0.0,0.0,0.0,0.0,0.0,0.0
686210115,686109734,0.23586068,0.23586543,0.49300534,4.9013915,4.9013934,0.0,0.0,0.0,0.0,0.0,0.0,0.0,0.0,12.473127,0.0,0.0,nan,0.0,0.0,0.090357825,0.0,0.0,0.0,0.0,0.0,0.0,0.0,0.0,0.0
686709965,686609656,0.5603059,0.56031066,1.2224599,4.925161,4.9251633,0.0,0.0,0.0,0.0,0.0,0.0,0.0,0.0,12.476669,0.0,0.0,nan,0.0,0.0,0.090357825,0.0,0.0,0.0,0.0,0.0,0.0,0.0,0.0,0.0
687210016,687109577,0.3832454,0.38325092,0.819303,4.971696,4.971699,0.0,0.0,0.0,0.0,0.0,0.0,0.0,0.0,12.477476,0.0,0.0,nan,0.0,0.0,0.09035776,0.0,0.0,0.0,0.0,0.0,0.0,0.0,0.0,0.0
687709960,687609499,0.6899835,0.6899891,1.50828,5.009709,5.0097127,0.0,0.0,0.0,0.0,0.0,0.0,0.0,0.0,12.481518,0.0,0.0,nan,0.0,0.0,0.090357766,0.0,0.0,0.0,0.0,0.0,0.0,0.0,0.0,0.0
688209780,688109421,0.6492976,0.6493028,1.418223,5.0045686,5.0045724,0.0,0.0,0.0,0.0,0.0,0.0,0.0,0.0,12.480911,0.0,0.0,nan,0.0,0.0,0.090357795,0.0,0.0,0.0,0.0,0.0,0.0,0.0,0.0,0.0
688709651,688609343,0.5829727,0.5829782,1.2664851,4.979478,4.979482,0.0,0.0,0.0,0.0,0.0,0.0,0.0,0.0,12.483536,0.0,0.0,nan,0.0,0.0,0.09035791,0.0,0.0,0.0,0.0,0.0,0.0,0.0,0.0,0.0
689209624,689109264,0.118497804,0.118503064,0.22033438,4.981892,4.981894,0.0,0.0,0.0,0.0,0.0,0.0,0.0,0.0,12.475102,0.0,0.0,nan,0.0,0.0,0.09035793,0.0,0.0,0.0,0.0,0.0,0.0,0.0,0.0,0.0
689709570,689609186,0.41514555,0.41514903,0.89853835,4.9565606,4.9565625,0.0,0.0,0.0,0.0,0.0,0.0,0.0,0.0,12.477242,0.0,0.0,nan,0.0,0.0,0.090357855,0.0,0.0,0.0,0.0,0.0,0.0,0.0,0.0,0.0
690209419,690109107,0.3095999,0.30960366,0.6606566,4.906195,4.9061966,0.0,0.0,0.0,0.0,0.0,0.0,0.0,0.0,12.474785,0.0,0.0,nan,0.0,0.0,0.09035787,0.0,0.0,0.0,0.0,0.0,0.0,0.0,0.0,0.0
690709329,690609028,0.4395431,0.43954697,0.95275855,4.890322,4.890324,0.0,0.0,0.0,0.0,0.0,0.0,0.0,0.0,12.476449,0.0,0.0,nan,0.0,0.0,0.09035798,0.0,0.0,0.0,0.0,0.0,0.0,0.0,0.0,0.0
691209283,691108949,0.20065975,0.20066383,0.41379488,4.7744193,4.7744203,0.0,0.0,0.0,0.0,0.0,0.0,0.0,0.0,12.473022,0.0,0.0,nan,0.0,0.0,0.09035798,0.0,0.0,0.0,0.0,0.0,0.0,0.0,0.0,0.0
691709302,691608870,0.39535728,0.39536098,0.8539473,4.7115183,4.7115197,0.0,0.0,0.0,0.0,0.0,0.0,0.0,0.0,12.475648,0.0,0.0,nan,0.0,0.0,0.090358004,0.0,0.0,0.0,0.0,0.0,0.0,0.0,0.0,0.0
692209166,692108791,0.48806348,0.48806766,1.0602641,4.714728,4.7147293,0.0,0.0,0.0,0.0,0.0,0.0,0.0,0.0,12.476254,0.0,0.0,nan,0.0,0.0,0.09035792,0.0,0.0,0.0,0.0,0.0,0.0,0.0,0.0,0.0
692709018,692608712,0.2885858,0.28859037,0.6092439,4.718824,4.718826,0.0,0.0,0.0,0.0,0.0,0.0,0.0,0.0,12.478081,0.0,0.0,nan,0.0,0.0,0.09035793,0.0,0.0,0.0,0.0,0.0,0.0,0.0,0.0,0.0
693209096,693108632,0.56690645,0.5669109,1.2358997,4.747094,4.747096,0.0,0.0,0.0,0.0,0.0,0.0,0.0,0.0,12.477756,0.0,0.0,nan,0.0,0.0,0.09035793,0.0,0.0,0.0,0.0,0.0,0.0,0.0,0.0,0.0
693708943,693608552,0.5335671,0.53357196,1.1581064,4.769957,4.76996,0.0,0.0,0.0,0.0,0.0,0.0,0.0,0.0,12.481804,0.0,0.0,nan,0.0,0.0,0.09035805,0.0,0.0,0.0,0.0,0.0,0.0,0.0,0.0,0.0
694208831,694108473,0.2273444,0.22734946,0.46710032,4.779447,4.7794495,0.0,0.0,0.0,0.0,0.0,0.0,0.0,0.0,12.479506,0.0,0.0,nan,0.0,0.0,0.09035806,0.0,0.0,0.0,0.0,0.0,0.0,0.0,0.0,0.0
694708701,694608393,0.39986807,0.39987236,0.8598759,4.755817,4.755819,0.0,0.0,0.0,0.0,0.0,0.0,0.0,0.0,12.479661,0.0,0.0,nan,0.0,0.0,0.09035799,0.0,0.0,0.0,0.0,0.0,0.0,0.0,0.0,0.0
695208632,695108313,0.6554282,0.65543294,1.4323658,4.794134,4.7941375,0.0,0.0,0.0,0.0,0.0,0.0,0.0,0.0,12.480398,0.0,0.0,nan,0.0,0.0,0.09035799,0.0,0.0,0.0,0.0,0.0,0.0,0.0,0.0,0.0
695708720,695608233,0.39193317,0.39193824,0.8384858,4.8025074,4.8025107,0.0,0.0,0.0,0.0,0.0,0.0,0.0,0.0,12.483335,0.0,0.0,nan,0.0,0.0,0.09035801,0.0,0.0,0.0,0.0,0.0,0.0,0.0,0.0,0.0
696208455,696108152,0.76612896,0.76613444,1.6779397,4.8593955,4.8594,0.0,0.0,0.0,0.0,0.0,0.0,0.0,0.0,12.484611,0.0,0.0,nan,0.0,0.0,0.09035794,0.0,0.0,0.0,0.0,0.0,0.0,0.0,0.0,0.0
696708502,696608072,0.13959956,0.13960515,0.26739004,4.859106,4.8591084,0.0,0.0,0.0,0.0,0.0,0.0,0.0,0.0,12.479808,0.0,0.0,nan,0.0,0.0,0.09035795,0.0,0.0,0.0,0.0,0.0,0.0,0.0,0.0,0.0
697208311,697107992,0.28360015,0.2836046,0.5999948,4.848396,4.848398,0.0,0.0,0.0,0.0,0.0,0.0,0.0,0.0,12.477496,0.0,0.0,nan,0.0,0.0,0.09035806,0.0,0.0,0.0,0.0,0.0,0.0,0.0,0.0,0.0
697708269,697607911,0.25535092,0.25535575,0.5354279,4.8656983,4.8657002,0.0,0.0,0.0,0.0,0.0,0.0,0.0,0.0,12.479341,0.0,0.0,nan,0.0,0.0,0.090357885,0.0,0.0,0.0,0.0,0.0,0.0,0.0,0.0,0.0
698218134,698117829,0.5290489,0.5290541,1.1512669,4.866747,4.86675,0.0,0.0,0.0,0.0,0.0,0.0,0.0,0.0,12.478761,0.0,0.0,nan,0.0,0.0,0.090357885,0.0,0.0,0.0,0.0,0.0,0.0,0.0,0.0,0.0
698708101,698607749,0.38300893,0.383014,0.8242447,4.857473,4.857475,0.0,0.0,0.0,0.0,0.0,0.0,0.0,0.0,12.478219,0.0,0.0,nan,0.0,0.0,0.09035801,0.0,0.0,0.0,0.0,0.0,0.0,0.0,0.0,0.0
699208010,699107669,0.50238526,0.50239086,1.0914292,4.8568373,4.85684,0.0,0.0,0.0,0.0,0.0,0.0,0.0,0.0,12.4783535,0.0,0.0,nan,0.0,0.0,0.09035803,0.0,0.0,0.0,0.0,0.0,0.0,0.0,0.0,0.0
699707935,699607587,0.34632427,0.34632993,0.7403289,4.8411684,4.841171,0.0,0.0,0.0,0.0,0.0,0.0,0.0,0.0,12.478229,0.0,0.0,nan,0.0,0.0,0.09035814,0.0,0.0,0.0,0.0,0.0,0.0,0.0,0.0,0.0
700207845,700107506,0.63451356,0.6345191,1.3893687,4.8562183,4.856221,0.0,0.0,0.0,0.0,0.0,0.0,0.0,0.0,12.477455,0.0,0.0,nan,0.0,0.0,0.09035814,0.0,0.0,0.0,0.0,0.0,0.0,0.0,0.0,0.0
700707780,700607425,0.5558432,0.5558494,1.2095903,4.8908305,4.890834,0.0,0.0,0.0,0.0,0.0,0.0,0.0,0.0,12.4807625,0.0,0.0,nan,0.0,0.0,0.090358146,0.0,0.0,0.0,0.0,0.0,0.0,0.0,0.0,0.0
701217763,701117342,0.5757814,0.5757885,1.24971,4.9618893,4.9618945,0.0,0.0,0.0,0.0,0.0,0.0,0.0,0.0,12.482676,0.0,0.0,nan,0.0,0.0,0.09035808,0.0,0.0,0.0,0.0,0.0,0.0,0.0,0.0,0.0
701717652,701617260,0.32750034,0.32750785,0.68865824,4.9977193,4.9977245,0.0,0.0,0.0,0.0,0.0,0.0,0.0,0.0,12.485007,0.0,0.0,nan,0.0,0.0,0.09035808,0.0,0.0,0.0,0.0,0.0,0.0,0.0,0.0,0.0
702207537,702107180,0.5997999,0.59980726,1.300608,5.0383334,5.03834,0.0,0.0,0.0,0.0,0.0,0.0,0.0,0.0,12.486628,0.0,0.0,nan,0.0,0.0,0.0903582,0.0,0.0,0.0,0.0,0.0,0.0,0.0,0.0,0.0
702707407,702607098,0.54020756,0.54021496,1.1651412,5.0474477,5.047455,0.0,0.0,0.0,0.0,0.0,0.0,0.0,0.0,12.488345,0.0,0.0,nan,0.0,0.0,0.090358205,0.0,0.0,0.0,0.0,0.0,0.0,0.0,0.0,0.0
703207379,703107016,0.64629227,0.6462991,1.4045745,5.071551,5.071558,0.0,0.0,0.0,0.0,0.0,0.0,0.0,0.0,12.488651,0.0,0.0,nan,0.0,0.0,0.09035802,0.0,0.0,0.0,0.0,0.0,0.0,0.0,0.0,0.0
703707280,703606934,0.6003192,0.60032594,1.3007253,5.1040344,5.1040416,0.0,0.0,0.0,0.0,0.0,0.0,0.0,0.0,12.491108,0.0,0.0,nan,0.0,0.0,0.09035813,0.0,0.0,0.0,0.0,0.0,0.0,0.0,0.0,0.0
704217180,704116851,0.7369277,0.73693454,1.606003,5.139937,5.139945,0.0,0.0,0.0,0.0,0.0,0.0,0.0,0.0,12.49232,0.0,0.0,nan,0.0,0.0,0.09035814,0.0,0.0,0.0,0.0,0.0,0.0,0.0,0.0,0.0
704717159,704616768,0.53258914,0.5325958,1.1463394,5.174964,5.1749716,0.0,0.0,0.0,0.0,0.0,0.0,0.0,0.0,12.492764,0.0,0.0,nan,0.0,0.0,0.090358146,0.0,0.0,0.0,0.0,0.0,0.0,0.0,0.0,0.0
705217047,705116687,0.39040712,0.3904138,0.8256531,5.2200065,5.220013,0.0,0.0,0.0,0.0,0.0,0.0,0.0,0.0,12.493129,0.0,0.0,nan,0.0,0.0,0.09035807,0.0,0.0,0.0,0.0,0.0,0.0,0.0,0.0,0.0
