timestamp,timestamp_sample,xyz[0],xyz[1],xyz[2]
539373768,539373583,0.0018494725,0.0032589333,-0.00010736147
539376257,539376072,0.002632754,0.0041502337,5.022157e-05
539396161,539395981,0.0038789613,0.002541427,-0.0010613613
539413583,539413401,0.0011858754,0.002654736,-0.0013307945
539435979,539435799,0.0013964623,0.0024356176,-0.0011203294
539455916,539455708,0.0011027865,0.002027182,-0.0013522082
539478290,539478106,-8.128025e-05,0.0012734525,-0.0012487737
539495710,539495527,-0.001063792,-0.0006492614,-0.0014052056
539515622,539515436,-0.0015234556,-0.00012156344,-0.001012678
539538059,539537834,-0.0050646104,-0.002917913,-0.0019008901
539555437,539555255,-0.0102095045,-0.005266512,-0.00125714
539575345,539575164,-0.01589787,-0.007432322,-0.0016111436
539597742,539597562,-0.0027441792,-0.0053967116,-0.0004071165
539617653,539617471,0.00039507635,-0.008307811,-0.0014295569
539635073,539634891,-0.0008296557,-0.0065673133,-0.0010929592
539657473,539657289,-0.007695632,-0.010532888,-0.0005357
539677383,539677202,-0.0029893257,-0.009324797,-0.00037868228
539694803,539694619,-0.00090773404,-0.008770071,-0.0004885199
539714712,539714528,0.0010204576,-0.008292705,-0.00038184924
539737107,539736926,-0.000916563,-0.010057466,0.00021057762
539757016,539756835,0.0028387364,-0.006952562,-0.00044287462
539774438,539774256,0.006510376,-0.0046378737,-0.00023528165
539796833,539796654,0.005700565,-0.004063965,-0.00031955284
539816746,539816563,0.0029769754,-0.0026734998,-5.625072e-05
539834164,539833983,0.0048468504,-0.0003236878,-0.0004253604
539856560,539856381,0.004375374,-0.00031896622,-0.0009526692
539876472,539876291,0.005697811,0.0036210772,-0.00032696011
539898871,539898688,0.0054844655,0.0036972906,-0.000983994
539916289,539916109,0.0064834533,0.0051561007,-0.0011154346
539936198,539936018,0.007836417,0.00808762,-0.0009846999
539956108,539955927,0.01155326,0.011278376,-0.0007765854
539973530,539973348,0.010761453,0.008013412,-0.0011458767
539995927,539995746,0.0042497367,0.0043989434,-0.0012066276
540015853,540015655,-0.0068287216,0.0032855999,-0.001749547
540038233,540038053,-0.0035645738,0.0021841992,-0.0006662216
540055656,540055473,-0.0013375431,0.003154336,-0.0011579907
540075565,540075383,-0.0004360769,-0.0013372382,-0.0011028214
540097963,540097781,-0.0042463094,-0.005392356,-0.0006666754
540115382,540115201,-0.005396113,-0.0067499587,-0.00087963557
540135292,540135110,-0.0023215879,-0.007052417,-0.00054170866
540157693,540157508,-0.0014486182,-0.008035063,-0.00047561526
540177599,540177417,-0.006852096,-0.011573269,-0.00039822026
540195020,540194838,-0.005644694,-0.009974485,-0.00024442235
540217418,540217236,-0.0013417024,-0.010225869,-0.0005707976
540237327,540237145,-0.0016301349,-0.008820785,-0.00038944557
540254748,540254565,-0.0065498706,-0.008938167,-0.00076537207
540274658,540274475,-0.002684731,-0.0041049244,-0.0011366641
540297054,540296873,-0.004574841,-0.0040445407,-0.0009588881
540316962,540316782,-0.0041597076,-0.0029971877,0.00031896774
540334382,540334202,-0.0021026507,-0.0027947398,-0.0004878149
540356781,540356600,0.001639707,0.0028345108,-0.00018983847
540376688,540376509,0.0045643346,0.0050242795,-0.0006990968
540394110,540393930,0.0015753191,0.005389993,-0.00092349015
540416508,540416328,0.001479974,0.0065282406,-0.0014708797
540436416,540436237,0.004577973,0.009794084,-0.0007858996
540458816,540458635,0.0019895583,0.009668341,-0.00081512285
540476234,540476055,0.0008411445,0.009124489,-0.0014304675
540496143,540495965,-0.00021793507,0.0091324905,-0.001278969
540516052,540515874,0.0013662335,0.009707076,-0.001112327
540535967,540535783,9.099022e-06,0.007954894,-0.0016745571
540555870,540555692,-0.0031404458,0.00700737,-0.00126751
540575788,540575603,-0.0046034995,0.0070705554,-0.0010533857
540598178,540597999,-0.004549697,0.007307628,-0.00093607465
540615602,540615420,-0.005651569,0.006399406,-0.0012756521
540635515,540635329,-0.007806219,0.006783098,-0.001478619
540657907,540657727,-0.008441882,0.0059330417,-0.0014064929
540675329,540675148,-0.007306056,0.006087864,-0.0010759053
540695237,540695057,-0.0070479847,0.005149913,-0.001081205
540717696,540717455,-0.0050395336,0.0014090964,-0.00063482043
540737563,540737364,-0.0055495556,0.001146711,-0.00075885537
540754963,540754784,-0.0045610294,0.001141646,-0.0006808373
540777364,540777182,-0.0041144993,0.0014265459,-6.801309e-05
540797270,540797091,-0.0019942708,0.0007798262,-0.00071701175
540814691,540814512,0.0003977213,0.0017287112,-0.0004794714
540834599,540834421,0.0029224698,0.0028342835,-0.0010655166
540856997,540856819,0.0029131845,0.0036526911,-0.001237127
540876906,540876728,0.0034162216,0.004772162,-0.00055439724
540894330,540894149,0.0018473268,0.0057534967,-0.0005026753
540916724,540916547,0.0047930777,0.006832543,-0.0005678281
540936636,540936456,0.0045505892,0.0067916624,-0.0011324182
540954056,540953876,0.0044033267,0.007417286,-0.0009713387
540976452,540976274,0.004798455,0.006910423,-0.0016965447
540996361,540996183,0.0044197533,0.008340169,-0.0011136038
541018761,541018581,0.0015506055,0.0055386173,-0.001003942
541036178,541036002,0.0005122721,0.0045882855,-0.0012164207
541056089,541055911,0.00082462654,0.0030851627,-0.0014890837
541078492,541078309,0.0010400694,0.00065138517,-0.0012704302
541095906,541095730,-0.00094248913,-0.0023048045,-0.0008388029
541115819,541115639,-0.002482796,-0.004334904,-0.0014546355
541135727,541135548,-0.001995029,-0.0044961944,-0.0001331002
541158126,541157946,-0.0038074534,-0.0048859576,-0.00057422835
541175545,541175366,-0.0034017116,-0.0047936616,-0.0007089628
541195454,541195276,-0.001491772,-0.0048942724,9.564962e-05
541217854,541217673,0.0010606349,-0.0051511144,-0.00050291605
541235273,541235094,0.00012963824,-0.0043007657,-0.00034572743
541255181,541255003,-0.0013179015,-0.0033406722,-9.9097146e-05
541277581,541277401,-0.00037228875,-0.002447882,-0.00053509464
541297490,541297310,0.003007342,-0.0008452459,-0.00013062032
541314910,541314731,0.0046860278,-2.8182054e-05,-0.00021149428
541337307,541337129,0.0047998037,0.0001364653,-0.00015496137
541357218,541357038,0.005539462,0.0008131624,-0.0007696294
541374641,541374459,0.0054062093,0.0012018892,-8.799159e-05
541394548,541394368,0.004414892,-0.00023510784,-0.0008324946
541416946,541416766,0.0052801203,0.00079009053,-0.0010910938
541436858,541436678,0.0062863342,0.0007350568,-0.00034204032
541454275,541454095,0.0062777987,0.0019613921,-0.0010212332
541476673,541476493,0.0048109777,0.0034228482,-0.0011867199
541496582,541496402,0.0027716095,0.0032857822,-0.0009790373
541514004,541513823,0.0029941183,0.004965472,-0.0019463929
541536398,541536221,0.0025611296,0.0032532045,-0.00044781854
541556309,541556130,0.00026793592,0.0028105315,-0.0016507031
541578710,541578530,-0.0023255646,0.00041945046,-0.0010348544
541596126,541595949,-0.0036354288,-0.0019621553,-0.0014970643
541616036,541615858,-0.002426682,-0.002409,-0.0015463778
541638435,541638256,-0.0040264484,-0.005129383,-0.0014880807
541655862,541655676,-0.004632598,-0.0053848345,-0.00066748983
541675765,541675585,-0.005821986,-0.0065770634,-0.0013832289
541695673,541695495,-0.005120944,-0.006358643,-0.00056168647
541718071,541717892,-0.0052992534,-0.0067530684,-0.0008881299
541735494,541735313,-0.0052415915,-0.0066868775,-0.0010740475
541755405,541755222,-0.0045833085,-0.007151827,-0.0010051611
541777803,541777620,-0.0041166805,-0.008442228,-0.00062977313
541795221,541795041,-0.0032347627,-0.0085833445,-0.0006295354
541815132,541814950,-0.0023782663,-0.008900314,-0.00074126385
541837529,541837348,-0.0012604259,-0.0073751705,-0.00093776174
541857439,541857257,0.00028848834,-0.0058179563,0.00023776526
541874858,541874678,0.00059004314,-0.005418102,-0.0006072782
541897258,541897075,0.0024189278,-0.005525904,4.28278e-05
541917165,541916985,0.0038600396,-0.002896841,-0.001199868
541934642,541934405,0.006082222,-0.002610631,-0.00040397
541956980,541956803,0.0046810117,-0.0014667597,-0.00086295
541976893,541976712,0.0040844204,-0.0008706206,-0.0009324453
541996800,541996621,0.0039017256,0.00038106903,-0.0008199692
542014220,542014042,0.0035785474,0.0006096484,-0.0014843987
542036621,542036440,0.0026903376,-0.0008377938,-0.002009024
542056530,542056349,0.0022972748,-0.0012131773,-0.0007295753
542073948,542073770,0.00043120421,-0.0020653151,-0.00029084855
542096348,542096168,-0.001588881,-0.0035137588,-0.0008373216
542116254,542116077,-0.0026755705,-0.0036909727,0.00015425682
542138658,542138475,-0.0032251757,-0.004426052,-0.0008324529
542156073,542155895,-0.004495945,-0.0045121494,-0.00097515923
542175982,542175804,-0.0036511514,-0.005388724,-0.0009825153
542198383,542198202,-0.0014015865,-0.005424967,-0.0005835886
542215800,542215623,-0.0014453009,-0.0054099085,-0.0006884348
542235710,542235532,-0.001081394,-0.0052269874,-0.0012044115
542258110,542257930,-0.0013610385,-0.004856254,-0.0012057566
542278022,542277839,6.636977e-05,-0.0030379298,-0.0010878437
542295438,542295260,-0.0012330506,-0.002342622,-0.0004996117
542315352,542315169,-0.0018078033,-0.0006658833,-0.00044801924
542337745,542337567,-0.000977559,0.00036920304,-0.0004049649
542355170,542354987,0.0011506286,0.0012373494,-0.0002445418
542375076,542374897,-0.00016589649,0.0015631793,-0.00079334364
542397478,542397294,-0.001133224,0.002309537,-0.00079644774
542417382,542417204,-0.0013391636,0.0039785546,-0.0008510256
542434803,542434624,-0.0013740323,0.0051422385,-0.0007302426
542457201,542457022,-0.0017018393,0.004885077,-0.0010181058
542477111,542476931,-0.0011003446,0.0062128473,-0.0016244252
542494531,542494352,-0.0004198067,0.006732939,-0.0017207193
542516931,542516750,-0.0011872277,0.006566951,-0.00086492253
542536840,542536659,-0.001394352,0.0058531836,-0.0014312847
542556752,542556568,-0.0011245422,0.005225867,-0.00044939085
542574173,542573989,-0.00016976893,0.005551314,-0.00083899195
542596564,542596386,-0.00080885924,0.0035073673,-0.00074897544
542616474,542616296,2.2642314e-05,0.0037078937,-0.0009144312
542633898,542633716,0.00043329783,0.0036641792,-0.00042513898
542656292,542656114,-0.00040179864,0.0018865638,-0.00040575257
542676207,542676023,4.1261315e-05,0.0011033628,-0.0004557455
542698602,542698421,0.00018034875,-0.0007281521,-0.00084893545
542716019,542715842,0.0014031474,-0.0011353684,-0.00089296093
542735931,542735751,-0.00031017885,-0.0019920173,-0.00085886475
542758329,542758149,-0.0021656454,-0.002877857,-0.0014507037
542775749,542775570,-0.0016401839,-0.0035409294,-0.0010029792
542795657,542795479,-0.00016522408,-0.0040915376,-0.0016451059
542818057,542817877,0.0022024158,-0.0033010177,-0.0004054422
542838030,542837786,0.0005165469,-0.0036614856,5.2826945e-06
542855387,542855206,0.00026478432,-0.0027418474,-0.00051951874
542875298,542875116,-0.00018666871,-0.0016286096,-0.0008891367
542897694,542897513,0.00030758046,-0.0006530357,-0.00064066495
542915112,542914934,-0.0018673353,-0.0014826616,-0.00062002847
542935024,542934843,-0.0012534074,6.310572e-05,-0.00077730813
542957419,542957241,-0.0020545926,-0.00010853424,-0.0010847969
542977330,542977150,-0.003297735,-0.00045712758,-0.0010699965
542994752,542994571,-0.0044483,-0.00037863967,-0.0008789003
543017146,543016969,-0.0020576753,0.00012220652,-0.00072842906
543037056,543036878,-0.00070056506,0.0017226022,-0.0002803479
543054479,543054299,-0.0013824943,0.0021262518,-0.0011085151
543076873,543076696,-0.0034449715,0.0023472114,-0.0014294551
543096787,543096606,-0.0011583492,0.0038060988,-0.0009819679
543116696,543116515,-0.0007460546,0.0038010292,-0.0007267264
543134146,543133935,-0.00021195412,0.0041053942,-0.0007693332
543156512,543156333,0.0006932374,0.0039075105,-0.00031903572
543176422,543176242,0.0010869112,0.005969819,-0.0004000524
543193842,543193663,0.0015383251,0.0062174858,-0.0013568557
543216240,543216061,0.0005758628,0.0049611162,-0.0012845702
543236147,543235970,0.0008037109,0.0043985555,-0.00066457014
543258549,543258368,0.00089251995,0.0045606405,-0.00093384436
543275968,543275789,0.00020700507,0.004260559,-0.0012286431
543295876,543295698,-0.0021424927,0.0053229686,-0.00090153096
543318277,543318096,-0.0009603221,0.0033083125,-0.0013658588
543335694,543335516,-0.00054802,0.0036471742,-0.0010718189
543355604,543355425,-0.00303513,0.0028157542,-0.0010831056
543378004,543377823,-0.0038596485,0.0030598259,-0.00084191794
543395460,543395244,-0.0045466833,0.0018428592,-0.00022032531
543415330,543415153,-0.005307466,0.0023063705,-0.00096311537
543435244,543435062,-0.0033729225,0.0020163972,-0.00074383616
543457641,543457460,-0.0032390542,0.001980402,-0.0011363232
543475059,543474881,-0.004319977,0.0023691016,-0.0010477544
543494971,543494790,-0.0065608397,0.0028987047,-0.0012113038
543517366,543517188,-0.006563697,0.004778804,-0.0005939191
543537276,543537097,-0.00544093,0.0061896914,-0.0015541562
543554699,543554518,-0.0040324237,0.0061796946,-0.0012532321
543577095,543576916,-0.0031255614,0.005652596,-0.00075785955
543597004,543596825,-0.0038522612,0.004516104,-0.0010357944
543614427,543614245,-0.0016700961,0.0030923695,-0.0006836257
543636822,543636643,-0.0013790801,0.0020454568,-0.00062711607
543656731,543656552,-0.001506146,0.00083426945,-0.00092917867
543676644,543676462,-0.0016382802,0.00022693537,-0.00055981986
543694072,543693887,-0.0011978,0.000578986,-0.00017134147
543716460,543716280,0.00075438246,0.0005479383,-0.00082796975
543736367,543736189,0.0010507684,0.001697382,-0.00037899613
543753794,543753610,0.00074084476,0.0027839532,-0.00085868384
543776186,543776008,-0.0004351642,0.003835904,-0.00041999086
543796096,543795917,0.0008870959,0.0026540163,-0.0006147695
543818499,543818315,0.0015215352,0.0018217026,-0.0006013524
543835915,543835735,3.2220036e-05,0.0030174272,-0.0007701318
543855823,543855645,0.0004217662,0.004053775,-0.001134159
543878223,543878043,0.0006265901,0.0021622695,-0.00055999495
543895643,543895463,-0.0009738989,0.0023570291,-0.0009389401
543915550,543915372,-0.0020401403,0.002147706,-0.00028616446
543937956,543937770,-0.0037236363,-0.0014983336,-0.000481972
543957899,543957679,0.0015364625,9.717862e-05,-0.00076077203
543975280,543975100,-0.002535319,0.001925139,-0.00057788193
543995190,543995009,0.0011373702,0.00067944033,-0.000548644
544017587,544017407,0.002715622,-0.001617901,-0.00090172584
544035008,544034828,0.005664671,-0.0033345737,-0.0002913638
544054922,544054737,0.004449839,-0.0007393437,-0.0010307801
544077314,544077135,-9.813532e-05,-0.0022668287,-0.00054939487
544097225,544097046,-0.0016441736,-0.002397836,-0.0013306225
544114648,544114466,4.2025e-05,-0.0028596995,-0.0005891137
544137041,544136862,0.00035653077,-0.0029768592,-0.0004268873
544156949,544156772,-0.00057035685,-0.0041007693,-0.0012249639
544174372,544174192,-0.0017844308,-0.0028070873,-0.0009597528
544196770,544196590,-0.0014099609,-0.00357362,-0.00046621473
544216677,544216499,-0.0028387979,-0.0035694474,-0.0009335987
544236590,544236408,-0.0018711071,-0.0051985076,-0.0008446085
544256500,544256318,-0.0009666011,-0.0047606463,-0.00016200938
544276404,544276227,-0.0005897414,-0.0044380054,-0.00081097847
544296318,544296136,-0.0020998362,-0.0035939445,-0.00016367366
544313780,544313557,-0.0028233696,-0.0056212526,-0.00083317235
544336132,544335955,-0.00032084435,-0.0049557155,-0.0005538857
544356041,544355864,0.0020991154,-0.004509316,-0.00012246124
544378439,544378262,0.0004386343,-0.0034951842,-0.00053908513
544395860,544395682,0.00025992095,-0.003236905,-0.00050392956
544415771,544415592,0.003254814,-0.0036199996,-0.00012576627
544438169,544437989,0.003835651,-0.004036797,-0.00025200634
544455589,544455410,0.0024812594,-0.004688522,-0.0003072396
544475501,544475319,0.0032765558,-0.0011305212,-0.00048977765
544497898,544497717,0.00041556358,-0.00069480564,-0.0003786988
544517834,544517626,0.0045078704,-0.00054950034,-0.001038329
544535228,544535047,0.005545739,-0.0013077632,-0.00020568259
544555139,544554960,0.0061533162,-0.0027765709,-0.00019660825
544577532,544577354,0.011336984,0.0005102323,-0.00017864676
544594952,544594774,0.008865802,-0.0009644063,-0.00046164938
544614866,544614684,0.008358533,-0.0010976496,-0.00031625293
544637259,544637082,0.008596468,-0.0013481139,-0.0009529814
544657169,544656991,0.010061252,0.00021024863,-0.00012966385
544674593,544674411,0.00039911643,-0.0021630467,-0.0011427766
544696988,544696809,-0.0020840429,-0.0018285995,-0.00065709255
544716902,544716718,0.0005083438,-0.0020976153,-0.00081200316
544734320,544734139,0.0017630719,-0.00050699187,-0.0012444358
544756717,544756537,-0.0036998,-0.002672128,-0.0008757822
544776629,544776446,-0.0041828584,-3.971462e-05,-0.00095074787
544796536,544796355,-0.0073794164,-0.0016201767,-0.0009025652
544816442,544816265,-0.007741669,-0.0012162093,-0.0010824148
544836353,544836174,-0.005592881,-0.0004996129,-0.000776642
544856261,544856083,-0.007351635,-0.0016434358,-0.0009277498
544873683,544873504,-0.0061722603,-0.002451335,-0.0015501406
544896081,544895902,-0.0060522296,-0.0015226591,-0.000548352
544915990,544915811,-0.006009266,-0.0031511527,-0.0004831194
544938388,544938209,-0.0022784732,-0.0020780778,-0.0008635367
544955808,544955629,-0.0014222153,-0.0025944752,-0.0005897251
544975717,544975538,-0.0023126248,-0.0023082646,-0.00039798766
544998116,544997936,0.0053706774,0.002707061,-0.0010397655
545015536,545015357,-8.233823e-05,-0.00013392791,-0.0005705338
545035443,545035266,-0.0031931996,-0.0019270534,-0.0010379052
545057847,545057664,0.0031596944,-0.002411015,-5.14884e-05
545077768,545077573,0.008833055,-0.0021663234,-0.0005915365
545095175,545094994,0.010647135,-0.0003311413,-9.293761e-05
545115084,545114903,0.007578547,0.00080821454,-0.0006392747
545137479,545137301,0.006643301,0.00038633612,-0.0012291847
545154906,545154726,0.011500431,0.001992017,-0.0013113401
545174813,545174631,0.004244283,-0.0003464045,-0.0010288085
545197207,545197029,0.004424926,0.0026463224,-0.0011660068
545217118,545216938,0.0025417376,0.00076285866,-0.0011511187
545234539,545234358,0.0027763797,0.0015341095,-0.0016236233
545256936,545256756,0.0016165879,0.0020750943,-0.0013363077
545276844,545276665,-0.0052399877,0.001284179,-0.0011550495
545294267,545294086,-0.006584218,0.0018615685,-0.0017845824
545316663,545316484,-0.0028851833,0.00060664676,-0.0015111815
545336573,545336393,-0.006804101,-0.0018299554,-0.001203341
545358974,545358791,-0.007860817,0.00070463144,-0.00076338276
545376391,545376212,-0.008582896,0.00048185093,-0.0014301345
545396298,545396121,-0.0049623232,-0.001106425,-0.0009818214
545416208,545416030,-0.0071103964,-0.0026995763,-0.0011600486
545433639,545433457,-0.010123786,-0.002591298,-0.0008901744
545456027,545455848,-0.009271186,-0.00040266465,-0.00029826723
545475937,545475758,-0.0058720373,-5.7630474e-05,-0.00051355665
545498374,545498156,-0.0077380408,0.0004694746,-0.0016172926
545515754,545515576,-0.006533552,0.0021582488,-0.0002656714
545535664,545535485,0.000784453,0.004154836,-0.00087272096
545555573,545555395,0.0015474409,0.0052838097,-0.00017009163
545575481,545575304,0.0039893314,0.0053729843,-0.0004884249
545595391,545595213,0.008292894,0.006917593,0.0002977585
545617796,545617611,0.0124737695,0.0056986436,-0.0006982167
545635212,545635031,0.0074270535,0.005059082,-0.0013028523
545655119,545654941,-0.00067682937,0.003478936,-0.0015711717
545675028,545674850,0.0048298556,0.0016903146,-0.000261368
545697427,545697248,0.011908438,0.004544799,-0.0009404877
545714847,545714668,0.012814721,0.004193961,-0.0013624902
545734759,545734578,0.00336726,0.0027082223,-0.00084293424
545757155,545756976,0.0016013272,0.0011767119,-0.0006062477
545777062,545776885,0.0073614037,0.0031994865,-0.0008892296
545794484,545794305,-0.0015662517,2.179551e-05,-0.0024159628
545816881,545816703,-0.014972638,9.5606316e-05,-0.0014432438
545836795,545836612,-0.010807328,0.000974189,-0.0017492233
545854216,545854033,0.002434872,0.0068170168,-0.0015050594
545876611,545876431,-0.003357334,0.0004461191,-0.0012088986
545896518,545896340,-0.008406201,-0.000357516,-0.00091853156
545918920,545918738,-0.0088197775,-0.0014015473,-0.0010184525
545936342,545936159,-0.0056224726,0.0013260727,-0.00080144755
545956247,545956068,-0.00849,-0.0016133775,-0.00045868405
545976156,545975977,-0.011053495,-0.00346003,-0.00042859418
545993578,545993398,-0.009210911,-0.0037007364,-0.0004512451
546015977,546015795,0.003488415,0.00044613285,-0.00080701266
546035883,546035705,0.0007550884,-0.005758118,-0.000845477
546058282,546058103,-0.0028084517,-0.0044038696,-7.900759e-05
546075702,546075523,0.011314891,-0.0011021497,1.5512574e-05
546095612,546095432,0.011692328,-0.0026126471,-0.0011901613
546118011,546117830,0.0054040877,-0.0068569547,-8.942373e-05
546135429,546135251,0.0065651257,-0.004045151,0.00013218075
546155341,546155160,0.011657488,-0.0022087002,-0.0006465879
546177742,546177558,0.007996747,0.00023318734,-0.00083199027
546197652,546197467,0.00095931627,-0.00020749494,-0.0016561456
546215070,546214888,-0.00054661743,-0.0011554433,-0.00039269077
546237468,546237286,0.012257037,0.0023976683,-0.0011837492
546257373,546257195,0.015292885,0.0021318037,-0.0011066566
546274799,546274616,0.004578244,-0.00045854528,-0.0011905308
546294706,546294525,-0.0054345094,-0.003656716,-0.00061969925
546317101,546316923,0.0009477865,-0.00024922704,-0.00096436404
546337012,546336832,-7.3969364e-05,-0.0049249292,-0.0013100989
546354432,546354252,-0.010270717,-0.007293598,-0.0016201867
546376828,546376650,-0.016418893,-0.009032254,-0.0008426439
546396739,546396560,-0.010636857,-0.008272938,-0.0012079307
546414160,546413980,-0.004578393,-0.0063531604,-0.00079627265
546436556,546436378,-0.007838547,-0.01056694,-0.0011551923
546456466,546456287,-0.011436166,-0.009255149,-0.0003857948
546478866,546478685,-0.008815778,-0.009832871,-0.00023776107
546496286,546496106,-0.0055591315,-0.006391596,-0.0014405111
546516193,546516015,-0.007675942,-0.0077604074,-0.001837041
546536103,546535924,-0.00402092,-0.008246571,-0.00030434155
546553528,546553345,0.0043092035,-0.0075053405,-9.5802825e-05
546570944,546570765,0.005378483,-0.007375843,-0.00017598132
546595830,546595652,0.0030477308,-0.009469565,-0.00016329903
546618231,546618050,-0.00046673417,-0.007814788,-0.00030524493
546635650,546635470,0.0058694966,-0.0035517565,-0.00059929234
546655560,546655379,0.0073616095,-0.0011196611,-0.00078655547
546678010,546677777,0.0018129516,-0.0014593771,-0.000661568
546695387,546695200,0.0007043667,-0.0019774071,-0.00072230166
546715284,546715107,0.008471093,0.0010566344,-0.0012901034
546737687,546737505,0.009773141,0.0006039869,-0.00087230257
546757598,546757414,0.003457942,-0.00031272264,-0.0011325818
546775071,546774835,0.0044429377,0.006790513,-0.00076509337
546797412,546797233,0.005936416,0.0038853607,-0.00073870574
546817321,546817142,0.0017290413,0.0033231166,-0.0009498475
546834742,546834563,-0.0061321147,0.0006241326,-0.0013630087
546854651,546854472,-0.0046066865,0.0018107595,-0.0011091549
546877047,546876870,-0.0014207326,0.0004318806,-0.00079618674
546896958,546896779,-0.0041422173,0.0012870629,-0.00088579627
546914380,546914200,-0.00833473,0.0014584628,-0.0011317662
546936776,546936597,-0.011677945,-0.0005964831,-0.0009812163
546956686,546956507,-0.004276095,0.0012647929,-0.00060686725
546974108,546973927,-0.0034070797,0.0014829449,-0.0008081314
546996504,546996325,-0.0071441177,-0.0020984486,-0.0003787959
547016413,547016234,-0.008197572,-0.0027832931,-0.0005962674
547038811,547038632,-4.870072e-05,8.413056e-05,-0.0006026889
547056231,547056053,0.002300376,-3.9372128e-05,-0.00083009386
547076140,547075962,-0.0008876473,-0.0016068239,-0.0011183012
547096051,547095871,-0.0013482459,-0.0012107749,-0.000526601
547115964,547115780,0.0023069065,-0.00028991688,-0.001066098
547135868,547135690,0.0042406768,-0.0015393097,-0.00059347064
547155779,547155599,0.00088601,-0.0043289904,-0.0007970561
547178177,547177997,0.00054503605,-0.0045819115,-0.0005591186
547195596,547195417,0.0032036519,-0.0024230392,-0.0011777964
547215505,547215327,0.0040918672,-0.0036354917,-0.0008935784
547237904,547237725,-0.0019402374,-0.00486527,-0.0012168493
547255323,547255145,-0.0029700864,-0.0043996684,-0.00054285093
547275232,547275054,0.0025160126,-0.0020707035,-0.0003216879
547297638,547297452,0.005667329,-0.0011285394,-0.00050911214
547317543,547317362,0.0010863505,-0.0010756878,-0.00091819745
547335007,547334782,-0.00034309737,-0.0013646546,-0.0004133985
547357360,547357180,0.00021618977,-0.001375485,-0.0006929792
547377271,547377089,0.0006283242,0.0016851274,-0.0004177594
547394690,547394510,0.00059450977,0.0006872073,-0.00030144
547414599,547414419,0.000662623,0.0010519878,-0.00016934075
547436998,547436817,0.002208069,0.0021537791,-0.0005234005
547456906,547456726,0.00067732856,0.0023392218,-0.0007394559
547474329,547474147,0.0009775814,0.0022993565,-0.0007093819
547496729,547496545,0.0012109801,0.002811848,-0.000681713
547516638,547516454,0.0066410406,0.0032277855,-0.00026395242
547534054,547533874,0.0015927609,0.0011280936,-0.00117336
547556453,547556272,0.002651102,0.0016035575,-0.0011587541
547576359,547576181,0.002964586,0.001517293,-0.0012260189
547591290,547591113,0.0047541773,0.0016130863,-0.00084110186
547616177,547616000,0.0036021136,0.002554993,-0.00035745208
547636090,547635909,0.0021253452,0.0009202354,-0.0012075612
547658487,547658307,-0.0018996652,0.002307569,-0.00082454784
547675909,547675728,-0.001077449,0.0007612817,-0.0014414752
547695814,547695637,-0.0022474248,-0.0009769758,-0.00020617922
547715725,547715546,-0.002109129,-0.0011347111,-0.0011396722
547738124,547737944,-0.0021650102,-0.0011338356,-0.0009839807
547755543,547755365,-0.0022775158,-0.0020702255,-0.0012511644
547775453,547775274,-0.0036603957,0.004319855,-0.0015366466
547797856,547797672,-0.0021214,-8.590287e-06,-0.00045256806
547815269,547815092,-0.0020590331,-0.0025362894,-6.600376e-05
547835184,547835001,0.0003188476,-0.00069468434,-0.00053563435
547857605,547857399,-0.0017770678,-0.0017162064,-0.00079547917
547877521,547877309,-0.0038454607,-0.0020615847,-0.0006248255
547894944,547894729,-0.0014422536,-0.0012403466,-0.00078093354
547917305,547917127,0.0005785581,0.00018803822,-0.0005383482
547937216,547937036,0.0006157141,0.00025956635,-0.00063193124
547954639,547954457,0.00062753074,0.0027275032,-0.0006950919
547974544,547974366,0.00017191283,0.0069672847,-0.0018160462
547996943,547996764,0.0033957297,0.0021687692,-0.0008819252
548016852,548016673,0.0054588523,0.0028351739,-0.00079189474
548034275,548034094,0.00604589,0.0025809847,-0.0006347855
548056671,548056492,0.004469104,0.0029591706,-0.00034914678
548076580,548076401,0.003214297,0.003447038,-0.0009026651
548094001,548093822,0.0018753596,0.0033538493,-0.00084234704
548116398,548116220,0.0035886578,0.0034858852,-0.00046668085
548136308,548136129,0.0033829175,0.0020914453,-0.00072279386
548158704,548158527,0.002329072,0.0025392526,-0.00046719005
548176127,548175947,0.0002389513,0.0009859486,-0.0008126851
548196040,548195856,0.00080592744,0.0019466185,-0.00076302374
548218434,548218254,-0.0002979152,0.003858175,-0.0010677557
548235856,548235675,0.004041859,0.0042566387,0.00021486403
548255764,548255584,0.007088866,0.00095019187,-0.00041034562
548275672,548275493,0.0033766245,-3.5932055e-05,-0.00086078304
548298071,548297891,-0.005816981,-0.001061155,-0.0008302126
548315494,548315312,-0.0016886909,0.00018080347,-0.00097023393
548335399,548335221,0.0012220014,0.0005658022,-0.00037727086
548357800,548357619,0.0017997995,-8.975575e-05,-0.0012981233
548375218,548375040,-0.003469739,-0.0014554316,-0.0013677799
548395127,548394949,-0.0035893861,-0.0014587918,-0.001133933
548417528,548417347,0.0016182978,-0.0009305591,-0.0007662361
548437438,548437256,-0.0022475347,-0.0013779141,-0.0015835622
548454879,548454676,-0.011311766,-0.005313714,-0.001104532
548477254,548477074,-0.009563394,-0.0059761447,-0.0012258426
548497164,548496984,0.004692397,-0.0024053587,-9.3625626e-05
548514585,548514404,0.0013312846,-0.0034304736,-0.00076452876
548536980,548536802,-0.007406706,-0.0033778688,-0.0013402242
548556891,548556711,-0.0014025606,-0.00017746282,-0.0006503365
548576803,548576621,0.0023048427,-4.5797555e-05,-0.0005656916
548594225,548594041,0.0014306977,-5.486887e-06,-0.0008531653
548616621,548616439,-0.0055998806,-0.0026248149,-0.0004179955
548636528,548636349,-0.0036655143,-0.00013685296,-0.0008697836
548653948,548653769,0.0035132673,0.0019602708,-0.00052267406
548676346,548676167,0.006483121,0.00410909,-0.00089197815
548696260,548696076,0.0050521577,0.003087484,0.0002015233
548718655,548718474,0.007895825,0.0036804227,-0.00095996005
548736073,548735894,0.0021433476,0.0006054833,-0.001605574
548755986,548755804,0.002156008,-0.00030137447,-0.0011119852
548778381,548778202,0.001008315,-0.0031277852,-0.00068272674
548795802,548795622,0.0087474985,0.0024843093,-0.0007605846
548815710,548815531,0.011463109,0.0016337144,-0.0010552804
548835623,548835441,0.0064988965,0.0005542969,-0.0007404485
548858018,548857839,0.0033083428,-0.0022419305,-0.0006817803
548875436,548875259,0.0078054927,0.0001083659,-0.00030905567
548895346,548895168,0.0063796677,-0.0017221363,-0.0008602389
548917746,548917566,-0.00029430725,-0.0025494907,-0.000427583
548935164,548934987,-0.004593892,-0.0033667784,-0.0010550893
548955074,548954896,-0.004468169,-0.0033971863,-0.0007832055
548977476,548977294,0.0013091341,-0.0035560345,7.313094e-05
548997386,548997203,-0.0022634156,-0.0020883412,-0.00076353364
549014817,549014624,-0.0060631856,-0.0040073097,0.00022000354
549037203,549037022,-0.0061616004,-0.0011062791,-0.00027937652
549057112,549056931,-0.003822606,-0.0021555603,-0.00020545069
549074532,549074352,-0.0036812425,-0.0020719548,-0.00092968345
549096930,549096750,-0.005337525,-0.0016221381,-0.00025759288
549116842,549116659,-0.0054112505,-0.0014176817,-0.0004834286
549136749,549136568,-0.00196792,-0.00026622543,-0.00036517996
549154169,549153989,-0.00024673901,0.0014219726,-0.0003436783
549176569,549176387,-0.002593439,-0.00047626358,-0.00051214336
549196477,549196296,0.00066864304,0.0009602178,-0.00027033547
549213897,549213716,0.00342263,0.0013931494,-4.3497887e-05
549236297,549236114,0.0021365155,0.0030934846,-0.00073606963
549256233,549256023,0.0016724151,0.002118204,-0.0011022817
549278599,549278421,0.0026525166,0.001855944,-0.0005366206
549296022,549295842,0.004080913,0.0018554123,-0.001114636
549315930,549315751,0.0032460643,0.002069982,-0.00035348232
549338330,549338149,0.0025788806,0.00092399423,-0.00071770814
549355747,549355570,0.0028339922,0.0011924126,-0.0006586893
549375658,549375479,0.0025772918,0.0019985589,-0.00069674617
549395567,549395388,0.0016272496,0.0016102481,-0.0011833187
549417966,549417786,0.00029558316,0.0010390575,-0.0005422416
549435384,549435207,0.00010497309,0.0014200292,-0.0004757624
549455294,549455116,0.0011792947,0.0016165168,-0.00038696732
549477695,549477514,8.347817e-05,0.00095247803,-0.000640905
549495113,549494934,-0.0008397214,0.0014183025,-0.0006606772
549515022,549514844,-0.00086281635,0.0010458443,-0.0003431798
549537423,549537242,7.743947e-05,0.0016504282,-0.0005944506
549557337,549557151,0.00086754,0.0008175061,-0.00056223595
549574753,549574571,0.0007098727,0.0011749158,-0.00062777987
549597149,549596969,0.0006778762,0.0013701755,-0.0003640377
549617056,549616879,0.0011033285,-0.00026869017,-0.0005982267
549634479,549634299,0.00045316294,-0.00019564852,-0.0012094611
549656879,549656697,0.00053490885,0.00029187836,-0.0006980505
549676790,549676606,0.00054749474,-0.00064645475,-0.00077013485
549696697,549696515,0.0011008941,0.00027874787,-0.0004367563
549714116,549713936,0.0007780008,-0.0003600287,-0.000729918
549736514,549736334,0.0016458873,0.00012209849,-0.0008579558
549756422,549756243,0.0018066037,-0.0011298108,-0.0011393053
549773844,549773664,0.0008626897,-0.0006201968,-0.000644434
549796240,549796062,-0.00029626302,-0.00085349684,-0.0009966868
549816149,549815971,-0.0006245561,-0.001383565,-0.00075724255
549838548,549838369,-0.0010345932,0.00048562093,-0.00034039328
549855967,549855789,-0.000701325,0.00074424944,-0.00080106617
549875877,549875699,-0.0018387213,-0.00038766442,-0.00044057588
549898276,549898097,-0.000642024,0.0012868291,-0.00065285456
549915696,549915517,-0.00032880716,0.0011809117,-0.0005356851
549935608,549935426,-0.002568422,0.00034248177,-0.00029022852
549955516,549955336,-0.00064844266,-0.00048474164,-0.00069403695
549975421,549975245,-0.0009143036,0.0024077531,-0.000510446
549995335,549995154,-0.00076415576,0.00087339804,-0.0007381106
550015241,550015063,0.00023902953,0.0009339382,-0.00081793685
550037644,550037461,0.00019592233,2.000248e-05,-0.0005298448
550055060,550054882,0.0010599252,0.00037638634,-0.0007719416
550074971,550074791,0.0010812804,0.00122,2.0351727e-06
550097371,550097189,0.0004912559,0.0027911153,-0.00025168923
550117281,550117098,0.00026448444,0.0023292003,-0.00060638343
550134697,550134519,0.00028703548,0.0032478545,-0.0010091634
550157097,550156917,-0.00022616051,0.0022852195,-0.0013734496
550177006,550176826,-0.0003014654,0.0027009805,-0.0011964405
550194426,550194247,0.00025847554,0.0024310506,-0.0011277667
550216825,550216644,-0.0010608211,0.0018773319,-0.00105724
550236736,550236554,-0.0015267916,0.0018595436,-0.0018714138
550256648,550256463,-0.0027149245,0.0017330076,-0.0010824986
550274063,550273883,-0.002440961,0.0016091526,-0.0013691708
550296465,550296281,-0.0021280441,0.0012135245,-0.0005529749
550316373,550316191,-0.0023125466,0.00088422815,-0.0009093445
550333794,550333611,-0.0029160865,0.0010169102,-0.0008257248
550356188,550356009,-0.0028055888,0.0006857037,-0.0011846945
550376098,550375918,-0.0022670664,0.00021453784,-0.0008522484
550398496,550398316,-0.0011701006,0.0003841836,-0.0005637263
550415916,550415737,-0.0009988714,0.0002773106,-0.0008473806
550435892,550435649,-0.000532981,0.00023421436,-0.0007946433
550458232,550458044,-0.0014908053,-0.00024573551,-0.00063510425
550475644,550475465,-0.0015773177,0.00014092913,-0.0006938155
550495552,550495374,-0.0016192142,-0.00057171937,-3.705779e-05
550517953,550517772,0.000717707,-0.0014426031,-0.0005560252
550537860,550537681,0.0012513958,-0.0016296883,-0.00025492115
550555280,550555102,0.0011328962,-0.0013878787,-0.00044617872
550575189,550575011,0.0011668913,-0.0015945388,-0.000517786
550597589,550597409,0.0009717569,-0.0010120058,-0.0011584298
550615008,550614829,0.00018896535,-0.00033695274,-0.0004397591
550636305,550634739,0.0023406092,-0.0050379955,-0.00017525116
550657319,550657137,0.0020076428,-0.005642345,0.000506999
550677229,550677046,-0.0027214568,-0.0037912237,0.0003603422
550694653,550694466,-0.0003249459,-0.00056368916,-0.0007764611
550717042,550716864,-0.0017832052,-0.0017758727,-0.00091424957
550736959,550736774,-0.0012737904,-0.0030326478,-0.00051645143
550754373,550754194,-0.00075608306,-0.004548149,-0.0011989528
550776770,550776592,-0.0007792618,-0.0029421328,-0.0004460658
550796680,550796501,-0.0009904262,-0.003636809,-0.00083265826
550816588,550816411,-0.00023114309,-0.00422817,-0.00088745635
550834011,550833831,0.0005605016,-0.0045088176,-0.0009710605
550856408,550856229,-0.0006492939,-0.003341242,-0.0012962297
550876317,550876138,-0.00074446946,-0.004528042,-0.0005964213
550893739,550893559,-0.00035301037,-0.0045707393,-0.0008121724
550916135,550915957,0.0005820282,-0.004651884,-0.0006067499
550936044,550935866,0.000618048,-0.0041889073,-0.000728379
550958443,550958264,0.0009647012,-0.004358153,-4.3505337e-05
550975861,550975684,0.0024200287,-0.0026632096,8.550007e-05
550995776,550995594,0.0034570275,-0.0032494813,-0.0009791967
551018171,551017992,0.0034616282,-0.0035756347,-0.0008003921
551035590,551035412,0.0033461787,-0.0015890654,-0.00066949707
551055501,551055322,0.0027975347,-0.00036015536,-0.00086503243
551077899,551077719,0.0022667851,-0.0005320932,-0.00064266217
551097808,551097629,0.0012709368,0.00038947072,-0.0008426865
551115227,551115049,0.000690531,0.00139385,-0.0008240149
551135138,551134958,-0.0014239158,0.0008547981,-0.0008996255
551157536,551157356,-0.0015074965,0.00041129487,-0.00078447256
551174955,551174777,-0.003894059,0.0016242745,-0.00042418973
551194867,551194686,-0.0019447114,0.0011603695,-0.0007639795
551217266,551217084,-0.0032049362,0.0017254723,-0.00044705463
551237175,551236993,-0.0030313618,0.0022214323,-0.0007195466
551254591,551254414,-0.0028729327,0.002325324,-0.0006660328
551276993,551276812,-0.0016340055,0.0024717834,-0.0010232395
551296900,551296721,-0.0006855093,0.0018242283,-0.0006513307
551314324,551314142,0.000862699,0.00059334305,-0.0009920157
551336718,551336540,0.000992164,0.0021269915,-0.0010886069
551356631,551356449,0.0022098888,0.002754764,-0.0009018341
551376538,551376358,0.0017175097,0.0019089661,-0.0003689339
551396450,551396267,0.00330834,0.002375786,-0.0007770383
551416355,551416177,0.0029574074,0.0015616186,-0.0011782846
551436265,551436086,0.0030538114,0.0014901327,-0.0007832672
551453689,551453507,0.002957833,0.00066235545,-0.0010436065
551476083,551475904,0.0019057915,0.0005298157,-0.00092705176
551495993,551495814,0.002609726,0.0003574905,-0.001053069
551518392,551518212,0.0011892673,0.0010469905,-0.0008250829
551535815,551535632,-0.00035217777,0.0007448362,-0.0007571578
551555721,551555541,0.0003909748,0.0017331813,-0.00078043365
551578122,551577939,-0.0016227122,0.0013548299,-0.0002245414
551595538,551595360,-0.0015048124,0.0019131743,-0.0003814241
551615510,551615269,-0.0024480466,0.0012330478,-0.0011158918
551637853,551637668,-0.002233414,0.002249031,-0.0006007869
551657755,551657576,-0.0011005308,0.0028050279,-0.0010028658
551675175,551674997,-0.0014431328,0.0049164975,-0.0006966409
551695084,551694906,-0.00026942417,0.0032014207,-0.0002899845
551717486,551717304,0.00078895316,0.0049012266,-0.0008694802
551734902,551734725,0.0013418272,0.00510694,-0.0004660678
551754812,551754634,0.00051635876,0.0060881786,-0.00089597655
551777213,551777032,0.0015816037,0.005081624,2.9032351e-05
551797124,551796941,0.0022264402,0.004063227,-0.00045293244
551814539,551814362,0.003722079,0.0045458945,-0.001070912
551837000,551836759,0.0038293228,0.0034324944,-0.0001756826
551856848,551856669,0.001128342,0.004673643,-0.00071392884
551874270,551874089,0.0016448833,0.0042258836,-0.0010224744
551896665,551896487,0.0017750692,0.0030018312,-0.0011442872
551916574,551916397,0.00076741725,0.0018419886,-0.0009369103
551938976,551938794,-0.0014274232,0.0007247161,-0.000615997
551956394,551956215,-0.0009241272,0.00042045955,-0.0014590288
551976305,551976124,-0.0012437124,-0.00046049594,-0.0011389952
551996212,551996034,-0.0015128367,-0.002471479,0.00022926647
552013640,552013458,-0.0015385989,-0.0017269664,-0.0005608562
552036031,552035852,-0.0011325777,-0.0025325709,8.1076985e-05
552055939,552055761,-0.001611054,-0.0019235704,-0.0004767438
552078339,552078159,-0.00020129979,-0.0014853871,-0.0003843198
552095759,552095580,0.00017398223,-0.0012663107,-0.0009893924
552115667,552115489,0.0002127923,-0.00046190456,-0.0009824473
552138066,552137887,0.00077950396,0.00033404795,-0.0002477488
552155487,552155308,0.0013497956,-0.00045039947,-0.00025130762
552175396,552175217,0.0020115878,0.0015345311,-0.00058283843
552197797,552197615,0.0025117602,0.0015364999,-0.00023304671
552215214,552215035,0.0024675243,0.0016803809,-0.00072491844
552235122,552234944,0.0026679216,0.001957332,-0.0007352603
552255034,552254854,0.0031476272,0.001601469,-0.0008325889
552277432,552277252,0.0012100227,0.00071053137,-0.0012706958
552294851,552294672,0.00014592707,0.0012437503,-0.00084515335
552314762,552314582,-0.00029461272,0.0005001549,-0.0007802285
552337161,552336980,-0.0014380608,0.00023705163,-0.00091109704
552357072,552356889,-0.0019733645,0.0002337331,-0.0003780548
552374487,552374309,-0.0045216084,-0.0017128219,-0.001299911
552396937,552396707,-0.0043819025,-0.00011025998,-0.0011140537
552416797,552416619,-0.004539363,0.0017552071,-0.0008398143
552434217,552434037,-0.0020236317,0.0012956208,-6.9905072e-06
552456615,552456435,-0.001240164,0.0007810914,-0.00023107813
552476528,552476347,-0.0005258545,0.00080706016,-0.00040856097
552498922,552498742,0.00070634857,-0.0017674911,-0.00084479316
552516343,552516163,0.00044232048,-0.0012054299,-0.00032652286
552536252,552536072,8.062646e-05,-0.00073095935,-0.0011982205
552556162,552555981,0.00044535287,-0.0023474628,-0.00038161175
552573586,552573402,-0.00031718425,-0.0029369819,-0.00012449617
552595981,552595800,0.00079627335,-0.00028987706,-0.0009070474
552615891,552615709,0.0018735658,-0.00011707842,-0.00082124607
552638286,552638107,0.0030396702,-0.0003176144,-0.00036074407
552655707,552655528,0.00111733,-0.00020641205,-0.00064507546
552673128,552672948,0.0010326579,0.0016150805,-0.00044064294
552698014,552697835,0.00094783865,0.0013361424,-0.0010621734
552715434,552715255,0.0010950956,0.0033021353,-0.00060787145
552735343,552735165,8.444302e-05,0.0026281814,-0.00097404234
552757743,552757563,-0.0013807248,0.0028203742,-0.001440854
552777656,552777472,-0.00241719,0.0028457728,-0.0008877488
552795128,552794892,-0.0022929423,0.00209648,-0.0010925289
552817473,552817290,-0.0016941465,0.0015869406,-0.00067288335
552837380,552837199,-0.0022166949,0.002030058,-0.000814199
552854798,552854620,-0.0038863719,0.001315892,-0.0012808354
552874709,552874529,-0.0034223963,0.0006222476,-0.00018056226
552897110,552896927,-0.0034039281,0.00076104375,-0.00043085427
552917018,552916837,-0.0021941904,0.0007181915,-0.00010854122
552934438,552934257,-0.0018945821,-0.00012525241,-0.00074403104
552956873,552956655,-0.0022622924,-0.0016611046,-0.00079665077
552976743,552976564,-0.0031426698,-0.0010230751,-0.00075276033
552994163,552993985,-0.0026457328,-0.0011889653,-0.00061267335
553016564,553016383,0.00015560538,-0.0016060482,-0.0006147686
553036471,553036292,0.0012811162,-0.0021322714,-0.00074135116
553058871,553058690,0.0001997836,-0.002864528,-0.00067885127
553076287,553076110,0.0027420819,-0.0021226013,-0.0006038875
553096199,553096020,0.0022140965,-0.0014531757,-0.0011337241
553116108,553115929,0.0009008199,-0.0013069841,-0.0005149322
553133532,553133350,0.000494631,-0.001749976,-0.0012746453
553155930,553155748,0.0012157783,-0.0035174722,-0.00032743975
553175836,553175657,0.0015834458,-0.0027201849,-0.0001225397
553198234,553198055,-0.00066201016,-0.0029429416,-0.0010430994
553215654,553215475,-0.0011445489,-0.0017991494,-0.0005101166
553235563,553235385,-0.0007098429,-0.002589132,-0.00024005515
553257963,553257783,1.0857359e-05,-0.0013585704,-0.0011128928
553275383,553275203,-0.0015542731,-0.0018013781,-0.00058064377
553295294,553295112,-0.0020004585,-0.00022552349,-0.0010433302
553317688,553317510,-0.0020125154,0.0012498747,-0.00092238793
553337599,553337420,-0.0019666012,0.0030504975,-0.0003773244
553355017,553354840,-0.001942154,0.002490335,-0.00083548995
553377418,553377238,-0.001501508,0.003255543,-0.0007091004
553397331,553397147,-0.00018475205,0.0031656509,-0.0011588833
553414747,553414568,-0.00031283684,0.0036600453,-0.0006419041
553434656,553434477,-0.0035120025,0.003457656,-0.00026990264
553457060,553456875,-0.002326984,0.0042352434,-0.00033196108
553476966,553476785,0.0014480092,0.0036120245,-0.00030624284
553494383,553494205,0.0026199473,0.0039427113,-0.0010704906
553516809,553516603,0.002745838,0.0027448575,-0.0009043624
553536691,553536512,0.0015862379,0.0024835628,-0.00080349203
553554114,553553933,-0.0007749032,0.0027658374,-0.00066638156
553576510,553576331,-0.00072417967,0.0018130925,-0.00082480535
553596420,553596240,-0.001457002,0.0015143864,-0.0009914194
553618816,553618638,-0.0009737462,0.0029935853,-0.0003515426
553636239,553636058,0.0012747385,0.0029692913,-0.00030991156
553656147,553655968,0.0006542597,0.0023974983,-0.00063638063
553676058,553675877,-0.0010189861,0.002098576,-0.0009298732
553695976,553695786,-7.092394e-05,0.0029889925,-0.0008969973
553715878,553715696,0.001000559,0.0023625938,-0.001252881
553735787,553735605,0.00052389316,0.0014262276,-0.00086852233
553758183,553758003,0.0016706623,0.0010464382,8.831732e-06
553775603,553775423,0.002292296,0.0012494484,-0.00067140907
553795512,553795333,0.0017258544,0.0006225286,-0.00045327144
553817912,553817731,-0.0009603705,0.00080170645,-0.00087162084
553835334,553835151,-0.0016211402,0.0003036186,-0.00074877846
553855238,553855060,-0.0008912198,0.0012436567,-0.0005753662
553877641,553877458,7.668324e-05,0.0014916612,-0.0009299938
553897551,553897368,-0.00036520883,0.0005027519,-0.0006582355
553914966,553914788,-0.0005174801,0.0016335736,-0.0006117667
553937368,553937186,-0.00038018078,0.002204104,-0.0006901545
553957276,553957095,-2.9919669e-05,0.002540245,-0.0002886653
553974736,553974516,0.0006252937,0.0016538801,-0.0009907251
553994604,553994425,-0.0006273426,0.00018712995,-0.0012002038
554017005,554016823,-0.00075675733,0.001193461,-0.0010129013
554036916,554036732,-0.0013744719,0.0009230529,-0.0005448323
554054336,554054153,-0.0015645847,-0.00074390054,-0.00040738005
554076747,554076551,-0.0022831634,-0.00024847419,-0.00066649285
554096643,554096460,-0.0011362564,-0.000802938,-0.0013888592
554114059,554113881,-0.0013399608,-0.00051071343,-0.0007711968
554136456,554136279,-0.0017291438,-0.0004676258,-0.00026886468
554156367,554156188,-0.0013894886,0.00034896913,-0.00061527966
554178766,554178586,-0.00076180324,0.0016124754,-0.00076082186
554196184,554196006,-0.0016141962,0.0013705052,-0.00096519804
554216097,554215919,-0.0019918606,0.0015386764,-0.0006109567
554238492,554238314,-0.0018613003,0.0035550857,-0.0006459409
554255913,554255734,-0.0015924945,0.0047450243,-0.00011113542
554275821,554275643,-0.0014760643,0.003798778,5.3137075e-05
554295732,554295553,-0.0014225617,0.005124457,-0.000831784
554318129,554317951,-0.0017674714,0.00480917,-0.00025357865
554335554,554335371,-0.000980597,0.0053459993,-0.00023028092
554355459,554355280,-0.00016599894,0.0056591965,-0.0004670089
554377859,554377678,0.00042734668,0.004706418,-0.0005371042
554395278,554395099,0.00050525926,0.005470072,-0.00050451816
554415188,554415008,-0.0011960827,0.006306016,-0.0004967968
554437586,554437406,-0.0023477878,0.005873871,4.652422e-06
554457495,554457316,-0.0016849432,0.0051245634,-0.00067863334
554474915,554474736,7.371232e-05,0.004945269,-0.00037290528
554497315,554497134,-0.0005289335,0.006168239,-0.0010561219
554517223,554517043,-0.001211483,0.0061772093,-0.0009008441
554534644,554534464,-0.0014226604,0.0056851394,-0.0008154081
554554550,554554373,-0.000274444,0.0045647314,-0.0008358031
554576954,554576771,0.00022303872,0.0033213047,-0.00081218453
554596863,554596680,0.00013420545,0.0012910157,-0.00058668526
554614283,554614101,0.0016937442,0.0006782843,-0.0010979117
554636687,554636499,0.002484737,-0.0009402103,-0.0003596784
554656587,554656408,0.002890993,-0.0034762844,-0.0007440273
554674010,554673829,0.0008503385,-0.005020379,-0.0007846684
554693919,554693738,0.00081691146,-0.005617994,-0.0007422115
554716319,554716136,0.0012860019,-0.007173732,-0.0008200493
554738714,554738534,0.0015491154,-0.007301287,-0.0005130428
554756135,554755955,0.0023752004,-0.007648984,-0.00070392736
554776043,554775864,0.0041629,-0.008204922,-0.0007633371
554798442,554798262,0.0027582515,-0.007213936,-0.00065410114
554815862,554815682,0.0029089488,-0.008347912,-0.001038648
554835772,554835591,0.0017365608,-0.009466331,-0.0007912116
554855680,554855501,0.0024589822,-0.009232378,-0.00021950272
554878079,554877899,0.0035596015,-0.009503181,-0.0013495188
554895498,554895319,0.0038510067,-0.009064832,-0.00027164049
554915413,554915229,0.0029425435,-0.009431198,-0.00079465564
554937806,554937626,0.0020130742,-0.0076495293,-0.00054563
554955226,554955047,0.00069439784,-0.00757099,-0.0007413721
554975134,554974956,-0.0014789775,-0.0059741624,-0.0006242604
554997534,554997354,-0.0016553532,-0.004886954,-0.0007911173
555017444,555017264,-0.0012465809,-0.0049309917,-0.000789769
555034864,555034684,0.00039926916,-0.0034137443,-0.0012021197
555057262,555057082,-0.0012751333,-0.002182748,-0.00024834485
555077173,555076991,-0.0028710756,-0.0011549969,-0.0007642524
555094590,555094412,-0.003578132,-0.00022956007,-0.00038636848
555116990,555116810,-0.0025400985,0.0006691909,-0.00027851854
555136901,555136719,-0.0011131931,0.0016175234,-0.00031657843
555156854,555156628,-0.00010400638,0.0019402457,-0.00036865962
555176717,555176538,5.3765252e-05,0.0021796776,-0.0008506763
555196635,555196447,0.00021393597,0.0020453394,-0.00052053365
555216534,555216356,0.002845551,0.0025188583,7.751654e-05
555233955,555233777,0.0044032233,0.0029374887,-0.0003739018
555256353,555256175,0.0033568712,0.0026809787,-0.00072409445
555276263,555276084,0.004968833,0.003297022,-0.00054501044
555298660,555298482,0.005528152,0.003270913,-0.00051100086
555316083,555315903,0.0062765405,0.0039699343,-0.0012282194
555335991,555335812,0.005696945,0.0032715062,-0.0012359412
555358388,555358210,0.010133647,0.002262841,-0.0015021625
555375808,555375630,0.013926413,0.0026154174,-0.0010720645
555395719,555395540,0.013521453,0.00044069928,-0.0012351603
555415629,555415449,0.009585505,-0.00036496972,-0.0018477368
555438027,555437847,0.006089923,-0.0021343792,-0.0012890508
555455446,555455267,0.0067226617,-0.0037092897,-0.0005363212
555475355,555475177,0.0060586855,-0.0031782372,-0.0006330549
555497758,555497575,0.0032252353,-0.003673554,-0.00087503134
555515172,555514995,-0.00021566823,-0.0038538156,-0.0005257481
555535085,555534904,-2.7053058e-05,-0.0034054187,-0.0005034299
555557483,555557302,0.00036194362,-0.0024521584,-0.00047118752
555577391,555577212,-0.002971653,-0.0028965836,-0.001036854
555594813,555594632,-0.0056339707,-0.0027846457,-0.00085452944
555617211,555617030,-0.0041468237,-0.0025106946,0.00014698389
555637120,555636939,-0.0031722356,-0.0017931174,-0.0006106233
555654541,555654360,-0.004657276,-0.0021388547,-0.0007062778
555676947,555676759,-0.007905154,-0.0023931046,-0.00034559006
555696847,555696667,-0.0068412405,-0.0029493242,-0.0009174249
555718405,555716577,-0.0042428356,-0.0028718906,-0.0003721502
555736672,555736486,-0.0012508072,-0.0026648806,-0.0002486359
555756576,555756395,-0.0004021488,-0.003144324,-0.0004977421
555776487,555776305,0.0004906859,-0.002951439,-0.000686588
555793904,555793725,0.002505146,-0.0030376017,-0.0007214856
555816304,555816123,0.0023543946,-0.0019855385,-0.0011299767
555836214,555836035,0.0030444888,-0.0020950595,-0.0010846504
555858611,555858430,0.0031129317,-0.0011228938,-0.001229859
555876029,555875851,0.0038909493,-0.0009553429,-0.0010501365
555895939,555895761,0.0059371535,-0.00083744805,-0.0015142821
555918341,555918158,0.0064330082,-0.0017440398,-0.00064249546
555935761,555935579,0.005127049,-0.0014722806,-0.00083245663
555955668,555955488,0.005647677,-6.0068676e-05,-0.0010909718
555975577,555975397,0.0052421475,0.00033573713,-0.00061539747
555997975,555997795,0.0022760313,0.00033288915,-0.00038166484
556015393,556015216,-0.00010620244,0.0011087449,-0.0005780994
556035305,556035125,-0.0005540643,0.0019603306,-0.0007165496
556057703,556057523,-0.0014693756,0.003220723,-0.00081354566
556075121,556074943,-0.00089918636,0.0038463539,-0.0009056034
556095031,556094853,-0.0006704312,0.005277762,-0.001435543
556117431,556117251,-0.0029540285,0.0060445424,-0.0015118336
556137340,556137160,-0.0062119216,0.006008763,-0.0013442975
556154760,556154580,-0.007064998,0.006575295,-0.0007229671
556177158,556176978,-0.00556596,0.0051327953,-0.0008928105
556197068,556196888,-0.005101677,0.0051105153,-0.0010404356
556214487,556214309,-0.004801059,0.0038769897,-0.00047193049
556236887,556236706,0.0014075208,0.0016089764,-0.00034046103
556256798,556256615,0.0018825047,-0.00012541516,-0.0002585752
556276707,556276525,-0.00035479479,-5.1176874e-05,-0.0004867646
556296624,556296434,9.2947856e-05,-0.0012883649,-0.0008785599
556316593,556316345,0.002102863,-0.00049827213,-0.00096654217
556336517,556336252,0.0030624326,-0.0005452018,-0.00049655046
556353851,556353673,0.0030733831,0.00022303057,-0.0014683702
556376251,556376071,0.002470404,0.0010679692,-0.0005708854
556396159,556395980,0.0020955466,0.0019294973,-0.0010801952
556418557,556418378,0.0036947513,0.0022034883,-0.00088283815
556435979,556435799,0.0010211896,0.00040942617,-0.00085829524
556455888,556455708,7.7618286e-05,-0.0012001423,-0.000519495
556478286,556478106,0.00077807344,-0.0011219088,-0.0005204058
556495707,556495527,0.00060693733,-0.0025081276,-0.000707472
556515615,556515436,0.0013775211,-0.004407799,-0.0004866058
556535525,556535346,-0.0011183247,-0.0049311216,-0.00074243476
556555432,556555254,-0.0018192902,-0.0038639298,-0.0007168618
556575343,556575164,-0.0018678624,-0.004192496,-0.0012231807
556595252,556595073,-0.0014144965,-0.0032870425,-0.00084491936
556617651,556617471,-0.0010379963,-0.002012272,-0.0008109482
556635071,556634892,-3.4362078e-05,-0.0021225365,-0.00051905215
556654986,556654801,-0.0004921667,-0.0003362851,-0.0005880168
556677379,556677199,-0.00314584,-0.0005795952,-0.000890326
556697288,556697108,-0.0023666322,0.0008384329,-0.00073637
556714706,556714529,-0.0025864486,0.0012240321,-0.00074554305
556737108,556736927,-0.0027330052,0.00095922523,-0.0005282427
556757020,556756836,-0.004557604,-0.00013716216,-0.00077238446
556774434,556774256,-0.005323671,-6.289082e-05,-0.00024311035
556796834,556796654,-0.0049838144,-0.00036303874,-0.0007236062
556816746,556816564,-0.0063780155,-0.0017691312,-0.00082756765
556836655,556836473,-0.0061472375,-0.0013444703,-0.0008525301
556856565,556856383,-0.0065979827,-0.0021235987,-0.00034591416
556876474,556876292,-0.0063135456,-0.0023809155,-0.00088235363
556896432,556896201,-0.006587444,-0.0022349164,-0.00021818234
556913802,556913622,-0.005659532,-0.002047108,-0.0007443314
556936200,556936019,-0.0014346801,-0.0014171819,-0.00073970226
556956108,556955929,6.0506165e-05,-0.0012574377,0.00017137057
556978505,556978327,0.0024777707,-0.0003428217,-0.0011712632
556995926,556995747,0.002298491,-0.00053254585,-0.001091727
557015836,557015656,0.0021122042,0.00050838036,-0.001041386
557038233,557038054,0.00055321306,-0.0021597268,-0.0012514715
557055654,557055475,0.002521271,0.00032021408,-0.0011210511
557075564,557075384,0.0011132974,-0.0009132405,-0.00019154907
557097965,557097782,0.00037883595,0.0040017157,-0.0013388924
557117874,557117691,-0.0009970237,0.0031229872,-0.0006876497
557135291,557135112,-0.0017904248,0.0032920614,-0.0012124996
557155200,557155021,-0.0017588586,0.0038576573,-0.0012025582
557177599,557177419,-0.0017623194,0.0021371967,2.3598317e-05
557195018,557194840,-0.0011040457,0.0026842346,-0.0010009008
557214929,557214749,-0.003390018,0.002308514,-0.00046545314
557237330,557237147,-0.0061201323,0.0033042543,-0.00048026
557257237,557257056,-0.006398527,0.0018134904,-0.0008326906
557274657,557274477,-0.0044108406,0.0015706066,-0.00014285906
557297055,557296875,-0.0040615685,0.00078278105,-0.00093096565
557316965,557316784,-0.0067541227,-0.00038280513,-0.00040948158
557334383,557334205,-0.006195102,-0.00055529387,-0.0006233279
557356787,557356604,-0.003387181,-0.0009352901,-0.00024258089
557376692,557376512,-0.0023191664,-0.0017245179,-0.000893804
557396604,557396421,-0.0009771287,-0.0030575308,-0.0006865291
557416512,557416331,0.00034086034,-0.0035731033,-0.0007207792
557436422,557436240,0.00013526157,-0.0017943189,-0.00047976663
557456367,557456149,-0.0011235476,-0.0033444553,-0.0009105725
557473750,557473570,0.0026876712,-0.0036835067,-0.0009493446
557496194,557495968,0.002831867,-0.0067870645,-0.0003696126
557516054,557515877,0.0027179783,-0.0064567677,-0.0003725593
557538453,557538275,0.0023876857,-0.0066681365,-0.0006205535
557555874,557555696,0.0028437395,-0.0065045827,-0.0009907784
557575783,557575605,0.0052886233,-0.0075145545,-1.0828022e-05
557598181,557598003,0.0036858357,-0.006308556,-0.00045031123
557615603,557615423,0.0018862095,-0.0060924245,-0.00062323944
557635510,557635333,0.0023385622,-0.0034446754,-0.0010410724
557657911,557657731,0.005297886,-0.0035120712,-0.0006684086
557677823,557677640,0.0021084938,-0.0024776896,0.00032245507
557695239,557695060,0.00028204918,-0.0011571125,-0.00051306747
557715147,557714970,-0.0018928349,-0.0008044129,-0.00016081287
557737547,557737368,-0.0025962684,-0.00065038004,-0.0008392087
557754966,557754788,-0.00244575,-0.0019076564,-0.0010691707
557774879,557774698,-0.0018740129,-0.0016331711,-0.00014518318
557797275,557797095,-0.002299063,-0.0035942413,-0.00049886503
557817186,557817005,-0.0021415912,-0.0036814043,-0.0006222769
557834604,557834425,-0.0010121744,-0.0044946773,0.00025467575
557857004,557856823,-0.0009592995,-0.0052687377,-0.00031597656
557876913,557876733,-4.8400834e-05,-0.0046431012,6.5614935e-05
557894336,557894153,0.0022353344,-0.0040677036,-0.00035068858
557916731,557916551,0.0027221348,-0.0036974922,0.0003090133
557936646,557936463,0.0035883226,-0.00080764375,-0.00020405487
557956552,557956370,0.0055059576,-0.0024493139,-0.0008359398
557976464,557976279,0.0055830637,-0.0030751575,-0.0005251153
557996370,557996188,0.0052613234,-0.004277835,-0.00094497274
558016304,558016098,0.0035718838,-0.0054673376,-0.00032900576
558033697,558033518,0.0024551582,-0.007968558,-0.0004503799
558056094,558055916,0.0009877812,-0.0076014125,-0.00090016914
558076003,558075825,0.00044871308,-0.007900938,-0.0008022012
558098403,558098223,0.0018332638,-0.009761302,-0.0012106006
558115826,558115646,0.002790356,-0.009153083,-0.0006894667
558135732,558135553,0.0017788652,-0.0081103165,-0.0006434263
558158133,558157951,-0.0012755115,-0.0065261875,-0.0008838426
558175550,558175372,-0.0015294682,-0.0055547534,-0.00038956874
558195461,558195281,-0.0024118926,-0.005001235,0.00010169437
558217858,558217679,-0.0023974832,-0.0036284947,-0.00077599334
558237769,558237588,-0.0033243466,-0.0032009778,-0.0012373787
558255189,558255009,-0.0020900443,-0.0023497422,-0.0008544512
558275100,558274918,-0.00023972802,-0.0024742256,-0.00092157046
558297496,558297316,-0.00021113642,-0.002267925,-0.0008619558
558314917,558314737,-0.000121170655,-0.0025219212,-0.00013406831
558334827,558334646,0.00078850053,-0.0010865227,-0.0008830351
558357224,558357044,0.0008419249,-0.0027612157,-0.0008205229
558377134,558376953,0.0058588665,-0.0029364368,-0.0010921599
558394558,558394374,0.006254943,-0.0027424758,9.15702e-05
558416952,558416772,0.004530429,-0.00090475567,-0.00088679325
558436861,558436681,0.0051930016,-4.7265785e-05,-0.00094631314
558454283,558454102,0.0048783133,0.00028614793,-0.0011661889
558476682,558476500,0.0074384147,-0.002161996,-0.00066550565
558496589,558496409,0.006986551,-0.00018288055,-0.00090766186
558518986,558518807,0.007479309,0.00036121835,-0.0010784646
558536411,558536227,0.004204372,7.048785e-05,-0.00016852887
558556319,558556138,0.00028337725,-0.000631833,-0.0010761623
558576241,558576046,-0.0018147808,-0.0009242821,8.310354e-05
558593658,558593473,-0.0027833953,-0.00074884994,-0.00046554534
558616044,558615865,-0.0036509577,-0.0013706947,-0.00028239377
558635953,558635774,-0.0045090746,-8.170423e-05,0.00017399364
558658409,558658172,-0.0056276843,-0.000261863,-0.00042781723
558675780,558675592,-0.0039435476,0.0017107183,-0.0006824273
558695684,558695502,-0.004494056,0.0026712397,-0.00059704785
558718078,558717900,-0.007068962,0.0036135248,-0.0006437588
558735498,558735320,-0.0055002123,0.003185903,-0.00040523196
558755408,558755230,-0.0024416521,0.0061088596,-0.0013151118
558777806,558777628,-0.0008202512,0.0052294116,-0.0012067789
558797724,558797537,-0.00079442747,0.00586091,-0.0007466781
558815138,558814957,0.0011253618,0.005612092,-0.00059336284
558835050,558834867,0.0032423604,0.0055266563,-0.0007316123
558857448,558857268,0.005235496,0.0048147673,-0.0011463845
558874863,558874685,0.004438254,0.0037337507,-0.00060150423
558894775,558894595,0.003572357,0.003059015,-0.0005205837
558917172,558916992,0.0034969635,0.0013997147,-0.00033455784
558937081,558936902,0.0031536883,0.002384863,8.844072e-05
558954504,558954323,0.0007966589,0.003633464,-0.0012502372
558976904,558976720,-0.0036767535,0.004874409,-0.00030165142
