timestamp,timestamp_sample,gps_hvel[0],gps_hvel[1],gps_vvel,gps_hpos[0],gps_hpos[1],gps_vpos,ev_hvel[0],ev_hvel[1],ev_vvel,ev_hpos[0],ev_hpos[1],ev_vpos,rng_vpos,baro_vpos,aux_hvel[0],aux_hvel[1],aux_vvel,flow[0],flow[1],heading,mag_field[0],mag_field[1],mag_field[2],drag[0],drag[1],airspeed,beta,hagl,hagl_rate
539722362,539622449,0.0011587043,0.0,0.002403538,0.0006483029,0.0,0.0,0.0,0.0,0.0,0.0,0.0,0.0,0.0,0.0003336328,0.0,0.0,nan,0.0,0.0,0.011725046,0.0,0.0,0.0,0.0,0.0,0.0,0.0,0.0,0.0
540230044,540130133,0.00014396831,0.0,0.0010176199,0.0009553248,0.0,0.0,0.0,0.0,0.0,0.0,0.0,0.0,0.0,6.908392e-05,0.0,0.0,nan,0.0,0.0,0.01401397,0.0,0.0,0.0,0.0,0.0,0.0,0.0,0.0,0.0
540727806,540627863,0.0013411475,0.0,4.872791e-05,0.0012026138,0.0,0.0,0.0,0.0,0.0,0.0,0.0,0.0,0.0,1.228902e-05,0.0,0.0,nan,0.0,0.0,0.01418132,0.0,0.0,0.0,0.0,0.0,0.0,0.0,0.0,0.0
541225541,541125593,0.00063498155,0.0,5.6020344e-05,0.0010315028,0.0,0.0,0.0,0.0,0.0,0.0,0.0,0.0,0.0,5.7201137e-06,0.0,0.0,nan,0.0,0.0,0.010542205,0.0,0.0,0.0,0.0,0.0,0.0,0.0,0.0,0.0
541723360,541623324,9.871245e-05,0.0,2.6855262e-06,0.000719807,0.0,0.0,0.0,0.0,0.0,0.0,0.0,0.0,0.0,1.4732648e-06,0.0,0.0,nan,0.0,0.0,0.0051136864,0.0,0.0,0.0,0.0,0.0,0.0,0.0,0.0,0.0
542220959,542121055,0.0016718493,0.0,0.00039705468,0.00068629195,0.0,0.0,0.0,0.0,0.0,0.0,0.0,0.0,0.0,4.6035584e-05,0.0,0.0,nan,0.0,0.0,0.0048726588,0.0,0.0,0.0,0.0,0.0,0.0,0.0,0.0,0.0
542728675,542628739,0.0018762322,0.0,5.0593713e-05,0.0005138712,0.0,0.0,0.0,0.0,0.0,0.0,0.0,0.0,0.0,3.4091504e-06,0.0,0.0,nan,0.0,0.0,0.0064619062,0.0,0.0,0.0,0.0,0.0,0.0,0.0,0.0,0.0
543226390,543126470,0.006037961,0.0,2.2560373e-05,0.00047866214,0.0,0.0,0.0,0.0,0.0,0.0,0.0,0.0,0.0,6.743887e-06,0.0,0.0,nan,0.0,0.0,0.00598273,0.0,0.0,0.0,0.0,0.0,0.0,0.0,0.0,0.0
543724108,543624200,0.00081954605,0.0,6.158351e-05,0.0002506016,0.0,0.0,0.0,0.0,0.0,0.0,0.0,0.0,0.0,4.734252e-05,0.0,0.0,nan,0.0,0.0,0.004633215,0.0,0.0,0.0,0.0,0.0,0.0,0.0,0.0,0.0
544231873,544131885,0.0044698203,0.0,1.2709225e-07,0.00014031504,0.0,0.0,0.0,0.0,0.0,0.0,0.0,0.0,0.0,3.2138098e-06,0.0,0.0,nan,0.0,0.0,0.0031055945,0.0,0.0,0.0,0.0,0.0,0.0,0.0,0.0,0.0
544719583,544619661,0.0019173238,0.0,1.460997e-05,9.1130714e-05,0.0,0.0,0.0,0.0,0.0,0.0,0.0,0.0,0.0,3.889095e-06,0.0,0.0,nan,0.0,0.0,0.00485811,0.0,0.0,0.0,0.0,0.0,0.0,0.0,0.0,0.0
545227310,545127346,0.0017815782,0.0,0.0001161425,0.000107464,0.0,0.0,0.0,0.0,0.0,0.0,0.0,0.0,0.0,3.217569e-05,0.0,0.0,nan,0.0,0.0,0.004375114,0.0,0.0,0.0,0.0,0.0,0.0,0.0,0.0,0.0
545725026,545625077,0.0002716628,0.0,1.4795046e-06,0.00012681693,0.0,0.0,0.0,0.0,0.0,0.0,0.0,0.0,0.0,0.00050806464,0.0,0.0,nan,0.0,0.0,0.0034985903,0.0,0.0,0.0,0.0,0.0,0.0,0.0,0.0,0.0
546222821,546122808,0.00022505298,0.0,1.5301096e-06,9.768294e-05,0.0,0.0,0.0,0.0,0.0,0.0,0.0,0.0,0.0,8.649072e-06,0.0,0.0,nan,0.0,0.0,0.006296663,0.0,0.0,0.0,0.0,0.0,0.0,0.0,0.0,0.0
546730394,546630493,0.0014071838,0.0,0.00065275736,2.0244323e-05,0.0,0.0,0.0,0.0,0.0,0.0,0.0,0.0,0.0,0.00013791081,0.0,0.0,nan,0.0,0.0,0.0029286975,0.0,0.0,0.0,0.0,0.0,0.0,0.0,0.0,0.0
547228134,547128224,0.0022302265,0.0,0.0014028338,2.6027263e-05,0.0,0.0,0.0,0.0,0.0,0.0,0.0,0.0,0.0,2.3944267e-06,0.0,0.0,nan,0.0,0.0,0.003242119,0.0,0.0,0.0,0.0,0.0,0.0,0.0,0.0,0.0
547725900,547625955,0.0039180974,0.0,0.0008270735,6.778731e-05,0.0,0.0,0.0,0.0,0.0,0.0,0.0,0.0,0.0,1.0340864e-06,0.0,0.0,nan,0.0,0.0,0.0043972554,0.0,0.0,0.0,0.0,0.0,0.0,0.0,0.0,0.0
548223590,548123686,0.0017028867,0.0,0.0017688653,8.885191e-05,0.0,0.0,0.0,0.0,0.0,0.0,0.0,0.0,0.0,0.00016305681,0.0,0.0,nan,0.0,0.0,0.0041233473,0.0,0.0,0.0,0.0,0.0,0.0,0.0,0.0,0.0
548721324,548621416,0.00087699085,0.0,0.001226092,6.697106e-05,0.0,0.0,0.0,0.0,0.0,0.0,0.0,0.0,0.0,0.00042275307,0.0,0.0,nan,0.0,0.0,0.002778717,0.0,0.0,0.0,0.0,0.0,0.0,0.0,0.0,0.0
549229037,549129102,0.0035946677,0.0,0.0014857716,5.660921e-05,0.0,0.0,0.0,0.0,0.0,0.0,0.0,0.0,0.0,0.00011170432,0.0,0.0,nan,0.0,0.0,0.0040216446,0.0,0.0,0.0,0.0,0.0,0.0,0.0,0.0,0.0
549726745,549626833,0.0015091655,0.0,0.00020604419,0.00018834088,0.0,0.0,0.0,0.0,0.0,0.0,0.0,0.0,0.0,0.00015424764,0.0,0.0,nan,0.0,0.0,0.00738537,0.0,0.0,0.0,0.0,0.0,0.0,0.0,0.0,0.0
550224555,550124564,0.001090283,0.0,0.00055271713,0.00014149757,0.0,0.0,0.0,0.0,0.0,0.0,0.0,0.0,0.0,0.00012342735,0.0,0.0,nan,0.0,0.0,0.007996899,0.0,0.0,0.0,0.0,0.0,0.0,0.0,0.0,0.0
550722279,550622295,0.00092303054,0.0,0.0007185844,9.8347205e-05,0.0,0.0,0.0,0.0,0.0,0.0,0.0,0.0,0.0,0.0005390241,0.0,0.0,nan,0.0,0.0,0.0054155905,0.0,0.0,0.0,0.0,0.0,0.0,0.0,0.0,0.0
551229884,551129981,0.0005109752,0.0,3.9663555e-06,0.00015413556,0.0,0.0,0.0,0.0,0.0,0.0,0.0,0.0,0.0,0.00027936316,0.0,0.0,nan,0.0,0.0,0.007311574,0.0,0.0,0.0,0.0,0.0,0.0,0.0,0.0,0.0
551727724,551627712,5.8095004e-05,0.0,0.00043503693,0.00028246644,0.0,0.0,0.0,0.0,0.0,0.0,0.0,0.0,0.0,2.9272154e-05,0.0,0.0,nan,0.0,0.0,0.0037162786,0.0,0.0,0.0,0.0,0.0,0.0,0.0,0.0,0.0
552225414,552125444,0.00071867567,0.0,5.15253e-06,0.00041182982,0.0,0.0,0.0,0.0,0.0,0.0,0.0,0.0,0.0,7.763214e-06,0.0,0.0,nan,0.0,0.0,0.0027881481,0.0,0.0,0.0,0.0,0.0,0.0,0.0,0.0,0.0
552723128,552623175,0.0032100007,0.0,0.00087808835,0.00060733344,0.0,0.0,0.0,0.0,0.0,0.0,0.0,0.0,0.0,0.0002448722,0.0,0.0,nan,0.0,0.0,0.005199131,0.0,0.0,0.0,0.0,0.0,0.0,0.0,0.0,0.0
553220891,553120906,0.0010334038,0.0,0.00022476744,0.00050556095,0.0,0.0,0.0,0.0,0.0,0.0,0.0,0.0,0.0,3.651221e-06,0.0,0.0,nan,0.0,0.0,0.003378243,0.0,0.0,0.0,0.0,0.0,0.0,0.0,0.0,0.0
553728518,553628593,0.0014126307,0.0,0.00014140559,0.00045781952,0.0,0.0,0.0,0.0,0.0,0.0,0.0,0.0,0.0,0.00015672314,0.0,0.0,nan,0.0,0.0,0.0032972766,0.0,0.0,0.0,0.0,0.0,0.0,0.0,0.0,0.0
554226263,554126327,0.008561856,0.0,1.11450545e-05,0.0003287125,0.0,0.0,0.0,0.0,0.0,0.0,0.0,0.0,0.0,0.000109487926,0.0,0.0,nan,0.0,0.0,0.0029934687,0.0,0.0,0.0,0.0,0.0,0.0,0.0,0.0,0.0
554724058,554624055,0.0017948297,0.0,0.00026700538,0.00016110975,0.0,0.0,0.0,0.0,0.0,0.0,0.0,0.0,0.0,0.00013946026,0.0,0.0,nan,0.0,0.0,0.0027429657,0.0,0.0,0.0,0.0,0.0,0.0,0.0,0.0,0.0
555221776,555121787,0.007522469,0.0,0.0012491242,0.00021162751,0.0,0.0,0.0,0.0,0.0,0.0,0.0,0.0,0.0,6.402837e-05,0.0,0.0,nan,0.0,0.0,0.003633828,0.0,0.0,0.0,0.0,0.0,0.0,0.0,0.0,0.0
555729376,555629473,1.7767783e-05,0.0,0.00022137063,6.525118e-05,0.0,0.0,0.0,0.0,0.0,0.0,0.0,0.0,0.0,3.6245805e-05,0.0,0.0,nan,0.0,0.0,0.0035169094,0.0,0.0,0.0,0.0,0.0,0.0,0.0,0.0,0.0
556227172,556127205,0.0021192103,0.0,0.00014086287,0.00010226421,0.0,0.0,0.0,0.0,0.0,0.0,0.0,0.0,0.0,0.00020920367,0.0,0.0,nan,0.0,0.0,0.002648536,0.0,0.0,0.0,0.0,0.0,0.0,0.0,0.0,0.0
556724843,556624937,0.00049516564,0.0,6.113655e-05,9.941227e-05,0.0,0.0,0.0,0.0,0.0,0.0,0.0,0.0,0.0,6.2016984e-06,0.0,0.0,nan,0.0,0.0,0.0017968399,0.0,0.0,0.0,0.0,0.0,0.0,0.0,0.0,0.0
557222575,557122669,0.004929983,0.0,0.0001429596,0.00010872555,0.0,0.0,0.0,0.0,0.0,0.0,0.0,0.0,0.0,1.6054932e-05,0.0,0.0,nan,0.0,0.0,0.0028818322,0.0,0.0,0.0,0.0,0.0,0.0,0.0,0.0,0.0
557730258,557630355,0.0008522675,0.0,1.2882545e-05,0.00021759294,0.0,0.0,0.0,0.0,0.0,0.0,0.0,0.0,0.0,3.11295e-05,0.0,0.0,nan,0.0,0.0,0.0020242222,0.0,0.0,0.0,0.0,0.0,0.0,0.0,0.0,0.0
558228042,558128087,0.0013498544,0.0,0.0010698582,0.00027885588,0.0,0.0,0.0,0.0,0.0,0.0,0.0,0.0,0.0,4.5699776e-06,0.0,0.0,nan,0.0,0.0,0.0017327404,0.0,0.0,0.0,0.0,0.0,0.0,0.0,0.0,0.0
558725728,558625819,0.004616546,0.0,2.646053e-05,4.9126666e-05,0.0,0.0,0.0,0.0,0.0,0.0,0.0,0.0,0.0,1.3030597e-05,0.0,0.0,nan,0.0,0.0,0.00075324025,0.0,0.0,0.0,0.0,0.0,0.0,0.0,0.0,0.0
559223484,559123551,0.0032643566,0.0,0.00033221004,6.0843024e-05,0.0,0.0,0.0,0.0,0.0,0.0,0.0,0.0,0.0,0.00079763035,0.0,0.0,nan,0.0,0.0,0.0031330893,0.0,0.0,0.0,0.0,0.0,0.0,0.0,0.0,0.0
559721430,559621283,0.0007386003,0.0,0.0003285535,4.5091206e-06,0.0,0.0,0.0,0.0,0.0,0.0,0.0,0.0,0.0,1.8760243e-06,0.0,0.0,nan,0.0,0.0,0.0021294574,0.0,0.0,0.0,0.0,0.0,0.0,0.0,0.0,0.0
560228892,560128970,0.0023197222,0.0,3.3373628e-06,3.902549e-05,0.0,0.0,0.0,0.0,0.0,0.0,0.0,0.0,0.0,2.853406e-06,0.0,0.0,nan,0.0,0.0,0.0016485541,0.0,0.0,0.0,0.0,0.0,0.0,0.0,0.0,0.0
560726611,560626702,0.0027731662,0.0,4.625605e-06,4.1465548e-05,0.0,0.0,0.0,0.0,0.0,0.0,0.0,0.0,0.0,1.3097912e-06,0.0,0.0,nan,0.0,0.0,0.0026652971,0.0,0.0,0.0,0.0,0.0,0.0,0.0,0.0,0.0
561224346,561124434,0.0037930433,0.0,4.0969997e-05,0.00024853158,0.0,0.0,0.0,0.0,0.0,0.0,0.0,0.0,0.0,2.1848231e-05,0.0,0.0,nan,0.0,0.0,0.0018986965,0.0,0.0,0.0,0.0,0.0,0.0,0.0,0.0,0.0
561732062,561632121,0.0016591658,0.0,0.00084423384,0.00021179959,0.0,0.0,0.0,0.0,0.0,0.0,0.0,0.0,0.0,2.4925062e-05,0.0,0.0,nan,0.0,0.0,0.0015047791,0.0,0.0,0.0,0.0,0.0,0.0,0.0,0.0,0.0
562219835,562119899,0.00029014173,0.0,5.043549e-06,0.00029194733,0.0,0.0,0.0,0.0,0.0,0.0,0.0,0.0,0.0,2.3476146e-05,0.0,0.0,nan,0.0,0.0,0.0024054472,0.0,0.0,0.0,0.0,0.0,0.0,0.0,0.0,0.0
562727517,562627586,0.00022424506,0.0,8.402515e-05,0.0004356852,0.0,0.0,0.0,0.0,0.0,0.0,0.0,0.0,0.0,3.869538e-05,0.0,0.0,nan,0.0,0.0,0.001312602,0.0,0.0,0.0,0.0,0.0,0.0,0.0,0.0,0.0
563225257,563125318,0.003986381,0.0,0.00024424243,0.0008135724,0.0,0.0,0.0,0.0,0.0,0.0,0.0,0.0,0.0,0.00027135995,0.0,0.0,nan,0.0,0.0,0.0020340031,0.0,0.0,0.0,0.0,0.0,0.0,0.0,0.0,0.0
563723156,563623051,0.0010145013,0.0,2.396599e-06,0.001759657,0.0,0.0,0.0,0.0,0.0,0.0,0.0,0.0,0.0,1.6818872e-12,0.0,0.0,nan,0.0,0.0,0.0018685076,0.0,0.0,0.0,0.0,0.0,0.0,0.0,0.0,0.0
564230735,564130738,0.0023653822,0.0,0.00046563777,0.001993717,0.0,0.0,0.0,0.0,0.0,0.0,0.0,0.0,0.0,8.0775535e-05,0.0,0.0,nan,0.0,0.0,0.0037181254,0.0,0.0,0.0,0.0,0.0,0.0,0.0,0.0,0.0
564728451,564628470,0.007886066,0.0,8.26321e-05,0.0024565991,0.0,0.0,0.0,0.0,0.0,0.0,0.0,0.0,0.0,4.6167974e-05,0.0,0.0,nan,0.0,0.0,0.0022639849,0.0,0.0,0.0,0.0,0.0,0.0,0.0,0.0,0.0
565226114,565126203,0.0011884837,0.0,8.908257e-05,0.003019367,0.0,0.0,0.0,0.0,0.0,0.0,0.0,0.0,0.0,3.6248446e-05,0.0,0.0,nan,0.0,0.0,0.002267557,0.0,0.0,0.0,0.0,0.0,0.0,0.0,0.0,0.0
565723883,565623936,0.0009901755,0.0,0.0008839487,0.003310423,0.0,0.0,0.0,0.0,0.0,0.0,0.0,0.0,0.0,6.440997e-05,0.0,0.0,nan,0.0,0.0,0.0032821123,0.0,0.0,0.0,0.0,0.0,0.0,0.0,0.0,0.0
566221632,566121668,0.00071449595,0.0,0.0012806823,0.0028426643,0.0,0.0,0.0,0.0,0.0,0.0,0.0,0.0,0.0,0.00019710495,0.0,0.0,nan,0.0,0.0,0.0018414414,0.0,0.0,0.0,0.0,0.0,0.0,0.0,0.0,0.0
566729290,566629355,0.011346544,0.0,2.5598934e-05,0.0018678767,0.0,0.0,0.0,0.0,0.0,0.0,0.0,0.0,0.0,0.00017309119,0.0,0.0,nan,0.0,0.0,0.0016298036,0.0,0.0,0.0,0.0,0.0,0.0,0.0,0.0,0.0
567227000,567127088,0.0007640712,0.0,0.0006158736,0.0015796882,0.0,0.0,0.0,0.0,0.0,0.0,0.0,0.0,0.0,0.00010224367,0.0,0.0,nan,0.0,0.0,0.0027197164,0.0,0.0,0.0,0.0,0.0,0.0,0.0,0.0,0.0
567724759,567624821,0.02803337,0.0,0.0003002324,0.0017580756,0.0,0.0,0.0,0.0,0.0,0.0,0.0,0.0,0.0,5.8722367e-06,0.0,0.0,nan,0.0,0.0,0.0011662178,0.0,0.0,0.0,0.0,0.0,0.0,0.0,0.0,0.0
568222496,568122553,0.0023922664,0.0,0.00041689796,0.0015635996,0.0,0.0,0.0,0.0,0.0,0.0,0.0,0.0,0.0,0.00020282858,0.0,0.0,nan,0.0,0.0,0.0009822897,0.0,0.0,0.0,0.0,0.0,0.0,0.0,0.0,0.0
568730225,568630240,0.10202197,0.0,0.00031118153,0.0013329338,0.0,0.0,0.0,0.0,0.0,0.0,0.0,0.0,0.0,0.0004084061,0.0,0.0,nan,0.0,0.0,0.002390327,0.0,0.0,0.0,0.0,0.0,0.0,0.0,0.0,0.0
569227916,569127974,0.0032365513,0.0,0.003003189,0.0014079046,0.0,0.0,0.0,0.0,0.0,0.0,0.0,0.0,0.0,0.00020728179,0.0,0.0,nan,0.0,0.0,0.0016393462,0.0,0.0,0.0,0.0,0.0,0.0,0.0,0.0,0.0
569725644,569625706,0.0010498649,0.0,0.0012451032,0.0011017822,0.0,0.0,0.0,0.0,0.0,0.0,0.0,0.0,0.0,4.820504e-05,0.0,0.0,nan,0.0,0.0,0.0024008958,0.0,0.0,0.0,0.0,0.0,0.0,0.0,0.0,0.0
570223363,570123442,0.0039117374,0.0,0.00010492948,0.0011677496,0.0,0.0,0.0,0.0,0.0,0.0,0.0,0.0,0.0,0.00060319854,0.0,0.0,nan,0.0,0.0,0.0016555191,0.0,0.0,0.0,0.0,0.0,0.0,0.0,0.0,0.0
570721076,570621171,0.0018220571,0.0,8.869758e-05,0.00067550247,0.0,0.0,0.0,0.0,0.0,0.0,0.0,0.0,0.0,0.0003167236,0.0,0.0,nan,0.0,0.0,0.0019650874,0.0,0.0,0.0,0.0,0.0,0.0,0.0,0.0,0.0
571228817,571128859,0.00095124275,0.0,0.0015057647,0.0005429023,0.0,0.0,0.0,0.0,0.0,0.0,0.0,0.0,0.0,9.323712e-05,0.0,0.0,nan,0.0,0.0,0.0011493178,0.0,0.0,0.0,0.0,0.0,0.0,0.0,0.0,0.0
571726522,571626591,0.0001618157,0.0,0.00029057843,0.00027338092,0.0,0.0,0.0,0.0,0.0,0.0,0.0,0.0,0.0,4.5967925e-05,0.0,0.0,nan,0.0,0.0,0.00085555983,0.0,0.0,0.0,0.0,0.0,0.0,0.0,0.0,0.0
572224229,572124324,0.004072373,0.0,0.0005388287,0.00043548044,0.0,0.0,0.0,0.0,0.0,0.0,0.0,0.0,0.0,0.00025482185,0.0,0.0,nan,0.0,0.0,0.001586591,0.0,0.0,0.0,0.0,0.0,0.0,0.0,0.0,0.0
572722073,572622057,0.0039322725,0.0,0.000107601,0.000442095,0.0,0.0,0.0,0.0,0.0,0.0,0.0,0.0,0.0,4.4451193e-05,0.0,0.0,nan,0.0,0.0,0.0014788101,0.0,0.0,0.0,0.0,0.0,0.0,0.0,0.0,0.0
573229734,573129744,0.0019968862,0.0,1.158996e-05,0.000505415,0.0,0.0,0.0,0.0,0.0,0.0,0.0,0.0,0.0,0.00015193113,0.0,0.0,nan,0.0,0.0,0.00033894207,0.0,0.0,0.0,0.0,0.0,0.0,0.0,0.0,0.0
573727561,573627477,0.00030863413,0.0,2.324512e-06,0.00094976806,0.0,0.0,0.0,0.0,0.0,0.0,0.0,0.0,0.0,1.9673842e-05,0.0,0.0,nan,0.0,0.0,0.0006308442,0.0,0.0,0.0,0.0,0.0,0.0,0.0,0.0,0.0
574225129,574125210,0.0033848765,0.0,7.63335e-06,0.0014825362,0.0,0.0,0.0,0.0,0.0,0.0,0.0,0.0,0.0,0.00010286463,0.0,0.0,nan,0.0,0.0,0.00045328523,0.0,0.0,0.0,0.0,0.0,0.0,0.0,0.0,0.0
574722851,574622942,0.000440844,0.0,5.5204127e-05,0.0014929653,0.0,0.0,0.0,0.0,0.0,0.0,0.0,0.0,0.0,0.00042064115,0.0,0.0,nan,0.0,0.0,0.00046159766,0.0,0.0,0.0,0.0,0.0,0.0,0.0,0.0,0.0
575230589,575130629,0.0005556914,0.0,0.0003473,0.0014671837,0.0,0.0,0.0,0.0,0.0,0.0,0.0,0.0,0.0,0.00019946022,0.0,0.0,nan,0.0,0.0,0.00017275756,0.0,0.0,0.0,0.0,0.0,0.0,0.0,0.0,0.0
575728293,575628362,0.006663196,0.0,0.00010644132,0.0015445475,0.0,0.0,0.0,0.0,0.0,0.0,0.0,0.0,0.0,0.0001269822,0.0,0.0,nan,0.0,0.0,7.9182195e-05,0.0,0.0,0.0,0.0,0.0,0.0,0.0,0.0,0.0
576226038,576126095,0.00085568015,0.0,0.00016941056,0.0011978685,0.0,0.0,0.0,0.0,0.0,0.0,0.0,0.0,0.0,0.0002478189,0.0,0.0,nan,0.0,0.0,0.0011286833,0.0,0.0,0.0,0.0,0.0,0.0,0.0,0.0,0.0
576723737,576623827,0.002670932,0.0,9.803577e-05,0.001161859,0.0,0.0,0.0,0.0,0.0,0.0,0.0,0.0,0.0,0.00025461585,0.0,0.0,nan,0.0,0.0,0.0004210662,0.0,0.0,0.0,0.0,0.0,0.0,0.0,0.0,0.0
577221531,577121560,0.00015342537,0.0,0.0010375226,0.00095374935,0.0,0.0,0.0,0.0,0.0,0.0,0.0,0.0,0.0,5.3875003e-05,0.0,0.0,nan,0.0,0.0,2.7628363e-07,0.0,0.0,0.0,0.0,0.0,0.0,0.0,0.0,0.0
577729282,577629247,0.0013755006,0.0,7.5524736e-07,0.00095140334,0.0,0.0,0.0,0.0,0.0,0.0,0.0,0.0,0.0,0.00054153026,0.0,0.0,nan,0.0,0.0,5.46196e-05,0.0,0.0,0.0,0.0,0.0,0.0,0.0,0.0,0.0
578226883,578126979,0.0018485639,0.0,0.00015929883,0.0007098442,0.0,0.0,0.0,0.0,0.0,0.0,0.0,0.0,0.0,0.00039501744,0.0,0.0,nan,0.0,0.0,0.0002663347,0.0,0.0,0.0,0.0,0.0,0.0,0.0,0.0,0.0
578724623,578624712,0.0011136151,0.0,0.0003196943,0.0005559298,0.0,0.0,0.0,0.0,0.0,0.0,0.0,0.0,0.0,0.0006087955,0.0,0.0,nan,0.0,0.0,0.00040359813,0.0,0.0,0.0,0.0,0.0,0.0,0.0,0.0,0.0
579222399,579122444,0.00014409018,0.0,0.00017743312,0.0005505904,0.0,0.0,0.0,0.0,0.0,0.0,0.0,0.0,0.0,4.134121e-05,0.0,0.0,nan,0.0,0.0,0.00024648607,0.0,0.0,0.0,0.0,0.0,0.0,0.0,0.0,0.0
579720147,579620177,0.006565196,0.0,4.2416777e-05,0.00045367167,0.0,0.0,0.0,0.0,0.0,0.0,0.0,0.0,0.0,3.5855267e-06,0.0,0.0,nan,0.0,0.0,0.00072903844,0.0,0.0,0.0,0.0,0.0,0.0,0.0,0.0,0.0
580227800,580127864,0.0011578737,0.0,4.6914105e-05,0.0007091997,0.0,0.0,0.0,0.0,0.0,0.0,0.0,0.0,0.0,1.01673395e-05,0.0,0.0,nan,0.0,0.0,0.0008931916,0.0,0.0,0.0,0.0,0.0,0.0,0.0,0.0,0.0
580725501,580625596,2.6889296e-05,0.0,2.3222177e-05,0.0004947787,0.0,0.0,0.0,0.0,0.0,0.0,0.0,0.0,0.0,3.4803445e-08,0.0,0.0,nan,0.0,0.0,0.0007926229,0.0,0.0,0.0,0.0,0.0,0.0,0.0,0.0,0.0
581223288,581123329,0.0061273603,0.0,0.00042011868,0.0009480156,0.0,0.0,0.0,0.0,0.0,0.0,0.0,0.0,0.0,6.681181e-05,0.0,0.0,nan,0.0,0.0,0.0032861286,0.0,0.0,0.0,0.0,0.0,0.0,0.0,0.0,0.0
581730968,581631015,0.002925635,0.0,0.0025338035,0.0013741942,0.0,0.0,0.0,0.0,0.0,0.0,0.0,0.0,0.0,2.049595e-05,0.0,0.0,nan,0.0,0.0,7.200384e-06,0.0,0.0,0.0,0.0,0.0,0.0,0.0,0.0,0.0
582228769,582128747,0.00057340285,0.0,0.0004560368,0.0006594576,0.0,0.0,0.0,0.0,0.0,0.0,0.0,0.0,0.0,2.2037896e-07,0.0,0.0,nan,0.0,0.0,0.00016861266,0.0,0.0,0.0,0.0,0.0,0.0,0.0,0.0,0.0
582726403,582626479,3.3920373e-05,0.0,6.0133243e-05,0.000511855,0.0,0.0,0.0,0.0,0.0,0.0,0.0,0.0,0.0,0.0001382824,0.0,0.0,nan,0.0,0.0,1.0268204e-05,0.0,0.0,0.0,0.0,0.0,0.0,0.0,0.0,0.0
583224148,583124212,0.0036533212,0.0,0.001043407,0.00037685657,0.0,0.0,0.0,0.0,0.0,0.0,0.0,0.0,0.0,7.4670555e-05,0.0,0.0,nan,0.0,0.0,4.8204624e-06,0.0,0.0,0.0,0.0,0.0,0.0,0.0,0.0,0.0
583721863,583621943,0.0017738543,0.0,0.00034266035,0.00035813457,0.0,0.0,0.0,0.0,0.0,0.0,0.0,0.0,0.0,7.1210625e-06,0.0,0.0,nan,0.0,0.0,5.1631498e-05,0.0,0.0,0.0,0.0,0.0,0.0,0.0,0.0,0.0
584229586,584129630,0.012645476,0.0,0.001284632,0.00031782393,0.0,0.0,0.0,0.0,0.0,0.0,0.0,0.0,0.0,5.5664426e-05,0.0,0.0,nan,0.0,0.0,0.00023073978,0.0,0.0,0.0,0.0,0.0,0.0,0.0,0.0,0.0
584727308,584627362,0.0045030927,0.0,4.255198e-06,0.00013385664,0.0,0.0,0.0,0.0,0.0,0.0,0.0,0.0,0.0,2.7338262e-06,0.0,0.0,nan,0.0,0.0,1.5686865e-05,0.0,0.0,0.0,0.0,0.0,0.0,0.0,0.0,0.0
585225014,585125094,0.0073378584,0.0,1.0585056e-05,0.00018818489,0.0,0.0,0.0,0.0,0.0,0.0,0.0,0.0,0.0,4.0556974e-05,0.0,0.0,nan,0.0,0.0,0.0011510774,0.0,0.0,0.0,0.0,0.0,0.0,0.0,0.0,0.0
585722784,585622825,0.00018054534,0.0,9.022992e-05,8.887094e-05,0.0,0.0,0.0,0.0,0.0,0.0,0.0,0.0,0.0,6.0801585e-06,0.0,0.0,nan,0.0,0.0,0.0011624086,0.0,0.0,0.0,0.0,0.0,0.0,0.0,0.0,0.0
586230504,586130512,0.00087690674,0.0,1.8957631e-05,5.225645e-05,0.0,0.0,0.0,0.0,0.0,0.0,0.0,0.0,0.0,5.7740617e-06,0.0,0.0,nan,0.0,0.0,0.00050698244,0.0,0.0,0.0,0.0,0.0,0.0,0.0,0.0,0.0
586728261,586628243,0.009222563,0.0,0.00055978063,5.2250116e-06,0.0,0.0,0.0,0.0,0.0,0.0,0.0,0.0,0.0,0.00011198953,0.0,0.0,nan,0.0,0.0,0.0017726611,0.0,0.0,0.0,0.0,0.0,0.0,0.0,0.0,0.0
587225907,587125975,0.006541553,0.0,0.0002105837,5.907199e-05,0.0,0.0,0.0,0.0,0.0,0.0,0.0,0.0,0.0,1.1826996e-05,0.0,0.0,nan,0.0,0.0,0.0031957978,0.0,0.0,0.0,0.0,0.0,0.0,0.0,0.0,0.0
587723620,587623706,0.00230266,0.0,0.00077972974,4.2561453e-05,0.0,0.0,0.0,0.0,0.0,0.0,0.0,0.0,0.0,2.7185928e-07,0.0,0.0,nan,0.0,0.0,0.0019867914,0.0,0.0,0.0,0.0,0.0,0.0,0.0,0.0,0.0
588221347,588121437,0.0006323586,0.0,0.0014394006,4.945249e-05,0.0,0.0,0.0,0.0,0.0,0.0,0.0,0.0,0.0,0.00010428087,0.0,0.0,nan,0.0,0.0,0.0016327864,0.0,0.0,0.0,0.0,0.0,0.0,0.0,0.0,0.0
588729056,588629123,0.0048438134,0.0,0.00055946707,0.00019825248,0.0,0.0,0.0,0.0,0.0,0.0,0.0,0.0,0.0,1.6327933e-05,0.0,0.0,nan,0.0,0.0,0.0033522898,0.0,0.0,0.0,0.0,0.0,0.0,0.0,0.0,0.0
589226808,589126854,0.0058360416,0.0,0.00017454934,0.00021851447,0.0,0.0,0.0,0.0,0.0,0.0,0.0,0.0,0.0,0.00034944637,0.0,0.0,nan,0.0,0.0,0.0016277598,0.0,0.0,0.0,0.0,0.0,0.0,0.0,0.0,0.0
589724498,589624585,0.0018809299,0.0,6.345668e-05,0.00029775308,0.0,0.0,0.0,0.0,0.0,0.0,0.0,0.0,0.0,2.7149263e-05,0.0,0.0,nan,0.0,0.0,0.0008058541,0.0,0.0,0.0,0.0,0.0,0.0,0.0,0.0,0.0
590222256,590122316,0.0017407992,0.0,0.0028739746,0.00032611418,0.0,0.0,0.0,0.0,0.0,0.0,0.0,0.0,0.0,8.458277e-05,0.0,0.0,nan,0.0,0.0,0.00017219706,0.0,0.0,0.0,0.0,0.0,0.0,0.0,0.0,0.0
590719988,590620047,0.001824052,0.0,6.719578e-05,0.0003739822,0.0,0.0,0.0,0.0,0.0,0.0,0.0,0.0,0.0,0.00011008439,0.0,0.0,nan,0.0,0.0,1.5105142e-07,0.0,0.0,0.0,0.0,0.0,0.0,0.0,0.0,0.0
591227720,591127733,0.0007761391,0.0,0.0004726034,0.00063328515,0.0,0.0,0.0,0.0,0.0,0.0,0.0,0.0,0.0,3.759065e-05,0.0,0.0,nan,0.0,0.0,0.00039281265,0.0,0.0,0.0,0.0,0.0,0.0,0.0,0.0,0.0
591725370,591625464,0.00020771279,0.0,1.8372355e-05,0.0009203146,0.0,0.0,0.0,0.0,0.0,0.0,0.0,0.0,0.0,6.270711e-05,0.0,0.0,nan,0.0,0.0,4.8268597e-05,0.0,0.0,0.0,0.0,0.0,0.0,0.0,0.0,0.0
592223157,592123194,0.004391492,0.0,0.0002264758,0.00083224,0.0,0.0,0.0,0.0,0.0,0.0,0.0,0.0,0.0,7.4881515e-05,0.0,0.0,nan,0.0,0.0,4.303327e-08,0.0,0.0,0.0,0.0,0.0,0.0,0.0,0.0,0.0
592730820,592630881,0.0065320176,0.0,0.0010649937,0.0006503202,0.0,0.0,0.0,0.0,0.0,0.0,0.0,0.0,0.0,0.0003419421,0.0,0.0,nan,0.0,0.0,0.002836484,0.0,0.0,0.0,0.0,0.0,0.0,0.0,0.0,0.0
593228522,593128610,0.00502292,0.0,6.9716676e-05,0.0007414544,0.0,0.0,0.0,0.0,0.0,0.0,0.0,0.0,0.0,4.996851e-07,0.0,0.0,nan,0.0,0.0,0.012792769,0.0,0.0,0.0,0.0,0.0,0.0,0.0,0.0,0.0
593726247,593626340,0.0011991599,0.0,0.0005011081,0.00042847762,0.0,0.0,0.0,0.0,0.0,0.0,0.0,0.0,0.0,1.3529727e-06,0.0,0.0,nan,0.0,0.0,0.0011135505,0.0,0.0,0.0,0.0,0.0,0.0,0.0,0.0,0.0
594223983,594124070,0.0027696842,0.0,6.149919e-05,0.0005279337,0.0,0.0,0.0,0.0,0.0,0.0,0.0,0.0,0.0,0.0004058817,0.0,0.0,nan,0.0,0.0,0.0008722938,0.0,0.0,0.0,0.0,0.0,0.0,0.0,0.0,0.0
594721740,594621800,0.0048910417,0.0,1.4898661e-06,0.00069166784,0.0,0.0,0.0,0.0,0.0,0.0,0.0,0.0,0.0,5.7676072e-05,0.0,0.0,nan,0.0,0.0,0.0010469205,0.0,0.0,0.0,0.0,0.0,0.0,0.0,0.0,0.0
595229391,595129485,0.0005661777,0.0,0.00069051,0.0006977102,0.0,0.0,0.0,0.0,0.0,0.0,0.0,0.0,0.0,0.00012871943,0.0,0.0,nan,0.0,0.0,3.226598e-07,0.0,0.0,0.0,0.0,0.0,0.0,0.0,0.0,0.0
595727199,595627214,0.016423734,0.0,0.00086720265,0.00034789488,0.0,0.0,0.0,0.0,0.0,0.0,0.0,0.0,0.0,3.92756e-05,0.0,0.0,nan,0.0,0.0,1.9512942e-07,0.0,0.0,0.0,0.0,0.0,0.0,0.0,0.0,0.0
596224924,596124944,0.0024832434,0.0,0.0005105114,0.00018408425,0.0,0.0,0.0,0.0,0.0,0.0,0.0,0.0,0.0,0.00025875345,0.0,0.0,nan,0.0,0.0,1.6338579e-06,0.0,0.0,0.0,0.0,0.0,0.0,0.0,0.0,0.0
596722631,596622674,0.00025916094,0.0,6.3447296e-05,0.00023396304,0.0,0.0,0.0,0.0,0.0,0.0,0.0,0.0,0.0,1.8766968e-06,0.0,0.0,nan,0.0,0.0,4.662122e-05,0.0,0.0,0.0,0.0,0.0,0.0,0.0,0.0,0.0
597220305,597120403,0.00057555956,0.0,4.100277e-05,0.00017793753,0.0,0.0,0.0,0.0,0.0,0.0,0.0,0.0,0.0,1.1816188e-05,0.0,0.0,nan,0.0,0.0,0.00030586842,0.0,0.0,0.0,0.0,0.0,0.0,0.0,0.0,0.0
597727991,597628087,0.0003955478,0.0,0.0001679349,0.00019899041,0.0,0.0,0.0,0.0,0.0,0.0,0.0,0.0,0.0,0.00024027484,0.0,0.0,nan,0.0,0.0,0.00023408851,0.0,0.0,0.0,0.0,0.0,0.0,0.0,0.0,0.0
598225723,598125817,0.0010919924,0.0,4.7465874e-05,0.00019757893,0.0,0.0,0.0,0.0,0.0,0.0,0.0,0.0,0.0,4.7051664e-05,0.0,0.0,nan,0.0,0.0,0.00011044322,0.0,0.0,0.0,0.0,0.0,0.0,0.0,0.0,0.0
598723588,598623546,0.00079938496,0.0,0.00042196133,0.00017877031,0.0,0.0,0.0,0.0,0.0,0.0,0.0,0.0,0.0,1.4945794e-05,0.0,0.0,nan,0.0,0.0,0.00028753185,0.0,0.0,0.0,0.0,0.0,0.0,0.0,0.0,0.0
599231139,599131229,0.0016313081,0.0,5.959352e-05,0.00039321775,0.0,0.0,0.0,0.0,0.0,0.0,0.0,0.0,0.0,3.9501065e-05,0.0,0.0,nan,0.0,0.0,0.00020332976,0.0,0.0,0.0,0.0,0.0,0.0,0.0,0.0,0.0
599728864,599628958,0.0011882181,0.0,0.0002935742,0.00042284903,0.0,0.0,0.0,0.0,0.0,0.0,0.0,0.0,0.0,9.201619e-05,0.0,0.0,nan,0.0,0.0,7.64591e-05,0.0,0.0,0.0,0.0,0.0,0.0,0.0,0.0,0.0
600226727,600126687,2.2640563e-05,0.0,0.00015314392,0.00063842605,0.0,0.0,0.0,0.0,0.0,0.0,0.0,0.0,0.0,0.00018384488,0.0,0.0,nan,0.0,0.0,0.00064953964,0.0,0.0,0.0,0.0,0.0,0.0,0.0,0.0,0.0
600724350,600624416,0.00049686653,0.0,4.9508167e-06,0.0009766623,0.0,0.0,0.0,0.0,0.0,0.0,0.0,0.0,0.0,8.545988e-06,0.0,0.0,nan,0.0,0.0,0.0009918928,0.0,0.0,0.0,0.0,0.0,0.0,0.0,0.0,0.0
601222048,601122144,0.016057637,0.0,0.0042577535,0.0013154083,0.0,0.0,0.0,0.0,0.0,0.0,0.0,0.0,0.0,2.7816857e-05,0.0,0.0,nan,0.0,0.0,0.0017202405,0.0,0.0,0.0,0.0,0.0,0.0,0.0,0.0,0.0
601729764,601629827,7.5612385e-05,0.0,0.0005607803,0.0016086956,0.0,0.0,0.0,0.0,0.0,0.0,0.0,0.0,0.0,6.889116e-08,0.0,0.0,nan,0.0,0.0,0.0031689457,0.0,0.0,0.0,0.0,0.0,0.0,0.0,0.0,0.0
602227492,602127555,0.0018180086,0.0,0.00021983514,0.0015571625,0.0,0.0,0.0,0.0,0.0,0.0,0.0,0.0,0.0,4.523834e-06,0.0,0.0,nan,0.0,0.0,0.0007860747,0.0,0.0,0.0,0.0,0.0,0.0,0.0,0.0,0.0
602725187,602625284,0.0002998702,0.0,2.535425e-05,0.0014547738,0.0,0.0,0.0,0.0,0.0,0.0,0.0,0.0,0.0,6.051552e-05,0.0,0.0,nan,0.0,0.0,0.0015454537,0.0,0.0,0.0,0.0,0.0,0.0,0.0,0.0,0.0
603222930,603123012,0.0048840223,0.0,0.0002210713,0.0013772924,0.0,0.0,0.0,0.0,0.0,0.0,0.0,0.0,0.0,2.269295e-08,0.0,0.0,nan,0.0,0.0,0.0013416305,0.0,0.0,0.0,0.0,0.0,0.0,0.0,0.0,0.0
603730702,603630694,0.0035649596,0.0,0.0006322852,0.0010633725,0.0,0.0,0.0,0.0,0.0,0.0,0.0,0.0,0.0,3.267573e-05,0.0,0.0,nan,0.0,0.0,0.003561224,0.0,0.0,0.0,0.0,0.0,0.0,0.0,0.0,0.0
604228376,604128422,0.007601074,0.0,0.0009948841,0.0009131158,0.0,0.0,0.0,0.0,0.0,0.0,0.0,0.0,0.0,2.2498503e-05,0.0,0.0,nan,0.0,0.0,0.0031465958,0.0,0.0,0.0,0.0,0.0,0.0,0.0,0.0,0.0
604726136,604626149,0.008802933,0.0,0.002059474,0.00081939076,0.0,0.0,0.0,0.0,0.0,0.0,0.0,0.0,0.0,1.6703518e-05,0.0,0.0,nan,0.0,0.0,0.00073314714,0.0,0.0,0.0,0.0,0.0,0.0,0.0,0.0,0.0
605223849,605123877,0.042835534,0.0,0.00070863677,0.0009019695,0.0,0.0,0.0,0.0,0.0,0.0,0.0,0.0,0.0,8.772555e-06,0.0,0.0,nan,0.0,0.0,0.0020662749,0.0,0.0,0.0,0.0,0.0,0.0,0.0,0.0,0.0
605721543,605621604,0.0022508744,0.0,0.0005291199,0.0005012174,0.0,0.0,0.0,0.0,0.0,0.0,0.0,0.0,0.0,1.342283e-05,0.0,0.0,nan,0.0,0.0,0.0007920905,0.0,0.0,0.0,0.0,0.0,0.0,0.0,0.0,0.0
606229273,606129286,0.0022833797,0.0,5.1262333e-07,0.00021394608,0.0,0.0,0.0,0.0,0.0,0.0,0.0,0.0,0.0,6.8440124e-05,0.0,0.0,nan,0.0,0.0,0.00013847627,0.0,0.0,0.0,0.0,0.0,0.0,0.0,0.0,0.0
606726970,606627013,0.0061576404,0.0,0.00016678995,3.4385936e-05,0.0,0.0,0.0,0.0,0.0,0.0,0.0,0.0,0.0,9.485298e-05,0.0,0.0,nan,0.0,0.0,0.001172748,0.0,0.0,0.0,0.0,0.0,0.0,0.0,0.0,0.0
607224673,607124740,0.004519348,0.0,0.00020729301,0.00010638733,0.0,0.0,0.0,0.0,0.0,0.0,0.0,0.0,0.0,5.4096574e-05,0.0,0.0,nan,0.0,0.0,1.4650937e-05,0.0,0.0,0.0,0.0,0.0,0.0,0.0,0.0,0.0
607722392,607622467,0.007307961,0.0,0.00076226285,0.00027301334,0.0,0.0,0.0,0.0,0.0,0.0,0.0,0.0,0.0,8.388083e-06,0.0,0.0,nan,0.0,0.0,2.8876955e-05,0.0,0.0,0.0,0.0,0.0,0.0,0.0,0.0,0.0
608220184,608120193,0.0001313598,0.0,7.490615e-05,0.00032172614,0.0,0.0,0.0,0.0,0.0,0.0,0.0,0.0,0.0,0.00016763265,0.0,0.0,nan,0.0,0.0,0.00019048032,0.0,0.0,0.0,0.0,0.0,0.0,0.0,0.0,0.0
608727794,608627875,0.0006169807,0.0,0.00013194807,0.0005236027,0.0,0.0,0.0,0.0,0.0,0.0,0.0,0.0,0.0,2.198969e-05,0.0,0.0,nan,0.0,0.0,0.00016358843,0.0,0.0,0.0,0.0,0.0,0.0,0.0,0.0,0.0
609225585,609125601,0.00037567754,0.0,1.956295e-05,0.00093524216,0.0,0.0,0.0,0.0,0.0,0.0,0.0,0.0,0.0,6.442302e-05,0.0,0.0,nan,0.0,0.0,0.00054505235,0.0,0.0,0.0,0.0,0.0,0.0,0.0,0.0,0.0
609723232,609623327,0.0025971504,0.0,0.00044627275,0.0012931437,0.0,0.0,0.0,0.0,0.0,0.0,0.0,0.0,0.0,9.8060134e-08,0.0,0.0,nan,0.0,0.0,4.8078004e-05,0.0,0.0,0.0,0.0,0.0,0.0,0.0,0.0,0.0
610230981,610131008,0.00027435075,0.0,4.042423e-06,0.001414325,0.0,0.0,0.0,0.0,0.0,0.0,0.0,0.0,0.0,1.4016907e-06,0.0,0.0,nan,0.0,0.0,0.00010245019,0.0,0.0,0.0,0.0,0.0,0.0,0.0,0.0,0.0
610728644,610628734,0.000692268,0.0,0.001274857,0.0013358248,0.0,0.0,0.0,0.0,0.0,0.0,0.0,0.0,0.0,0.00012122679,0.0,0.0,nan,0.0,0.0,0.0009330895,0.0,0.0,0.0,0.0,0.0,0.0,0.0,0.0,0.0
611226437,611126460,0.0007649542,0.0,9.3302675e-05,0.0014000087,0.0,0.0,0.0,0.0,0.0,0.0,0.0,0.0,0.0,3.2918073e-05,0.0,0.0,nan,0.0,0.0,0.00043007883,0.0,0.0,0.0,0.0,0.0,0.0,0.0,0.0,0.0
611724144,611624185,6.22165e-05,0.0,0.001087247,0.0015581605,0.0,0.0,0.0,0.0,0.0,0.0,0.0,0.0,0.0,2.7554777e-05,0.0,0.0,nan,0.0,0.0,0.0015663438,0.0,0.0,0.0,0.0,0.0,0.0,0.0,0.0,0.0
612221848,612121911,0.0021751248,0.0,0.0005835019,0.0015590189,0.0,0.0,0.0,0.0,0.0,0.0,0.0,0.0,0.0,7.802163e-05,0.0,0.0,nan,0.0,0.0,0.00088953273,0.0,0.0,0.0,0.0,0.0,0.0,0.0,0.0,0.0
612729516,612629591,3.8759725e-05,0.0,0.0005523623,0.0013992891,0.0,0.0,0.0,0.0,0.0,0.0,0.0,0.0,0.0,1.8865268e-05,0.0,0.0,nan,0.0,0.0,0.0026582142,0.0,0.0,0.0,0.0,0.0,0.0,0.0,0.0,0.0
613227270,613127316,0.0046341964,0.0,0.0015535376,0.0015516629,0.0,0.0,0.0,0.0,0.0,0.0,0.0,0.0,0.0,1.2817999e-05,0.0,0.0,nan,0.0,0.0,0.0020269922,0.0,0.0,0.0,0.0,0.0,0.0,0.0,0.0,0.0
613725039,613625041,0.0050239526,0.0,0.0005763634,0.0015045521,0.0,0.0,0.0,0.0,0.0,0.0,0.0,0.0,0.0,2.044586e-05,0.0,0.0,nan,0.0,0.0,0.00025337288,0.0,0.0,0.0,0.0,0.0,0.0,0.0,0.0,0.0
614222699,614122766,0.0031837095,0.0,0.000102172446,0.0013317222,0.0,0.0,0.0,0.0,0.0,0.0,0.0,0.0,0.0,2.6968094e-06,0.0,0.0,nan,0.0,0.0,0.0010017944,0.0,0.0,0.0,0.0,0.0,0.0,0.0,0.0,0.0
614720456,614620491,0.0009145603,0.0,2.5086803e-05,0.0012953513,0.0,0.0,0.0,0.0,0.0,0.0,0.0,0.0,0.0,2.9353761e-05,0.0,0.0,nan,0.0,0.0,0.0012329872,0.0,0.0,0.0,0.0,0.0,0.0,0.0,0.0,0.0
615228074,615128170,0.0028432107,0.0,0.0016183364,0.0010725949,0.0,0.0,0.0,0.0,0.0,0.0,0.0,0.0,0.0,9.115593e-06,0.0,0.0,nan,0.0,0.0,0.0014478852,0.0,0.0,0.0,0.0,0.0,0.0,0.0,0.0,0.0
615725799,615625895,0.0058068223,0.0,0.001054477,0.0012303906,0.0,0.0,0.0,0.0,0.0,0.0,0.0,0.0,0.0,5.9772045e-09,0.0,0.0,nan,0.0,0.0,0.00097606523,0.0,0.0,0.0,0.0,0.0,0.0,0.0,0.0,0.0
616223565,616123619,0.0008655232,0.0,0.0003766434,0.0013938566,0.0,0.0,0.0,0.0,0.0,0.0,0.0,0.0,0.0,0.00013485212,0.0,0.0,nan,0.0,0.0,0.0036781637,0.0,0.0,0.0,0.0,0.0,0.0,0.0,0.0,0.0
616721278,616621344,0.00092056196,0.0,2.223966e-06,0.0011220457,0.0,0.0,0.0,0.0,0.0,0.0,0.0,0.0,0.0,1.8323458e-06,0.0,0.0,nan,0.0,0.0,0.0035123418,0.0,0.0,0.0,0.0,0.0,0.0,0.0,0.0,0.0
617228925,617129022,7.1808885e-05,0.0,9.667568e-07,0.0009899524,0.0,0.0,0.0,0.0,0.0,0.0,0.0,0.0,0.0,0.00011981979,0.0,0.0,nan,0.0,0.0,0.0005954066,0.0,0.0,0.0,0.0,0.0,0.0,0.0,0.0,0.0
617726693,617626746,0.0014524336,0.0,6.057518e-06,0.0005705887,0.0,0.0,0.0,0.0,0.0,0.0,0.0,0.0,0.0,6.480782e-06,0.0,0.0,nan,0.0,0.0,0.0007777146,0.0,0.0,0.0,0.0,0.0,0.0,0.0,0.0,0.0
618224530,618124470,0.0008735299,0.0,1.566441e-05,0.0003755494,0.0,0.0,0.0,0.0,0.0,0.0,0.0,0.0,0.0,2.834875e-05,0.0,0.0,nan,0.0,0.0,0.00017997708,0.0,0.0,0.0,0.0,0.0,0.0,0.0,0.0,0.0
618722095,618622194,0.0005778808,0.0,0.0011614751,0.00035504482,0.0,0.0,0.0,0.0,0.0,0.0,0.0,0.0,0.0,1.5207222e-06,0.0,0.0,nan,0.0,0.0,3.58503e-05,0.0,0.0,0.0,0.0,0.0,0.0,0.0,0.0,0.0
619229836,619129872,0.00017402474,0.0,0.002488455,0.0001480945,0.0,0.0,0.0,0.0,0.0,0.0,0.0,0.0,0.0,1.7771617e-06,0.0,0.0,nan,0.0,0.0,0.00043080002,0.0,0.0,0.0,0.0,0.0,0.0,0.0,0.0,0.0
619727613,619627595,1.8806151e-05,0.0,0.00031435705,1.1020345e-05,0.0,0.0,0.0,0.0,0.0,0.0,0.0,0.0,0.0,2.1816199e-05,0.0,0.0,nan,0.0,0.0,0.0034405356,0.0,0.0,0.0,0.0,0.0,0.0,0.0,0.0,0.0
620225222,620125318,0.0018292536,0.0,0.00020898244,3.6093497e-06,0.0,0.0,0.0,0.0,0.0,0.0,0.0,0.0,0.0,1.1048771e-05,0.0,0.0,nan,0.0,0.0,0.0018744954,0.0,0.0,0.0,0.0,0.0,0.0,0.0,0.0,0.0
620722994,620623041,0.00076140306,0.0,5.4311684e-05,7.99846e-05,0.0,0.0,0.0,0.0,0.0,0.0,0.0,0.0,0.0,9.436624e-06,0.0,0.0,nan,0.0,0.0,0.0017387861,0.0,0.0,0.0,0.0,0.0,0.0,0.0,0.0,0.0
621230644,621130719,0.00043963225,0.0,0.00049516984,0.00019788613,0.0,0.0,0.0,0.0,0.0,0.0,0.0,0.0,0.0,4.9172795e-05,0.0,0.0,nan,0.0,0.0,0.0032186275,0.0,0.0,0.0,0.0,0.0,0.0,0.0,0.0,0.0
621728347,621628441,0.0036618144,0.0,0.0012966484,0.00012769275,0.0,0.0,0.0,0.0,0.0,0.0,0.0,0.0,0.0,5.4957065e-05,0.0,0.0,nan,0.0,0.0,0.0041246205,0.0,0.0,0.0,0.0,0.0,0.0,0.0,0.0,0.0
622226102,622126164,0.0004062148,0.0,2.8603772e-06,0.00010097435,0.0,0.0,0.0,0.0,0.0,0.0,0.0,0.0,0.0,4.82338e-07,0.0,0.0,nan,0.0,0.0,0.0021051967,0.0,0.0,0.0,0.0,0.0,0.0,0.0,0.0,0.0
622723886,622623887,0.0060527404,0.0,0.00023378163,2.5561902e-05,0.0,0.0,0.0,0.0,0.0,0.0,0.0,0.0,0.0,0.00011819181,0.0,0.0,nan,0.0,0.0,0.0012702635,0.0,0.0,0.0,0.0,0.0,0.0,0.0,0.0,0.0
623221524,623121609,0.0027565628,0.0,0.00011825969,2.6223577e-05,0.0,0.0,0.0,0.0,0.0,0.0,0.0,0.0,0.0,3.3155923e-06,0.0,0.0,nan,0.0,0.0,8.0042446e-05,0.0,0.0,0.0,0.0,0.0,0.0,0.0,0.0,0.0
623729193,623629286,0.00087977806,0.0,0.0013663714,5.732213e-05,0.0,0.0,0.0,0.0,0.0,0.0,0.0,0.0,0.0,1.1939734e-11,0.0,0.0,nan,0.0,0.0,9.306482e-12,0.0,0.0,0.0,0.0,0.0,0.0,0.0,0.0,0.0
624226908,624127008,0.002380186,0.0,1.2153602e-06,0.00010826681,0.0,0.0,0.0,0.0,0.0,0.0,0.0,0.0,0.0,7.925502e-06,0.0,0.0,nan,0.0,0.0,0.0006293132,0.0,0.0,0.0,0.0,0.0,0.0,0.0,0.0,0.0
624724685,624624729,9.6017444e-05,0.0,0.0008548049,0.0001770171,0.0,0.0,0.0,0.0,0.0,0.0,0.0,0.0,0.0,2.5605445e-06,0.0,0.0,nan,0.0,0.0,3.2338812e-05,0.0,0.0,0.0,0.0,0.0,0.0,0.0,0.0,0.0
625222357,625122451,0.0077621303,0.0,0.00040257568,0.0001264283,0.0,0.0,0.0,0.0,0.0,0.0,0.0,0.0,0.0,1.2732144e-05,0.0,0.0,nan,0.0,0.0,6.36251e-05,0.0,0.0,0.0,0.0,0.0,0.0,0.0,0.0,0.0
625720122,625620173,0.00065736216,0.0,0.0001257533,0.00015637436,0.0,0.0,0.0,0.0,0.0,0.0,0.0,0.0,0.0,2.3834999e-05,0.0,0.0,nan,0.0,0.0,0.0005321942,0.0,0.0,0.0,0.0,0.0,0.0,0.0,0.0,0.0
626227836,626127849,0.0023193064,0.0,0.00014149873,6.32556e-05,0.0,0.0,0.0,0.0,0.0,0.0,0.0,0.0,0.0,4.606233e-05,0.0,0.0,nan,0.0,0.0,0.00034252313,0.0,0.0,0.0,0.0,0.0,0.0,0.0,0.0,0.0
626725501,626625570,0.00049994286,0.0,0.00061631744,0.00010651188,0.0,0.0,0.0,0.0,0.0,0.0,0.0,0.0,0.0,1.0974071e-05,0.0,0.0,nan,0.0,0.0,8.7855435e-05,0.0,0.0,0.0,0.0,0.0,0.0,0.0,0.0,0.0
627223278,627123291,0.0017784076,0.0,0.00016739802,0.00019738427,0.0,0.0,0.0,0.0,0.0,0.0,0.0,0.0,0.0,3.5493977e-06,0.0,0.0,nan,0.0,0.0,0.00032536566,0.0,0.0,0.0,0.0,0.0,0.0,0.0,0.0,0.0
627730906,627630967,0.0002471019,0.0,0.000119307864,0.00018942142,0.0,0.0,0.0,0.0,0.0,0.0,0.0,0.0,0.0,4.6487254e-05,0.0,0.0,nan,0.0,0.0,0.0009805674,0.0,0.0,0.0,0.0,0.0,0.0,0.0,0.0,0.0
628228595,628128687,0.0017129744,0.0,0.0001967207,0.00029357267,0.0,0.0,0.0,0.0,0.0,0.0,0.0,0.0,0.0,1.4141568e-07,0.0,0.0,nan,0.0,0.0,7.845104e-05,0.0,0.0,0.0,0.0,0.0,0.0,0.0,0.0,0.0
628726318,628626408,0.0014326763,0.0,1.8379998e-05,0.00043562343,0.0,0.0,0.0,0.0,0.0,0.0,0.0,0.0,0.0,5.6390272e-05,0.0,0.0,nan,0.0,0.0,0.00012254948,0.0,0.0,0.0,0.0,0.0,0.0,0.0,0.0,0.0
629224037,629124129,0.0016651794,0.0,0.000860958,0.00044219632,0.0,0.0,0.0,0.0,0.0,0.0,0.0,0.0,0.0,0.00014837703,0.0,0.0,nan,0.0,0.0,0.00066814345,0.0,0.0,0.0,0.0,0.0,0.0,0.0,0.0,0.0
629721846,629621849,0.00067060895,0.0,0.00019374881,0.0003208061,0.0,0.0,0.0,0.0,0.0,0.0,0.0,0.0,0.0,0.00014205769,0.0,0.0,nan,0.0,0.0,3.3844364e-05,0.0,0.0,0.0,0.0,0.0,0.0,0.0,0.0,0.0
630229429,630129524,0.0018963977,0.0,0.00011290985,0.00031127298,0.0,0.0,0.0,0.0,0.0,0.0,0.0,0.0,0.0,8.442143e-05,0.0,0.0,nan,0.0,0.0,2.5422958e-05,0.0,0.0,0.0,0.0,0.0,0.0,0.0,0.0,0.0
630727247,630627244,0.001182364,0.0,0.00033735103,0.00062267174,0.0,0.0,0.0,0.0,0.0,0.0,0.0,0.0,0.0,4.4353892e-05,0.0,0.0,nan,0.0,0.0,0.00012153832,0.0,0.0,0.0,0.0,0.0,0.0,0.0,0.0,0.0
631224944,631124963,0.0076969657,0.0,0.00069736387,0.0006877739,0.0,0.0,0.0,0.0,0.0,0.0,0.0,0.0,0.0,2.663587e-05,0.0,0.0,nan,0.0,0.0,3.1487474e-05,0.0,0.0,0.0,0.0,0.0,0.0,0.0,0.0,0.0
631722679,631622683,0.0012706979,0.0,0.0005828223,0.0011593915,0.0,0.0,0.0,0.0,0.0,0.0,0.0,0.0,0.0,4.3599457e-06,0.0,0.0,nan,0.0,0.0,1.1126116e-05,0.0,0.0,0.0,0.0,0.0,0.0,0.0,0.0,0.0
632220319,632120403,0.0023368993,0.0,0.0023279113,0.0008594863,0.0,0.0,0.0,0.0,0.0,0.0,0.0,0.0,0.0,9.8608525e-06,0.0,0.0,nan,0.0,0.0,0.00013273547,0.0,0.0,0.0,0.0,0.0,0.0,0.0,0.0,0.0
632728032,632628077,0.0009229451,0.0,0.0003745666,0.0007226968,0.0,0.0,0.0,0.0,0.0,0.0,0.0,0.0,0.0,9.695817e-06,0.0,0.0,nan,0.0,0.0,0.0001483827,0.0,0.0,0.0,0.0,0.0,0.0,0.0,0.0,0.0
633225760,633125796,0.0037047868,0.0,0.0005251236,0.0004578599,0.0,0.0,0.0,0.0,0.0,0.0,0.0,0.0,0.0,1.0954335e-05,0.0,0.0,nan,0.0,0.0,0.000102765036,0.0,0.0,0.0,0.0,0.0,0.0,0.0,0.0,0.0
633723421,633623515,0.0015373358,0.0,1.6215145e-06,0.00069324806,0.0,0.0,0.0,0.0,0.0,0.0,0.0,0.0,0.0,6.837553e-05,0.0,0.0,nan,0.0,0.0,0.00095063203,0.0,0.0,0.0,0.0,0.0,0.0,0.0,0.0,0.0
634231094,634131188,0.00080217636,0.0,0.00074496935,0.0007670144,0.0,0.0,0.0,0.0,0.0,0.0,0.0,0.0,0.0,0.0001479441,0.0,0.0,nan,0.0,0.0,0.00051072444,0.0,0.0,0.0,0.0,0.0,0.0,0.0,0.0,0.0
634728814,634628907,5.71439e-05,0.0,0.00014170443,0.0006637792,0.0,0.0,0.0,0.0,0.0,0.0,0.0,0.0,0.0,3.160342e-05,0.0,0.0,nan,0.0,0.0,3.9129503e-05,0.0,0.0,0.0,0.0,0.0,0.0,0.0,0.0,0.0
635226561,635126626,0.0014787641,0.0,0.00027747278,0.0008515699,0.0,0.0,0.0,0.0,0.0,0.0,0.0,0.0,0.0,4.592415e-05,0.0,0.0,nan,0.0,0.0,0.00030914188,0.0,0.0,0.0,0.0,0.0,0.0,0.0,0.0,0.0
635724251,635624347,0.00023295934,0.0,0.0010432752,0.0012137671,0.0,0.0,0.0,0.0,0.0,0.0,0.0,0.0,0.0,2.4587722e-05,0.0,0.0,nan,0.0,0.0,0.000101999554,0.0,0.0,0.0,0.0,0.0,0.0,0.0,0.0,0.0
636222068,636122063,0.005711455,0.0,4.835536e-05,0.0012214278,0.0,0.0,0.0,0.0,0.0,0.0,0.0,0.0,0.0,2.8593797e-05,0.0,0.0,nan,0.0,0.0,0.0003375279,0.0,0.0,0.0,0.0,0.0,0.0,0.0,0.0,0.0
636729672,636629736,0.0039929124,0.0,0.00093218556,0.0009520011,0.0,0.0,0.0,0.0,0.0,0.0,0.0,0.0,0.0,4.5485624e-05,0.0,0.0,nan,0.0,0.0,4.9884122e-05,0.0,0.0,0.0,0.0,0.0,0.0,0.0,0.0,0.0
637227389,637127454,0.004778631,0.0,0.00018111776,0.00071456295,0.0,0.0,0.0,0.0,0.0,0.0,0.0,0.0,0.0,4.6394016e-06,0.0,0.0,nan,0.0,0.0,6.4019936e-05,0.0,0.0,0.0,0.0,0.0,0.0,0.0,0.0,0.0
637725123,637625172,0.003295938,0.0,1.752448e-07,0.0006405169,0.0,0.0,0.0,0.0,0.0,0.0,0.0,0.0,0.0,3.371093e-06,0.0,0.0,nan,0.0,0.0,0.0003191119,0.0,0.0,0.0,0.0,0.0,0.0,0.0,0.0,0.0
638222797,638122889,6.76338e-05,0.0,1.4690823e-05,0.00048022336,0.0,0.0,0.0,0.0,0.0,0.0,0.0,0.0,0.0,0.00024474043,0.0,0.0,nan,0.0,0.0,0.00012279273,0.0,0.0,0.0,0.0,0.0,0.0,0.0,0.0,0.0
638730544,638630561,0.00084942306,0.0,0.00023161554,0.0005707436,0.0,0.0,0.0,0.0,0.0,0.0,0.0,0.0,0.0,0.00014465305,0.0,0.0,nan,0.0,0.0,6.963484e-05,0.0,0.0,0.0,0.0,0.0,0.0,0.0,0.0,0.0
639228230,639128279,0.00034430952,0.0,0.0008177737,0.00037229314,0.0,0.0,0.0,0.0,0.0,0.0,0.0,0.0,0.0,2.0415659e-07,0.0,0.0,nan,0.0,0.0,0.00017953484,0.0,0.0,0.0,0.0,0.0,0.0,0.0,0.0,0.0
639725900,639625996,0.00449954,0.0,0.0007366223,0.0003580585,0.0,0.0,0.0,0.0,0.0,0.0,0.0,0.0,0.0,5.948882e-07,0.0,0.0,nan,0.0,0.0,6.419086e-05,0.0,0.0,0.0,0.0,0.0,0.0,0.0,0.0,0.0
640223624,640123713,0.0049932925,0.0,7.993178e-06,0.00046043313,0.0,0.0,0.0,0.0,0.0,0.0,0.0,0.0,0.0,0.00022882772,0.0,0.0,nan,0.0,0.0,0.00014996264,0.0,0.0,0.0,0.0,0.0,0.0,0.0,0.0,0.0
640721538,640621430,0.0016604485,0.0,0.00014750722,0.00048046463,0.0,0.0,0.0,0.0,0.0,0.0,0.0,0.0,0.0,2.96282e-05,0.0,0.0,nan,0.0,0.0,0.00046430138,0.0,0.0,0.0,0.0,0.0,0.0,0.0,0.0,0.0
641229050,641129102,0.00027246014,0.0,0.00022072313,0.00045928662,0.0,0.0,0.0,0.0,0.0,0.0,0.0,0.0,0.0,2.1840242e-06,0.0,0.0,nan,0.0,0.0,2.2390524e-05,0.0,0.0,0.0,0.0,0.0,0.0,0.0,0.0,0.0
641726741,641626819,0.0012812812,0.0,4.522576e-05,0.00031089966,0.0,0.0,0.0,0.0,0.0,0.0,0.0,0.0,0.0,1.9036343e-05,0.0,0.0,nan,0.0,0.0,0.00028463118,0.0,0.0,0.0,0.0,0.0,0.0,0.0,0.0,0.0
642224439,642124535,0.00092544267,0.0,5.062394e-06,0.0001742089,0.0,0.0,0.0,0.0,0.0,0.0,0.0,0.0,0.0,0.00019974107,0.0,0.0,nan,0.0,0.0,0.00034566934,0.0,0.0,0.0,0.0,0.0,0.0,0.0,0.0,0.0
642722159,642622252,0.0034512798,0.0,5.148554e-05,3.8166e-05,0.0,0.0,0.0,0.0,0.0,0.0,0.0,0.0,0.0,6.193757e-06,0.0,0.0,nan,0.0,0.0,1.9161434e-05,0.0,0.0,0.0,0.0,0.0,0.0,0.0,0.0,0.0
643219901,643119968,0.0008563238,0.0,0.00014383391,5.6061894e-05,0.0,0.0,0.0,0.0,0.0,0.0,0.0,0.0,0.0,6.756739e-05,0.0,0.0,nan,0.0,0.0,0.00022660605,0.0,0.0,0.0,0.0,0.0,0.0,0.0,0.0,0.0
643727539,643627638,0.0012504975,0.0,0.00014201146,6.3967086e-06,0.0,0.0,0.0,0.0,0.0,0.0,0.0,0.0,0.0,9.382331e-06,0.0,0.0,nan,0.0,0.0,0.00050764065,0.0,0.0,0.0,0.0,0.0,0.0,0.0,0.0,0.0
644225310,644125354,0.0017616416,0.0,6.584011e-05,1.8479474e-05,0.0,0.0,0.0,0.0,0.0,0.0,0.0,0.0,0.0,4.9108376e-06,0.0,0.0,nan,0.0,0.0,1.4182979e-05,0.0,0.0,0.0,0.0,0.0,0.0,0.0,0.0,0.0
644722981,644623070,1.9541363e-05,0.0,6.233905e-05,0.00017480092,0.0,0.0,0.0,0.0,0.0,0.0,0.0,0.0,0.0,5.252603e-05,0.0,0.0,nan,0.0,0.0,8.11984e-05,0.0,0.0,0.0,0.0,0.0,0.0,0.0,0.0,0.0
645230655,645130740,0.0011986869,0.0,2.9074304e-06,0.00058711856,0.0,0.0,0.0,0.0,0.0,0.0,0.0,0.0,0.0,5.2106014e-05,0.0,0.0,nan,0.0,0.0,0.0005985211,0.0,0.0,0.0,0.0,0.0,0.0,0.0,0.0,0.0
645728464,645628456,0.00018182996,0.0,0.0005311186,0.0011961607,0.0,0.0,0.0,0.0,0.0,0.0,0.0,0.0,0.0,1.369625e-06,0.0,0.0,nan,0.0,0.0,1.8159966e-05,0.0,0.0,0.0,0.0,0.0,0.0,0.0,0.0,0.0
646226103,646126171,0.0010000466,0.0,0.0006318101,0.0014049559,0.0,0.0,0.0,0.0,0.0,0.0,0.0,0.0,0.0,2.4138182e-05,0.0,0.0,nan,0.0,0.0,0.00023640832,0.0,0.0,0.0,0.0,0.0,0.0,0.0,0.0,0.0
646724020,646623886,0.0009175746,0.0,0.00014700487,0.0019448312,0.0,0.0,0.0,0.0,0.0,0.0,0.0,0.0,0.0,0.00021546191,0.0,0.0,nan,0.0,0.0,0.0014149902,0.0,0.0,0.0,0.0,0.0,0.0,0.0,0.0,0.0
647221554,647121601,0.00018417541,0.0,0.00015693664,0.0018495807,0.0,0.0,0.0,0.0,0.0,0.0,0.0,0.0,0.0,1.4070685e-06,0.0,0.0,nan,0.0,0.0,0.00082877005,0.0,0.0,0.0,0.0,0.0,0.0,0.0,0.0,0.0
647729201,647629270,9.6446915e-05,0.0,2.2608654e-05,0.0019775347,0.0,0.0,0.0,0.0,0.0,0.0,0.0,0.0,0.0,5.2016528e-08,0.0,0.0,nan,0.0,0.0,0.0071997554,0.0,0.0,0.0,0.0,0.0,0.0,0.0,0.0,0.0
648226899,648126985,0.00034142,0.0,3.9850063e-05,0.0014783954,0.0,0.0,0.0,0.0,0.0,0.0,0.0,0.0,0.0,3.3686076e-05,0.0,0.0,nan,0.0,0.0,0.00979243,0.0,0.0,0.0,0.0,0.0,0.0,0.0,0.0,0.0
648724635,648624699,0.0014387461,0.0,6.564549e-05,0.0011925976,0.0,0.0,0.0,0.0,0.0,0.0,0.0,0.0,0.0,1.7660948e-05,0.0,0.0,nan,0.0,0.0,0.0140000675,0.0,0.0,0.0,0.0,0.0,0.0,0.0,0.0,0.0
649222317,649122414,0.00019062274,0.0,0.00016459178,0.0012749962,0.0,0.0,0.0,0.0,0.0,0.0,0.0,0.0,0.0,3.2560332e-05,0.0,0.0,nan,0.0,0.0,0.016046368,0.0,0.0,0.0,0.0,0.0,0.0,0.0,0.0,0.0
649720057,649620128,0.0010524992,0.0,2.7069816e-06,0.0017768698,0.0,0.0,0.0,0.0,0.0,0.0,0.0,0.0,0.0,9.3615035e-06,0.0,0.0,nan,0.0,0.0,0.0165658,0.0,0.0,0.0,0.0,0.0,0.0,0.0,0.0,0.0
650227730,650127796,0.00094619987,0.0,0.001227867,0.0019528248,0.0,0.0,0.0,0.0,0.0,0.0,0.0,0.0,0.0,0.00024015814,0.0,0.0,nan,0.0,0.0,0.017261079,0.0,0.0,0.0,0.0,0.0,0.0,0.0,0.0,0.0
650725670,650625510,0.0011476079,0.0,1.6678727e-05,0.002410093,0.0,0.0,0.0,0.0,0.0,0.0,0.0,0.0,0.0,1.9208086e-05,0.0,0.0,nan,0.0,0.0,0.015483733,0.0,0.0,0.0,0.0,0.0,0.0,0.0,0.0,0.0
651223137,651123224,0.00025420924,0.0,1.856466e-05,0.0021602786,0.0,0.0,0.0,0.0,0.0,0.0,0.0,0.0,0.0,0.00010464302,0.0,0.0,nan,0.0,0.0,0.015707057,0.0,0.0,0.0,0.0,0.0,0.0,0.0,0.0,0.0
651730796,651630892,0.0030240975,0.0,0.00056181685,0.0017872282,0.0,0.0,0.0,0.0,0.0,0.0,0.0,0.0,0.0,6.189907e-05,0.0,0.0,nan,0.0,0.0,0.020612963,0.0,0.0,0.0,0.0,0.0,0.0,0.0,0.0,0.0
652228558,652128605,0.00042258305,0.0,0.00019293594,0.0021069734,0.0,0.0,0.0,0.0,0.0,0.0,0.0,0.0,0.0,2.743758e-06,0.0,0.0,nan,0.0,0.0,0.035023298,0.0,0.0,0.0,0.0,0.0,0.0,0.0,0.0,0.0
652726290,652626318,0.001244366,0.0,0.00048263083,0.0013113673,0.0,0.0,0.0,0.0,0.0,0.0,0.0,0.0,0.0,1.7440994e-05,0.0,0.0,nan,0.0,0.0,0.046110954,0.0,0.0,0.0,0.0,0.0,0.0,0.0,0.0,0.0
653223965,653124031,0.00093596795,0.0,0.00031626,0.001185562,0.0,0.0,0.0,0.0,0.0,0.0,0.0,0.0,0.0,5.5943965e-06,0.0,0.0,nan,0.0,0.0,0.06181715,0.0,0.0,0.0,0.0,0.0,0.0,0.0,0.0,0.0
653721842,653621744,0.0016820552,0.0,1.761725e-05,0.0009499993,0.0,0.0,0.0,0.0,0.0,0.0,0.0,0.0,0.0,4.075211e-05,0.0,0.0,nan,0.0,0.0,0.06354039,0.0,0.0,0.0,0.0,0.0,0.0,0.0,0.0,0.0
654229310,654129411,0.0003754099,0.0,1.0440731e-06,0.0006175151,0.0,0.0,0.0,0.0,0.0,0.0,0.0,0.0,0.0,1.394148e-05,0.0,0.0,nan,0.0,0.0,0.058039494,0.0,0.0,0.0,0.0,0.0,0.0,0.0,0.0,0.0
654727057,654627124,0.0015974011,0.0,0.0009088468,0.00059940707,0.0,0.0,0.0,0.0,0.0,0.0,0.0,0.0,0.0,4.8938546e-05,0.0,0.0,nan,0.0,0.0,0.061092865,0.0,0.0,0.0,0.0,0.0,0.0,0.0,0.0,0.0
655224865,655124836,0.00024516464,0.0,2.624396e-05,0.00045424295,0.0,0.0,0.0,0.0,0.0,0.0,0.0,0.0,0.0,7.991149e-07,0.0,0.0,nan,0.0,0.0,0.056604207,0.0,0.0,0.0,0.0,0.0,0.0,0.0,0.0,0.0
655722531,655622548,0.013264603,0.0,6.4077765e-05,0.00017737175,0.0,0.0,0.0,0.0,0.0,0.0,0.0,0.0,0.0,4.1220208e-08,0.0,0.0,nan,0.0,0.0,0.049796488,0.0,0.0,0.0,0.0,0.0,0.0,0.0,0.0,0.0
656230216,656130215,2.7070606e-05,0.0,0.000100673235,0.00013358692,0.0,0.0,0.0,0.0,0.0,0.0,0.0,0.0,0.0,5.1991876e-05,0.0,0.0,nan,0.0,0.0,0.04909811,0.0,0.0,0.0,0.0,0.0,0.0,0.0,0.0,0.0
656727857,656627927,0.00091254566,0.0,1.0873294e-05,0.00011308242,0.0,0.0,0.0,0.0,0.0,0.0,0.0,0.0,0.0,0.00010676227,0.0,0.0,nan,0.0,0.0,0.04165271,0.0,0.0,0.0,0.0,0.0,0.0,0.0,0.0,0.0
657225592,657125638,0.0004410121,0.0,8.863746e-05,0.00017983501,0.0,0.0,0.0,0.0,0.0,0.0,0.0,0.0,0.0,3.791418e-06,0.0,0.0,nan,0.0,0.0,0.040471707,0.0,0.0,0.0,0.0,0.0,0.0,0.0,0.0,0.0
657723432,657623350,0.0025703683,0.0,4.8992024e-05,0.00020531635,0.0,0.0,0.0,0.0,0.0,0.0,0.0,0.0,0.0,0.0002670688,0.0,0.0,nan,0.0,0.0,0.03957263,0.0,0.0,0.0,0.0,0.0,0.0,0.0,0.0,0.0
658221005,658121066,0.0014955348,0.0,0.00024413904,0.0002774601,0.0,0.0,0.0,0.0,0.0,0.0,0.0,0.0,0.0,2.8530148e-06,0.0,0.0,nan,0.0,0.0,0.038600992,0.0,0.0,0.0,0.0,0.0,0.0,0.0,0.0,0.0
658728682,658628727,0.0030388553,0.0,7.259637e-05,0.00036387617,0.0,0.0,0.0,0.0,0.0,0.0,0.0,0.0,0.0,1.1932545e-05,0.0,0.0,nan,0.0,0.0,0.029220708,0.0,0.0,0.0,0.0,0.0,0.0,0.0,0.0,0.0
659226378,659126438,0.0024667722,0.0,8.425844e-05,0.00025813072,0.0,0.0,0.0,0.0,0.0,0.0,0.0,0.0,0.0,0.00010810154,0.0,0.0,nan,0.0,0.0,0.023541957,0.0,0.0,0.0,0.0,0.0,0.0,0.0,0.0,0.0
659724251,659624149,0.0021685523,0.0,0.00023269556,0.00032195458,0.0,0.0,0.0,0.0,0.0,0.0,0.0,0.0,0.0,1.9107617e-06,0.0,0.0,nan,0.0,0.0,0.025822153,0.0,0.0,0.0,0.0,0.0,0.0,0.0,0.0,0.0
660221812,660121859,0.00030404105,0.0,2.8922927e-05,0.0003148545,0.0,0.0,0.0,0.0,0.0,0.0,0.0,0.0,0.0,2.4742481e-05,0.0,0.0,nan,0.0,0.0,0.021812834,0.0,0.0,0.0,0.0,0.0,0.0,0.0,0.0,0.0
660729426,660629524,0.0022079234,0.0,0.00042839863,0.00043427054,0.0,0.0,0.0,0.0,0.0,0.0,0.0,0.0,0.0,9.145408e-08,0.0,0.0,nan,0.0,0.0,0.021016276,0.0,0.0,0.0,0.0,0.0,0.0,0.0,0.0,0.0
661227135,661127235,0.0032032984,0.0,8.184492e-05,0.0003475381,0.0,0.0,0.0,0.0,0.0,0.0,0.0,0.0,0.0,2.7365132e-07,0.0,0.0,nan,0.0,0.0,0.018894551,0.0,0.0,0.0,0.0,0.0,0.0,0.0,0.0,0.0
661724880,661624945,0.0003212645,0.0,3.2268465e-06,0.0004965164,0.0,0.0,0.0,0.0,0.0,0.0,0.0,0.0,0.0,5.6064688e-05,0.0,0.0,nan,0.0,0.0,0.015613953,0.0,0.0,0.0,0.0,0.0,0.0,0.0,0.0,0.0
662222554,662122655,0.0024779919,0.0,2.192424e-06,0.00039067544,0.0,0.0,0.0,0.0,0.0,0.0,0.0,0.0,0.0,7.382764e-05,0.0,0.0,nan,0.0,0.0,0.015354379,0.0,0.0,0.0,0.0,0.0,0.0,0.0,0.0,0.0
662730219,662630319,0.000402225,0.0,0.00036485324,0.00049498817,0.0,0.0,0.0,0.0,0.0,0.0,0.0,0.0,0.0,6.440275e-06,0.0,0.0,nan,0.0,0.0,0.015176492,0.0,0.0,0.0,0.0,0.0,0.0,0.0,0.0,0.0
663227938,663128029,0.00046571647,0.0,0.0016506412,0.0005247672,0.0,0.0,0.0,0.0,0.0,0.0,0.0,0.0,0.0,6.6504224e-05,0.0,0.0,nan,0.0,0.0,0.013174393,0.0,0.0,0.0,0.0,0.0,0.0,0.0,0.0,0.0
663725733,663625738,0.008746405,0.0,0.00033187156,0.00045027753,0.0,0.0,0.0,0.0,0.0,0.0,0.0,0.0,0.0,1.096165e-07,0.0,0.0,nan,0.0,0.0,0.0107033495,0.0,0.0,0.0,0.0,0.0,0.0,0.0,0.0,0.0
664223771,664123450,0.0003434435,0.0,5.179527e-08,0.00045308625,0.0,0.0,0.0,0.0,0.0,0.0,0.0,0.0,0.0,4.3535354e-05,0.0,0.0,nan,0.0,0.0,0.011598537,0.0,0.0,0.0,0.0,0.0,0.0,0.0,0.0,0.0
664721060,664621157,0.0005272899,0.0,5.4805804e-07,0.00057421735,0.0,0.0,0.0,0.0,0.0,0.0,0.0,0.0,0.0,3.5427343e-05,0.0,0.0,nan,0.0,0.0,0.008936924,0.0,0.0,0.0,0.0,0.0,0.0,0.0,0.0,0.0
665228776,665128820,0.0074952836,0.0,9.6096366e-05,0.0003012874,0.0,0.0,0.0,0.0,0.0,0.0,0.0,0.0,0.0,9.804359e-06,0.0,0.0,nan,0.0,0.0,0.00040499817,0.0,0.0,0.0,0.0,0.0,0.0,0.0,0.0,0.0
665726485,665626529,0.004030348,0.0,0.00018353244,0.00015558748,0.0,0.0,0.0,0.0,0.0,0.0,0.0,0.0,0.0,1.2454995e-05,0.0,0.0,nan,0.0,0.0,0.0021346975,0.0,0.0,0.0,0.0,0.0,0.0,0.0,0.0,0.0
666224157,666124238,0.00086256536,0.0,0.00042736725,0.00012091195,0.0,0.0,0.0,0.0,0.0,0.0,0.0,0.0,0.0,1.5957981e-05,0.0,0.0,nan,0.0,0.0,0.004296892,0.0,0.0,0.0,0.0,0.0,0.0,0.0,0.0,0.0
666731819,666631900,0.0011543127,0.0,0.0004405351,8.879166e-05,0.0,0.0,0.0,0.0,0.0,0.0,0.0,0.0,0.0,3.35916e-05,0.0,0.0,nan,0.0,0.0,0.012446518,0.0,0.0,0.0,0.0,0.0,0.0,0.0,0.0,0.0
667219569,667119655,0.0005546925,0.0,8.901269e-05,4.8850026e-05,0.0,0.0,0.0,0.0,0.0,0.0,0.0,0.0,0.0,3.94111e-05,0.0,0.0,nan,0.0,0.0,0.008531396,0.0,0.0,0.0,0.0,0.0,0.0,0.0,0.0,0.0
667727390,667627317,0.0022357083,0.0,1.8179824e-06,0.000100997204,0.0,0.0,0.0,0.0,0.0,0.0,0.0,0.0,0.0,1.1628104e-07,0.0,0.0,nan,0.0,0.0,0.015394762,0.0,0.0,0.0,0.0,0.0,0.0,0.0,0.0,0.0
668224978,668125025,0.0005164041,0.0,0.0001001005,8.993342e-05,0.0,0.0,0.0,0.0,0.0,0.0,0.0,0.0,0.0,5.5916375e-06,0.0,0.0,nan,0.0,0.0,0.025965622,0.0,0.0,0.0,0.0,0.0,0.0,0.0,0.0,0.0
668722919,668622733,0.00069420703,0.0,0.00030018968,0.00022555189,0.0,0.0,0.0,0.0,0.0,0.0,0.0,0.0,0.0,9.113512e-06,0.0,0.0,nan,0.0,0.0,0.027380964,0.0,0.0,0.0,0.0,0.0,0.0,0.0,0.0,0.0
669230334,669130394,0.00052572787,0.0,9.79127e-06,0.0002088478,0.0,0.0,0.0,0.0,0.0,0.0,0.0,0.0,0.0,7.170237e-05,0.0,0.0,nan,0.0,0.0,0.023280822,0.0,0.0,0.0,0.0,0.0,0.0,0.0,0.0,0.0
669728071,669628102,0.00014338444,0.0,2.8945442e-07,0.00020610787,0.0,0.0,0.0,0.0,0.0,0.0,0.0,0.0,0.0,2.9563414e-06,0.0,0.0,nan,0.0,0.0,0.026292529,0.0,0.0,0.0,0.0,0.0,0.0,0.0,0.0,0.0
670225806,670125809,0.00023675658,0.0,0.0006378317,0.00023032182,0.0,0.0,0.0,0.0,0.0,0.0,0.0,0.0,0.0,2.7890212e-05,0.0,0.0,nan,0.0,0.0,0.026027588,0.0,0.0,0.0,0.0,0.0,0.0,0.0,0.0,0.0
670723417,670623516,0.00055710494,0.0,9.367323e-07,0.00023663156,0.0,0.0,0.0,0.0,0.0,0.0,0.0,0.0,0.0,1.2711915e-05,0.0,0.0,nan,0.0,0.0,0.01981504,0.0,0.0,0.0,0.0,0.0,0.0,0.0,0.0,0.0
671221132,671121223,9.0541995e-05,0.0,3.4125795e-05,0.00029049028,0.0,0.0,0.0,0.0,0.0,0.0,0.0,0.0,0.0,7.3578194e-05,0.0,0.0,nan,0.0,0.0,0.02179077,0.0,0.0,0.0,0.0,0.0,0.0,0.0,0.0,0.0
671728814,671628884,9.314378e-06,0.0,0.000120071025,0.00016448845,0.0,0.0,0.0,0.0,0.0,0.0,0.0,0.0,0.0,1.4986457e-05,0.0,0.0,nan,0.0,0.0,0.023876917,0.0,0.0,0.0,0.0,0.0,0.0,0.0,0.0,0.0
672226487,672126590,0.0033512968,0.0,9.999824e-05,0.00016424502,0.0,0.0,0.0,0.0,0.0,0.0,0.0,0.0,0.0,5.8100386e-06,0.0,0.0,nan,0.0,0.0,0.01721443,0.0,0.0,0.0,0.0,0.0,0.0,0.0,0.0,0.0
672724206,672624297,2.6120808e-05,0.0,0.00011411414,0.00023641287,0.0,0.0,0.0,0.0,0.0,0.0,0.0,0.0,0.0,1.2695214e-07,0.0,0.0,nan,0.0,0.0,0.016397055,0.0,0.0,0.0,0.0,0.0,0.0,0.0,0.0,0.0
673222317,673122003,0.0004841613,0.0,0.00042854308,0.0002613912,0.0,0.0,0.0,0.0,0.0,0.0,0.0,0.0,0.0,4.3503214e-06,0.0,0.0,nan,0.0,0.0,0.018163849,0.0,0.0,0.0,0.0,0.0,0.0,0.0,0.0,0.0
673729629,673629663,0.00045707278,0.0,2.269627e-05,0.00021670156,0.0,0.0,0.0,0.0,0.0,0.0,0.0,0.0,0.0,2.5279755e-06,0.0,0.0,nan,0.0,0.0,0.016395476,0.0,0.0,0.0,0.0,0.0,0.0,0.0,0.0,0.0
674227302,674127369,8.108655e-05,0.0,0.00015307056,0.00029327048,0.0,0.0,0.0,0.0,0.0,0.0,0.0,0.0,0.0,2.6179014e-05,0.0,0.0,nan,0.0,0.0,0.016476998,0.0,0.0,0.0,0.0,0.0,0.0,0.0,0.0,0.0
674724977,674625074,0.0006743598,0.0,0.0004870153,0.00029789895,0.0,0.0,0.0,0.0,0.0,0.0,0.0,0.0,0.0,6.420554e-06,0.0,0.0,nan,0.0,0.0,0.018561024,0.0,0.0,0.0,0.0,0.0,0.0,0.0,0.0,0.0
675222718,675122780,0.0003178767,0.0,9.045466e-05,0.00048164526,0.0,0.0,0.0,0.0,0.0,0.0,0.0,0.0,0.0,2.2905106e-05,0.0,0.0,nan,0.0,0.0,0.012975478,0.0,0.0,0.0,0.0,0.0,0.0,0.0,0.0,0.0
675730339,675630439,0.00020248775,0.0,3.80976e-06,0.0009168612,0.0,0.0,0.0,0.0,0.0,0.0,0.0,0.0,0.0,2.6839407e-06,0.0,0.0,nan,0.0,0.0,0.005666153,0.0,0.0,0.0,0.0,0.0,0.0,0.0,0.0,0.0
676228043,676128144,0.0046467027,0.0,0.00019839584,0.001955238,0.0,0.0,0.0,0.0,0.0,0.0,0.0,0.0,0.0,3.8091387e-06,0.0,0.0,nan,0.0,0.0,0.0077037658,0.0,0.0,0.0,0.0,0.0,0.0,0.0,0.0,0.0
676725800,676625849,0.00973084,0.0,0.0010474428,0.0023220272,0.0,0.0,0.0,0.0,0.0,0.0,0.0,0.0,0.0,7.874008e-06,0.0,0.0,nan,0.0,0.0,0.007588005,0.0,0.0,0.0,0.0,0.0,0.0,0.0,0.0,0.0
677223458,677123554,0.0015610408,0.0,0.00064119726,0.003417298,0.0,0.0,0.0,0.0,0.0,0.0,0.0,0.0,0.0,2.9949744e-05,0.0,0.0,nan,0.0,0.0,0.008653533,0.0,0.0,0.0,0.0,0.0,0.0,0.0,0.0,0.0
677721570,677621258,0.00066099194,0.0,4.1558687e-05,0.0036157216,0.0,0.0,0.0,0.0,0.0,0.0,0.0,0.0,0.0,4.2265216e-05,0.0,0.0,nan,0.0,0.0,0.01747728,0.0,0.0,0.0,0.0,0.0,0.0,0.0,0.0,0.0
678228939,678128917,0.0060483064,0.0,1.9665306e-06,0.004561499,0.0,0.0,0.0,0.0,0.0,0.0,0.0,0.0,0.0,1.6843876e-09,0.0,0.0,nan,0.0,0.0,0.016268218,0.0,0.0,0.0,0.0,0.0,0.0,0.0,0.0,0.0
678726533,678626621,0.00017666198,0.0,0.00010147306,0.0032210299,0.0,0.0,0.0,0.0,0.0,0.0,0.0,0.0,0.0,1.2181942e-05,0.0,0.0,nan,0.0,0.0,0.0126515655,0.0,0.0,0.0,0.0,0.0,0.0,0.0,0.0,0.0
679224247,679124327,0.003455364,0.0,2.5098224e-08,0.0031082726,0.0,0.0,0.0,0.0,0.0,0.0,0.0,0.0,0.0,3.6094036e-06,0.0,0.0,nan,0.0,0.0,0.011124258,0.0,0.0,0.0,0.0,0.0,0.0,0.0,0.0,0.0
679722044,679622029,0.00024135875,0.0,0.00025094,0.0035521796,0.0,0.0,0.0,0.0,0.0,0.0,0.0,0.0,0.0,9.612517e-05,0.0,0.0,nan,0.0,0.0,0.013244007,0.0,0.0,0.0,0.0,0.0,0.0,0.0,0.0,0.0
680229609,680129686,0.00026298926,0.0,0.0004221035,0.0039811046,0.0,0.0,0.0,0.0,0.0,0.0,0.0,0.0,0.0,4.439639e-05,0.0,0.0,nan,0.0,0.0,0.011845368,0.0,0.0,0.0,0.0,0.0,0.0,0.0,0.0,0.0
680727313,680627390,0.00030262372,0.0,0.0006345546,0.0042573437,0.0,0.0,0.0,0.0,0.0,0.0,0.0,0.0,0.0,7.885885e-06,0.0,0.0,nan,0.0,0.0,0.009214355,0.0,0.0,0.0,0.0,0.0,0.0,0.0,0.0,0.0
681224990,681125093,0.0012325606,0.0,0.00022219829,0.003992582,0.0,0.0,0.0,0.0,0.0,0.0,0.0,0.0,0.0,1.2036605e-05,0.0,0.0,nan,0.0,0.0,0.009724124,0.0,0.0,0.0,0.0,0.0,0.0,0.0,0.0,0.0
681722729,681622796,0.0005696063,0.0,0.00045224588,0.0035840394,0.0,0.0,0.0,0.0,0.0,0.0,0.0,0.0,0.0,1.04131466e-07,0.0,0.0,nan,0.0,0.0,0.009339399,0.0,0.0,0.0,0.0,0.0,0.0,0.0,0.0,0.0
682220697,682120499,0.00064159004,0.0,1.1081845e-05,0.0029632866,0.0,0.0,0.0,0.0,0.0,0.0,0.0,0.0,0.0,0.0001892226,0.0,0.0,nan,0.0,0.0,0.0060381037,0.0,0.0,0.0,0.0,0.0,0.0,0.0,0.0,0.0
682728082,682628156,0.0058736466,0.0,0.00015361213,0.0020625389,0.0,0.0,0.0,0.0,0.0,0.0,0.0,0.0,0.0,8.765634e-06,0.0,0.0,nan,0.0,0.0,0.009754353,0.0,0.0,0.0,0.0,0.0,0.0,0.0,0.0,0.0
683225827,683125858,0.00073045737,0.0,8.636462e-06,0.0016271502,0.0,0.0,0.0,0.0,0.0,0.0,0.0,0.0,0.0,5.5114502e-05,0.0,0.0,nan,0.0,0.0,0.008247717,0.0,0.0,0.0,0.0,0.0,0.0,0.0,0.0,0.0
683723464,683623564,0.00023157221,0.0,0.00088431087,0.0012536736,0.0,0.0,0.0,0.0,0.0,0.0,0.0,0.0,0.0,0.000121239274,0.0,0.0,nan,0.0,0.0,0.0056221075,0.0,0.0,0.0,0.0,0.0,0.0,0.0,0.0,0.0
684231118,684131217,0.0017079888,0.0,0.00018228524,0.001529057,0.0,0.0,0.0,0.0,0.0,0.0,0.0,0.0,0.0,8.312999e-06,0.0,0.0,nan,0.0,0.0,0.010203397,0.0,0.0,0.0,0.0,0.0,0.0,0.0,0.0,0.0
684728878,684628919,2.9982817e-05,0.0,1.9699576e-06,0.0018544235,0.0,0.0,0.0,0.0,0.0,0.0,0.0,0.0,0.0,0.00019583335,0.0,0.0,nan,0.0,0.0,0.008927004,0.0,0.0,0.0,0.0,0.0,0.0,0.0,0.0,0.0
685226554,685126621,0.00074034196,0.0,0.0002952073,0.0016916825,0.0,0.0,0.0,0.0,0.0,0.0,0.0,0.0,0.0,0.0002314886,0.0,0.0,nan,0.0,0.0,0.0053732106,0.0,0.0,0.0,0.0,0.0,0.0,0.0,0.0,0.0
685724247,685624323,0.00039116823,0.0,0.00018656667,0.0016244825,0.0,0.0,0.0,0.0,0.0,0.0,0.0,0.0,0.0,2.6392676e-05,0.0,0.0,nan,0.0,0.0,0.0069117974,0.0,0.0,0.0,0.0,0.0,0.0,0.0,0.0,0.0
686221976,686122025,0.0019315142,0.0,0.00049343664,0.0014941348,0.0,0.0,0.0,0.0,0.0,0.0,0.0,0.0,0.0,1.5464959e-05,0.0,0.0,nan,0.0,0.0,0.0064774826,0.0,0.0,0.0,0.0,0.0,0.0,0.0,0.0,0.0
686729585,686629680,0.0026535967,0.0,0.0018447611,0.001508303,0.0,0.0,0.0,0.0,0.0,0.0,0.0,0.0,0.0,2.8812981e-05,0.0,0.0,nan,0.0,0.0,0.004619004,0.0,0.0,0.0,0.0,0.0,0.0,0.0,0.0,0.0
687227361,687127381,0.0016674892,0.0,0.00035954866,0.0010801809,0.0,0.0,0.0,0.0,0.0,0.0,0.0,0.0,0.0,7.9875135e-06,0.0,0.0,nan,0.0,0.0,0.0069174315,0.0,0.0,0.0,0.0,0.0,0.0,0.0,0.0,0.0
687724983,687625082,0.0072309184,0.0,0.0006495717,0.0013002311,0.0,0.0,0.0,0.0,0.0,0.0,0.0,0.0,0.0,6.8572335e-05,0.0,0.0,nan,0.0,0.0,0.0061322893,0.0,0.0,0.0,0.0,0.0,0.0,0.0,0.0,0.0
688222688,688122783,0.0011634057,0.0,0.00031527696,0.0003502514,0.0,0.0,0.0,0.0,0.0,0.0,0.0,0.0,0.0,4.0161038e-05,0.0,0.0,nan,0.0,0.0,0.0019623549,0.0,0.0,0.0,0.0,0.0,0.0,0.0,0.0,0.0
688720387,688620484,0.0024491355,0.0,3.08936e-05,0.00023466891,0.0,0.0,0.0,0.0,0.0,0.0,0.0,0.0,0.0,0.0002064491,0.0,0.0,nan,0.0,0.0,0.0013934757,0.0,0.0,0.0,0.0,0.0,0.0,0.0,0.0,0.0
689228092,689128142,0.0019801457,0.0,1.4320334e-05,0.00013767529,0.0,0.0,0.0,0.0,0.0,0.0,0.0,0.0,0.0,8.126363e-06,0.0,0.0,nan,0.0,0.0,0.0038106923,0.0,0.0,0.0,0.0,0.0,0.0,0.0,0.0,0.0
689725824,689625839,0.0028810096,0.0,0.00040445515,9.516302e-05,0.0,0.0,0.0,0.0,0.0,0.0,0.0,0.0,0.0,5.5960376e-05,0.0,0.0,nan,0.0,0.0,0.0023413303,0.0,0.0,0.0,0.0,0.0,0.0,0.0,0.0,0.0
690223461,690123539,0.00076432957,0.0,0.0050679324,0.00020090754,0.0,0.0,0.0,0.0,0.0,0.0,0.0,0.0,0.0,5.0468028e-08,0.0,0.0,nan,0.0,0.0,0.0030518589,0.0,0.0,0.0,0.0,0.0,0.0,0.0,0.0,0.0
690731124,690631193,0.004389372,0.0,0.0005638922,0.00041859294,0.0,0.0,0.0,0.0,0.0,0.0,0.0,0.0,0.0,5.3992615e-05,0.0,0.0,nan,0.0,0.0,0.0014859493,0.0,0.0,0.0,0.0,0.0,0.0,0.0,0.0,0.0
691228800,691128893,0.00033484594,0.0,0.000504655,0.0020637256,0.0,0.0,0.0,0.0,0.0,0.0,0.0,0.0,0.0,6.764527e-05,0.0,0.0,nan,0.0,0.0,0.0004969073,0.0,0.0,0.0,0.0,0.0,0.0,0.0,0.0,0.0
691726549,691626593,0.0034164474,0.0,0.0001894243,0.0025310668,0.0,0.0,0.0,0.0,0.0,0.0,0.0,0.0,0.0,0.00027348608,0.0,0.0,nan,0.0,0.0,6.978759e-05,0.0,0.0,0.0,0.0,0.0,0.0,0.0,0.0,0.0
692224210,692124292,0.0037491233,0.0,0.00024521304,0.0024765609,0.0,0.0,0.0,0.0,0.0,0.0,0.0,0.0,0.0,3.3509195e-09,0.0,0.0,nan,0.0,0.0,0.00040764097,0.0,0.0,0.0,0.0,0.0,0.0,0.0,0.0,0.0
692721945,692621992,0.000551293,0.0,0.00012629926,0.002375933,0.0,0.0,0.0,0.0,0.0,0.0,0.0,0.0,0.0,2.809065e-08,0.0,0.0,nan,0.0,0.0,0.00020544848,0.0,0.0,0.0,0.0,0.0,0.0,0.0,0.0,0.0
693229545,693129645,0.0035370702,0.0,0.00021982181,0.0021052521,0.0,0.0,0.0,0.0,0.0,0.0,0.0,0.0,0.0,0.00015336463,0.0,0.0,nan,0.0,0.0,2.9586063e-05,0.0,0.0,0.0,0.0,0.0,0.0,0.0,0.0,0.0
693727285,693627344,0.0013164012,0.0,0.00020257592,0.0021352177,0.0,0.0,0.0,0.0,0.0,0.0,0.0,0.0,0.0,8.4436164e-05,0.0,0.0,nan,0.0,0.0,1.1609501e-05,0.0,0.0,0.0,0.0,0.0,0.0,0.0,0.0,0.0
694224947,694125044,0.0017376158,0.0,0.0015773049,0.0034185185,0.0,0.0,0.0,0.0,0.0,0.0,0.0,0.0,0.0,1.4671975e-05,0.0,0.0,nan,0.0,0.0,0.00013871284,0.0,0.0,0.0,0.0,0.0,0.0,0.0,0.0,0.0
694722653,694622742,0.00058475893,0.0,0.0003792963,0.0059344377,0.0,0.0,0.0,0.0,0.0,0.0,0.0,0.0,0.0,3.537309e-07,0.0,0.0,nan,0.0,0.0,0.0003081767,0.0,0.0,0.0,0.0,0.0,0.0,0.0,0.0,0.0
695220383,695120440,0.0006592963,0.0,1.650746e-05,0.004399752,0.0,0.0,0.0,0.0,0.0,0.0,0.0,0.0,0.0,1.6710159e-05,0.0,0.0,nan,0.0,0.0,0.0011614285,0.0,0.0,0.0,0.0,0.0,0.0,0.0,0.0,0.0
695728001,695628093,0.0033782173,0.0,0.00032628796,0.004622446,0.0,0.0,0.0,0.0,0.0,0.0,0.0,0.0,0.0,4.9012862e-05,0.0,0.0,nan,0.0,0.0,0.0013652407,0.0,0.0,0.0,0.0,0.0,0.0,0.0,0.0,0.0
696225797,696125791,0.002518358,0.0,8.135547e-06,0.0046371203,0.0,0.0,0.0,0.0,0.0,0.0,0.0,0.0,0.0,2.5854806e-05,0.0,0.0,nan,0.0,0.0,0.00040334102,0.0,0.0,0.0,0.0,0.0,0.0,0.0,0.0,0.0
696723478,696623492,0.002155974,0.0,7.9075675e-05,0.0053637624,0.0,0.0,0.0,0.0,0.0,0.0,0.0,0.0,0.0,9.70856e-05,0.0,0.0,nan,0.0,0.0,0.001309089,0.0,0.0,0.0,0.0,0.0,0.0,0.0,0.0,0.0
697231045,697131141,0.00049778534,0.0,0.00022407007,0.0054248357,0.0,0.0,0.0,0.0,0.0,0.0,0.0,0.0,0.0,6.592488e-05,0.0,0.0,nan,0.0,0.0,0.00092979055,0.0,0.0,0.0,0.0,0.0,0.0,0.0,0.0,0.0
697728790,697628839,0.0004988422,0.0,0.0002625855,0.0047179097,0.0,0.0,0.0,0.0,0.0,0.0,0.0,0.0,0.0,0.00013813935,0.0,0.0,nan,0.0,0.0,0.0009944282,0.0,0.0,0.0,0.0,0.0,0.0,0.0,0.0,0.0
698226450,698126536,0.001298427,0.0,2.3698812e-09,0.004287512,0.0,0.0,0.0,0.0,0.0,0.0,0.0,0.0,0.0,1.9272893e-06,0.0,0.0,nan,0.0,0.0,0.00031109678,0.0,0.0,0.0,0.0,0.0,0.0,0.0,0.0,0.0
698724134,698624234,0.00025557296,0.0,0.00016179837,0.003862229,0.0,0.0,0.0,0.0,0.0,0.0,0.0,0.0,0.0,9.614655e-07,0.0,0.0,nan,0.0,0.0,0.0020229542,0.0,0.0,0.0,0.0,0.0,0.0,0.0,0.0,0.0
699221883,699121931,0.009185526,0.0,3.333755e-05,0.002897962,0.0,0.0,0.0,0.0,0.0,0.0,0.0,0.0,0.0,8.806146e-08,0.0,0.0,nan,0.0,0.0,0.0021317855,0.0,0.0,0.0,0.0,0.0,0.0,0.0,0.0,0.0
699729480,699629582,0.00030264945,0.0,0.0003379017,0.0026648021,0.0,0.0,0.0,0.0,0.0,0.0,0.0,0.0,0.0,2.2740665e-05,0.0,0.0,nan,0.0,0.0,0.007724778,0.0,0.0,0.0,0.0,0.0,0.0,0.0,0.0,0.0
700227176,700127279,0.007301821,0.0,0.0004923772,0.0014396658,0.0,0.0,0.0,0.0,0.0,0.0,0.0,0.0,0.0,8.724835e-06,0.0,0.0,nan,0.0,0.0,0.016135223,0.0,0.0,0.0,0.0,0.0,0.0,0.0,0.0,0.0
700724929,700624976,0.0006365326,0.0,3.3261747e-06,0.0011306249,0.0,0.0,0.0,0.0,0.0,0.0,0.0,0.0,0.0,2.052718e-07,0.0,0.0,nan,0.0,0.0,0.021931568,0.0,0.0,0.0,0.0,0.0,0.0,0.0,0.0,0.0
701222731,701122672,0.015761215,0.0,0.004295857,0.0008439003,0.0,0.0,0.0,0.0,0.0,0.0,0.0,0.0,0.0,5.9053513e-05,0.0,0.0,nan,0.0,0.0,0.028333921,0.0,0.0,0.0,0.0,0.0,0.0,0.0,0.0,0.0
701730259,701630327,0.00018815306,0.0,0.00014279509,0.0007495397,0.0,0.0,0.0,0.0,0.0,0.0,0.0,0.0,0.0,8.801094e-08,0.0,0.0,nan,0.0,0.0,0.025043452,0.0,0.0,0.0,0.0,0.0,0.0,0.0,0.0,0.0
702227920,702128019,0.003955281,0.0,3.6657293e-05,0.00064593373,0.0,0.0,0.0,0.0,0.0,0.0,0.0,0.0,0.0,1.7255353e-07,0.0,0.0,nan,0.0,0.0,0.022681594,0.0,0.0,0.0,0.0,0.0,0.0,0.0,0.0,0.0
702725695,702625716,0.0015159786,0.0,0.00017937258,0.00047792515,0.0,0.0,0.0,0.0,0.0,0.0,0.0,0.0,0.0,2.5335168e-05,0.0,0.0,nan,0.0,0.0,0.019329002,0.0,0.0,0.0,0.0,0.0,0.0,0.0,0.0,0.0
