timestamp,timestamp_sample,output_tracking_error[0],output_tracking_error[1],output_tracking_error[2],control_mode_flags,filter_fault_flags,pos_horiz_accuracy,pos_vert_accuracy,mag_test_ratio,vel_test_ratio,pos_test_ratio,hgt_test_ratio,tas_test_ratio,hagl_test_ratio,beta_test_ratio,time_slip,accel_device_id,gyro_device_id,baro_device_id,mag_device_id,gps_check_fail_flags,innovation_check_flags,solution_status_flags,reset_count_vel_ne,reset_count_vel_d,reset_count_pos_ne,reset_count_pod_d,reset_count_quat,pre_flt_fail_innov_heading,pre_flt_fail_innov_vel_horiz,pre_flt_fail_innov_vel_vert,pre_flt_fail_innov_height,pre_flt_fail_mag_field_disturbed,health_flags,timeout_flags
539368521,539268188,5.076623e-05,0.0056519774,0.015784137,67240471,0,0.6196642,0.46038607,0.009229108,0.016046159,0.023622176,0.0031985585,0.0,0.0,0.0,0.004999,4259850,4325386,4028193,396321,0,0,895,2,1,2,0,4,0,0,0,0,0,0,0
539378603,539278187,5.123709e-05,0.0056121238,0.015739152,67240471,0,0.62091595,0.45735264,0.009229108,0.016046159,0.023622176,0.009161489,0.0,0.0,0.0,0.004999,4259850,4325386,4028193,396321,0,0,895,2,1,2,0,4,0,0,0,0,0,0,0
539568575,539468167,0.00016095642,0.009047293,0.016726952,67240471,0,0.6204079,0.45975858,0.00912088,0.05691468,0.024951598,0.001048597,0.0,0.0,0.0,0.004999,4259850,4325386,4028193,396321,0,0,895,2,1,2,0,4,0,0,0,0,0,0,0
539768463,539668142,0.0002051546,0.009874978,0.015113506,67240471,0,0.62237656,0.45960233,0.014222529,0.049084306,0.025010409,0.015404234,0.0,0.0,0.0,0.004999,4259850,4325386,4028193,396321,0,0,895,2,1,2,0,4,0,0,0,0,0,0,0
539968450,539868119,0.00022868866,0.005389273,0.014922512,67240471,0,0.62092084,0.46222243,0.029360984,0.014376041,0.027929995,0.0024593482,0.0,0.0,0.0,0.004999,4259850,4325386,4028193,396321,0,0,895,2,1,2,0,4,0,0,0,0,0,0,0
540178508,540078095,0.00016474842,0.005325978,0.017750837,67240471,0,0.6126192,0.45871612,0.0027496743,0.03192454,0.03039782,0.011726423,0.0,0.0,0.0,0.004999,4259850,4325386,4028193,396321,0,0,895,2,1,2,0,4,0,0,0,0,0,0,0
540378502,540278072,6.823151e-05,0.0018516579,0.012084617,67240471,0,0.60518634,0.45487517,0.005839106,0.013037717,0.032223884,0.0010721316,0.0,0.0,0.0,0.004999,4259850,4325386,4028193,396321,0,0,895,2,1,2,0,4,0,0,0,0,0,0,0
540568493,540468050,0.00016104995,0.0074620075,0.021171264,67240471,0,0.5956138,0.44948432,0.0037433086,0.023124821,0.035005827,0.011543455,0.0,0.0,0.0,0.004999,4259850,4325386,4028193,396321,0,0,895,2,1,2,0,4,0,0,0,0,0,0,0
540778458,540678026,0.00028517793,0.011534067,0.02766673,67240471,0,0.59139144,0.44716895,0.0097852815,0.03062705,0.034502827,0.001984682,0.0,0.0,0.0,0.004999,4259850,4325386,4028193,396321,0,0,895,2,1,2,0,4,0,0,0,0,0,0,0
540968430,540868004,0.00035038148,0.01666602,0.036395017,67240471,0,0.5852007,0.44675344,0.011473981,0.05659565,0.033291172,0.012453829,0.0,0.0,0.0,0.004999,4259850,4325386,4028193,396321,0,0,895,2,1,2,0,4,0,0,0,0,0,0,0
541168421,541067981,0.00015194481,0.010346812,0.026320415,67240471,0,0.5837504,0.44531465,0.0122434795,0.0186142,0.0320253,0.0073072985,0.0,0.0,0.0,0.004999,4259850,4325386,4028193,396321,0,0,895,2,1,2,0,4,0,0,0,0,0,0,0
541368325,541267958,0.00025497293,0.012779277,0.030119967,67240471,0,0.5812462,0.443413,0.014688852,0.046579976,0.031010127,0.003624385,0.0,0.0,0.0,0.004999,4259850,4325386,4028193,396321,0,0,895,2,1,2,0,4,0,0,0,0,0,0,0
541578277,541477934,0.00018427659,0.0049298806,0.007689433,67240471,0,0.57984114,0.44599596,0.004855633,0.044483766,0.027810276,0.0025575967,0.0,0.0,0.0,0.004999,4259850,4325386,4028193,396321,0,0,895,2,1,2,0,4,0,0,0,0,0,0,0
541778310,541677911,0.00013528738,0.0014656701,0.0025873343,67240471,0,0.58141774,0.44614196,0.010415193,0.00662514,0.026669307,0.0024199872,0.0,0.0,0.0,0.004999,4259850,4325386,4028193,396321,0,0,895,2,1,2,0,4,0,0,0,0,0,0,0
541978206,541877888,0.0001013688,0.0047562085,0.008304948,67240471,0,0.5820029,0.44572952,0.0072439876,0.030579964,0.025404876,0.008159074,0.0,0.0,0.0,0.004999,4259850,4325386,4028193,396321,0,0,895,2,1,2,0,4,0,0,0,0,0,0,0
542168227,542067866,0.00018792601,0.0047412273,0.010659827,67240471,0,0.58221936,0.44837862,0.007739311,0.037913874,0.025912294,0.0030091712,0.0,0.0,0.0,0.004999,4259850,4325386,4028193,396321,0,0,895,2,1,2,0,4,0,0,0,0,0,0,0
542368211,542267843,0.0004216041,0.013363349,0.027631616,67240471,0,0.58341616,0.44816145,0.0026994331,0.07761324,0.027761053,0.015532826,0.0,0.0,0.0,0.004999,4259850,4325386,4028193,396321,0,0,895,2,1,2,0,4,0,0,0,0,0,0,0
542568189,542467820,0.00018614583,0.0073822704,0.018350968,67240471,0,0.58438706,0.44780606,0.029296426,0.02433716,0.025265245,0.011681673,0.0,0.0,0.0,0.004999,4259850,4325386,4028193,396321,0,0,895,2,1,2,0,4,0,0,0,0,0,0,0
542768202,542667797,0.00021998126,0.007026711,0.012555643,67240471,0,0.58122325,0.44929916,0.009562887,0.047498114,0.02224724,0.0016691163,0.0,0.0,0.0,0.004999,4259850,4325386,4028193,396321,0,0,895,2,1,2,0,4,0,0,0,0,0,0,0
542978206,542877773,0.00018036105,0.008857591,0.01762124,67240471,0,0.5807553,0.44870365,0.0048249164,0.02706904,0.021964295,0.0031510661,0.0,0.0,0.0,0.004999,4259850,4325386,4028193,396321,0,0,895,2,1,2,0,4,0,0,0,0,0,0,0
543178066,543077750,0.00031363626,0.008970586,0.01768586,67240471,0,0.5805876,0.4478462,0.008104472,0.07522709,0.021483479,0.0058872527,0.0,0.0,0.0,0.004999,4259850,4325386,4028193,396321,0,0,895,2,1,2,0,4,0,0,0,0,0,0,0
543378125,543277727,0.0002102452,0.009225382,0.019759052,67240471,0,0.5804923,0.4470074,0.010949144,0.036159683,0.018602502,0.005541321,0.0,0.0,0.0,0.004999,4259850,4325386,4028193,396321,0,0,895,2,1,2,0,4,0,0,0,0,0,0,0
543568024,543467705,0.00037439435,0.01578263,0.032575242,67240471,0,0.57952917,0.44904625,0.005560286,0.07957332,0.015241322,0.020101804,0.0,0.0,0.0,0.004999,4259850,4325386,4028193,396321,0,0,895,2,1,2,0,4,0,0,0,0,0,0,0
543767998,543667682,0.00026079264,0.013642385,0.029835565,67240471,0,0.576096,0.44665894,0.028981201,0.033352852,0.015395993,0.006990633,0.0,0.0,0.0,0.004999,4259850,4325386,4028193,396321,0,0,895,2,1,2,0,4,0,0,0,0,0,0,0
543968176,543867660,0.00029318483,0.012572656,0.024726102,67240471,0,0.575846,0.4457268,0.014277903,0.05627783,0.015861573,0.0034758672,0.0,0.0,0.0,0.004999,4259850,4325386,4028193,396321,0,0,895,2,1,2,0,4,0,0,0,0,0,0,0
544167951,544067636,0.00027539246,0.013412921,0.028397353,67240471,0,0.5760306,0.44864705,0.008259509,0.06980233,0.01142905,0.006117934,0.0,0.0,0.0,0.004999,4259850,4325386,4028193,396321,0,0,895,2,1,2,0,4,0,0,0,0,0,0,0
544377931,544277612,0.00022475145,0.009912943,0.024372887,67240471,0,0.5762618,0.44831932,0.002425003,0.037004832,0.0098994225,0.010691041,0.0,0.0,0.0,0.004999,4259850,4325386,4028193,396321,0,0,895,2,1,2,0,4,0,0,0,0,0,0,0
544577904,544477589,0.00028789623,0.011009324,0.022265239,67240471,0,0.5756546,0.44723153,0.01608358,0.054274213,0.009192759,0.009642515,0.0,0.0,0.0,0.004999,4259850,4325386,4028193,396321,0,0,895,2,1,2,0,4,0,0,0,0,0,0,0
544778032,544677566,0.00029081243,0.010653051,0.01919615,67240471,0,0.57710904,0.446994,0.0167851,0.04934954,0.009068164,0.005946734,0.0,0.0,0.0,0.004999,4259850,4325386,4028193,396321,0,0,895,2,1,2,0,4,0,0,0,0,0,0,0
544967881,544867545,0.00015588073,0.0046540326,0.006215189,67240471,0,0.580135,0.4506291,0.016309649,0.014144038,0.009708447,0.006661667,0.0,0.0,0.0,0.004999,4259850,4325386,4028193,396321,0,0,895,2,1,2,0,4,0,0,0,0,0,0,0
545167894,545067522,0.0002330707,0.008388356,0.012683817,67240471,0,0.5814148,0.4502154,0.003147258,0.048417706,0.009756977,0.012472656,0.0,0.0,0.0,0.004999,4259850,4325386,4028193,396321,0,0,895,2,1,2,0,4,0,0,0,0,0,0,0
545367819,545267499,0.00020881767,0.007506597,0.020422239,67240471,0,0.5799416,0.45236075,0.007681959,0.046947718,0.010919253,0.0009732867,0.0,0.0,0.0,0.004999,4259850,4325386,4028193,396321,0,0,895,2,1,2,0,4,0,0,0,0,0,0,0
545567832,545467476,0.00017905979,0.007542099,0.0216762,67240471,0,0.58282894,0.4525122,0.015987063,0.02395186,0.009283418,0.01272316,0.0,0.0,0.0,0.004999,4259850,4325386,4028193,396321,0,0,895,2,1,2,0,4,0,0,0,0,0,0,0
545777786,545677452,0.00018384194,0.005369448,0.015616694,67240471,0,0.58803105,0.45397824,0.015341434,0.013182618,0.010578148,0.005583923,0.0,0.0,0.0,0.004999,4259850,4325386,4028193,396321,0,0,895,2,1,2,0,4,0,0,0,0,0,0,0
545977795,545877429,0.00020969762,0.0034530298,0.004587682,67240471,0,0.58947146,0.45344558,0.0055101155,0.038466997,0.008913892,0.009333913,0.0,0.0,0.0,0.004999,4259850,4325386,4028193,396321,0,0,895,2,1,2,0,4,0,0,0,0,0,0,0
546177871,546077406,0.00016105695,0.0032296581,0.007356707,67240471,0,0.58925843,0.45229587,0.012164614,0.018476572,0.009167941,0.0028848036,0.0,0.0,0.0,0.004999,4259850,4325386,4028193,396321,0,0,895,2,1,2,0,4,0,0,0,0,0,0,0
546377783,546277384,0.00023824439,0.0033255925,0.009429227,67240471,0,0.5926626,0.45631728,0.020281922,0.03165247,0.007200591,0.004050248,0.0,0.0,0.0,0.004999,4259850,4325386,4028193,396321,0,0,895,2,1,2,0,4,0,0,0,0,0,0,0
546567686,546467362,0.00027532573,0.008035326,0.018277764,67240471,0,0.59388477,0.4552258,0.006790543,0.053096987,0.0057420973,0.004132135,0.0,0.0,0.0,0.004999,4259850,4325386,4028193,396321,0,0,895,2,1,2,0,4,0,0,0,0,0,0,0
546767791,546667339,0.00028915514,0.009473796,0.021727117,67240471,0,0.5956041,0.45478863,0.03254398,0.039424334,0.004364979,0.004365919,0.0,0.0,0.0,0.004999,4259850,4325386,4028193,396321,0,0,895,2,1,2,0,4,0,0,0,0,0,0,0
546967634,546867316,0.0003209962,0.012228939,0.028289527,67240471,0,0.5970053,0.4580663,0.006864074,0.051238798,0.006217075,0.0012890004,0.0,0.0,0.0,0.004999,4259850,4325386,4028193,396321,0,0,895,2,1,2,0,4,0,0,0,0,0,0,0
547177659,547077292,0.0002120101,0.008720289,0.022608647,67240471,0,0.6010448,0.45884377,0.0031143867,0.04877611,0.0068187946,0.0062213433,0.0,0.0,0.0,0.004999,4259850,4325386,4028193,396321,0,0,895,2,1,2,0,4,0,0,0,0,0,0,0
547377625,547277269,6.903385e-05,0.0027807457,0.006497193,67240471,0,0.60105526,0.4576968,0.007673893,0.015012799,0.0070620873,0.00983468,0.0,0.0,0.0,0.004999,4259850,4325386,4028193,396321,0,0,895,2,1,2,0,4,0,0,0,0,0,0,0
547577563,547477246,0.0003101653,0.009555595,0.021069854,67240471,0,0.6038772,0.46148401,0.0051896465,0.07430087,0.008182122,0.0021023178,0.0,0.0,0.0,0.004999,4259850,4325386,4028193,396321,0,0,895,2,1,2,0,4,0,0,0,0,0,0,0
547777570,547677224,0.00030801067,0.007676916,0.01813262,67240471,0,0.60592556,0.46106285,0.013555023,0.07011236,0.01007074,0.003908059,0.0,0.0,0.0,0.004999,4259850,4325386,4028193,396321,0,0,895,2,1,2,0,4,0,0,0,0,0,0,0
547967630,547867202,0.00043006384,0.011723267,0.019525412,67240471,0,0.6027503,0.4582898,0.034632448,0.052665018,0.008504846,0.013723591,0.0,0.0,0.0,0.004999,4259850,4325386,4028193,396321,0,0,895,2,1,2,0,4,0,0,0,0,0,0,0
548167492,548067179,0.00027269204,0.006786605,0.017436683,67240471,0,0.6032934,0.46122697,0.022702504,0.049699053,0.01120645,0.0011341554,0.0,0.0,0.0,0.004999,4259850,4325386,4028193,396321,0,0,895,2,1,2,0,4,0,0,0,0,0,0,0
548367526,548267156,0.00047220616,0.015372378,0.034693133,67240471,0,0.6047495,0.46050575,0.0010641689,0.08212727,0.012487621,0.011084733,0.0,0.0,0.0,0.004999,4259850,4325386,4028193,396321,0,0,895,2,1,2,0,4,0,0,0,0,0,0,0
548577501,548477133,0.0003000312,0.010459337,0.024816876,67240471,0,0.60985905,0.46150148,0.011453331,0.06745117,0.011058731,0.004547929,0.0,0.0,0.0,0.004999,4259850,4325386,4028193,396321,0,0,895,2,1,2,0,4,0,0,0,0,0,0,0
548777443,548677110,9.309492e-05,0.0019707687,0.0022359032,67240471,0,0.6121251,0.46097812,0.0026791892,0.03500436,0.010017534,0.0047730273,0.0,0.0,0.0,0.004999,4259850,4325386,4028193,396321,0,0,895,2,1,2,0,4,0,0,0,0,0,0,0
548977434,548877087,0.00012130713,0.0058514415,0.010337832,67240471,0,0.61522526,0.46477145,0.008287689,0.0332882,0.010535624,0.0003051203,0.0,0.0,0.0,0.004999,4259850,4325386,4028193,396321,0,0,895,2,1,2,0,4,0,0,0,0,0,0,0
549177442,549077064,0.0003077569,0.014032152,0.02770926,67240471,0,0.6168552,0.46402052,0.019912206,0.0535352,0.00868517,0.0006720141,0.0,0.0,0.0,0.004999,4259850,4325386,4028193,396321,0,0,895,2,1,2,0,4,0,0,0,0,0,0,0
549367414,549267043,0.00026503054,0.006322127,0.013197496,67240471,0,0.61488634,0.46159035,0.046667974,0.034150254,0.014038173,0.0058699935,0.0,0.0,0.0,0.004999,4259850,4325386,4028193,396321,0,0,895,2,1,2,0,4,0,0,0,0,0,0,0
549567456,549467020,0.00033937735,0.015611324,0.032135278,67240471,0,0.61251324,0.46356308,0.01949382,0.053128067,0.013126316,0.0034981116,0.0,0.0,0.0,0.004999,4259850,4325386,4028193,396321,0,0,895,2,1,2,0,4,0,0,0,0,0,0,0
549767315,549666997,0.00030882616,0.0147990985,0.032902483,67240471,0,0.6093505,0.46118635,0.020827662,0.040196963,0.015418104,0.014325944,0.0,0.0,0.0,0.004999,4259850,4325386,4028193,396321,0,0,895,2,1,2,0,4,0,0,0,0,0,0,0
549967285,549866975,0.00032708308,0.014221355,0.03269644,67240471,0,0.60762775,0.45928916,0.004552904,0.03519256,0.0142860655,0.0069996472,0.0,0.0,0.0,0.004999,4259850,4325386,4028193,396321,0,0,895,2,1,2,0,4,0,0,0,0,0,0,0
550177419,550076951,0.00024189676,0.0113191735,0.027357507,67240471,0,0.60701287,0.45824927,0.0024379597,0.03819754,0.013419673,0.0156123815,0.0,0.0,0.0,0.004999,4259850,4325386,4028193,396321,0,0,895,2,1,2,0,4,0,0,0,0,0,0,0
550377239,550276928,0.00020359033,0.005484843,0.010374562,67240471,0,0.60746855,0.46116695,0.0027136945,0.05444818,0.00994225,0.008145265,0.0,0.0,0.0,0.004999,4259850,4325386,4028193,396321,0,0,895,2,1,2,0,4,0,0,0,0,0,0,0
550577261,550476905,0.00025077502,0.009772336,0.01942149,67240471,0,0.6058812,0.4593552,0.0019328659,0.039872278,0.009476811,0.0046602394,0.0,0.0,0.0,0.004999,4259850,4325386,4028193,396321,0,0,895,2,1,2,0,4,0,0,0,0,0,0,0
550777281,550676883,0.00022887976,0.010429533,0.023817722,67240471,0,0.59976935,0.45579082,0.008010878,0.033093087,0.009953508,0.020590799,0.0,0.0,0.0,0.004999,4259850,4325386,4028193,396321,0,0,895,2,1,2,0,4,0,0,0,0,0,0,0
550967181,550866861,0.00019807534,0.009228423,0.023085302,67240471,0,0.59379214,0.45562702,0.015485564,0.024676757,0.011000553,0.007766242,0.0,0.0,0.0,0.004999,4259850,4325386,4028193,396321,0,0,895,2,1,2,0,4,0,0,0,0,0,0,0
551167153,551066838,0.00027701946,0.0058174985,0.015675727,67240471,0,0.5939406,0.45460498,0.032526754,0.020028856,0.01213119,0.0067508104,0.0,0.0,0.0,0.004999,4259850,4325386,4028193,396321,0,0,895,2,1,2,0,4,0,0,0,0,0,0,0
551377161,551276816,0.00025286406,0.0056247325,0.015740028,67240471,0,0.59476304,0.4542734,0.015163519,0.022616558,0.013667706,0.01711444,0.0,0.0,0.0,0.004999,4259850,4325386,4028193,396321,0,0,895,2,1,2,0,4,0,0,0,0,0,0,0
551577216,551476792,0.0001348272,0.0054410947,0.017548755,67240471,0,0.5921018,0.45205894,0.020256689,0.01212567,0.015387347,0.010757261,0.0,0.0,0.0,0.004999,4259850,4325386,4028193,396321,0,0,895,2,1,2,0,4,0,0,0,0,0,0,0
551777103,551676769,0.00015320533,0.0026478027,0.008497029,67240471,0,0.58997315,0.4539231,0.023538997,0.022002654,0.016572783,0.0033199375,0.0,0.0,0.0,0.004999,4259850,4325386,4028193,396321,0,0,895,2,1,2,0,4,0,0,0,0,0,0,0
551977079,551876747,0.00015288958,0.0050481507,0.013607053,67240471,0,0.5892998,0.45255634,0.004866848,0.028480738,0.017947238,0.014353482,0.0,0.0,0.0,0.004999,4259850,4325386,4028193,396321,0,0,895,2,1,2,0,4,0,0,0,0,0,0,0
552177123,552076724,0.00017686952,0.007642699,0.02042246,67240471,0,0.5892513,0.4514864,0.010130536,0.027796365,0.020132896,0.017191017,0.0,0.0,0.0,0.004999,4259850,4325386,4028193,396321,0,0,895,2,1,2,0,4,0,0,0,0,0,0,0
552367152,552266702,0.0003249351,0.008274473,0.013061214,67240471,0,0.5876365,0.4531479,0.018087853,0.07434485,0.021161726,0.023131398,0.0,0.0,0.0,0.004999,4259850,4325386,4028193,396321,0,0,895,2,1,2,0,4,0,0,0,0,0,0,0
552566991,552466680,0.00019401521,0.0015266815,0.0073854416,67240471,0,0.5853892,0.45115012,0.02417146,0.031222638,0.022128902,0.009627833,0.0,0.0,0.0,0.004999,4259850,4325386,4028193,396321,0,0,895,2,1,2,0,4,0,0,0,0,0,0,0
552777072,552676656,0.00047469247,0.013153407,0.028965242,67240471,0,0.5808658,0.4485319,0.026702236,0.056858156,0.02464476,0.01092203,0.0,0.0,0.0,0.004999,4259850,4325386,4028193,396321,0,0,895,2,1,2,0,4,0,0,0,0,0,0,0
552977113,552876633,0.00018983445,0.006163341,0.017624112,67240471,0,0.5763816,0.44919887,0.0027732325,0.04108892,0.024001755,0.0095503,0.0,0.0,0.0,0.004999,4259850,4325386,4028193,396321,0,0,895,2,1,2,0,4,0,0,0,0,0,0,0
553176983,553076611,0.00016004947,0.0039408957,0.0052588913,67240471,0,0.5748415,0.4475531,0.004269666,0.027204571,0.022400266,0.009416096,0.0,0.0,0.0,0.004999,4259850,4325386,4028193,396321,0,0,895,2,1,2,0,4,0,0,0,0,0,0,0
553376951,553276588,0.00033667186,0.010752446,0.025040181,67240471,0,0.5711124,0.44489267,0.014255117,0.05695632,0.023070054,0.009206265,0.0,0.0,0.0,0.004999,4259850,4325386,4028193,396321,0,0,895,2,1,2,0,4,0,0,0,0,0,0,0
553576879,553476565,0.00029276047,0.010047328,0.025606064,67240471,0,0.5656461,0.44490358,0.0026747254,0.034479797,0.021845933,0.0014601005,0.0,0.0,0.0,0.004999,4259850,4325386,4028193,396321,0,0,895,2,1,2,0,4,0,0,0,0,0,0,0
553766860,553666544,0.00021270559,0.008807612,0.020464392,67240471,0,0.5656229,0.44378835,0.004690307,0.043024797,0.021315621,0.015621394,0.0,0.0,0.0,0.004999,4259850,4325386,4028193,396321,0,0,895,2,1,2,0,4,0,0,0,0,0,0,0
553966839,553866522,0.00010795521,0.0015591905,0.006522065,67240471,0,0.5647901,0.4426168,0.0054974006,0.017543614,0.018321304,0.011838231,0.0,0.0,0.0,0.004999,4259850,4325386,4028193,396321,0,0,895,2,1,2,0,4,0,0,0,0,0,0,0
554176958,554076498,0.0005299942,0.014576218,0.031591702,67240471,0,0.5634487,0.44149306,0.04970879,0.0922558,0.018290201,0.0047274726,0.0,0.0,0.0,0.004999,4259850,4325386,4028193,396321,0,0,895,2,1,2,0,4,0,0,0,0,0,0,0
554376835,554276476,0.00024107465,0.0053851753,0.015853187,67240471,0,0.5625732,0.44385484,0.022546628,0.0114690745,0.016649447,0.011887999,0.0,0.0,0.0,0.004999,4259850,4325386,4028193,396321,0,0,895,2,1,2,0,4,0,0,0,0,0,0,0
554576769,554476453,0.0001395288,0.005715109,0.016183399,67240471,0,0.5637161,0.44366217,0.0100758225,0.016865956,0.0151130725,0.0068808896,0.0,0.0,0.0,0.004999,4259850,4325386,4028193,396321,0,0,895,2,1,2,0,4,0,0,0,0,0,0,0
554776744,554676430,0.00019868182,0.009013659,0.022228118,67240471,0,0.5621093,0.4420974,0.012797559,0.032557864,0.012388838,0.007867797,0.0,0.0,0.0,0.004999,4259850,4325386,4028193,396321,0,0,895,2,1,2,0,4,0,0,0,0,0,0,0
554976783,554876408,0.0011439472,0.041721366,0.08612833,67240471,0,0.5626025,0.44159505,0.0027659547,0.21000434,0.017830595,0.008955825,0.0,0.0,0.0,0.004999,4259850,4325386,4028193,396321,0,0,895,2,1,2,0,4,0,0,0,0,0,0,0
555176843,555076385,0.00027615446,0.0072143823,0.01990026,67240471,0,0.5610202,0.44365937,0.001535186,0.088887356,0.013981204,0.0054017813,0.0,0.0,0.0,0.004999,4259850,4325386,4028193,396321,0,0,895,2,1,2,0,4,0,0,0,0,0,0,0
555366715,555266364,0.00033992968,0.0049959347,0.00966377,67240471,0,0.55737966,0.44083336,0.014345297,0.04151117,0.013134964,0.01090825,0.0,0.0,0.0,0.004999,4259850,4325386,4028193,396321,0,0,895,2,1,2,0,4,0,0,0,0,0,0,0
555576712,555476340,0.00020981084,0.004531984,0.012252491,67240471,0,0.55724573,0.4404194,0.022002049,0.029898379,0.010663733,0.00043769006,0.0,0.0,0.0,0.004999,4259850,4325386,4028193,396321,0,0,895,2,1,2,0,4,0,0,0,0,0,0,0
555776830,555676317,0.00030277812,0.0052358275,0.0077651907,67240471,0,0.55006194,0.43960816,0.030805744,0.015665788,0.007927704,0.009798585,0.0,0.0,0.0,0.004999,4259850,4325386,4028193,396321,0,0,895,2,1,2,0,4,0,0,0,0,0,0,0
555976687,555876296,0.00036889478,0.007975699,0.016304592,67240471,0,0.55031127,0.43909565,0.026814822,0.07402007,0.0066690063,0.006547459,0.0,0.0,0.0,0.004999,4259850,4325386,4028193,396321,0,0,895,2,1,2,0,4,0,0,0,0,0,0,0
556176646,556076273,0.00023117932,0.0071536675,0.0132571645,67240471,0,0.55155706,0.43911222,0.012428902,0.052919358,0.0108217355,0.0025899338,0.0,0.0,0.0,0.004999,4259850,4325386,4028193,396321,0,0,895,2,1,2,0,4,0,0,0,0,0,0,0
556376608,556276250,0.0003333697,0.012363438,0.023734886,67240471,0,0.5507546,0.44154647,0.010475833,0.036296424,0.011423314,0.008818513,0.0,0.0,0.0,0.004999,4259850,4325386,4028193,396321,0,0,895,2,1,2,0,4,0,0,0,0,0,0,0
556576567,556476228,0.00027201234,0.013429534,0.028332064,67240471,0,0.5492818,0.4401356,0.00362616,0.04718179,0.010442081,0.009702817,0.0,0.0,0.0,0.004999,4259850,4325386,4028193,396321,0,0,895,2,1,2,0,4,0,0,0,0,0,0,0
556766583,556666206,0.0002233732,0.011174934,0.025900524,67240471,0,0.5477908,0.4383343,0.04694492,0.024084808,0.010856773,0.003884578,0.0,0.0,0.0,0.004999,4259850,4325386,4028193,396321,0,0,895,2,1,2,0,4,0,0,0,0,0,0,0
556976558,556876183,0.00027866394,0.011627569,0.026654266,67240471,0,0.5514831,0.43968797,0.0005215978,0.062536985,0.013141457,0.012908308,0.0,0.0,0.0,0.004999,4259850,4325386,4028193,396321,0,0,895,2,1,2,0,4,0,0,0,0,0,0,0
557176476,557076160,0.00016468193,0.004623884,0.012021622,67240471,0,0.5550691,0.44407526,0.0060435254,0.066053815,0.011423975,0.011308471,0.0,0.0,0.0,0.004999,4259850,4325386,4028193,396321,0,0,895,2,1,2,0,4,0,0,0,0,0,0,0
557376452,557276138,0.00013216675,0.002954945,0.009198674,67240471,0,0.55635995,0.4437888,0.005589344,0.03040254,0.011735062,0.01084774,0.0,0.0,0.0,0.004999,4259850,4325386,4028193,396321,0,0,895,2,1,2,0,4,0,0,0,0,0,0,0
557576454,557476115,0.00018290657,0.0031322045,0.008611694,67240471,0,0.55710995,0.44323418,0.01864703,0.01414296,0.01346379,0.008889401,0.0,0.0,0.0,0.004999,4259850,4325386,4028193,396321,0,0,895,2,1,2,0,4,0,0,0,0,0,0,0
557776406,557676093,0.0002545064,0.006993296,0.017312821,67240471,0,0.5609222,0.44760674,0.034600083,0.033869505,0.015339599,0.004000513,0.0,0.0,0.0,0.004999,4259850,4325386,4028193,396321,0,0,895,2,1,2,0,4,0,0,0,0,0,0,0
557976416,557876070,0.00019258734,0.0010569005,0.0063409945,67240471,0,0.5640602,0.4479696,0.01728145,0.018381488,0.014976849,0.0024383478,0.0,0.0,0.0,0.004999,4259850,4325386,4028193,396321,0,0,895,2,1,2,0,4,0,0,0,0,0,0,0
558166480,558066049,0.00019930168,0.007995151,0.021572711,67240471,0,0.5623828,0.44601908,0.012472381,0.03306004,0.01734548,0.0029559617,0.0,0.0,0.0,0.004999,4259850,4325386,4028193,396321,0,0,895,2,1,2,0,4,0,0,0,0,0,0,0
558376390,558276026,0.00016622961,0.008019115,0.023837972,67240471,0,0.5626984,0.4493618,0.010121523,0.021194162,0.015680647,0.0030087333,0.0,0.0,0.0,0.004999,4259850,4325386,4028193,396321,0,0,895,2,1,2,0,4,0,0,0,0,0,0,0
558576454,558476003,0.00017726806,0.007716572,0.021943409,67240471,0,0.5625967,0.44844937,0.019399658,0.024905398,0.014196197,6.0105558e-05,0.0,0.0,0.0,0.004999,4259850,4325386,4028193,396321,0,0,895,2,1,2,0,4,0,0,0,0,0,0,0
558776352,558675981,0.00034668733,0.009311802,0.016252026,67240471,0,0.5637588,0.44806266,0.01121325,0.07432558,0.008343915,0.004537525,0.0,0.0,0.0,0.004999,4259850,4325386,4028193,396321,0,0,895,2,1,2,0,4,0,0,0,0,0,0,0
558976339,558875959,0.0003488747,0.012677328,0.024836088,67240471,0,0.56418186,0.45105454,0.01139079,0.052748986,0.009421384,0.0069166827,0.0,0.0,0.0,0.004999,4259850,4325386,4028193,396321,0,0,895,2,1,2,0,4,0,0,0,0,0,0,0
559176334,559075936,0.00044317113,0.015225398,0.030018438,67240471,0,0.563202,0.44972858,0.025929531,0.06302918,0.009126505,0.0023574873,0.0,0.0,0.0,0.004999,4259850,4325386,4028193,396321,0,0,895,2,1,2,0,4,0,0,0,0,0,0,0
559376314,559275914,0.00018032144,0.0025074014,0.006460142,67240471,0,0.5622295,0.44840792,0.012946491,0.018840905,0.0061922944,0.00013231463,0.0,0.0,0.0,0.004999,4259850,4325386,4028193,396321,0,0,895,2,1,2,0,4,0,0,0,0,0,0,0
559576317,559475891,0.00012405634,0.004999801,0.013757416,67240471,0,0.5630345,0.44779176,0.01080731,0.021560004,0.0051859184,0.00045573123,0.0,0.0,0.0,0.004999,4259850,4325386,4028193,396321,0,0,895,2,1,2,0,4,0,0,0,0,0,0,0
559776241,559675869,0.00012192992,0.0075862776,0.0199511,67240471,0,0.56355435,0.45079803,0.0050961864,0.02087957,0.0034692485,0.0015384961,0.0,0.0,0.0,0.004999,4259850,4325386,4028193,396321,0,0,895,2,1,2,0,4,0,0,0,0,0,0,0
559976162,559875847,0.00014009795,0.010822885,0.028248189,67240471,0,0.5625984,0.44941887,0.0044842944,0.043512855,0.0036433744,0.004091788,0.0,0.0,0.0,0.004999,4259850,4325386,4028193,396321,0,0,895,2,1,2,0,4,0,0,0,0,0,0,0
560176208,560075824,0.00026013295,0.0039952705,0.005886306,67240471,0,0.56479186,0.44931006,0.004400109,0.053796872,0.00569271,0.011872079,0.0,0.0,0.0,0.004999,4259850,4325386,4028193,396321,0,0,895,2,1,2,0,4,0,0,0,0,0,0,0
560376192,560275805,0.00019581233,0.0036995485,0.00498969,67240471,0,0.5658285,0.4487429,0.00711766,0.027876128,0.0059575425,0.0010917273,0.0,0.0,0.0,0.004999,4259850,4325386,4028193,396321,0,0,895,2,1,2,0,4,0,0,0,0,0,0,0
560576090,560475780,0.0001091465,0.0027924725,0.0053777853,67240471,0,0.5669685,0.451917,0.003056747,0.026776258,0.0059656384,0.008057442,0.0,0.0,0.0,0.004999,4259850,4325386,4028193,396321,0,0,895,2,1,2,0,4,0,0,0,0,0,0,0
560776087,560675757,0.0002630226,0.0084380265,0.015129259,67240471,0,0.567915,0.45125315,0.006565567,0.055079635,0.0058532422,0.009378653,0.0,0.0,0.0,0.004999,4259850,4325386,4028193,396321,0,0,895,2,1,2,0,4,0,0,0,0,0,0,0
560976125,560875736,0.00020045022,0.007603671,0.017380672,67240471,0,0.56888306,0.4505747,0.030404363,0.022874037,0.009527132,0.0037315066,0.0,0.0,0.0,0.004999,4259850,4325386,4028193,396321,0,0,895,2,1,2,0,4,0,0,0,0,0,0,0
561176027,561075713,0.00033503157,0.008532452,0.018211167,67240471,0,0.5701352,0.45376435,0.0016447501,0.06535601,0.015206787,0.0108752465,0.0,0.0,0.0,0.004999,4259850,4325386,4028193,396321,0,0,895,2,1,2,0,4,0,0,0,0,0,0,0
561376092,561275691,0.00022335956,0.009736916,0.025631934,67240471,0,0.57317156,0.45385858,0.012081237,0.02932917,0.016996216,0.004526756,0.0,0.0,0.0,0.004999,4259850,4325386,4028193,396321,0,0,895,2,1,2,0,4,0,0,0,0,0,0,0
561576113,561475668,0.00025167322,0.0081689,0.020400995,67240471,0,0.57396126,0.45307365,0.018563561,0.053509727,0.016720582,0.003269896,0.0,0.0,0.0,0.004999,4259850,4325386,4028193,396321,0,0,895,2,1,2,0,4,0,0,0,0,0,0,0
561775957,561675646,0.00023601524,0.008220109,0.024456883,67240471,0,0.5718362,0.4549596,0.031170107,0.036941845,0.013909238,0.0051840036,0.0,0.0,0.0,0.004999,4259850,4325386,4028193,396321,0,0,895,2,1,2,0,4,0,0,0,0,0,0,0
561976126,561875623,0.0002430764,0.0118409945,0.030523833,67240471,0,0.56990844,0.45308852,0.00021962635,0.039249193,0.014582301,0.008223108,0.0,0.0,0.0,0.004999,4259850,4325386,4028193,396321,0,0,895,2,1,2,0,4,0,0,0,0,0,0,0
562175985,562075601,0.00013125835,0.0072576473,0.02160147,67240471,0,0.5656874,0.45019165,0.022803335,0.012630916,0.016487366,0.013783575,0.0,0.0,0.0,0.004999,4259850,4325386,4028193,396321,0,0,895,2,1,2,0,4,0,0,0,0,0,0,0
562375983,562275579,0.00025417632,0.010961741,0.029060686,67240471,0,0.5695636,0.45060816,0.02116012,0.056450512,0.01639417,0.0040363,0.0,0.0,0.0,0.004999,4259850,4325386,4028193,396321,0,0,895,2,1,2,0,4,0,0,0,0,0,0,0
562575878,562475556,0.0008137372,0.00895348,0.018343244,67240471,0,0.5709333,0.45377275,0.0962222,0.074159056,0.016127575,0.016576909,0.0,0.0,0.0,0.004999,4259850,4325386,4028193,396321,0,0,895,2,1,2,0,4,0,0,0,0,0,0,0
562775963,562675534,0.0010005138,0.0021338754,0.010361162,131607,0,0.570137,0.45224312,0.08297519,0.016693376,0.020268131,0.016314324,0.0,0.0,0.0,0.004999,4259850,4325386,4028193,396321,0,0,895,2,1,2,0,4,0,0,0,0,0,0,0
562975827,562875512,0.00074664556,0.005694765,0.021115059,131607,0,0.5713848,0.45159388,0.10139488,0.022836564,0.024327682,0.006414563,0.0,0.0,0.0,0.004999,4259850,4325386,4028193,396321,0,0,895,2,1,2,0,4,0,0,0,0,0,0,0
563175867,563075489,0.0007906724,0.0074819177,0.017260598,131607,0,0.5722762,0.45457304,0.07824936,0.059956226,0.027757572,0.0035066325,0.0,0.0,0.0,0.004999,4259850,4325386,4028193,396321,0,0,895,2,1,2,0,4,0,0,0,0,0,0,0
563375785,563275468,0.0005717526,0.007526722,0.019796873,131607,0,0.5715109,0.4531319,0.079444565,0.055794667,0.032689236,0.0072751646,0.0,0.0,0.0,0.004999,4259850,4325386,4028193,396321,0,0,895,2,1,2,0,4,0,0,0,0,0,0,0
563575762,563475445,0.00073325465,0.002465641,0.011576108,131607,0,0.5718237,0.45212346,0.094220094,0.046317663,0.039458398,0.002360073,0.0,0.0,0.0,0.004999,4259850,4325386,4028193,396321,0,0,895,2,1,2,0,4,0,0,0,0,0,0,0
563775756,563675423,0.00077428686,0.0032356242,0.01036215,131607,0,0.57496655,0.45606482,0.07892458,0.030797973,0.041088033,0.013783233,0.0,0.0,0.0,0.004999,4259850,4325386,4028193,396321,0,0,895,2,1,2,0,4,0,0,0,0,0,0,0
563975733,563875401,0.00059577066,0.0075581367,0.029133381,131607,0,0.5737677,0.45442116,0.081528775,0.022962572,0.0446957,0.008246909,0.0,0.0,0.0,0.004999,4259850,4325386,4028193,396321,0,0,895,2,1,2,0,4,0,0,0,0,0,0,0
564175771,564075378,0.0006767062,0.0042670565,0.010665949,67240471,0,0.57186633,0.45248514,0.07166446,0.056304503,0.04367395,0.0065890057,0.0,0.0,0.0,0.004999,4259850,4325386,4028193,396321,0,0,895,2,1,2,0,4,0,0,0,0,0,0,0
564375677,564275357,0.00075103296,0.008033309,0.0119542545,67240471,0,0.5754909,0.4565905,0.07478606,0.07671314,0.04744584,0.0012511124,0.0,0.0,0.0,0.004999,4259850,4325386,4028193,396321,0,0,895,2,1,2,0,4,0,0,0,0,0,0,0
564575655,564475334,0.0005453737,0.005428324,0.0049088523,67240471,0,0.57618564,0.45563465,0.0758626,0.041335206,0.04930341,0.0053217798,0.0,0.0,0.0,0.004999,4259850,4325386,4028193,396321,0,0,895,2,1,2,0,4,0,0,0,0,0,0,0
564775742,564675312,0.00072680955,0.012648165,0.018495647,67240471,0,0.5793318,0.45566058,0.061181054,0.08764879,0.048504174,0.00064972334,0.0,0.0,0.0,0.004999,4259850,4325386,4028193,396321,0,0,895,2,1,2,0,4,0,0,0,0,0,0,0
564975750,564875290,0.00076091994,0.009807036,0.030004138,67240471,0,0.5819755,0.45542875,0.07464498,0.052897558,0.053998534,0.013840495,0.0,0.0,0.0,0.004999,4259850,4325386,4028193,396321,0,0,895,2,1,2,0,4,0,0,0,0,0,0,0
565175639,565075267,0.00067365466,0.0117396945,0.03349222,67240471,0,0.58514786,0.4592788,0.07025641,0.033761255,0.05372184,0.002308675,0.0,0.0,0.0,0.004999,4259850,4325386,4028193,396321,0,0,895,2,1,2,0,4,0,0,0,0,0,0,0
565375710,565275245,0.00071465404,0.009360689,0.03019012,67240471,0,0.5878967,0.45903227,0.084712654,0.046797805,0.054138154,0.003994372,0.0,0.0,0.0,0.004999,4259850,4325386,4028193,396321,0,0,895,2,1,2,0,4,0,0,0,0,0,0,0
565575593,565475223,0.0008302699,0.0021151488,0.013113201,67240471,0,0.58903587,0.45815253,0.07383196,0.05119384,0.053737648,0.0058147786,0.0,0.0,0.0,0.004999,4259850,4325386,4028193,396321,0,0,895,2,1,2,0,4,0,0,0,0,0,0,0
565775670,565675201,0.0006029,0.00814751,0.026787333,67240471,0,0.5840984,0.45507887,0.07515315,0.03206804,0.05613891,0.004636037,0.0,0.0,0.0,0.004999,4259850,4325386,4028193,396321,0,0,895,2,1,2,0,4,0,0,0,0,0,0,0
565975490,565875178,0.00057207065,0.0028773274,0.013589571,67240471,0,0.5869197,0.45871612,0.053652003,0.046353992,0.053732496,0.0063916733,0.0,0.0,0.0,0.004999,4259850,4325386,4028193,396321,0,0,895,2,1,2,0,4,0,0,0,0,0,0,0
566167975,566065157,0.0004617609,0.008096955,0.026056176,67240471,0,0.5812353,0.45479092,0.060586873,0.03804046,0.051975586,0.008308061,0.0,0.0,0.0,0.004999,4259850,4325386,4028193,396321,0,0,895,2,1,2,0,4,0,0,0,0,0,0,0
566375603,566275134,0.0005739968,0.009823409,0.026635503,67240471,0,0.5860395,0.45569918,0.06764071,0.041449808,0.048795987,0.0037022587,0.0,0.0,0.0,0.004999,4259850,4325386,4028193,396321,0,0,895,2,1,2,0,4,0,0,0,0,0,0,0
566575477,566475112,0.00061308296,0.008711044,0.024355775,67240471,0,0.58757406,0.45881522,0.06526965,0.008014266,0.046808437,0.008805319,0.0,0.0,0.0,0.004999,4259850,4325386,4028193,396321,0,0,895,2,1,2,0,4,0,0,0,0,0,0,0
566775409,566675090,0.000724255,0.021075064,0.045811184,67240471,0,0.59052473,0.45853674,0.07050454,0.10578959,0.041961852,0.0052659507,0.0,0.0,0.0,0.004999,4259850,4325386,4028193,396321,0,0,895,2,1,2,0,4,0,0,0,0,0,0,0
566975576,566875067,0.00065687567,0.0146191,0.033852264,67240471,0,0.5929371,0.45803168,0.065580025,0.045730963,0.039625786,0.004136308,0.0,0.0,0.0,0.004999,4259850,4325386,4028193,396321,0,0,895,2,1,2,0,4,0,0,0,0,0,0,0
567175358,567075045,0.00070264254,0.010973032,0.02744127,67240471,0,0.59423834,0.46103793,0.07303105,0.034199767,0.03839659,0.008891334,0.0,0.0,0.0,0.004999,4259850,4325386,4028193,396321,0,0,895,2,1,2,0,4,0,0,0,0,0,0,0
567375355,567275023,0.00059604784,0.010732082,0.026918067,67240471,0,0.597101,0.46062657,0.07373392,0.04357014,0.038008712,0.0074013094,0.0,0.0,0.0,0.004999,4259850,4325386,4028193,396321,0,0,895,2,1,2,0,4,0,0,0,0,0,0,0
567575387,567475001,0.00067602453,0.0147688715,0.03502262,67240471,0,0.60003304,0.460225,0.06542914,0.080971844,0.03676959,0.0013838888,0.0,0.0,0.0,0.004999,4259850,4325386,4028193,396321,0,0,895,2,1,2,0,4,0,0,0,0,0,0,0
567775367,567674979,0.0011361161,0.03234039,0.07169071,67240471,0,0.6041645,0.46423927,0.12931238,0.16555114,0.041436903,0.0017235734,0.0,0.0,0.0,0.004999,4259850,4325386,4028193,396321,0,0,895,2,1,2,0,4,0,0,0,0,0,0,0
567975280,567874957,0.0006115044,0.013282255,0.03482836,67240471,0,0.6077192,0.46400267,0.06557808,0.016098142,0.040079974,0.022672102,0.0,0.0,0.0,0.004999,4259850,4325386,4028193,396321,0,0,895,2,1,2,0,4,0,0,0,0,0,0,0
568175337,568074934,0.00067478954,0.0099227205,0.01782796,67240471,0,0.60795426,0.46261048,0.0709552,0.050872475,0.039007217,0.00565323,0.0,0.0,0.0,0.004999,4259850,4325386,4028193,396321,0,0,895,2,1,2,0,4,0,0,0,0,0,0,0
568375355,568274912,0.00072681374,0.011401736,0.021184655,67240471,0,0.60997444,0.4617619,0.07321501,0.020159978,0.038886197,0.010793924,0.0,0.0,0.0,0.004999,4259850,4325386,4028193,396321,0,0,895,2,1,2,0,4,0,0,0,0,0,0,0
568570247,568464891,0.000602684,0.012133305,0.025001017,67240471,0,0.61328685,0.46493858,0.06973601,0.021278279,0.038744662,0.0086542005,0.0,0.0,0.0,0.004999,4259850,4325386,4028193,396321,0,0,895,2,1,2,0,4,0,0,0,0,0,0,0
568775225,568674868,0.0014474109,0.050014988,0.10209948,67240471,0,0.61893225,0.465749,0.07879101,0.3219942,0.03489096,0.0052161138,0.0,0.0,0.0,0.004999,4259850,4325386,4028193,396321,0,0,895,2,1,2,0,4,0,1,0,0,0,0,0
568975247,568874846,0.0006157196,0.021065831,0.046943646,67240471,0,0.62356836,0.46570396,0.03120646,0.043724302,0.035847276,0.015225638,0.0,0.0,0.0,0.004999,4259850,4325386,4028193,396321,0,0,895,2,1,2,0,4,0,0,0,0,0,0,0
569175137,569074824,0.0004894101,0.009118679,0.01996554,67240471,0,0.6229893,0.4682025,0.058154155,0.065602705,0.03681526,0.02364506,0.0,0.0,0.0,0.004999,4259850,4325386,4028193,396321,0,0,895,2,1,2,0,4,0,0,0,0,0,0,0
569375113,569274802,0.0006424808,0.01595224,0.033372167,67240471,0,0.62550396,0.46752006,0.060813326,0.07331621,0.035220087,0.008105007,0.0,0.0,0.0,0.004999,4259850,4325386,4028193,396321,0,0,895,2,1,2,0,4,0,0,0,0,0,0,0
569575095,569474779,0.0006780017,0.022329073,0.048087273,67240471,0,0.63007784,0.46745652,0.0650291,0.109709345,0.03280704,0.014675441,0.0,0.0,0.0,0.004999,4259850,4325386,4028193,396321,0,0,895,2,1,2,0,4,0,0,0,0,0,0,0
569775089,569674757,0.0006405106,0.01311958,0.029637808,67240471,0,0.6276471,0.46939042,0.07401579,0.03811013,0.032423954,0.006128559,0.0,0.0,0.0,0.004999,4259850,4325386,4028193,396321,0,0,895,2,1,2,0,4,0,0,0,0,0,0,0
569975087,569874736,0.00068048824,0.004733296,0.012534463,67240471,0,0.6297337,0.46852008,0.0681757,0.02955653,0.033294607,0.009557811,0.0,0.0,0.0,0.004999,4259850,4325386,4028193,396321,0,0,895,2,1,2,0,4,0,0,0,0,0,0,0
570175061,570074713,0.00057779264,0.013218423,0.030140461,67240471,0,0.63453156,0.46851435,0.053477697,0.05723358,0.033329464,0.024029769,0.0,0.0,0.0,0.004999,4259850,4325386,4028193,396321,0,0,895,2,1,2,0,4,0,0,0,0,0,0,0
570375180,570274691,0.0005776577,0.008104632,0.018795595,67240471,0,0.6384179,0.46817526,0.045086797,0.11119257,0.028319629,0.02200893,0.0,0.0,0.0,0.004999,4259850,4325386,4028193,396321,0,0,895,2,1,2,0,4,0,0,0,0,0,0,0
570574984,570474669,0.0005824261,0.005913399,0.017998135,67240471,0,0.6451394,0.47288653,0.060563114,0.044716187,0.027401838,0.018786514,0.0,0.0,0.0,0.004999,4259850,4325386,4028193,396321,0,0,895,2,1,2,0,4,0,0,0,0,0,0,0
570775006,570674646,0.0005019331,0.006546807,0.020523284,67240471,0,0.65239835,0.4734386,0.06724002,0.049610842,0.024738096,0.010348311,0.0,0.0,0.0,0.004999,4259850,4325386,4028193,396321,0,0,895,2,1,2,0,4,0,0,0,0,0,0,0
570975117,570874624,0.0007405676,0.016908854,0.040624924,67240471,0,0.6579011,0.47338292,0.07854266,0.10717576,0.02471106,0.015011595,0.0,0.0,0.0,0.004999,4259850,4325386,4028193,396321,0,0,895,2,1,2,0,4,0,0,0,0,0,0,0
571175150,571074602,0.0006590607,0.011624238,0.029703973,67240471,0,0.6615603,0.47286326,0.051578324,0.039726816,0.021820122,0.0089296475,0.0,0.0,0.0,0.004999,4259850,4325386,4028193,396321,0,0,895,2,1,2,0,4,0,0,0,0,0,0,0
571374910,571274580,0.0005463741,0.015314005,0.03864162,67240471,0,0.667851,0.47740847,0.05001987,0.096112125,0.016654471,0.021212624,0.0,0.0,0.0,0.004999,4259850,4325386,4028193,396321,0,0,895,2,1,2,0,4,0,0,0,0,0,0,0
571574912,571474558,0.0005664918,0.013974116,0.036773298,67240471,0,0.6739612,0.47746536,0.048789628,0.06104581,0.015776964,0.0040581943,0.0,0.0,0.0,0.004999,4259850,4325386,4028193,396321,0,0,895,2,1,2,0,4,0,0,0,0,0,0,0
571774967,571674535,0.00057505467,0.0065135905,0.02141425,67240471,0,0.6771249,0.47679746,0.05444803,0.018574137,0.013763059,0.0068728426,0.0,0.0,0.0,0.004999,4259850,4325386,4028193,396321,0,0,895,2,1,2,0,4,0,0,0,0,0,0,0
571974881,571874513,0.00044713932,0.004873542,0.016766913,67240471,0,0.6807165,0.4806993,0.052895676,0.02918642,0.013860591,0.017482284,0.0,0.0,0.0,0.004999,4259850,4325386,4028193,396321,0,0,895,2,1,2,0,4,0,0,0,0,0,0,0
572174848,572074492,0.00062474085,0.015376357,0.029077485,67240471,0,0.68094915,0.4792558,0.06303305,0.055073977,0.018097984,0.009391079,0.0,0.0,0.0,0.004999,4259850,4325386,4028193,396321,0,0,895,2,1,2,0,4,0,0,0,0,0,0,0
572374845,572274469,0.0004171074,0.004659167,0.0118272975,67240471,0,0.685377,0.47885838,0.054059472,0.04724973,0.015542373,0.03003108,0.0,0.0,0.0,0.004999,4259850,4325386,4028193,396321,0,0,895,2,1,2,0,4,0,0,0,0,0,0,0
572574847,572474447,0.0005474117,0.0028416852,0.008152404,67240471,0,0.68576527,0.4819717,0.06432895,0.023201719,0.016539397,0.012975414,0.0,0.0,0.0,0.004999,4259850,4325386,4028193,396321,0,0,895,2,1,2,0,4,0,0,0,0,0,0,0
572774758,572674425,0.0006443205,0.01598732,0.035228163,67240471,0,0.68259686,0.47958523,0.053602543,0.054523434,0.0184299,0.017115055,0.0,0.0,0.0,0.004999,4259850,4325386,4028193,396321,0,0,895,2,1,2,0,4,0,0,0,0,0,0,0
572974722,572874403,0.00044740332,0.01715994,0.038880415,67240471,0,0.68641484,0.47901154,0.035363395,0.035584424,0.021727253,0.012806107,0.0,0.0,0.0,0.004999,4259850,4325386,4028193,396321,0,0,895,2,1,2,0,4,0,0,0,0,0,0,0
573174824,573074381,0.00039462018,0.007880804,0.020083971,67240471,0,0.69066155,0.48305655,0.050553672,0.048388332,0.020007782,0.010562457,0.0,0.0,0.0,0.004999,4259850,4325386,4028193,396321,0,0,895,2,1,2,0,4,0,0,0,0,0,0,0
573374685,573274359,0.0005986518,0.01532201,0.03664035,67240471,0,0.6791717,0.4784293,0.07015829,0.037197165,0.021279741,0.011284852,0.0,0.0,0.0,0.004999,4259850,4325386,4028193,396321,0,0,895,2,1,2,0,4,0,0,0,0,0,0,0
573574652,573474336,0.00044591512,0.007061963,0.01710198,67240471,0,0.6780578,0.47653744,0.05677489,0.033568934,0.025725715,0.023754895,0.0,0.0,0.0,0.004999,4259850,4325386,4028193,396321,0,0,895,2,1,2,0,4,0,0,0,0,0,0,0
573774853,573674314,0.00043950262,0.002486779,0.011624094,67240471,0,0.6807723,0.47575924,0.045492344,0.023804726,0.029492112,0.021453843,0.0,0.0,0.0,0.004999,4259850,4325386,4028193,396321,0,0,895,2,1,2,0,4,0,0,0,0,0,0,0
573974668,573874292,0.0005114582,0.009118541,0.020480368,131607,0,0.68203306,0.47906572,0.045225132,0.06268582,0.032680154,0.013167779,0.0,0.0,0.0,0.004999,4259850,4325386,4028193,396321,0,0,895,2,1,2,0,4,0,0,0,0,0,0,0
574174587,574074270,0.00056701887,0.005701617,0.00919657,131607,0,0.6803849,0.4771299,0.07617489,0.06010964,0.037252974,0.027389878,0.0,0.0,0.0,0.004999,4259850,4325386,4028193,396321,0,0,895,2,1,2,0,4,0,0,0,0,0,0,0
574374613,574274248,0.0007888858,0.0073809056,0.026898297,131607,0,0.67867756,0.4751634,0.09170449,0.022932107,0.039588127,0.035542198,0.0,0.0,0.0,0.004999,4259850,4325386,4028193,396321,0,0,895,2,1,2,0,4,0,0,0,0,0,0,0
574574636,574474226,0.000916407,0.0049527492,0.013604033,131607,0,0.67813677,0.47796115,0.100317605,0.046175297,0.038010858,0.0076670568,0.0,0.0,0.0,0.004999,4259850,4325386,4028193,396321,0,0,895,2,1,2,0,4,0,0,0,0,0,0,0
574774516,574674203,0.00072629686,0.006410234,0.021858381,131607,0,0.6778563,0.47638473,0.09131562,0.033255443,0.037709717,0.014654892,0.0,0.0,0.0,0.004999,4259850,4325386,4028193,396321,0,0,895,2,1,2,0,4,0,0,0,0,0,0,0
574974506,574874181,0.0009599883,0.012123491,0.029075949,131607,0,0.67697394,0.47465885,0.07768873,0.069979,0.036720794,0.009000191,0.0,0.0,0.0,0.004999,4259850,4325386,4028193,396321,0,0,895,2,1,2,0,4,0,0,0,0,0,0,0
575174533,575074159,0.00078859297,0.008111702,0.0241366,131607,0,0.6749782,0.47701484,0.08776953,0.012777353,0.037727255,0.0036994647,0.0,0.0,0.0,0.004999,4259850,4325386,4028193,396321,0,0,895,2,1,2,0,4,0,0,0,0,0,0,0
575374453,575274137,0.00076889544,0.01890759,0.04848219,131607,0,0.66994387,0.47397855,0.08475987,0.056088414,0.037852682,0.00034214184,0.0,0.0,0.0,0.004999,4259850,4325386,4028193,396321,0,0,895,2,1,2,0,4,0,0,0,0,0,0,0
575574430,575474115,0.0007705011,0.010441835,0.0301746,67240471,0,0.6659709,0.47129956,0.08522884,0.0023278298,0.03574467,0.013320668,0.0,0.0,0.0,0.004999,4259850,4325386,4028193,396321,0,0,895,2,1,2,0,4,0,0,0,0,0,0,0
575774468,575674093,0.0007582077,0.022983901,0.057492435,67240471,0,0.66589326,0.46987897,0.08677183,0.10196484,0.03898692,0.0065571805,0.0,0.0,0.0,0.004999,4259850,4325386,4028193,396321,0,0,895,2,1,2,0,4,0,0,0,0,0,0,0
575974399,575874071,0.0007288437,0.018155772,0.046619993,67240471,0,0.6660689,0.47281533,0.070034295,0.04522159,0.03643313,0.019288948,0.0,0.0,0.0,0.004999,4259850,4325386,4028193,396321,0,0,895,2,1,2,0,4,0,0,0,0,0,0,0
576174373,576074048,0.0008457734,0.014547441,0.039933804,67240471,0,0.666835,0.4716691,0.09430512,0.05515985,0.03499078,0.01733155,0.0,0.0,0.0,0.004999,4259850,4325386,4028193,396321,0,0,895,2,1,2,0,4,0,0,0,0,0,0,0
576374370,576274026,0.00068573374,0.010110729,0.034540582,67240471,0,0.66769946,0.47056016,0.09233147,0.023226785,0.037499487,0.008436979,0.0,0.0,0.0,0.004999,4259850,4325386,4028193,396321,0,0,895,2,1,2,0,4,0,0,0,0,0,0,0
576574463,576474004,0.0007951311,0.0039363024,0.018730873,67240471,0,0.6687747,0.469531,0.09113966,0.041766804,0.03678878,0.011706139,0.0,0.0,0.0,0.004999,4259850,4325386,4028193,396321,0,0,895,2,1,2,0,4,0,0,0,0,0,0,0
576774360,576673982,0.0007448771,0.005457157,0.016272308,67240471,0,0.6709125,0.4730966,0.071924545,0.023774793,0.036040183,0.00298434,0.0,0.0,0.0,0.004999,4259850,4325386,4028193,396321,0,0,895,2,1,2,0,4,0,0,0,0,0,0,0
576974292,576873960,0.0005182146,0.005186525,0.012923802,67240471,0,0.6732334,0.47236574,0.06448558,0.029431958,0.03435354,0.011462495,0.0,0.0,0.0,0.004999,4259850,4325386,4028193,396321,0,0,895,2,1,2,0,4,0,0,0,0,0,0,0
577174501,577073938,0.0006958841,0.006319506,0.015862133,67240471,0,0.6734759,0.47101262,0.080302246,0.04264124,0.034195345,0.0030365253,0.0,0.0,0.0,0.004999,4259850,4325386,4028193,396321,0,0,895,2,1,2,0,4,0,0,0,0,0,0,0
577374295,577273915,0.00084020285,0.010518496,0.024646766,67240471,0,0.67598504,0.47467244,0.08410199,0.057786163,0.035721052,0.00473111,0.0,0.0,0.0,0.004999,4259850,4325386,4028193,396321,0,0,895,2,1,2,0,4,0,0,0,0,0,0,0
577574272,577473893,0.00073206064,0.015211819,0.036970623,67240471,0,0.6791807,0.47416446,0.07765353,0.08244802,0.034897506,0.006368659,0.0,0.0,0.0,0.004999,4259850,4325386,4028193,396321,0,0,895,2,1,2,0,4,0,0,0,0,0,0,0
577774304,577673871,0.00056815206,0.010191929,0.026094452,67240471,0,0.68219316,0.47359753,0.05556713,0.0503844,0.03584063,0.016613882,0.0,0.0,0.0,0.004999,4259850,4325386,4028193,396321,0,0,895,2,1,2,0,4,0,0,0,0,0,0,0
577974262,577873849,0.0012826932,0.043218073,0.096051045,67240471,0,0.6818139,0.47642207,0.06188911,0.1947585,0.03721281,0.012411443,0.0,0.0,0.0,0.004999,4259850,4325386,4028193,396321,0,0,895,2,1,2,0,4,0,0,0,0,0,0,0
578174153,578073827,0.0006603561,0.018811233,0.047864042,67240471,0,0.684348,0.47567052,0.07249918,0.040924292,0.03220531,0.0059408755,0.0,0.0,0.0,0.004999,4259850,4325386,4028193,396321,0,0,895,2,1,2,0,4,0,0,0,0,0,0,0
578374150,578273804,0.0007019328,0.011884276,0.03358454,67240471,0,0.6861618,0.47472775,0.0702842,0.05554145,0.032224532,0.0029109302,0.0,0.0,0.0,0.004999,4259850,4325386,4028193,396321,0,0,895,2,1,2,0,4,0,0,0,0,0,0,0
578574101,578473782,0.00067247654,0.005163588,0.01803235,67240471,0,0.6887658,0.47839,0.105539836,0.042269718,0.032865386,0.022511402,0.0,0.0,0.0,0.004999,4259850,4325386,4028193,396321,0,0,895,2,1,2,0,4,0,0,0,0,0,0,0
578774160,578673760,0.0009077707,0.0019963956,0.007680402,67240471,0,0.68814343,0.47674936,0.12486679,0.00814437,0.030237217,0.0032069269,0.0,0.0,0.0,0.004999,4259850,4325386,4028193,396321,0,0,895,2,1,2,0,4,0,0,0,0,0,0,0
578974052,578873738,0.0012436874,0.0055881254,0.008558888,67240471,0,0.6905795,0.47597805,0.13423163,0.041237243,0.03069492,0.0060096933,0.0,0.0,0.0,0.004999,4259850,4325386,4028193,396321,0,0,895,2,1,2,0,4,0,0,0,0,0,0,0
579174120,579073716,0.0008495473,0.00575235,0.015519363,67240471,0,0.68581593,0.47314844,0.08688955,0.032109722,0.030346863,0.002370615,0.0,0.0,0.0,0.004999,4259850,4325386,4028193,396321,0,0,895,2,1,2,0,4,0,0,0,0,0,0,0
579374140,579273693,0.0009836468,0.0046881745,0.011175291,67240471,0,0.6887276,0.47688466,0.1171287,0.024195105,0.02843172,0.0058021564,0.0,0.0,0.0,0.004999,4259850,4325386,4028193,396321,0,0,895,2,1,2,0,4,0,0,0,0,0,0,0
579573984,579473671,0.00094813656,0.0042658825,0.010906662,67240471,0,0.6933371,0.4766335,0.10110272,0.019145899,0.028552178,0.005083034,0.0,0.0,0.0,0.004999,4259850,4325386,4028193,396321,0,0,895,2,1,2,0,4,0,0,0,0,0,0,0
579773962,579673649,0.00073594734,0.013188853,0.031534728,67240471,0,0.69632316,0.4759169,0.10495224,0.055176172,0.028178135,0.009917175,0.0,0.0,0.0,0.004999,4259850,4325386,4028193,396321,0,0,895,2,1,2,0,4,0,0,0,0,0,0,0
579974149,579873627,0.00097111386,0.016126454,0.037058942,67240471,0,0.6989728,0.47953492,0.11442661,0.037103545,0.031245265,0.0066045006,0.0,0.0,0.0,0.004999,4259850,4325386,4028193,396321,0,0,895,2,1,2,0,4,0,0,0,0,0,0,0
580173945,580073605,0.0010917098,0.006647273,0.021031186,67240471,0,0.7042058,0.47930932,0.108529426,0.054547526,0.033659253,0.006206282,0.0,0.0,0.0,0.004999,4259850,4325386,4028193,396321,0,0,895,2,1,2,0,4,0,0,0,0,0,0,0
580373950,580273582,0.0009362964,0.0069491514,0.023762014,131607,0,0.70604515,0.4781801,0.12752141,0.036740106,0.032664314,0.0058003385,0.0,0.0,0.0,0.004999,4259850,4325386,4028193,396321,0,0,895,2,1,2,0,4,0,0,0,0,0,0,0
580573928,580473560,0.0012586259,0.00816606,0.024493579,131607,0,0.7105849,0.48227015,0.14175692,0.06955759,0.029139875,0.0062615634,0.0,0.0,0.0,0.004999,4259850,4325386,4028193,396321,0,0,895,2,1,2,0,4,0,0,0,0,0,0,0
580773972,580673538,0.001353721,0.008747224,0.025473855,131607,0,0.7077591,0.47991493,0.12752156,0.033346295,0.029690035,0.004003693,0.0,0.0,0.0,0.004999,4259850,4325386,4028193,396321,0,0,895,2,1,2,0,4,0,0,0,0,0,0,0
580973894,580873516,0.0012012518,0.022170512,0.05356812,131607,0,0.7113518,0.4792135,0.14341924,0.12294715,0.0354334,0.0034257772,0.0,0.0,0.0,0.004999,4259850,4325386,4028193,396321,0,0,895,2,1,2,0,4,0,0,0,0,0,0,0
581173918,581073494,0.0012335945,0.021176808,0.053360473,131607,0,0.71575713,0.47868276,0.12833399,0.097247705,0.03765543,0.0026382862,0.0,0.0,0.0,0.004999,4259850,4325386,4028193,396321,0,0,895,2,1,2,0,4,0,0,0,0,0,0,0
581373846,581273475,0.0014188876,0.015347355,0.034514688,67240471,0,0.7213281,0.4829144,0.13839027,0.11902815,0.03975369,0.007497158,0.0,0.0,0.0,0.004999,4259850,4325386,4028193,396321,0,0,895,2,1,2,0,4,0,0,0,0,0,0,0
581573808,581473450,0.0013603703,0.034606453,0.077386424,131607,0,0.726491,0.4825569,0.124605365,0.15190983,0.045802787,0.0094606085,0.0,0.0,0.0,0.004999,4259850,4325386,4028193,396321,0,0,895,2,1,2,0,4,0,0,0,0,0,0,0
581773748,581673427,0.0009819642,0.027050134,0.06660094,131607,0,0.7225971,0.48005155,0.07887044,0.072467506,0.04404226,0.009136907,0.0,0.0,0.0,0.004999,4259850,4325386,4028193,396321,0,0,895,2,1,2,0,4,0,0,0,0,0,0,0
581973731,581873405,0.0007531939,0.014599838,0.03761835,131607,0,0.7205263,0.4825027,0.08191889,0.10408065,0.037187323,0.008663228,0.0,0.0,0.0,0.004999,4259850,4325386,4028193,396321,0,0,895,2,1,2,0,4,0,0,0,0,0,0,0
582173798,582073382,0.0006687325,0.00564118,0.016633393,131607,0,0.7173286,0.48008126,0.08034268,0.03518307,0.031815644,0.001446848,0.0,0.0,0.0,0.004999,4259850,4325386,4028193,396321,0,0,895,2,1,2,0,4,0,0,0,0,0,0,0
582373681,582273360,0.0007539529,0.016167846,0.036818523,131607,0,0.70809966,0.47594756,0.084340736,0.07499584,0.024334693,0.0064228293,0.0,0.0,0.0,0.004999,4259850,4325386,4028193,396321,0,0,895,2,1,2,0,4,0,0,0,0,0,0,0
582573761,582473338,0.0008221467,0.030982958,0.07374737,67240471,0,0.7151372,0.47624493,0.077309854,0.193458,0.016531933,0.0033002289,0.0,0.0,0.0,0.004999,4259850,4325386,4028193,396321,0,0,895,2,1,2,0,4,0,1,0,0,0,0,0
582773736,582673315,0.0006257226,0.018967928,0.05282591,67240471,0,0.7182634,0.47991863,0.08304855,0.018349102,0.016963836,0.0024760687,0.0,0.0,0.0,0.004999,4259850,4325386,4028193,396321,0,0,895,2,1,2,0,4,0,0,0,0,0,0,0
582973671,582873293,0.00066425913,0.019102955,0.051045172,67240471,0,0.7223843,0.4794839,0.0734641,0.0900506,0.014514505,0.0055083055,0.0,0.0,0.0,0.004999,4259850,4325386,4028193,396321,0,0,895,2,1,2,0,4,0,0,0,0,0,0,0
583173649,583073270,0.0005769842,0.02113148,0.05800871,67240471,0,0.7225251,0.4779596,0.07369505,0.05281509,0.013640361,0.0025100936,0.0,0.0,0.0,0.004999,4259850,4325386,4028193,396321,0,0,895,2,1,2,0,4,0,0,0,0,0,0,0
583373643,583273248,0.0007026183,0.016450439,0.047138937,67240471,0,0.7204318,0.48039818,0.087634884,0.03428051,0.013609265,0.0006564969,0.0,0.0,0.0,0.004999,4259850,4325386,4028193,396321,0,0,895,2,1,2,0,4,0,0,0,0,0,0,0
583573596,583473226,0.0007190205,0.013684743,0.042130217,67240471,0,0.7212513,0.47910303,0.07381556,0.020822238,0.014858971,0.0039809276,0.0,0.0,0.0,0.004999,4259850,4325386,4028193,396321,0,0,895,2,1,2,0,4,0,0,0,0,0,0,0
583773545,583673204,0.0005850435,0.0039066994,0.015609485,67240471,0,0.7186209,0.4769164,0.071578,0.044012815,0.013732294,0.007447952,0.0,0.0,0.0,0.004999,4259850,4325386,4028193,396321,0,0,895,2,1,2,0,4,0,0,0,0,0,0,0
583973504,583873181,0.0005597401,0.010549122,0.032923415,67240471,0,0.7190744,0.48000786,0.054093424,0.046894815,0.013195204,0.002536285,0.0,0.0,0.0,0.004999,4259850,4325386,4028193,396321,0,0,895,2,1,2,0,4,0,0,0,0,0,0,0
584173560,584073159,0.00081008184,0.023943678,0.06046829,67240471,0,0.7210923,0.47909248,0.05941671,0.10626345,0.013075011,0.0016835909,0.0,0.0,0.0,0.004999,4259850,4325386,4028193,396321,0,0,895,2,1,2,0,4,0,0,0,0,0,0,0
584373452,584273136,0.0005461618,0.015078098,0.0443222,67240471,0,0.7195133,0.47722843,0.07144235,0.050313897,0.008318964,0.0035638271,0.0,0.0,0.0,0.004999,4259850,4325386,4028193,396321,0,0,895,2,1,2,0,4,0,0,0,0,0,0,0
584573535,584473114,0.00065852434,0.011105307,0.030954149,67240471,0,0.70845556,0.47259006,0.039545983,0.047804106,0.005070562,0.007242025,0.0,0.0,0.0,0.004999,4259850,4325386,4028193,396321,0,0,895,2,1,2,0,4,0,0,0,0,0,0,0
584773510,584673092,0.0005417493,0.00864486,0.025284465,67240471,0,0.7113572,0.47638294,0.0793583,0.065651245,0.008225553,0.0045568836,0.0,0.0,0.0,0.004999,4259850,4325386,4028193,396321,0,0,895,2,1,2,0,4,0,0,0,0,0,0,0
584973413,584873070,0.0006571983,0.009695339,0.030164018,67240471,0,0.71247196,0.475288,0.07891232,0.033971485,0.011521685,0.009176544,0.0,0.0,0.0,0.004999,4259850,4325386,4028193,396321,0,0,895,2,1,2,0,4,0,0,0,0,0,0,0
585173421,585073047,0.00080059597,0.019243373,0.047543574,67240471,0,0.7157974,0.4748273,0.064355016,0.08759727,0.0110179,0.005417326,0.0,0.0,0.0,0.004999,4259850,4325386,4028193,396321,0,0,895,2,1,2,0,4,0,0,0,0,0,0,0
585373395,585273025,0.0005832552,0.011141174,0.028070113,67240471,0,0.7160903,0.47793394,0.08502873,0.014295883,0.0073237615,0.009161599,0.0,0.0,0.0,0.004999,4259850,4325386,4028193,396321,0,0,895,2,1,2,0,4,0,0,0,0,0,0,0
585573435,585473002,0.00078958494,0.019900635,0.04384657,67240471,0,0.71875805,0.4773339,0.07621846,0.09966814,0.0072849416,0.012228224,0.0,0.0,0.0,0.004999,4259850,4325386,4028193,396321,0,0,895,2,1,2,0,4,0,0,0,0,0,0,0
585773294,585672980,0.00068699865,0.012059392,0.02853664,67240471,0,0.7223463,0.47696048,0.06968018,0.019957745,0.0067290342,0.021555142,0.0,0.0,0.0,0.004999,4259850,4325386,4028193,396321,0,0,895,2,1,2,0,4,0,0,0,0,0,0,0
585973277,585872957,0.00049647596,0.004485435,0.011544161,67240471,0,0.7237925,0.4805104,0.06547041,0.0079484135,0.0050218403,0.007961591,0.0,0.0,0.0,0.004999,4259850,4325386,4028193,396321,0,0,895,2,1,2,0,4,0,0,0,0,0,0,0
586173424,586072935,0.00063921313,0.004627596,0.009534376,67240471,0,0.72672826,0.47992465,0.07461846,0.019272225,0.0052021616,0.0043591415,0.0,0.0,0.0,0.004999,4259850,4325386,4028193,396321,0,0,895,2,1,2,0,4,0,0,0,0,0,0,0
586373243,586272913,0.0008167757,0.0059594153,0.016932467,67240471,0,0.7261802,0.4784517,0.0875304,0.03311917,0.0044682124,0.008232129,0.0,0.0,0.0,0.004999,4259850,4325386,4028193,396321,0,0,895,2,1,2,0,4,0,0,0,0,0,0,0
586573260,586472890,0.0007907632,0.01692224,0.038756263,67240471,0,0.72647136,0.4771924,0.097765,0.09660247,0.0036417993,0.0038412684,0.0,0.0,0.0,0.004999,4259850,4325386,4028193,396321,0,0,895,2,1,2,0,4,0,0,0,0,0,0,0
586773267,586672868,0.0008063758,0.019920265,0.047961168,67240471,0,0.72321886,0.47945666,0.079356425,0.07702923,0.0020182452,0.0050344802,0.0,0.0,0.0,0.004999,4259850,4325386,4028193,396321,0,0,895,2,1,2,0,4,0,0,0,0,0,0,0
586973212,586872845,0.00082165963,0.010826526,0.0290235,67240471,0,0.72553885,0.47873807,0.080917396,0.05062065,0.0048740325,0.0073719695,0.0,0.0,0.0,0.004999,4259850,4325386,4028193,396321,0,0,895,2,1,2,0,4,0,0,0,0,0,0,0
587173139,587072823,0.0005597693,0.012830701,0.034478355,67240471,0,0.72805476,0.47803715,0.06651536,0.06486221,0.0068598087,0.0051037213,0.0,0.0,0.0,0.004999,4259850,4325386,4028193,396321,0,0,895,2,1,2,0,4,0,0,0,0,0,0,0
587373173,587272800,0.00069639576,0.011542032,0.03066484,67240471,0,0.72778904,0.48107648,0.08304093,0.03711861,0.007601017,0.01070105,0.0,0.0,0.0,0.004999,4259850,4325386,4028193,396321,0,0,895,2,1,2,0,4,0,0,0,0,0,0,0
587573143,587472778,0.00080731633,0.011336528,0.029001227,67240471,0,0.7178319,0.47694504,0.079118595,0.06402434,0.0057516755,0.0028093874,0.0,0.0,0.0,0.004999,4259850,4325386,4028193,396321,0,0,895,2,1,2,0,4,0,0,0,0,0,0,0
587773085,587672755,0.000677221,0.0153034935,0.03763373,67240471,0,0.7090117,0.47292328,0.08516508,0.04115493,0.0056798975,0.004192397,0.0,0.0,0.0,0.004999,4259850,4325386,4028193,396321,0,0,895,2,1,2,0,4,0,0,0,0,0,0,0
587973117,587872737,0.000796977,0.014876196,0.034407463,67240471,0,0.7062012,0.47063306,0.08213869,0.05110731,0.0044383,0.0006069685,0.0,0.0,0.0,0.004999,4259850,4325386,4028193,396321,0,0,895,2,1,2,0,4,0,0,0,0,0,0,0
588173023,588072710,0.00064032176,0.013978048,0.030235203,67240471,0,0.7034733,0.47266862,0.08089195,0.048569515,0.0068336898,0.0056516724,0.0,0.0,0.0,0.004999,4259850,4325386,4028193,396321,0,0,895,2,1,2,0,4,0,0,0,0,0,0,0
588373138,588272688,0.0006437244,0.002463679,0.005181078,67240471,0,0.7064112,0.47221887,0.086263105,0.040159,0.009185051,0.004150761,0.0,0.0,0.0,0.004999,4259850,4325386,4028193,396321,0,0,895,2,1,2,0,4,0,0,0,0,0,0,0
588573089,588472665,0.00077028596,0.0039157965,0.0068737846,67240471,0,0.7000894,0.46880382,0.0817156,0.034108788,0.009913475,0.006182016,0.0,0.0,0.0,0.004999,4259850,4325386,4028193,396321,0,0,895,2,1,2,0,4,0,0,0,0,0,0,0
588772964,588672642,0.00061226153,0.0077147777,0.019083334,67240471,0,0.7037163,0.47286034,0.07329784,0.055405945,0.013682164,0.00090769824,0.0,0.0,0.0,0.004999,4259850,4325386,4028193,396321,0,0,895,2,1,2,0,4,0,0,0,0,0,0,0
588973088,588872620,0.0006524254,0.0057558147,0.016956013,67240471,0,0.6995756,0.4700874,0.07608882,0.055542827,0.014684473,0.0057539954,0.0,0.0,0.0,0.004999,4259850,4325386,4028193,396321,0,0,895,2,1,2,0,4,0,0,0,0,0,0,0
589172984,589072597,0.00077281223,0.010491857,0.017588532,67240471,0,0.70041955,0.46898746,0.07363439,0.09356668,0.014041774,0.0031064353,0.0,0.0,0.0,0.004999,4259850,4325386,4028193,396321,0,0,895,2,1,2,0,4,0,0,0,0,0,0,0
589372892,589272575,0.0005838038,0.0040587266,0.0092109395,67240471,0,0.70195335,0.4723336,0.07550045,0.04061828,0.015752913,0.019067492,0.0,0.0,0.0,0.004999,4259850,4325386,4028193,396321,0,0,895,2,1,2,0,4,0,0,0,0,0,0,0
589572919,589472552,0.00065566826,0.005025918,0.011766122,67240471,0,0.70069164,0.47049937,0.08571838,0.03228733,0.014832026,0.004645026,0.0,0.0,0.0,0.004999,4259850,4325386,4028193,396321,0,0,895,2,1,2,0,4,0,0,0,0,0,0,0
589772903,589672530,0.0007492988,0.0091380235,0.023935685,67240471,0,0.7030128,0.4698442,0.070052706,0.056621406,0.01762741,0.004988026,0.0,0.0,0.0,0.004999,4259850,4325386,4028193,396321,0,0,895,2,1,2,0,4,0,0,0,0,0,0,0
589972910,589872507,0.00035214843,0.006432693,0.022951975,67240471,0,0.70705783,0.46967575,0.054983743,0.03145033,0.017214907,0.008541943,0.0,0.0,0.0,0.004999,4259850,4325386,4028193,396321,0,0,895,2,1,2,0,4,0,0,0,0,0,0,0
590172843,590072484,0.00031250968,0.011069703,0.030826142,67240471,0,0.7071077,0.47258443,0.006916895,0.06089114,0.01905659,0.0029352563,0.0,0.0,0.0,0.004999,4259850,4325386,4028193,396321,0,0,895,2,1,2,0,4,0,0,0,0,0,0,0
590372902,590272462,0.0001653181,0.006334657,0.01856581,67240471,0,0.7110861,0.47238418,0.0090864785,0.055935267,0.0187106,0.0029393851,0.0,0.0,0.0,0.004999,4259850,4325386,4028193,396321,0,0,895,2,1,2,0,4,0,0,0,0,0,0,0
590572836,590472439,0.00027231753,0.012658857,0.031104315,67240471,0,0.7176667,0.4728201,0.009827163,0.07309666,0.017336551,0.0063300733,0.0,0.0,0.0,0.004999,4259850,4325386,4028193,396321,0,0,895,2,1,2,0,4,0,0,0,0,0,0,0
590772731,590672416,0.0001859931,0.009399707,0.024008498,67240471,0,0.7237678,0.47743452,0.014473205,0.03119743,0.017200055,0.0052893027,0.0,0.0,0.0,0.004999,4259850,4325386,4028193,396321,0,0,895,2,1,2,0,4,0,0,0,0,0,0,0
590972709,590872394,0.00036619202,0.0093294345,0.021417603,67240471,0,0.7299262,0.47762212,0.016662309,0.10057334,0.023641793,0.0013151973,0.0,0.0,0.0,0.004999,4259850,4325386,4028193,396321,0,0,895,2,1,2,0,4,0,0,0,0,0,0,0
591172806,591072371,0.00012021039,0.004424372,0.017607553,67240471,0,0.7325578,0.47692934,0.017751671,0.027734421,0.027832752,0.00357842,0.0,0.0,0.0,0.004999,4259850,4325386,4028193,396321,0,0,895,2,1,2,0,4,0,0,0,0,0,0,0
591372665,591272349,0.00019258796,0.0059837634,0.021173147,67240471,0,0.7332067,0.4802679,0.022708895,0.019680766,0.026699003,0.0054487367,0.0,0.0,0.0,0.004999,4259850,4325386,4028193,396321,0,0,895,2,1,2,0,4,0,0,0,0,0,0,0
591572648,591472326,0.00015525377,0.007440701,0.02386441,67240471,0,0.72974586,0.47806826,0.0063677956,0.024298213,0.026293425,0.006375706,0.0,0.0,0.0,0.004999,4259850,4325386,4028193,396321,0,0,895,2,1,2,0,4,0,0,0,0,0,0,0
591772699,591672303,0.00018501436,0.00606522,0.022889987,67240471,0,0.7310071,0.4770691,0.020915452,0.009959362,0.028125782,0.0083513595,0.0,0.0,0.0,0.004999,4259850,4325386,4028193,396321,0,0,895,2,1,2,0,4,0,0,0,0,0,0,0
591977699,591872280,0.00040695074,0.015064938,0.037713584,67240471,0,0.7370376,0.4772717,0.02118512,0.09937938,0.029659146,0.0061734784,0.0,0.0,0.0,0.004999,4259850,4325386,4028193,396321,0,0,895,2,1,2,0,4,0,0,0,0,0,0,0
592172571,592072257,0.00052183616,0.022863021,0.05710967,131607,0,0.7411121,0.4814467,0.021012766,0.07703639,0.031736746,0.01926311,0.0,0.0,0.0,0.004999,4259850,4325386,4028193,396321,0,0,895,2,1,2,0,4,0,0,0,0,0,0,0
592372786,592272234,0.00024267078,0.015338915,0.04365182,131607,0,0.73404074,0.4783663,0.015312125,0.02117848,0.029209498,0.010725109,0.0,0.0,0.0,0.004999,4259850,4325386,4028193,396321,0,0,895,2,1,2,0,4,0,0,0,0,0,0,0
592572528,592472212,0.0004143294,0.015824249,0.041581187,131607,0,0.7378428,0.47795814,0.0041051805,0.06793319,0.028505286,0.0060465713,0.0,0.0,0.0,0.004999,4259850,4325386,4028193,396321,0,0,895,2,1,2,0,4,0,0,0,0,0,0,0
