timestamp,timestamp_sample,q[0],q[1],q[2],q[3],delta_q_reset[0],delta_q_reset[1],delta_q_reset[2],delta_q_reset[3],quat_reset_counter
539828231,539828124,0.08570714,0.026516229,0.023558369,0.99568886,0.99999756,5.881389e-10,4.9762994e-09,-0.0022135563,4
540328170,540328066,0.08604796,0.026852567,0.023616742,0.99564904,0.99999756,5.881389e-10,4.9762994e-09,-0.0022135563,4
540833110,540833008,0.086438626,0.025527187,0.023291605,0.9956577,0.99999756,5.881389e-10,4.9762994e-09,-0.0022135563,4
541328068,541327951,0.08686426,0.02562636,0.023673732,0.99560916,0.99999756,5.881389e-10,4.9762994e-09,-0.0022135563,4
541828005,541827894,0.08702032,0.02622269,0.023577718,0.9955823,0.99999756,5.881389e-10,4.9762994e-09,-0.0022135563,4
542327938,542327836,0.087006606,0.027291646,0.02378334,0.99554986,0.99999756,5.881389e-10,4.9762994e-09,-0.0022135563,4
542827890,542827778,0.08699549,0.026850821,0.023970269,0.9955583,0.99999756,5.881389e-10,4.9762994e-09,-0.0022135563,4
543327822,543327721,0.08706717,0.026449218,0.023869835,0.9955652,0.99999756,5.881389e-10,4.9762994e-09,-0.0022135563,4
543832761,543832663,0.08699745,0.0257198,0.02315829,0.99560714,0.99999756,5.881389e-10,4.9762994e-09,-0.0022135563,4
544332710,544332606,0.08697542,0.02585743,0.022872178,0.9956122,0.99999756,5.881389e-10,4.9762994e-09,-0.0022135563,4
544827653,544827549,0.08689207,0.026198423,0.023230437,0.9956022,0.99999756,5.881389e-10,4.9762994e-09,-0.0022135563,4
545327597,545327492,0.08680739,0.02623889,0.023260383,0.99560785,0.99999756,5.881389e-10,4.9762994e-09,-0.0022135563,4
545827538,545827435,0.08669981,0.02589647,0.0231501,0.9956287,0.99999756,5.881389e-10,4.9762994e-09,-0.0022135563,4
546327497,546327378,0.08675346,0.02619529,0.023126174,0.9956168,0.99999756,5.881389e-10,4.9762994e-09,-0.0022135563,4
546832419,546832320,0.08680011,0.027316822,0.022511931,0.99559677,0.99999756,5.881389e-10,4.9762994e-09,-0.0022135563,4
547332369,547332263,0.086765625,0.027488008,0.021793388,0.995611,0.99999756,5.881389e-10,4.9762994e-09,-0.0022135563,4
547832308,547832206,0.08667467,0.027440358,0.021673666,0.9956228,0.99999756,5.881389e-10,4.9762994e-09,-0.0022135563,4
548327269,548327150,0.08668521,0.026949981,0.022095852,0.9956261,0.99999756,5.881389e-10,4.9762994e-09,-0.0022135563,4
548827210,548827093,0.08655675,0.02681656,0.022017745,0.9956426,0.99999756,5.881389e-10,4.9762994e-09,-0.0022135563,4
549327140,549327036,0.086464636,0.02706979,0.021951478,0.9956452,0.99999756,5.881389e-10,4.9762994e-09,-0.0022135563,4
549827084,549826979,0.086616956,0.02697299,0.022335451,0.995626,0.99999756,5.881389e-10,4.9762994e-09,-0.0022135563,4
550332023,550331922,0.08685287,0.026329497,0.02242065,0.9956207,0.99999756,5.881389e-10,4.9762994e-09,-0.0022135563,4
550831970,550831865,0.08699982,0.027021145,0.022195669,0.9955945,0.99999756,5.881389e-10,4.9762994e-09,-0.0022135563,4
551331907,551331808,0.0872617,0.027318723,0.022145344,0.9955645,0.99999756,5.881389e-10,4.9762994e-09,-0.0022135563,4
551826864,551826752,0.08739003,0.026689354,0.022452338,0.9955635,0.99999756,5.881389e-10,4.9762994e-09,-0.0022135563,4
552326798,552326695,0.08728119,0.026481008,0.022595545,0.99557537,0.99999756,5.881389e-10,4.9762994e-09,-0.0022135563,4
552826743,552826639,0.087316096,0.026585827,0.022400929,0.9955739,0.99999756,5.881389e-10,4.9762994e-09,-0.0022135563,4
553331724,553326583,0.08737356,0.026838303,0.022204617,0.9955664,0.99999756,5.881389e-10,4.9762994e-09,-0.0022135563,4
553831627,553831526,0.08744621,0.026239246,0.022576187,0.9955677,0.99999756,5.881389e-10,4.9762994e-09,-0.0022135563,4
554331572,554331469,0.08751725,0.026021207,0.022374544,0.9955718,0.99999756,5.881389e-10,4.9762994e-09,-0.0022135563,4
554831527,554831413,0.08759362,0.026087249,0.022574963,0.9955588,0.99999756,5.881389e-10,4.9762994e-09,-0.0022135563,4
555326461,555326357,0.0876252,0.026808469,0.022532217,0.9955378,0.99999756,5.881389e-10,4.9762994e-09,-0.0022135563,4
555826405,555826301,0.087635845,0.027122118,0.023079325,0.99551576,0.99999756,5.881389e-10,4.9762994e-09,-0.0022135563,4
556331418,556331244,0.08762894,0.026678752,0.023050508,0.99552906,0.99999756,5.881389e-10,4.9762994e-09,-0.0022135563,4
556831286,556831188,0.08759872,0.02662287,0.022827797,0.99553835,0.99999756,5.881389e-10,4.9762994e-09,-0.0022135563,4
557331233,557331132,0.08751706,0.026521448,0.022246135,0.9955614,0.99999756,5.881389e-10,4.9762994e-09,-0.0022135563,4
557831248,557831076,0.087471485,0.027454268,0.022298533,0.99553895,0.99999756,5.881389e-10,4.9762994e-09,-0.0022135563,4
558331122,558331019,0.08738253,0.028703785,0.022359308,0.9955102,0.99999756,5.881389e-10,4.9762994e-09,-0.0022135563,4
558826077,558825964,0.08728169,0.02845583,0.022487644,0.9955233,0.99999756,5.881389e-10,4.9762994e-09,-0.0022135563,4
559331010,559330908,0.087318055,0.027118664,0.02265928,0.9955535,0.99999756,5.881389e-10,4.9762994e-09,-0.0022135563,4
559830956,559830852,0.08733825,0.027601415,0.022633322,0.995539,0.99999756,5.881389e-10,4.9762994e-09,-0.0022135563,4
560330895,560330796,0.0872908,0.028227456,0.02233404,0.9955324,0.99999756,5.881389e-10,4.9762994e-09,-0.0022135563,4
560830849,560830740,0.08735351,0.028007299,0.022601696,0.9955271,0.99999756,5.881389e-10,4.9762994e-09,-0.0022135563,4
561330784,561330684,0.087433755,0.027434262,0.022803262,0.9955314,0.99999756,5.881389e-10,4.9762994e-09,-0.0022135563,4
561830736,561830628,0.08736058,0.026899235,0.022737462,0.9955539,0.99999756,5.881389e-10,4.9762994e-09,-0.0022135563,4
562325678,562325573,0.087339625,0.027229851,0.02337544,0.995532,0.99999756,5.881389e-10,4.9762994e-09,-0.0022135563,4
562830620,562830517,0.08733749,0.027685758,0.023111172,0.99552584,0.99999756,5.881389e-10,4.9762994e-09,-0.0022135563,4
563330564,563330461,0.08738844,0.027450025,0.022969669,0.99553114,0.99999756,5.881389e-10,4.9762994e-09,-0.0022135563,4
563830508,563830406,0.08747505,0.02732567,0.022704829,0.99553305,0.99999756,5.881389e-10,4.9762994e-09,-0.0022135563,4
564330474,564330350,0.08758794,0.027032152,0.022210395,0.9955423,0.99999756,5.881389e-10,4.9762994e-09,-0.0022135563,4
564830395,564830295,0.087590754,0.025599323,0.022456646,0.9955743,0.99999756,5.881389e-10,4.9762994e-09,-0.0022135563,4
565330346,565330239,0.08768199,0.02736917,0.022560071,0.99551696,0.99999756,5.881389e-10,4.9762994e-09,-0.0022135563,4
565830282,565830183,0.08792771,0.027761422,0.023276443,0.99546784,0.99999756,5.881389e-10,4.9762994e-09,-0.0022135563,4
566330228,566330128,0.08806008,0.027358357,0.023586368,0.9954601,0.99999756,5.881389e-10,4.9762994e-09,-0.0022135563,4
566830175,566830073,0.08807576,0.0254415,0.022872426,0.99552613,0.99999756,5.881389e-10,4.9762994e-09,-0.0022135563,4
567325122,567325018,0.08810743,0.027169093,0.02278382,0.99547976,0.99999756,5.881389e-10,4.9762994e-09,-0.0022135563,4
567830063,567829962,0.08814645,0.02639035,0.022224838,0.9955099,0.99999756,5.881389e-10,4.9762994e-09,-0.0022135563,4
568330008,568329906,0.0880984,0.026088707,0.022526821,0.9955153,0.99999756,5.881389e-10,4.9762994e-09,-0.0022135563,4
568829960,568829851,0.08812132,0.02668037,0.022984678,0.99548715,0.99999756,5.881389e-10,4.9762994e-09,-0.0022135563,4
569329895,569329795,0.08822133,0.027226873,0.023675246,0.9954473,0.99999756,5.881389e-10,4.9762994e-09,-0.0022135563,4
569829894,569829740,0.08845315,0.026469534,0.0238392,0.99544317,0.99999756,5.881389e-10,4.9762994e-09,-0.0022135563,4
570329786,570329685,0.08864744,0.026401063,0.023494663,0.99543595,0.99999756,5.881389e-10,4.9762994e-09,-0.0022135563,4
570829728,570829629,0.08870574,0.02786767,0.02393678,0.9953802,0.99999756,5.881389e-10,4.9762994e-09,-0.0022135563,4
571329675,571329574,0.08888561,0.027458299,0.023983475,0.99537444,0.99999756,5.881389e-10,4.9762994e-09,-0.0022135563,4
571829623,571829518,0.088935755,0.027359143,0.024892718,0.9953504,0.99999756,5.881389e-10,4.9762994e-09,-0.0022135563,4
572329564,572329463,0.08894072,0.027058795,0.025889186,0.99533266,0.99999756,5.881389e-10,4.9762994e-09,-0.0022135563,4
572829507,572829408,0.08908041,0.026653955,0.02546373,0.9953421,0.99999756,5.881389e-10,4.9762994e-09,-0.0022135563,4
573329456,573329352,0.089074485,0.026877187,0.02758698,0.99528,0.99999756,5.881389e-10,4.9762994e-09,-0.0022135563,4
573829421,573829297,0.08901582,0.026699433,0.03177083,0.99516535,0.99999756,5.881389e-10,4.9762994e-09,-0.0022135563,4
574329350,574329242,0.08977773,0.028973553,0.05830581,0.99383146,0.99999756,5.881389e-10,4.9762994e-09,-0.0022135563,4
574829286,574829186,0.08958542,0.028743945,0.059423048,0.9937893,0.99999756,5.881389e-10,4.9762994e-09,-0.0022135563,4
575329230,575329131,0.08918634,0.028651986,0.06037578,0.9937704,0.99999756,5.881389e-10,4.9762994e-09,-0.0022135563,4
575829176,575829076,0.088935815,0.02845356,0.0603758,0.9937986,0.99999756,5.881389e-10,4.9762994e-09,-0.0022135563,4
576329119,576329020,0.08839758,0.028357914,0.059306886,0.99391365,0.99999756,5.881389e-10,4.9762994e-09,-0.0022135563,4
576829068,576828965,0.0876925,0.0282358,0.05888965,0.9940044,0.99999756,5.881389e-10,4.9762994e-09,-0.0022135563,4
577329009,577328909,0.08732427,0.028324429,0.0588158,0.9940387,0.99999756,5.881389e-10,4.9762994e-09,-0.0022135563,4
577828959,577828854,0.087005205,0.028094288,0.05884144,0.99407166,0.99999756,5.881389e-10,4.9762994e-09,-0.0022135563,4
578328913,578328798,0.08652104,0.027603136,0.0585354,0.99414575,0.99999756,5.881389e-10,4.9762994e-09,-0.0022135563,4
578828850,578828743,0.08599411,0.027620828,0.058439296,0.9941967,0.99999756,5.881389e-10,4.9762994e-09,-0.0022135563,4
579328791,579328687,0.08553953,0.027646964,0.05729803,0.9943016,0.99999756,5.881389e-10,4.9762994e-09,-0.0022135563,4
579828734,579828632,0.0850914,0.026953088,0.056580253,0.9944002,0.99999756,5.881389e-10,4.9762994e-09,-0.0022135563,4
580328695,580328576,0.08394806,0.024101844,0.05905427,0.9944267,0.99999756,5.881389e-10,4.9762994e-09,-0.0022135563,4
580828624,580828521,0.083532214,0.02531914,0.057030834,0.9945496,0.99999756,5.881389e-10,4.9762994e-09,-0.0022135563,4
581328569,581328465,0.08255775,0.025633998,0.057736475,0.9945822,0.99999756,5.881389e-10,4.9762994e-09,-0.0022135563,4
581828511,581828410,0.082087256,0.026274532,0.056476925,0.9946767,0.99999756,5.881389e-10,4.9762994e-09,-0.0022135563,4
582328457,582328354,0.0821671,0.02658172,0.0557521,0.9947029,0.99999756,5.881389e-10,4.9762994e-09,-0.0022135563,4
582833400,582833297,0.081366256,0.025823329,0.05669948,0.99473506,0.99999756,5.881389e-10,4.9762994e-09,-0.0022135563,4
583328354,583328242,0.08105598,0.025097236,0.056340933,0.9947994,0.99999756,5.881389e-10,4.9762994e-09,-0.0022135563,4
583828290,583828186,0.08089285,0.025543356,0.055834666,0.99482983,0.99999756,5.881389e-10,4.9762994e-09,-0.0022135563,4
584328241,584328131,0.08029976,0.028296808,0.054697152,0.99486655,0.99999756,5.881389e-10,4.9762994e-09,-0.0022135563,4
584828177,584828075,0.07975051,0.029584484,0.053953152,0.994914,0.99999756,5.881389e-10,4.9762994e-09,-0.0022135563,4
585328120,585328018,0.07894531,0.030109897,0.053829387,0.9949691,0.99999756,5.881389e-10,4.9762994e-09,-0.0022135563,4
585828062,585827962,0.078197435,0.03128369,0.053434014,0.99501324,0.99999756,5.881389e-10,4.9762994e-09,-0.0022135563,4
586328007,586327907,0.0774402,0.03183756,0.052515402,0.99510384,0.99999756,5.881389e-10,4.9762994e-09,-0.0022135563,4
586828015,586827851,0.076768324,0.031254597,0.053046588,0.9951462,0.99999756,5.881389e-10,4.9762994e-09,-0.0022135563,4
587327908,587327794,0.075988986,0.02980057,0.05401519,0.99519855,0.99999756,5.881389e-10,4.9762994e-09,-0.0022135563,4
587827845,587827738,0.07526651,0.02913016,0.054520898,0.99524564,0.99999756,5.881389e-10,4.9762994e-09,-0.0022135563,4
588327782,588327681,0.07429817,0.029575976,0.056250736,0.995209,0.99999756,5.881389e-10,4.9762994e-09,-0.0022135563,4
588827727,588827625,0.07365257,0.029623877,0.055266585,0.99531066,0.99999756,5.881389e-10,4.9762994e-09,-0.0022135563,4
589332670,589332568,0.072680525,0.02894971,0.05518603,0.9954065,0.99999756,5.881389e-10,4.9762994e-09,-0.0022135563,4
589832619,589832511,0.07209392,0.02992337,0.054275043,0.99547046,0.99999756,5.881389e-10,4.9762994e-09,-0.0022135563,4
590327558,590327455,0.07130247,0.030531604,0.053624526,0.99554425,0.99999756,5.881389e-10,4.9762994e-09,-0.0022135563,4
590827565,590827399,0.07087765,0.02972098,0.053281754,0.99561745,0.99999756,5.881389e-10,4.9762994e-09,-0.0022135563,4
591327458,591327342,0.070651546,0.0297126,0.054117117,0.9955887,0.99999756,5.881389e-10,4.9762994e-09,-0.0022135563,4
591827388,591827285,0.070668414,0.030999904,0.054533403,0.99552554,0.99999756,5.881389e-10,4.9762994e-09,-0.0022135563,4
592332340,592332228,0.07174357,0.041032676,0.07297756,0.9939032,0.99999756,5.881389e-10,4.9762994e-09,-0.0022135563,4
592832272,592832171,0.06970416,0.034611482,0.06344769,0.9949461,0.99999756,5.881389e-10,4.9762994e-09,-0.0022135563,4
593332218,593332115,0.06994534,0.036912754,0.06777762,0.9945609,0.99999756,5.881389e-10,4.9762994e-09,-0.0022135563,4
593827160,593827057,0.06973183,0.035627555,0.06483193,0.9948191,0.99999756,5.881389e-10,4.9762994e-09,-0.0022135563,4
594329616,594327000,0.06965571,0.036992844,0.06365915,0.99485034,0.99999756,5.881389e-10,4.9762994e-09,-0.0022135563,4
594827046,594826943,0.0695342,0.03847092,0.06278372,0.9948584,0.99999756,5.881389e-10,4.9762994e-09,-0.0022135563,4
595331990,595331885,0.069315135,0.03703945,0.06205292,0.9949739,0.99999756,5.881389e-10,4.9762994e-09,-0.0022135563,4
595831931,595831827,0.06897854,0.03537663,0.061432287,0.9950963,0.99999756,5.881389e-10,4.9762994e-09,-0.0022135563,4
596331874,596331770,0.06863069,0.034591503,0.060748,0.99518996,0.99999756,5.881389e-10,4.9762994e-09,-0.0022135563,4
596831825,596831712,0.06832608,0.03334594,0.05946655,0.99533075,0.99999756,5.881389e-10,4.9762994e-09,-0.0022135563,4
597326760,597326655,0.06759935,0.035289407,0.058485314,0.9953716,0.99999756,5.881389e-10,4.9762994e-09,-0.0022135563,4
597826702,597826597,0.06695664,0.03637998,0.057718202,0.9954206,0.99999756,5.881389e-10,4.9762994e-09,-0.0022135563,4
598326642,598326539,0.06646377,0.036876157,0.056629915,0.9954978,0.99999756,5.881389e-10,4.9762994e-09,-0.0022135563,4
598831582,598831481,0.06591448,0.036468092,0.056230746,0.995572,0.99999756,5.881389e-10,4.9762994e-09,-0.0022135563,4
599331529,599331423,0.06535712,0.036099892,0.055676315,0.99565333,0.99999756,5.881389e-10,4.9762994e-09,-0.0022135563,4
599831466,599831365,0.06491206,0.03553731,0.05521053,0.99572855,0.99999756,5.881389e-10,4.9762994e-09,-0.0022135563,4
600331423,600331307,0.064620666,0.035225123,0.054751825,0.995784,0.99999756,5.881389e-10,4.9762994e-09,-0.0022135563,4
600826352,600826252,0.06442093,0.034189895,0.054994483,0.99581957,0.99999756,5.881389e-10,4.9762994e-09,-0.0022135563,4
601326298,601326191,0.064049326,0.02940932,0.05722181,0.99587077,0.99999756,5.881389e-10,4.9762994e-09,-0.0022135563,4
601831235,601831132,0.06403334,0.029873049,0.057723764,0.99582905,0.99999756,5.881389e-10,4.9762994e-09,-0.0022135563,4
602331174,602331073,0.06434144,0.03361225,0.054782737,0.99585605,0.99999756,5.881389e-10,4.9762994e-09,-0.0022135563,4
602831116,602831014,0.06421319,0.033594683,0.05475537,0.9958664,0.99999756,5.881389e-10,4.9762994e-09,-0.0022135563,4
603331059,603330955,0.06420264,0.033955485,0.054568253,0.99586517,0.99999756,5.881389e-10,4.9762994e-09,-0.0022135563,4
603826001,603825897,0.064293146,0.03197723,0.05560996,0.9958672,0.99999756,5.881389e-10,4.9762994e-09,-0.0022135563,4
604325939,604325838,0.0649368,0.032580383,0.056467317,0.99575764,0.99999756,5.881389e-10,4.9762994e-09,-0.0022135563,4
604830897,604830779,0.06663208,0.034728568,0.06384555,0.9951271,0.99999756,5.881389e-10,4.9762994e-09,-0.0022135563,4
605330821,605330720,0.06494238,0.028843597,0.060957815,0.9956078,0.99999756,5.881389e-10,4.9762994e-09,-0.0022135563,4
605830952,605830660,0.064696856,0.028883133,0.059356794,0.99571925,0.99999756,5.881389e-10,4.9762994e-09,-0.0022135563,4
606330709,606330601,0.064477816,0.030452704,0.05644584,0.99585605,0.99999756,5.881389e-10,4.9762994e-09,-0.0022135563,4
606830649,606830542,0.064211935,0.030883985,0.0556407,0.9959052,0.99999756,5.881389e-10,4.9762994e-09,-0.0022135563,4
607330593,607330482,0.064047016,0.03065596,0.05513615,0.995951,0.99999756,5.881389e-10,4.9762994e-09,-0.0022135563,4
607830525,607830423,0.06376621,0.031132525,0.055139787,0.9959539,0.99999756,5.881389e-10,4.9762994e-09,-0.0022135563,4
608330480,608330363,0.06364697,0.031023225,0.05471203,0.99598867,0.99999756,5.881389e-10,4.9762994e-09,-0.0022135563,4
608830405,608830303,0.06356412,0.030655773,0.05493891,0.99599284,0.99999756,5.881389e-10,4.9762994e-09,-0.0022135563,4
609330346,609330243,0.06322958,0.030170256,0.054161996,0.9960714,0.99999756,5.881389e-10,4.9762994e-09,-0.0022135563,4
609830298,609830183,0.06266966,0.029767271,0.054095242,0.99612254,0.99999756,5.881389e-10,4.9762994e-09,-0.0022135563,4
610330406,610330123,0.062237088,0.029468171,0.055536587,0.9960793,0.99999756,5.881389e-10,4.9762994e-09,-0.0022135563,4
610830168,610830063,0.062156472,0.029774021,0.055332944,0.9960866,0.99999756,5.881389e-10,4.9762994e-09,-0.0022135563,4
611330106,611330003,0.06185966,0.029760832,0.056259792,0.99605346,0.99999756,5.881389e-10,4.9762994e-09,-0.0022135563,4
611830043,611829942,0.06180648,0.0283221,0.05803749,0.9959968,0.99999756,5.881389e-10,4.9762994e-09,-0.0022135563,4
612329982,612329882,0.06189806,0.028377028,0.05919697,0.9959213,0.99999756,5.881389e-10,4.9762994e-09,-0.0022135563,4
612829925,612829822,0.06363118,0.033113506,0.06558354,0.9952655,0.99999756,5.881389e-10,4.9762994e-09,-0.0022135563,4
613329865,613329761,0.062641546,0.029648341,0.057190385,0.99595493,0.99999756,5.881389e-10,4.9762994e-09,-0.0022135563,4
613829816,613829700,0.0631158,0.031400386,0.057504103,0.99585325,0.99999756,5.881389e-10,4.9762994e-09,-0.0022135563,4
614329741,614329639,0.062649995,0.030984119,0.05602227,0.99598014,0.99999756,5.881389e-10,4.9762994e-09,-0.0022135563,4
614829839,614829578,0.06285388,0.028821858,0.056918666,0.99598145,0.99999756,5.881389e-10,4.9762994e-09,-0.0022135563,4
615329623,615329517,0.062507086,0.022529157,0.061208315,0.9959111,0.99999756,5.881389e-10,4.9762994e-09,-0.0022135563,4
615829558,615829456,0.0624062,0.022191614,0.06131263,0.9959186,0.99999756,5.881389e-10,4.9762994e-09,-0.0022135563,4
616329498,616329394,0.06229997,0.018900678,0.06094681,0.9960156,0.99999756,5.881389e-10,4.9762994e-09,-0.0022135563,4
616829473,616829335,0.06275662,0.018551113,0.05990325,0.9960568,0.99999756,5.881389e-10,4.9762994e-09,-0.0022135563,4
617329377,617329272,0.06314387,0.017878966,0.059026744,0.99609697,0.99999756,5.881389e-10,4.9762994e-09,-0.0022135563,4
617829310,617829210,0.06309597,0.019823378,0.058160186,0.9961142,0.99999756,5.881389e-10,4.9762994e-09,-0.0022135563,4
618329265,618329148,0.06323244,0.02108969,0.057277136,0.99613065,0.99999756,5.881389e-10,4.9762994e-09,-0.0022135563,4
618829189,618829087,0.06315913,0.022625089,0.056685895,0.9961354,0.99999756,5.881389e-10,4.9762994e-09,-0.0022135563,4
619329330,619329025,0.06407174,0.026826117,0.062824756,0.99560446,0.99999756,5.881389e-10,4.9762994e-09,-0.0022135563,4
619829067,619828963,0.063986294,0.026519867,0.060017157,0.99579144,0.99999756,5.881389e-10,4.9762994e-09,-0.0022135563,4
620329005,620328901,0.064073145,0.025901362,0.056429688,0.9960118,0.99999756,5.881389e-10,4.9762994e-09,-0.0022135563,4
620828941,620828839,0.06441955,0.02683387,0.05513629,0.99603724,0.99999756,5.881389e-10,4.9762994e-09,-0.0022135563,4
621328879,621328776,0.06442494,0.023043111,0.056348573,0.99606395,0.99999756,5.881389e-10,4.9762994e-09,-0.0022135563,4
621828815,621828714,0.06462039,0.019734237,0.057583947,0.99605167,0.99999756,5.881389e-10,4.9762994e-09,-0.0022135563,4
622328756,622328651,0.064915255,0.019577455,0.055760887,0.99613935,0.99999756,5.881389e-10,4.9762994e-09,-0.0022135563,4
622828695,622828589,0.06515722,0.017093174,0.05462427,0.9962323,0.99999756,5.881389e-10,4.9762994e-09,-0.0022135563,4
623328634,623328526,0.06544369,0.014700236,0.054004215,0.9962854,0.99999756,5.881389e-10,4.9762994e-09,-0.0022135563,4
623828687,623828463,0.06500705,0.01357318,0.0564551,0.9961942,0.99999756,5.881389e-10,4.9762994e-09,-0.0022135563,4
624328501,624328400,0.064917445,0.013544361,0.056989115,0.99617,0.99999756,5.881389e-10,4.9762994e-09,-0.0022135563,4
624833436,624833337,0.06511405,0.014825531,0.056606427,0.99616075,0.99999756,5.881389e-10,4.9762994e-09,-0.0022135563,4
625328380,625328274,0.06527499,0.017503232,0.055159472,0.9961879,0.99999756,5.881389e-10,4.9762994e-09,-0.0022135563,4
625828314,625828210,0.06539604,0.018022656,0.05505013,0.9961768,0.99999756,5.881389e-10,4.9762994e-09,-0.0022135563,4
626328252,626328147,0.065463044,0.017818743,0.055305324,0.99616194,0.99999756,5.881389e-10,4.9762994e-09,-0.0022135563,4
626828209,626828084,0.06544883,0.017098138,0.055660397,0.9961556,0.99999756,5.881389e-10,4.9762994e-09,-0.0022135563,4
627328127,627328020,0.06552111,0.01701418,0.055129897,0.99618185,0.99999756,5.881389e-10,4.9762994e-09,-0.0022135563,4
627828066,627827956,0.0656174,0.016981369,0.054717552,0.99619883,0.99999756,5.881389e-10,4.9762994e-09,-0.0022135563,4
628333060,628332892,0.0656469,0.017191174,0.054795697,0.99618894,0.99999756,5.881389e-10,4.9762994e-09,-0.0022135563,4
628827940,628827828,0.06559042,0.017041314,0.055321507,0.9961662,0.99999756,5.881389e-10,4.9762994e-09,-0.0022135563,4
629327876,629327764,0.0656965,0.016258128,0.056188967,0.99612373,0.99999756,5.881389e-10,4.9762994e-09,-0.0022135563,4
629827825,629827700,0.065770686,0.015601996,0.05638704,0.9961182,0.99999756,5.881389e-10,4.9762994e-09,-0.0022135563,4
630327737,630327636,0.06577308,0.015973723,0.055938605,0.9961374,0.99999756,5.881389e-10,4.9762994e-09,-0.0022135563,4
630827676,630827572,0.065900646,0.016307784,0.05509792,0.99617046,0.99999756,5.881389e-10,4.9762994e-09,-0.0022135563,4
631332618,631332506,0.06594488,0.016209662,0.05503708,0.99617237,0.99999756,5.881389e-10,4.9762994e-09,-0.0022135563,4
631832554,631832442,0.065857925,0.016531335,0.055303663,0.9961581,0.99999756,5.881389e-10,4.9762994e-09,-0.0022135563,4
632327481,632327378,0.0659099,0.016360277,0.056338195,0.9960996,0.99999756,5.881389e-10,4.9762994e-09,-0.0022135563,4
632827564,632827315,0.0661605,0.016683042,0.057477165,0.9960125,0.99999756,5.881389e-10,4.9762994e-09,-0.0022135563,4
633327368,633327248,0.066245236,0.016205808,0.057345677,0.9960223,0.99999756,5.881389e-10,4.9762994e-09,-0.0022135563,4
633827285,633827183,0.06639305,0.015451601,0.056755625,0.9960583,0.99999756,5.881389e-10,4.9762994e-09,-0.0022135563,4
634332217,634332117,0.066688515,0.015611752,0.0560644,0.99607515,0.99999756,5.881389e-10,4.9762994e-09,-0.0022135563,4
634832150,634832052,0.066794164,0.015401421,0.056867495,0.9960259,0.99999756,5.881389e-10,4.9762994e-09,-0.0022135563,4
635332091,635331987,0.0668245,0.0146168405,0.057975795,0.9959717,0.99999756,5.881389e-10,4.9762994e-09,-0.0022135563,4
635827026,635826922,0.06693298,0.014781536,0.057684828,0.99597895,0.99999756,5.881389e-10,4.9762994e-09,-0.0022135563,4
636327004,636326856,0.066975676,0.015203165,0.057496127,0.9959806,0.99999756,5.881389e-10,4.9762994e-09,-0.0022135563,4
636826894,636826791,0.06696796,0.015129415,0.05611609,0.996061,0.99999756,5.881389e-10,4.9762994e-09,-0.0022135563,4
637331865,637331724,0.06706228,0.014900253,0.05644429,0.9960395,0.99999756,5.881389e-10,4.9762994e-09,-0.0022135563,4
637831767,637831658,0.0671202,0.014909885,0.05566556,0.99607927,0.99999756,5.881389e-10,4.9762994e-09,-0.0022135563,4
638331692,638331592,0.0670155,0.012822555,0.057657428,0.9960021,0.99999756,5.881389e-10,4.9762994e-09,-0.0022135563,4
638826633,638826527,0.06702847,0.013043205,0.058392238,0.9959555,0.99999756,5.881389e-10,4.9762994e-09,-0.0022135563,4
639326565,639326460,0.06699287,0.013314729,0.056704316,0.9960519,0.99999756,5.881389e-10,4.9762994e-09,-0.0022135563,4
639826495,639826394,0.06680791,0.012898125,0.05222957,0.9963144,0.99999756,5.881389e-10,4.9762994e-09,-0.0022135563,4
640331426,640331327,0.06701014,0.012445561,0.053291626,0.9962504,0.99999756,5.881389e-10,4.9762994e-09,-0.0022135563,4
640831366,640831261,0.06734641,0.013167017,0.052594896,0.99625546,0.99999756,5.881389e-10,4.9762994e-09,-0.0022135563,4
641331294,641331194,0.067461364,0.013125235,0.05242208,0.9962573,0.99999756,5.881389e-10,4.9762994e-09,-0.0022135563,4
641831282,641831127,0.06778968,0.012762565,0.055085823,0.9960961,0.99999756,5.881389e-10,4.9762994e-09,-0.0022135563,4
642331167,642331060,0.06811059,0.014163166,0.0550717,0.996056,0.99999756,5.881389e-10,4.9762994e-09,-0.0022135563,4
642826099,642825994,0.06831925,0.014233578,0.05388685,0.99610555,0.99999756,5.881389e-10,4.9762994e-09,-0.0022135563,4
643326044,643325927,0.0686314,0.014301974,0.053404715,0.99610907,0.99999756,5.881389e-10,4.9762994e-09,-0.0022135563,4
643830960,643830858,0.06906404,0.013312789,0.054687012,0.9960233,0.99999756,5.881389e-10,4.9762994e-09,-0.0022135563,4
644330908,644330791,0.06927276,0.013242205,0.056813262,0.9958907,0.99999756,5.881389e-10,4.9762994e-09,-0.0022135563,4
644830822,644830724,0.0694539,0.013369823,0.05800062,0.9958079,0.99999756,5.881389e-10,4.9762994e-09,-0.0022135563,4
645330761,645330656,0.06972065,0.013487527,0.057571273,0.99581265,0.99999756,5.881389e-10,4.9762994e-09,-0.0022135563,4
645830693,645830588,0.07002872,0.014228099,0.056676608,0.995832,0.99999756,5.881389e-10,4.9762994e-09,-0.0022135563,4
646330666,646330521,0.070268445,0.014324034,0.05612118,0.9958452,0.99999756,5.881389e-10,4.9762994e-09,-0.0022135563,4
646830742,646830453,0.070781074,0.013774884,0.056808777,0.9957776,0.99999756,5.881389e-10,4.9762994e-09,-0.0022135563,4
647330485,647330385,0.07126571,0.013957955,0.057732705,0.99568737,0.99999756,5.881389e-10,4.9762994e-09,-0.0022135563,4
647830441,647830316,0.07220195,0.014271603,0.05780649,0.9956112,0.99999756,5.881389e-10,4.9762994e-09,-0.0022135563,4
648330349,648330248,0.07324718,0.013940133,0.05730426,0.99556863,0.99999756,5.881389e-10,4.9762994e-09,-0.0022135563,4
648830294,648830180,0.07455999,0.014143416,0.05718853,0.99547493,0.99999756,5.881389e-10,4.9762994e-09,-0.0022135563,4
649330215,649330111,0.07595896,0.014206839,0.057579692,0.99534565,0.99999756,5.881389e-10,4.9762994e-09,-0.0022135563,4
649830149,649830043,0.07753949,0.014161942,0.057892736,0.9952063,0.99999756,5.881389e-10,4.9762994e-09,-0.0022135563,4
650330078,650329974,0.07915508,0.012785417,0.05784776,0.9951003,0.99999756,5.881389e-10,4.9762994e-09,-0.0022135563,4
650830042,650829905,0.080793,0.012674191,0.057657998,0.99498117,0.99999756,5.881389e-10,4.9762994e-09,-0.0022135563,4
651330052,651329836,0.08238659,0.013856968,0.057764903,0.99482846,0.99999756,5.881389e-10,4.9762994e-09,-0.0022135563,4
651829867,651829767,0.08403232,0.016068783,0.05787118,0.99465144,0.99999756,5.881389e-10,4.9762994e-09,-0.0022135563,4
652329799,652329697,0.08612873,0.01569414,0.058198433,0.994459,0.99999756,5.881389e-10,4.9762994e-09,-0.0022135563,4
652829729,652829628,0.08855718,0.01572719,0.05792888,0.9942608,0.99999756,5.881389e-10,4.9762994e-09,-0.0022135563,4
653329661,653329558,0.091343515,0.016025716,0.05761524,0.9940222,0.99999756,5.881389e-10,4.9762994e-09,-0.0022135563,4
653829589,653829489,0.094252415,0.016577106,0.058000844,0.9937191,0.99999756,5.881389e-10,4.9762994e-09,-0.0022135563,4
654329522,654329419,0.09713749,0.017101824,0.058247734,0.9934179,0.99999756,5.881389e-10,4.9762994e-09,-0.0022135563,4
654829462,654829350,0.10021903,0.016560633,0.057912823,0.99314046,0.99999756,5.881389e-10,4.9762994e-09,-0.0022135563,4
655329383,655329280,0.10317562,0.016414277,0.05761533,0.9928574,0.99999756,5.881389e-10,4.9762994e-09,-0.0022135563,4
655829417,655829209,0.10597645,0.016905976,0.057790272,0.992544,0.99999756,5.881389e-10,4.9762994e-09,-0.0022135563,4
656329240,656329140,0.10863225,0.017649433,0.057909023,0.992237,0.99999756,5.881389e-10,4.9762994e-09,-0.0022135563,4
656829170,656829069,0.11134931,0.01805992,0.05798822,0.99192363,0.99999756,5.881389e-10,4.9762994e-09,-0.0022135563,4
657329102,657328999,0.11394564,0.018465431,0.057725165,0.9916367,0.99999756,5.881389e-10,4.9762994e-09,-0.0022135563,4
657829029,657828928,0.116546206,0.018218763,0.05704956,0.991378,0.99999756,5.881389e-10,4.9762994e-09,-0.0022135563,4
658328958,658328858,0.11909472,0.018229675,0.056577694,0.991102,0.99999756,5.881389e-10,4.9762994e-09,-0.0022135563,4
658828890,658828787,0.121592835,0.018812224,0.05718461,0.9907529,0.99999756,5.881389e-10,4.9762994e-09,-0.0022135563,4
659328816,659328716,0.123867154,0.019279415,0.058653854,0.9903762,0.99999756,5.881389e-10,4.9762994e-09,-0.0022135563,4
659833756,659833645,0.12608422,0.01967677,0.058881633,0.99007505,0.99999756,5.881389e-10,4.9762994e-09,-0.0022135563,4
660328708,660328574,0.12829918,0.019649476,0.05833998,0.98982304,0.99999756,5.881389e-10,4.9762994e-09,-0.0022135563,4
660828625,660828505,0.13052131,0.019163636,0.057767756,0.98957556,0.99999756,5.881389e-10,4.9762994e-09,-0.0022135563,4
661328533,661328431,0.13263088,0.019477999,0.058396664,0.98925203,0.99999756,5.881389e-10,4.9762994e-09,-0.0022135563,4
661828473,661828360,0.13460803,0.020241132,0.05864559,0.98895484,0.99999756,5.881389e-10,4.9762994e-09,-0.0022135563,4
662328390,662328289,0.1365279,0.020389494,0.05839584,0.98870337,0.99999756,5.881389e-10,4.9762994e-09,-0.0022135563,4
662828320,662828217,0.13860194,0.02027194,0.057665057,0.9884601,0.99999756,5.881389e-10,4.9762994e-09,-0.0022135563,4
663333248,663333144,0.14062963,0.020388255,0.057555955,0.9881776,0.99999756,5.881389e-10,4.9762994e-09,-0.0022135563,4
663828175,663828073,0.14242344,0.020515481,0.058167294,0.9878822,0.99999756,5.881389e-10,4.9762994e-09,-0.0022135563,4
664328105,664328001,0.14423764,0.020670291,0.058146454,0.98761696,0.99999756,5.881389e-10,4.9762994e-09,-0.0022135563,4
664828034,664827929,0.1459582,0.021507518,0.057453386,0.9873868,0.99999756,5.881389e-10,4.9762994e-09,-0.0022135563,4
665327965,665327857,0.14717302,0.021774286,0.057000123,0.98722696,0.99999756,5.881389e-10,4.9762994e-09,-0.0022135563,4
665827886,665827784,0.14756419,0.0210889,0.05736581,0.9871623,0.99999756,5.881389e-10,4.9762994e-09,-0.0022135563,4
666332813,666332711,0.14765584,0.0205827,0.058086976,0.98711705,0.99999756,5.881389e-10,4.9762994e-09,-0.0022135563,4
666832742,666832638,0.1475741,0.021497421,0.0584,0.9870913,0.99999756,5.881389e-10,4.9762994e-09,-0.0022135563,4
667327677,667327566,0.14727172,0.021692386,0.057331573,0.9871949,0.99999756,5.881389e-10,4.9762994e-09,-0.0022135563,4
667827611,667827493,0.14700994,0.021128077,0.056604683,0.98728806,0.99999756,5.881389e-10,4.9762994e-09,-0.0022135563,4
668327522,668327420,0.14606155,0.021160886,0.05712863,0.9873979,0.99999756,5.881389e-10,4.9762994e-09,-0.0022135563,4
668832465,668832348,0.14492515,0.021061126,0.058242813,0.98750234,0.99999756,5.881389e-10,4.9762994e-09,-0.0022135563,4
669332377,669332272,0.14405869,0.020778134,0.0578179,0.98766017,0.99999756,5.881389e-10,4.9762994e-09,-0.0022135563,4
669832483,669832199,0.14315817,0.020146256,0.056605753,0.9878744,0.99999756,5.881389e-10,4.9762994e-09,-0.0022135563,4
670332241,670332125,0.14210144,0.02007876,0.056110833,0.9880565,0.99999756,5.881389e-10,4.9762994e-09,-0.0022135563,4
670827154,670827052,0.14110251,0.020211399,0.056616787,0.9881681,0.99999756,5.881389e-10,4.9762994e-09,-0.0022135563,4
671327077,671326978,0.14012584,0.02060805,0.057201207,0.98826516,0.99999756,5.881389e-10,4.9762994e-09,-0.0022135563,4
671827006,671826904,0.13910861,0.020572418,0.056978412,0.9884226,0.99999756,5.881389e-10,4.9762994e-09,-0.0022135563,4
672331968,672331829,0.13819538,0.021140177,0.055961527,0.98859674,0.99999756,5.881389e-10,4.9762994e-09,-0.0022135563,4
672829359,672826756,0.13739882,0.02092853,0.056138445,0.9887022,0.99999756,5.881389e-10,4.9762994e-09,-0.0022135563,4
673331850,673326682,0.13647753,0.02136839,0.056944482,0.9887743,0.99999756,5.881389e-10,4.9762994e-09,-0.0022135563,4
673831710,673831606,0.1356019,0.021789154,0.057188254,0.9888715,0.99999756,5.881389e-10,4.9762994e-09,-0.0022135563,4
674326778,674326532,0.13490996,0.021172548,0.05657042,0.98901504,0.99999756,5.881389e-10,4.9762994e-09,-0.0022135563,4
674826558,674826457,0.13399749,0.020947771,0.056064963,0.9891727,0.99999756,5.881389e-10,4.9762994e-09,-0.0022135563,4
675331488,675331382,0.13315147,0.020949908,0.056589276,0.98925704,0.99999756,5.881389e-10,4.9762994e-09,-0.0022135563,4
675831411,675831306,0.13271655,0.020352805,0.057013612,0.9893036,0.99999756,5.881389e-10,4.9762994e-09,-0.0022135563,4
676331339,676331231,0.13228582,0.019985227,0.05668187,0.9893878,0.99999756,5.881389e-10,4.9762994e-09,-0.0022135563,4
676831259,676831156,0.13172999,0.020690434,0.05591367,0.9894912,0.99999756,5.881389e-10,4.9762994e-09,-0.0022135563,4
677331186,677331080,0.13110873,0.020948203,0.05593445,0.9895671,0.99999756,5.881389e-10,4.9762994e-09,-0.0022135563,4
677831112,677831005,0.13028108,0.020869184,0.056568764,0.9896421,0.99999756,5.881389e-10,4.9762994e-09,-0.0022135563,4
678326031,678325930,0.12943989,0.02010627,0.056665655,0.9897627,0.99999756,5.881389e-10,4.9762994e-09,-0.0022135563,4
678830991,678830853,0.12856773,0.020725517,0.055689465,0.989919,0.99999756,5.881389e-10,4.9762994e-09,-0.0022135563,4
679330896,679330777,0.12773782,0.021175867,0.05519466,0.9900446,0.99999756,5.881389e-10,4.9762994e-09,-0.0022135563,4
679830816,679830701,0.12718235,0.019322947,0.055787068,0.99012077,0.99999756,5.881389e-10,4.9762994e-09,-0.0022135563,4
680330728,680330624,0.12650536,0.017481744,0.05573475,0.9902446,0.99999756,5.881389e-10,4.9762994e-09,-0.0022135563,4
680830654,680830548,0.12580542,0.017738776,0.055242624,0.99035686,0.99999756,5.881389e-10,4.9762994e-09,-0.0022135563,4
681325576,681325472,0.12491928,0.01848989,0.0550628,0.9904653,0.99999756,5.881389e-10,4.9762994e-09,-0.0022135563,4
681830498,681830395,0.124139324,0.019792436,0.054897975,0.99054736,0.99999756,5.881389e-10,4.9762994e-09,-0.0022135563,4
682330453,682330318,0.123538695,0.01995548,0.05484621,0.990622,0.99999756,5.881389e-10,4.9762994e-09,-0.0022135563,4
682830343,682830241,0.12288222,0.019231403,0.05523744,0.99069625,0.99999756,5.881389e-10,4.9762994e-09,-0.0022135563,4
683330326,683330164,0.122052096,0.019387087,0.055500433,0.99078107,0.99999756,5.881389e-10,4.9762994e-09,-0.0022135563,4
683830195,683830087,0.12149075,0.018932303,0.05538824,0.99086523,0.99999756,5.881389e-10,4.9762994e-09,-0.0022135563,4
684330114,684330010,0.120755434,0.019728424,0.054905236,0.99096644,0.99999756,5.881389e-10,4.9762994e-09,-0.0022135563,4
684830033,684829932,0.120051146,0.020172223,0.055416603,0.9910146,0.99999756,5.881389e-10,4.9762994e-09,-0.0022135563,4
685329955,685329854,0.1193212,0.021761566,0.0558822,0.9910429,0.99999756,5.881389e-10,4.9762994e-09,-0.0022135563,4
685829924,685824778,0.118579306,0.022368928,0.055771604,0.9911247,0.99999756,5.881389e-10,4.9762994e-09,-0.0022135563,4
686329802,686329699,0.117905274,0.02185103,0.05553028,0.99123025,0.99999756,5.881389e-10,4.9762994e-09,-0.0022135563,4
686829725,686829621,0.117290765,0.021716973,0.055214215,0.9913237,0.99999756,5.881389e-10,4.9762994e-09,-0.0022135563,4
687329650,687329543,0.11673977,0.020866476,0.055207197,0.9914074,0.99999756,5.881389e-10,4.9762994e-09,-0.0022135563,4
687829572,687829467,0.11597731,0.021444554,0.055697203,0.99145716,0.99999756,5.881389e-10,4.9762994e-09,-0.0022135563,4
688329631,688329387,0.11540654,0.022640212,0.05653104,0.99144995,0.99999756,5.881389e-10,4.9762994e-09,-0.0022135563,4
688829414,688829308,0.11522476,0.0234008,0.056552477,0.9914522,0.99999756,5.881389e-10,4.9762994e-09,-0.0022135563,4
689329336,689329230,0.11480782,0.022622924,0.055950314,0.9915528,0.99999756,5.881389e-10,4.9762994e-09,-0.0022135563,4
689829253,689829151,0.11435176,0.021854315,0.05555349,0.99164504,0.99999756,5.881389e-10,4.9762994e-09,-0.0022135563,4
690329180,690329072,0.11397211,0.022458907,0.05586841,0.9916576,0.99999756,5.881389e-10,4.9762994e-09,-0.0022135563,4
690829094,690828994,0.11358209,0.022425715,0.056964345,0.9916407,0.99999756,5.881389e-10,4.9762994e-09,-0.0022135563,4
691329025,691328916,0.11347429,0.02157577,0.05728465,0.9916535,0.99999756,5.881389e-10,4.9762994e-09,-0.0022135563,4
691828938,691828835,0.11351307,0.021412859,0.05652393,0.99169624,0.99999756,5.881389e-10,4.9762994e-09,-0.0022135563,4
692328861,692328756,0.11343009,0.021301305,0.05625464,0.9917234,0.99999756,5.881389e-10,4.9762994e-09,-0.0022135563,4
692828834,692828677,0.11336723,0.021174032,0.05692243,0.9916953,0.99999756,5.881389e-10,4.9762994e-09,-0.0022135563,4
693328700,693328597,0.11340242,0.021185258,0.057359334,0.9916658,0.99999756,5.881389e-10,4.9762994e-09,-0.0022135563,4
693828622,693828517,0.11331383,0.02180127,0.057259522,0.9916683,0.99999756,5.881389e-10,4.9762994e-09,-0.0022135563,4
694328548,694328437,0.113234386,0.022087468,0.05697786,0.9916873,0.99999756,5.881389e-10,4.9762994e-09,-0.0022135563,4
694833460,694833357,0.113100916,0.0218821,0.05687965,0.9917127,0.99999756,5.881389e-10,4.9762994e-09,-0.0022135563,4
695328388,695328278,0.11293906,0.022134496,0.057007343,0.9917183,0.99999756,5.881389e-10,4.9762994e-09,-0.0022135563,4
695828310,695828198,0.11249889,0.023058204,0.05700977,0.9917471,0.99999756,5.881389e-10,4.9762994e-09,-0.0022135563,4
696328228,696328117,0.11239127,0.023023365,0.05710181,0.99175483,0.99999756,5.881389e-10,4.9762994e-09,-0.0022135563,4
696828145,696828037,0.11215756,0.022755416,0.05681061,0.9918042,0.99999756,5.881389e-10,4.9762994e-09,-0.0022135563,4
697328057,697327956,0.11190643,0.022562772,0.05696682,0.99182796,0.99999756,5.881389e-10,4.9762994e-09,-0.0022135563,4
697832988,697832875,0.111562885,0.022089994,0.05673439,0.9918906,0.99999756,5.881389e-10,4.9762994e-09,-0.0022135563,4
698332893,698332794,0.11130725,0.021926042,0.05631893,0.9919467,0.99999756,5.881389e-10,4.9762994e-09,-0.0022135563,4
698827816,698827714,0.11153895,0.022185791,0.056160808,0.99192387,0.99999756,5.881389e-10,4.9762994e-09,-0.0022135563,4
699327734,699327633,0.112057246,0.022607518,0.056325063,0.99184656,0.99999756,5.881389e-10,4.9762994e-09,-0.0022135563,4
699830156,699827552,0.11267423,0.022419916,0.056091595,0.99179417,0.99999756,5.881389e-10,4.9762994e-09,-0.0022135563,4
700327582,700327471,0.1138744,0.022818506,0.05586101,0.9916611,0.99999756,5.881389e-10,4.9762994e-09,-0.0022135563,4
700832489,700832388,0.11527557,0.02323738,0.055535182,0.9915077,0.99999756,5.881389e-10,4.9762994e-09,-0.0022135563,4
701332410,701332307,0.11696579,0.023248082,0.055806287,0.99129426,0.99999756,5.881389e-10,4.9762994e-09,-0.0022135563,4
701827364,701827226,0.118677765,0.023235384,0.056230567,0.991067,0.99999756,5.881389e-10,4.9762994e-09,-0.0022135563,4
702327404,702327144,0.120344594,0.023204591,0.05616127,0.99087065,0.99999756,5.881389e-10,4.9762994e-09,-0.0022135563,4
702827165,702827062,0.12200648,0.02267586,0.055935312,0.99069244,0.99999756,5.881389e-10,4.9762994e-09,-0.0022135563,4
703327083,703326980,0.12303834,0.022319745,0.055686112,0.990587,0.99999756,5.881389e-10,4.9762994e-09,-0.0022135563,4
703831997,703831897,0.123952,0.022459893,0.055206396,0.9904967,0.99999756,5.881389e-10,4.9762994e-09,-0.0022135563,4
704331916,704331815,0.12542926,0.022794707,0.05534704,0.9902953,0.99999756,5.881389e-10,4.9762994e-09,-0.0022135563,4
704831834,704831733,0.12687622,0.022968262,0.056009214,0.9900696,0.99999756,5.881389e-10,4.9762994e-09,-0.0022135563,4
705331751,705331650,0.12826647,0.023360858,0.056175344,0.98987186,0.99999756,5.881389e-10,4.9762994e-09,-0.0022135563,4
705826673,705826569,0.12977561,0.023563268,0.05626888,0.98966503,0.99999756,5.881389e-10,4.9762994e-09,-0.0022135563,4
706326589,706326486,0.13121633,0.025143458,0.056337815,0.9894323,0.99999756,5.881389e-10,4.9762994e-09,-0.0022135563,4
706831555,706831406,0.13236019,0.025638115,0.056482654,0.98925894,0.99999756,5.881389e-10,4.9762994e-09,-0.0022135563,4
707331421,707331320,0.13288379,0.025568739,0.056401636,0.9891952,0.99999756,5.881389e-10,4.9762994e-09,-0.0022135563,4
707831339,707831237,0.13304846,0.025552906,0.056247048,0.9891822,0.99999756,5.881389e-10,4.9762994e-09,-0.0022135563,4
708331252,708331154,0.13322881,0.025788141,0.05581823,0.9891761,0.99999756,5.881389e-10,4.9762994e-09,-0.0022135563,4
708831170,708831070,0.13321078,0.025343023,0.055376686,0.9892149,0.99999756,5.881389e-10,4.9762994e-09,-0.0022135563,4
709326094,709325988,0.1332186,0.02562631,0.056383472,0.9891497,0.99999756,5.881389e-10,4.9762994e-09,-0.0022135563,4
709831006,709830904,0.13342373,0.023385178,0.056432016,0.9891748,0.99999756,5.881389e-10,4.9762994e-09,-0.0022135563,4
710330924,710330821,0.13335711,0.02275517,0.05682098,0.98917615,0.99999756,5.881389e-10,4.9762994e-09,-0.0022135563,4
710830837,710830737,0.13315688,0.023582622,0.057003442,0.9891733,0.99999756,5.881389e-10,4.9762994e-09,-0.0022135563,4
711330808,711330654,0.13324647,0.023196047,0.057006106,0.98917025,0.99999756,5.881389e-10,4.9762994e-09,-0.0022135563,4
711830679,711830569,0.13286287,0.023568995,0.056133993,0.9892628,0.99999756,5.881389e-10,4.9762994e-09,-0.0022135563,4
712330585,712330485,0.13190854,0.024646917,0.055607077,0.989394,0.99999756,5.881389e-10,4.9762994e-09,-0.0022135563,4
712830526,712830401,0.13102758,0.025047807,0.055628754,0.9894998,0.99999756,5.881389e-10,4.9762994e-09,-0.0022135563,4
713330463,713330317,0.13006864,0.023617066,0.05467439,0.9897147,0.99999756,5.881389e-10,4.9762994e-09,-0.0022135563,4
713830337,713830233,0.12884724,0.023778161,0.054783132,0.9898645,0.99999756,5.881389e-10,4.9762994e-09,-0.0022135563,4
714330251,714330148,0.12795681,0.022901153,0.055271488,0.98997366,0.99999756,5.881389e-10,4.9762994e-09,-0.0022135563,4
714830167,714830064,0.12687685,0.022596793,0.055944636,0.9900817,0.99999756,5.881389e-10,4.9762994e-09,-0.0022135563,4
715330079,715329980,0.12571892,0.02208753,0.05631702,0.9902199,0.99999756,5.881389e-10,4.9762994e-09,-0.0022135563,4
715830002,715829895,0.12470008,0.022044713,0.056250006,0.99035347,0.99999756,5.881389e-10,4.9762994e-09,-0.0022135563,4
716330015,716329810,0.12377844,0.02244896,0.05565994,0.99049324,0.99999756,5.881389e-10,4.9762994e-09,-0.0022135563,4
716829825,716829725,0.12276878,0.021918116,0.055333797,0.9906491,0.99999756,5.881389e-10,4.9762994e-09,-0.0022135563,4
717329742,717329640,0.121781506,0.022160938,0.055191305,0.9907735,0.99999756,5.881389e-10,4.9762994e-09,-0.0022135563,4
717829658,717829555,0.120889775,0.02257757,0.055246416,0.99087024,0.99999756,5.881389e-10,4.9762994e-09,-0.0022135563,4
718329573,718329471,0.11987097,0.022663984,0.055842895,0.99095863,0.99999756,5.881389e-10,4.9762994e-09,-0.0022135563,4
718829488,718829385,0.118905626,0.021427557,0.056400772,0.99107087,0.99999756,5.881389e-10,4.9762994e-09,-0.0022135563,4
719329401,719329300,0.11802363,0.020957645,0.056139965,0.99120104,0.99999756,5.881389e-10,4.9762994e-09,-0.0022135563,4
719829315,719829214,0.11707236,0.021297615,0.055655926,0.9913339,0.99999756,5.881389e-10,4.9762994e-09,-0.0022135563,4
720329245,720329128,0.11602711,0.021466836,0.05539807,0.99146765,0.99999756,5.881389e-10,4.9762994e-09,-0.0022135563,4
720829149,720829043,0.11516734,0.021478044,0.05555642,0.9915588,0.99999756,5.881389e-10,4.9762994e-09,-0.0022135563,4
721329070,721328957,0.114254706,0.021388862,0.055919323,0.9916458,0.99999756,5.881389e-10,4.9762994e-09,-0.0022135563,4
721828978,721828871,0.11329471,0.021503042,0.056246933,0.991735,0.99999756,5.881389e-10,4.9762994e-09,-0.0022135563,4
722328887,722328785,0.11272673,0.020972995,0.056498095,0.9917968,0.99999756,5.881389e-10,4.9762994e-09,-0.0022135563,4
722828799,722828699,0.112102196,0.020713324,0.056158468,0.99189234,0.99999756,5.881389e-10,4.9762994e-09,-0.0022135563,4
723328715,723328613,0.111284226,0.020883812,0.05562404,0.9920109,0.99999756,5.881389e-10,4.9762994e-09,-0.0022135563,4
723828633,723828527,0.110661276,0.021122262,0.05530944,0.99209315,0.99999756,5.881389e-10,4.9762994e-09,-0.0022135563,4
724328543,724328441,0.110051036,0.02096768,0.055519454,0.99215263,0.99999756,5.881389e-10,4.9762994e-09,-0.0022135563,4
724828460,724828354,0.10942186,0.02120686,0.05611208,0.9921838,0.99999756,5.881389e-10,4.9762994e-09,-0.0022135563,4
725328385,725328268,0.10864654,0.021445269,0.056558896,0.9922385,0.99999756,5.881389e-10,4.9762994e-09,-0.0022135563,4
725828454,725828181,0.10785255,0.020762905,0.05697032,0.9923161,0.99999756,5.881389e-10,4.9762994e-09,-0.0022135563,4
726333195,726333093,0.107098065,0.02029014,0.05663792,0.99242663,0.99999756,5.881389e-10,4.9762994e-09,-0.0022135563,4
726828109,726828008,0.10629211,0.02039038,0.05566898,0.992566,0.99999756,5.881389e-10,4.9762994e-09,-0.0022135563,4
727328021,727327921,0.10542704,0.020797499,0.055334173,0.99266857,0.99999756,5.881389e-10,4.9762994e-09,-0.0022135563,4
727827935,727827834,0.10490041,0.021075469,0.05568929,0.99269855,0.99999756,5.881389e-10,4.9762994e-09,-0.0022135563,4
728327847,728327747,0.10426644,0.02075536,0.05638811,0.99273264,0.99999756,5.881389e-10,4.9762994e-09,-0.0022135563,4
728827772,728827660,0.10358571,0.020544702,0.057349227,0.9927533,0.99999756,5.881389e-10,4.9762994e-09,-0.0022135563,4
729332692,729332572,0.10304054,0.020995472,0.05765991,0.99278253,0.99999756,5.881389e-10,4.9762994e-09,-0.0022135563,4
729832589,729832484,0.1024419,0.020711627,0.05683548,0.99289805,0.99999756,5.881389e-10,4.9762994e-09,-0.0022135563,4
730327562,730327398,0.101854116,0.020205531,0.056020778,0.9930152,0.99999756,5.881389e-10,4.9762994e-09,-0.0022135563,4
730827411,730827310,0.10127964,0.020573776,0.055947095,0.9930706,0.99999756,5.881389e-10,4.9762994e-09,-0.0022135563,4
731327327,731327223,0.10083125,0.020432694,0.056320127,0.99309796,0.99999756,5.881389e-10,4.9762994e-09,-0.0022135563,4
731827307,731827137,0.100215785,0.019626245,0.0569363,0.9931414,0.99999756,5.881389e-10,4.9762994e-09,-0.0022135563,4
732332150,732332046,0.099578224,0.020358844,0.05779771,0.99314106,0.99999756,5.881389e-10,4.9762994e-09,-0.0022135563,4
732832061,732831959,0.09909104,0.020475091,0.058058877,0.99317217,0.99999756,5.881389e-10,4.9762994e-09,-0.0022135563,4
733331990,733331871,0.098459885,0.020388175,0.05717997,0.99328774,0.99999756,5.881389e-10,4.9762994e-09,-0.0022135563,4
733826886,733826784,0.09789078,0.020484673,0.056184538,0.9933988,0.99999756,5.881389e-10,4.9762994e-09,-0.0022135563,4
734326798,734326696,0.09751248,0.020105507,0.056148972,0.9934458,0.99999756,5.881389e-10,4.9762994e-09,-0.0022135563,4
734826720,734826608,0.09699684,0.020041728,0.056874804,0.9934562,0.99999756,5.881389e-10,4.9762994e-09,-0.0022135563,4
735331810,735331518,0.096381225,0.020512208,0.05786931,0.99344915,0.99999756,5.881389e-10,4.9762994e-09,-0.0022135563,4
735831533,735831430,0.0959314,0.019992575,0.05841631,0.9934712,0.99999756,5.881389e-10,4.9762994e-09,-0.0022135563,4
736331445,736331342,0.095460154,0.019741626,0.057894222,0.9935522,0.99999756,5.881389e-10,4.9762994e-09,-0.0022135563,4
736831375,736831253,0.09487166,0.019479217,0.056629267,0.9936867,0.99999756,5.881389e-10,4.9762994e-09,-0.0022135563,4
737326266,737326166,0.0943869,0.019779487,0.056042988,0.99376017,0.99999756,5.881389e-10,4.9762994e-09,-0.0022135563,4
737826178,737826077,0.0942939,0.01939361,0.056586687,0.9937457,0.99999756,5.881389e-10,4.9762994e-09,-0.0022135563,4
738331092,738330988,0.0942764,0.018428756,0.057470012,0.9937151,0.99999756,5.881389e-10,4.9762994e-09,-0.0022135563,4
738831004,738830899,0.094418295,0.018146526,0.057332925,0.99371475,0.99999756,5.881389e-10,4.9762994e-09,-0.0022135563,4
739330912,739330810,0.09442589,0.019186245,0.05709918,0.99370795,0.99999756,5.881389e-10,4.9762994e-09,-0.0022135563,4
739830928,739830721,0.09422103,0.020167066,0.056694344,0.9937311,0.99999756,5.881389e-10,4.9762994e-09,-0.0022135563,4
740330756,740330632,0.0940466,0.022218207,0.055828027,0.9937529,0.99999756,5.881389e-10,4.9762994e-09,-0.0022135563,4
740825647,740825544,0.09385055,0.022403661,0.055841073,0.9937666,0.99999756,5.881389e-10,4.9762994e-09,-0.0022135563,4
741330557,741330454,0.09378151,0.022526655,0.056584906,0.9937283,0.99999756,5.881389e-10,4.9762994e-09,-0.0022135563,4
741830494,741830365,0.09373412,0.023151265,0.05712413,0.99368745,0.99999756,5.881389e-10,4.9762994e-09,-0.0022135563,4
742330377,742330275,0.09390933,0.0233933,0.056926172,0.99367666,0.99999756,5.881389e-10,4.9762994e-09,-0.0022135563,4
742830379,742830186,0.093997836,0.022302423,0.056404438,0.9937231,0.99999756,5.881389e-10,4.9762994e-09,-0.0022135563,4
743330200,743330096,0.09398308,0.022405514,0.055863306,0.9937527,0.99999756,5.881389e-10,4.9762994e-09,-0.0022135563,4
743830124,743830007,0.093978375,0.022532031,0.05574433,0.993757,0.99999756,5.881389e-10,4.9762994e-09,-0.0022135563,4
744330022,744329918,0.09400899,0.02264815,0.056029398,0.99373543,0.99999756,5.881389e-10,4.9762994e-09,-0.0022135563,4
744829936,744829828,0.09398908,0.022543652,0.05637466,0.99372023,0.99999756,5.881389e-10,4.9762994e-09,-0.0022135563,4
745329839,745329738,0.09398638,0.02307987,0.05667639,0.9936909,0.99999756,5.881389e-10,4.9762994e-09,-0.0022135563,4
745829752,745829648,0.09404678,0.02283075,0.056570586,0.99369705,0.99999756,5.881389e-10,4.9762994e-09,-0.0022135563,4
746329661,746329558,0.09417536,0.0221028,0.056778785,0.9936895,0.99999756,5.881389e-10,4.9762994e-09,-0.0022135563,4
746829571,746829468,0.094390996,0.021867683,0.05630456,0.99370116,0.99999756,5.881389e-10,4.9762994e-09,-0.0022135563,4
747329483,747329378,0.09463551,0.021570427,0.055945188,0.99370474,0.99999756,5.881389e-10,4.9762994e-09,-0.0022135563,4
747829391,747829288,0.09473888,0.02263601,0.056031756,0.9936663,0.99999756,5.881389e-10,4.9762994e-09,-0.0022135563,4
748329305,748329198,0.09486659,0.022628076,0.056538973,0.9936255,0.99999756,5.881389e-10,4.9762994e-09,-0.0022135563,4
748829217,748829107,0.09498212,0.022449609,0.057319894,0.99357384,0.99999756,5.881389e-10,4.9762994e-09,-0.0022135563,4
749329226,749329017,0.09502552,0.021958245,0.05719647,0.99358773,0.99999756,5.881389e-10,4.9762994e-09,-0.0022135563,4
749829055,749828926,0.0947687,0.021981921,0.056077246,0.99367553,0.99999756,5.881389e-10,4.9762994e-09,-0.0022135563,4
750328938,750328836,0.09452696,0.02225905,0.05485487,0.99376065,0.99999756,5.881389e-10,4.9762994e-09,-0.0022135563,4
750828846,750828745,0.09419768,0.022894325,0.055302154,0.99375266,0.99999756,5.881389e-10,4.9762994e-09,-0.0022135563,4
751328762,751328655,0.09379859,0.022789411,0.05683066,0.99370664,0.99999756,5.881389e-10,4.9762994e-09,-0.0022135563,4
751828665,751828564,0.09354696,0.02246634,0.057865772,0.9936779,0.99999756,5.881389e-10,4.9762994e-09,-0.0022135563,4
752328579,752328473,0.09329179,0.021399718,0.057630703,0.99373907,0.99999756,5.881389e-10,4.9762994e-09,-0.0022135563,4
752828489,752828382,0.0934056,0.020396339,0.056757487,0.9937998,0.99999756,5.881389e-10,4.9762994e-09,-0.0022135563,4
753328396,753328291,0.09369066,0.020490944,0.05585463,0.99382216,0.99999756,5.881389e-10,4.9762994e-09,-0.0022135563,4
753828303,753828201,0.093844205,0.020564448,0.05582875,0.9938077,0.99999756,5.881389e-10,4.9762994e-09,-0.0022135563,4
754333251,754333107,0.09369134,0.02068165,0.056970056,0.99375486,0.99999756,5.881389e-10,4.9762994e-09,-0.0022135563,4
754828121,754828017,0.0935575,0.019867431,0.057647947,0.99374497,0.99999756,5.881389e-10,4.9762994e-09,-0.0022135563,4
755328029,755327926,0.09349714,0.019972904,0.057299346,0.99376875,0.99999756,5.881389e-10,4.9762994e-09,-0.0022135563,4
755827955,755827834,0.09325863,0.019904213,0.056827966,0.9938196,0.99999756,5.881389e-10,4.9762994e-09,-0.0022135563,4
756327844,756327742,0.092936784,0.020132601,0.056678616,0.99385357,0.99999756,5.881389e-10,4.9762994e-09,-0.0022135563,4
756827755,756827651,0.09292745,0.01973351,0.056403693,0.9938782,0.99999756,5.881389e-10,4.9762994e-09,-0.0022135563,4
757332659,757332558,0.09277789,0.019311363,0.056251466,0.99390906,0.99999756,5.881389e-10,4.9762994e-09,-0.0022135563,4
757832568,757832466,0.09260501,0.019539865,0.05652802,0.993905,0.99999756,5.881389e-10,4.9762994e-09,-0.0022135563,4
758327499,758327376,0.0925292,0.019845068,0.05706766,0.99387515,0.99999756,5.881389e-10,4.9762994e-09,-0.0022135563,4
758827502,758827283,0.09239058,0.019818285,0.05748061,0.99386483,0.99999756,5.881389e-10,4.9762994e-09,-0.0022135563,4
759327306,759327192,0.09211498,0.020083768,0.057243485,0.9938987,0.99999756,5.881389e-10,4.9762994e-09,-0.0022135563,4
759827200,759827099,0.09209291,0.018980222,0.05625765,0.9939788,0.99999756,5.881389e-10,4.9762994e-09,-0.0022135563,4
760332108,760332006,0.09197372,0.019116687,0.056096386,0.99399626,0.99999756,5.881389e-10,4.9762994e-09,-0.0022135563,4
760832015,760831914,0.09191694,0.01808556,0.056900743,0.9939751,0.99999756,5.881389e-10,4.9762994e-09,-0.0022135563,4
761331922,761331822,0.09243994,0.018585606,0.0573588,0.99389106,0.99999756,5.881389e-10,4.9762994e-09,-0.0022135563,4
761826838,761826730,0.09306716,0.019328607,0.057271037,0.99382347,0.99999756,5.881389e-10,4.9762994e-09,-0.0022135563,4
762326741,762326637,0.093646325,0.021473361,0.056288194,0.9937811,0.99999756,5.881389e-10,4.9762994e-09,-0.0022135563,4
762826693,762826545,0.09402995,0.021046238,0.056157496,0.9937614,0.99999756,5.881389e-10,4.9762994e-09,-0.0022135563,4
763331554,763331451,0.09412789,0.021474997,0.056855332,0.9937033,0.99999756,5.881389e-10,4.9762994e-09,-0.0022135563,4
763831465,763831359,0.094214134,0.02189547,0.05716057,0.9936685,0.99999756,5.881389e-10,4.9762994e-09,-0.0022135563,4
764331367,764331265,0.09395024,0.022509316,0.057730906,0.9936468,0.99999756,5.881389e-10,4.9762994e-09,-0.0022135563,4
764831273,764831173,0.09373425,0.02232974,0.05695087,0.99371624,0.99999756,5.881389e-10,4.9762994e-09,-0.0022135563,4
765326184,765326081,0.093719706,0.021484291,0.056452796,0.99376464,0.99999756,5.881389e-10,4.9762994e-09,-0.0022135563,4
765826121,765825987,0.09366546,0.021543885,0.05662999,0.9937584,0.99999756,5.881389e-10,4.9762994e-09,-0.0022135563,4
766330995,766330894,0.093577825,0.021135494,0.057317324,0.993736,0.99999756,5.881389e-10,4.9762994e-09,-0.0022135563,4
766830904,766830800,0.093196236,0.022029456,0.057754748,0.9937271,0.99999756,5.881389e-10,4.9762994e-09,-0.0022135563,4
767330809,767330707,0.09284204,0.02216372,0.05699492,0.9938012,0.99999756,5.881389e-10,4.9762994e-09,-0.0022135563,4
767830715,767830614,0.09263915,0.021990474,0.056540236,0.9938499,0.99999756,5.881389e-10,4.9762994e-09,-0.0022135563,4
768330733,768330520,0.09250081,0.021642607,0.056754246,0.9938583,0.99999756,5.881389e-10,4.9762994e-09,-0.0022135563,4
768830531,768830430,0.092254974,0.021802459,0.057510756,0.99383414,0.99999756,5.881389e-10,4.9762994e-09,-0.0022135563,4
769330455,769330333,0.09223688,0.021926302,0.05770232,0.993822,0.99999756,5.881389e-10,4.9762994e-09,-0.0022135563,4
769830341,769830240,0.092356324,0.021666812,0.057391513,0.99383456,0.99999756,5.881389e-10,4.9762994e-09,-0.0022135563,4
770330247,770330146,0.09227314,0.021602744,0.057290833,0.9938495,0.99999756,5.881389e-10,4.9762994e-09,-0.0022135563,4
770830154,770830052,0.09219532,0.021236138,0.057337806,0.9938619,0.99999756,5.881389e-10,4.9762994e-09,-0.0022135563,4
771330059,771329958,0.092214,0.021134598,0.05747165,0.99385464,0.99999756,5.881389e-10,4.9762994e-09,-0.0022135563,4
771830021,771829864,0.09199716,0.02139782,0.057548355,0.9938646,0.99999756,5.881389e-10,4.9762994e-09,-0.0022135563,4
772329873,772329770,0.09194081,0.021055358,0.057085827,0.9939039,0.99999756,5.881389e-10,4.9762994e-09,-0.0022135563,4
772829775,772829676,0.09216397,0.020443305,0.057346158,0.993881,0.99999756,5.881389e-10,4.9762994e-09,-0.0022135563,4
773329689,773329582,0.09223506,0.020985618,0.05782987,0.993835,0.99999756,5.881389e-10,4.9762994e-09,-0.0022135563,4
773829588,773829487,0.09220816,0.021373888,0.05809731,0.9938137,0.99999756,5.881389e-10,4.9762994e-09,-0.0022135563,4
774329495,774329393,0.092381425,0.02163064,0.05796741,0.9937996,0.99999756,5.881389e-10,4.9762994e-09,-0.0022135563,4
774829450,774829299,0.09247325,0.021638501,0.057551805,0.99381506,0.99999756,5.881389e-10,4.9762994e-09,-0.0022135563,4
775329303,775329204,0.09253728,0.021404466,0.057608686,0.9938109,0.99999756,5.881389e-10,4.9762994e-09,-0.0022135563,4
775829213,775829110,0.09267094,0.022125183,0.05782499,0.99377,0.99999756,5.881389e-10,4.9762994e-09,-0.0022135563,4
776329115,776329015,0.09275551,0.022691563,0.057761043,0.99375314,0.99999756,5.881389e-10,4.9762994e-09,-0.0022135563,4
776829020,776828921,0.09272709,0.02252342,0.05753124,0.993773,0.99999756,5.881389e-10,4.9762994e-09,-0.0022135563,4
777331428,777328826,0.09290534,0.02255636,0.05702497,0.99378467,0.99999756,5.881389e-10,4.9762994e-09,-0.0022135563,4
777828930,777828731,0.09309443,0.022363864,0.057488274,0.9937447,0.99999756,5.881389e-10,4.9762994e-09,-0.0022135563,4
778328741,778328636,0.09309462,0.022752078,0.057725277,0.99372214,0.99999756,5.881389e-10,4.9762994e-09,-0.0022135563,4
778828645,778828541,0.09320645,0.02295462,0.057488926,0.99372065,0.99999756,5.881389e-10,4.9762994e-09,-0.0022135563,4
779328549,779328446,0.09343834,0.022655163,0.057022404,0.99373263,0.99999756,5.881389e-10,4.9762994e-09,-0.0022135563,4
779828452,779828351,0.093680575,0.022357732,0.056698248,0.99373513,0.99999756,5.881389e-10,4.9762994e-09,-0.0022135563,4
780328355,780328256,0.09381588,0.022386268,0.05689917,0.9937102,0.99999756,5.881389e-10,4.9762994e-09,-0.0022135563,4
780828270,780828161,0.09397076,0.022914186,0.057155948,0.99366885,0.99999756,5.881389e-10,4.9762994e-09,-0.0022135563,4
781328168,781328065,0.09423989,0.022545783,0.05664291,0.99368113,0.99999756,5.881389e-10,4.9762994e-09,-0.0022135563,4
781828075,781827970,0.09442305,0.02279868,0.056572504,0.99366194,0.99999756,5.881389e-10,4.9762994e-09,-0.0022135563,4
782332979,782332874,0.09487737,0.023028024,0.05657122,0.9936135,0.99999756,5.881389e-10,4.9762994e-09,-0.0022135563,4
782827932,782827779,0.09511547,0.023619791,0.05664411,0.99357265,0.99999756,5.881389e-10,4.9762994e-09,-0.0022135563,4
783327784,783327683,0.09549445,0.023401923,0.056620944,0.9935428,0.99999756,5.881389e-10,4.9762994e-09,-0.0022135563,4
783827693,783827588,0.09594644,0.023527963,0.056894887,0.99348056,0.99999756,5.881389e-10,4.9762994e-09,-0.0022135563,4
784327593,784327492,0.096360184,0.02358732,0.056872543,0.99344045,0.99999756,5.881389e-10,4.9762994e-09,-0.0022135563,4
784832497,784832396,0.096673824,0.023808716,0.056970917,0.9933991,0.99999756,5.881389e-10,4.9762994e-09,-0.0022135563,4
785332401,785332300,0.09708239,0.023580447,0.057053227,0.9933599,0.99999756,5.881389e-10,4.9762994e-09,-0.0022135563,4
785832307,785832204,0.0975199,0.023505135,0.05701299,0.99332124,0.99999756,5.881389e-10,4.9762994e-09,-0.0022135563,4
786327239,786327109,0.09771696,0.023561526,0.056917503,0.993306,0.99999756,5.881389e-10,4.9762994e-09,-0.0022135563,4
786827115,786827013,0.0979434,0.023754649,0.056615695,0.9932963,0.99999756,5.881389e-10,4.9762994e-09,-0.0022135563,4
787327102,787326917,0.09829483,0.023900418,0.05672735,0.99325174,0.99999756,5.881389e-10,4.9762994e-09,-0.0022135563,4
787831928,787831820,0.098584205,0.024117816,0.05669371,0.9932197,0.99999756,5.881389e-10,4.9762994e-09,-0.0022135563,4
788331840,788331723,0.09890656,0.024356673,0.056497544,0.993193,0.99999756,5.881389e-10,4.9762994e-09,-0.0022135563,4
788831732,788831627,0.09932144,0.023692602,0.056585103,0.99316263,0.99999756,5.881389e-10,4.9762994e-09,-0.0022135563,4
789331635,789331531,0.09956749,0.023421433,0.056806166,0.9931318,0.99999756,5.881389e-10,4.9762994e-09,-0.0022135563,4
789826565,789826435,0.0997285,0.023159336,0.056762837,0.9931243,0.99999756,5.881389e-10,4.9762994e-09,-0.0022135563,4
790326443,790326339,0.10004846,0.02265366,0.056865774,0.9930979,0.99999756,5.881389e-10,4.9762994e-09,-0.0022135563,4
790831342,790831241,0.10042443,0.022797128,0.056554753,0.9930745,0.99999756,5.881389e-10,4.9762994e-09,-0.0022135563,4
