timestamp,data_rate,rate_multiplier,tx_rate_avg,tx_error_rate_avg,tx_message_count,tx_buffer_overruns,rx_rate_avg,rx_message_count,rx_message_lost_count,rx_buffer_overruns,rx_parse_errors,rx_packet_drop_count,rx_message_lost_rate,type,mode,flow_control,forwarding,mavlink_v2,ftp,streams,heartbeat_type_antenna_tracker,heartbeat_type_gcs,heartbeat_type_onboard_controller,heartbeat_type_gimbal,heartbeat_type_adsb,heartbeat_type_camera,heartbeat_type_parachute,heartbeat_component_telemetry_radio,heartbeat_component_log,heartbeat_component_osd,heartbeat_component_obstacle_avoidance,heartbeat_component_vio,heartbeat_component_pairing_manager,heartbeat_component_udp_bridge,heartbeat_component_uart_bridge,avoidance_system_healthy,parachute_system_healthy
539875287,1200.0,0.63944364,992.999,0.0,14427,0,33.99997,1033,97,0,0,150,0.09390126,0,0,1,1,0,1,48,0,1,0,0,0,0,0,0,0,0,0,0,0,0,0,0,0
540884728,1200.0,0.63944364,1033.9321,0.0,14449,0,33.932137,1035,97,0,0,150,0.09371981,0,0,1,1,0,1,48,0,1,0,0,0,0,0,0,0,0,0,0,0,0,0,0,0
541805696,1200.0,0.63944364,786.95355,0.0,14476,0,55.996696,1038,97,0,0,150,0.09344894,0,0,1,1,0,1,48,0,1,0,0,0,0,0,0,0,0,0,0,0,0,0,0,0
542857711,1200.0,0.63944364,1102.6545,0.0,14498,0,33.866535,1040,97,0,0,150,0.09326923,0,0,1,1,0,1,48,0,1,0,0,0,0,0,0,0,0,0,0,0,0,0,0,0
543888108,1200.0,0.63944364,785.42914,0.0,14527,0,33.932137,1042,97,0,0,150,0.093090214,0,0,1,1,0,1,48,0,1,0,0,0,0,0,0,0,0,0,0,0,0,0,0,0
544939696,1200.0,0.63944364,915.67456,0.0,14556,0,33.73016,1044,97,0,0,150,0.09291188,0,0,1,1,0,1,48,0,1,0,0,0,0,0,0,0,0,0,0,0,0,0,0,0
545849696,1200.0,0.63944364,1053.946,0.0,14576,0,33.966034,1046,97,0,0,150,0.092734225,0,0,1,1,0,1,48,0,1,0,0,0,0,0,0,0,0,0,0,0,0,0,0,0
546890740,1200.0,0.63944364,757.4257,0.0,14603,0,33.66337,1048,97,0,0,152,0.09255725,0,0,1,1,0,1,48,0,1,0,0,0,0,0,0,0,0,0,0,0,0,0,0,0
547945696,1200.0,0.63944364,1024.9004,0.0,14633,0,33.864544,1050,97,0,0,154,0.092380956,0,0,1,1,0,1,48,0,1,0,0,0,0,0,0,0,0,0,0,0,0,0,0,0
548872696,1200.0,0.63944364,1024.9266,0.0,14654,0,33.93136,1052,97,0,0,154,0.09220532,0,0,1,1,0,1,48,0,1,0,0,0,0,0,0,0,0,0,0,0,0,0,0,0
549888698,1200.0,0.63944364,787.5056,0.0,14679,0,33.764427,1054,97,0,0,154,0.09203036,0,0,1,1,0,1,48,0,1,0,0,0,0,0,0,0,0,0,0,0,0,0,0,0
550946717,1200.0,0.63944364,909.5437,0.0,14710,0,33.797253,1057,97,0,0,154,0.09176916,0,0,1,1,0,1,48,0,1,0,0,0,0,0,0,0,0,0,0,0,0,0,0,0
551860696,1200.0,0.63944364,1068.4513,0.0,14729,0,55.555504,1059,97,0,0,154,0.09159584,0,0,1,1,0,1,48,0,1,0,0,0,0,0,0,0,0,0,0,0,0,0,0,0
552888695,1200.0,0.63944364,873.754,0.0,14758,0,33.797085,1061,97,0,0,156,0.09142318,0,0,1,1,0,1,48,0,1,0,0,0,0,0,0,0,0,0,0,0,0,0,0,0
553954558,1200.0,0.63944364,909.5464,0.0,14784,0,33.79735,1063,97,0,0,156,0.09125118,0,0,1,1,0,1,48,0,1,0,0,0,0,0,0,0,0,0,0,0,0,0,0,0
554872696,1200.0,0.63944364,1037.3219,0.0,14806,0,33.43028,1065,97,0,0,156,0.09107981,0,0,1,1,0,1,48,0,1,0,0,0,0,0,0,0,0,0,0,0,0,0,0,0
555889739,1200.0,0.63944364,759.2457,0.0,14833,0,33.744255,1067,97,0,0,156,0.09090909,0,0,1,1,0,1,48,0,1,0,0,0,0,0,0,0,0,0,0,0,0,0,0,0
556943018,1200.0,0.63944364,1019.3822,0.0,14856,0,33.68221,1069,97,0,0,156,0.09073901,0,0,1,1,0,1,48,0,1,0,0,0,0,0,0,0,0,0,0,0,0,0,0,0
557868711,1200.0,0.63944364,747.56696,0.0,14882,0,33.665264,1071,97,0,0,156,0.09056956,0,0,1,1,0,1,48,0,1,0,0,0,0,0,0,0,0,0,0,0,0,0,0,0
558888698,1200.0,0.63944364,1055.5006,0.0,14910,0,33.69673,1073,97,0,0,158,0.09040075,0,0,1,1,0,1,48,0,1,0,0,0,0,0,0,0,0,0,0,0,0,0,0,0
559938696,1200.0,0.63944364,976.1251,0.0,14933,0,33.76221,1075,97,0,0,158,0.09023256,0,0,1,1,0,1,48,0,1,0,0,0,0,0,0,0,0,0,0,0,0,0,0,0
560867696,1200.0,0.63944364,804.98395,0.0,14961,0,33.664764,1078,97,0,0,158,0.089981444,0,0,1,1,0,1,48,0,1,0,0,0,0,0,0,0,0,0,0,0,0,0,0,0
561883805,1200.0,0.63944364,1075.7727,0.0,14987,0,55.8325,1080,97,0,0,158,0.08981481,0,0,1,1,0,1,48,0,1,0,0,0,0,0,0,0,0,0,0,0,0,0,0,0
562968764,1200.0,0.63944364,908.4577,0.0,15012,0,33.830845,1082,97,0,0,158,0.0896488,0,0,1,1,0,1,48,0,1,0,0,0,0,0,0,0,0,0,0,0,0,0,0,0
563960750,1200.0,0.63944364,791.4172,0.0,15039,0,33.932137,1084,97,0,0,158,0.089483395,0,0,1,1,0,1,48,0,1,0,0,0,0,0,0,0,0,0,0,0,0,0,0,0
565009695,1200.0,0.63944364,1054.8903,0.0,15066,0,33.932137,1086,97,0,0,158,0.0893186,0,0,1,1,0,1,48,0,1,0,0,0,0,0,0,0,0,0,0,0,0,0,0,0
565940696,1200.0,0.63944364,987.1542,0.0,15086,0,33.59684,1088,97,0,0,158,0.089154415,0,0,1,1,0,1,48,0,1,0,0,0,0,0,0,0,0,0,0,0,0,0,0,0
566961741,1200.0,0.63944364,785.11664,0.0,15117,0,33.662,1090,97,0,0,158,0.08899082,0,0,1,1,0,1,48,0,1,0,0,0,0,0,0,0,0,0,0,0,0,0,0,0
568029225,1200.0,0.63944364,1019.863,0.0,15144,0,33.698097,1092,97,0,0,158,0.08882784,0,0,1,1,0,1,48,0,1,0,0,0,0,0,0,0,0,0,0,0,0,0,0,0
568951697,1200.0,0.63944364,934.4597,0.0,15163,0,33.763687,1094,97,0,0,160,0.08866545,0,0,1,1,0,1,48,0,1,0,0,0,0,0,0,0,0,0,0,0,0,0,0,0
569965697,1200.0,0.63944364,762.7111,0.0,15192,0,33.898273,1096,97,0,0,160,0.08850365,0,0,1,1,0,1,48,0,1,0,0,0,0,0,0,0,0,0,0,0,0,0,0,0
571017007,1200.0,0.63944364,1134.658,0.0,15217,0,33.751858,1099,97,0,0,160,0.08826206,0,0,1,1,0,1,48,0,1,0,0,0,0,0,0,0,0,0,0,0,0,0,0,0
572038696,1200.0,0.63944364,955.6501,0.0,15243,0,55.57259,1101,97,0,0,160,0.08810172,0,0,1,1,0,1,48,0,1,0,0,0,0,0,0,0,0,0,0,0,0,0,0,0
572966078,1200.0,0.63944364,763.5066,0.0,15270,0,33.933628,1103,97,0,0,160,0.087941974,0,0,1,1,0,1,48,0,1,0,0,0,0,0,0,0,0,0,0,0,0,0,0,0
574007696,1200.0,0.63944364,1017.9452,0.0,15292,0,33.898273,1105,97,0,0,160,0.08778281,0,0,1,1,0,1,48,0,1,0,0,0,0,0,0,0,0,0,0,0,0,0,0,0
575042045,1200.0,0.63944364,867.7932,0.0,15320,0,33.797215,1107,97,0,0,160,0.08762421,0,0,1,1,0,1,48,0,1,0,0,0,0,0,0,0,0,0,0,0,0,0,0,0
575959697,1200.0,0.63944364,952.3157,0.0,15346,0,33.763016,1109,97,0,0,160,0.08746619,0,0,1,1,0,1,48,0,1,0,0,0,0,0,0,0,0,0,0,0,0,0,0,0
577112979,1200.0,0.63944364,983.1535,0.0,15372,0,33.730797,1111,97,0,0,162,0.08730873,0,0,1,1,0,1,48,0,1,0,0,0,0,0,0,0,0,0,0,0,0,0,0,0
578038698,1200.0,0.63944364,785.1485,0.0,15396,0,33.66337,1113,97,0,0,162,0.08715184,0,0,1,1,0,1,48,0,1,0,0,0,0,0,0,0,0,0,0,0,0,0,0,0
579139728,1200.0,0.63944364,973.1398,0.0,15426,0,33.79648,1115,97,0,0,162,0.08699551,0,0,1,1,0,1,48,0,1,0,0,0,0,0,0,0,0,0,0,0,0,0,0,0
580021696,1200.0,0.63944364,1072.1411,0.0,15445,0,33.846607,1117,97,0,0,162,0.08683975,0,0,1,1,0,1,48,0,1,0,0,0,0,0,0,0,0,0,0,0,0,0,0,0
581045734,1200.0,0.63944364,790.2302,0.0,15475,0,33.881245,1120,97,0,0,164,0.08660714,0,0,1,1,0,1,48,0,1,0,0,0,0,0,0,0,0,0,0,0,0,0,0,0
582103279,1200.0,0.63944364,972.06,0.0,15501,0,55.9459,1122,97,0,0,166,0.08645276,0,0,1,1,0,1,48,0,1,0,0,0,0,0,0,0,0,0,0,0,0,0,0,0
583031695,1200.0,0.63944364,1008.9378,0.0,15523,0,33.664265,1124,97,0,0,166,0.086298935,0,0,1,1,0,1,48,0,1,0,0,0,0,0,0,0,0,0,0,0,0,0,0,0
584041085,1200.0,0.63944364,761.9514,0.0,15550,0,33.864506,1126,97,0,0,166,0.08614565,0,0,1,1,0,1,48,0,1,0,0,0,0,0,0,0,0,0,0,0,0,0,0,0
585096066,1200.0,0.63944364,1062.8743,0.0,15573,0,33.932137,1128,97,0,0,166,0.08599291,0,0,1,1,0,1,48,0,1,0,0,0,0,0,0,0,0,0,0,0,0,0,0,0
586024696,1200.0,0.63944364,717.56055,0.0,15599,0,33.93193,1130,97,0,0,166,0.08584071,0,0,1,1,0,1,48,0,1,0,0,0,0,0,0,0,0,0,0,0,0,0,0,0
587045737,1200.0,0.63944364,1062.8806,0.0,15627,0,33.93234,1132,97,0,0,166,0.085689045,0,0,1,1,0,1,48,0,1,0,0,0,0,0,0,0,0,0,0,0,0,0,0,0
588095696,1200.0,0.63944364,935.51495,0.0,15649,0,33.730125,1134,97,0,0,166,0.08553792,0,0,1,1,0,1,48,0,1,0,0,0,0,0,0,0,0,0,0,0,0,0,0,0
589014696,1200.0,0.63944364,802.5191,0.0,15676,0,33.561684,1136,97,0,0,166,0.08538733,0,0,1,1,0,1,48,0,1,0,0,0,0,0,0,0,0,0,0,0,0,0,0,0
590041717,1200.0,0.63944364,1047.6351,0.0,15703,0,33.698765,1138,97,0,0,166,0.08523726,0,0,1,1,0,1,48,0,1,0,0,0,0,0,0,0,0,0,0,0,0,0,0,0
591121696,1200.0,0.63944364,942.38257,0.0,15729,0,33.762917,1141,97,0,0,166,0.08501314,0,0,1,1,0,1,48,0,1,0,0,0,0,0,0,0,0,0,0,0,0,0,0,0
592019805,1200.0,0.63944364,813.3246,0.0,15755,0,55.61194,1143,97,0,0,166,0.08486439,0,0,1,1,0,1,48,0,1,0,0,0,0,0,0,0,0,0,0,0,0,0,0,0
593048235,1200.0,0.63944364,1109.8713,0.0,15781,0,33.965458,1145,97,0,0,166,0.084716156,0,0,1,1,0,1,48,0,1,0,0,0,0,0,0,0,0,0,0,0,0,0,0,0
594102797,1200.0,0.63944364,839.81604,0.0,15804,0,33.83145,1147,97,0,0,166,0.08456844,0,0,1,1,0,1,48,0,1,0,0,0,0,0,0,0,0,0,0,0,0,0,0,0
595017784,1200.0,0.63944364,889.88007,0.0,15832,0,33.730125,1149,97,0,0,166,0.08442123,0,0,1,1,0,1,48,0,1,0,0,0,0,0,0,0,0,0,0,0,0,0,0,0
596046366,1200.0,0.63944364,1116.7665,0.0,15856,0,33.932137,1151,97,0,0,166,0.084274545,0,0,1,1,0,1,48,0,1,0,0,0,0,0,0,0,0,0,0,0,0,0,0,0
597097696,1200.0,0.63944364,981.09454,0.0,15885,0,33.830845,1153,97,0,0,166,0.08412836,0,0,1,1,0,1,48,0,1,0,0,0,0,0,0,0,0,0,0,0,0,0,0,0
598020776,1200.0,0.63944364,922.4661,0.0,15914,0,33.797253,1155,97,0,0,166,0.08398268,0,0,1,1,0,1,48,0,1,0,0,0,0,0,0,0,0,0,0,0,0,0,0,0
599042770,1200.0,0.63944364,1182.0625,0.0,15937,0,33.83007,1157,97,0,0,166,0.08383751,0,0,1,1,0,1,48,0,1,0,0,0,0,0,0,0,0,0,0,0,0,0,0,0
600097720,1200.0,0.63944364,1027.9388,0.0,15966,0,33.899048,1159,97,0,0,166,0.08369284,0,0,1,1,0,1,48,0,1,0,0,0,0,0,0,0,0,0,0,0,0,0,0,0
601116695,1200.0,0.63944364,809.1908,0.0,15998,0,33.966034,1162,97,0,0,166,0.08347677,0,0,1,1,0,1,48,0,1,0,0,0,0,0,0,0,0,0,0,0,0,0,0,0
602043732,1200.0,0.63944364,1085.8044,0.0,16019,0,55.886993,1164,97,0,0,166,0.083333336,0,0,1,1,0,1,48,0,1,0,0,0,0,0,0,0,0,0,0,0,0,0,0,0
603107695,1200.0,0.63944364,913.79596,0.0,16048,0,33.697464,1166,97,0,0,166,0.0831904,0,0,1,1,0,1,48,0,1,0,0,0,0,0,0,0,0,0,0,0,0,0,0,0
604053696,1200.0,0.63944364,1012.8713,0.0,16077,0,33.66337,1168,97,0,0,166,0.08304795,0,0,1,1,0,1,48,0,1,0,0,0,0,0,0,0,0,0,0,0,0,0,0,0
605042738,1200.0,0.63944364,1027.7777,0.0,16098,0,33.73016,1170,97,0,0,168,0.082905985,0,0,1,1,0,1,48,0,1,0,0,0,0,0,0,0,0,0,0,0,0,0,0,0
606105795,1200.0,0.63944364,837.1628,0.0,16130,0,33.966034,1172,97,0,0,168,0.08276451,0,0,1,1,0,1,48,0,1,0,0,0,0,0,0,0,0,0,0,0,0,0,0,0
607128794,1200.0,0.63944364,1098.0198,0.0,16157,0,33.66337,1174,97,0,0,168,0.08262351,0,0,1,1,0,1,48,0,1,0,0,0,0,0,0,0,0,0,0,0,0,0,0,0
608171712,1200.0,0.63944364,1114.2007,0.0,16182,0,33.763657,1176,97,0,0,170,0.08248299,0,0,1,1,0,1,48,0,1,0,0,0,0,0,0,0,0,0,0,0,0,0,0,0
609097695,1200.0,0.63944364,830.5253,0.0,16209,0,33.69673,1178,97,0,0,170,0.08234295,0,0,1,1,0,1,48,0,1,0,0,0,0,0,0,0,0,0,0,0,0,0,0,0
610120101,1200.0,0.63944364,1033.6908,0.0,16233,0,33.761272,1180,97,0,0,170,0.08220339,0,0,1,1,0,1,48,0,1,0,0,0,0,0,0,0,0,0,0,0,0,0,0,0
611177744,1200.0,0.63944364,1063.0125,0.0,16264,0,33.968445,1183,97,0,0,172,0.08199493,0,0,1,1,0,1,48,0,1,0,0,0,0,0,0,0,0,0,0,0,0,0,0,0
612104764,1200.0,0.63944364,827.0377,0.0,16290,0,55.666,1185,97,0,0,174,0.08185654,0,0,1,1,0,1,48,0,1,0,0,0,0,0,0,0,0,0,0,0,0,0,0,0
613118702,1200.0,0.63944364,1106.6799,0.0,16313,0,33.898304,1187,97,0,0,174,0.081718616,0,0,1,1,0,1,48,0,1,0,0,0,0,0,0,0,0,0,0,0,0,0,0,0
614174876,1200.0,0.63944364,947.3171,0.0,16345,0,33.17073,1189,97,0,0,174,0.08158116,0,0,1,1,0,1,48,0,1,0,0,0,0,0,0,0,0,0,0,0,0,0,0,0
615084844,1200.0,0.63944364,1057.5397,0.0,16371,0,33.73016,1191,97,0,0,176,0.08144417,0,0,1,1,0,1,48,0,1,0,0,0,0,0,0,0,0,0,0,0,0,0,0,0
616122700,1200.0,0.63944364,1018.8976,0.0,16398,0,33.963253,1193,97,0,0,176,0.08130763,0,0,1,1,0,1,48,0,1,0,0,0,0,0,0,0,0,0,0,0,0,0,0,0
617180718,1200.0,0.63944364,1019.04553,0.0,16429,0,33.934914,1195,97,0,0,176,0.08117155,0,0,1,1,0,1,48,0,1,0,0,0,0,0,0,0,0,0,0,0,0,0,0,0
618116755,1200.0,0.63944364,1055.7214,0.0,16452,0,33.830845,1197,97,0,0,178,0.08103592,0,0,1,1,0,1,48,0,1,0,0,0,0,0,0,0,0,0,0,0,0,0,0,0
619120867,1200.0,0.63944364,828.525,0.0,16473,0,33.695995,1199,97,0,0,178,0.08090075,0,0,1,1,0,1,48,0,1,0,0,0,0,0,0,0,0,0,0,0,0,0,0,0
620178696,1200.0,0.63944364,816.5683,0.0,16505,0,33.899048,1201,97,0,0,180,0.08076603,0,0,1,1,0,1,48,0,1,0,0,0,0,0,0,0,0,0,0,0,0,0,0,0
621116696,1200.0,0.63944364,1141.2697,0.0,16528,0,33.83014,1204,97,0,0,180,0.08056478,0,0,1,1,0,1,48,0,1,0,0,0,0,0,0,0,0,0,0,0,0,0,0,0
622120739,1200.0,0.63944364,1057.5616,0.0,16555,0,55.55671,1206,97,0,0,180,0.08043118,0,0,1,1,0,1,48,0,1,0,0,0,0,0,0,0,0,0,0,0,0,0,0,0
623168986,1200.0,0.63944364,781.5293,0.0,16583,0,33.763657,1208,97,0,0,180,0.080298014,0,0,1,1,0,1,48,0,1,0,0,0,0,0,0,0,0,0,0,0,0,0,0,0
624082916,1200.0,0.63944364,963.9105,0.0,16600,0,33.821423,1210,97,0,0,182,0.08016529,0,0,1,1,0,1,48,0,1,0,0,0,0,0,0,0,0,0,0,0,0,0,0,0
625115696,1200.0,0.63944364,831.24615,0.0,16626,0,33.80666,1212,97,0,0,182,0.080033004,0,0,1,1,0,1,48,0,1,0,0,0,0,0,0,0,0,0,0,0,0,0,0,0
626177766,1200.0,0.63944364,720.9899,0.0,16653,0,33.858643,1214,97,0,0,184,0.07990115,0,0,1,1,0,1,48,0,1,0,0,0,0,0,0,0,0,0,0,0,0,0,0,0
627101712,1200.0,0.63944364,879.35944,0.0,16672,0,33.66917,1216,97,0,0,184,0.07976974,0,0,1,1,0,1,48,0,1,0,0,0,0,0,0,0,0,0,0,0,0,0,0,0
628115697,1200.0,0.63944364,912.4378,0.0,16696,0,33.830845,1218,97,0,0,184,0.07963875,0,0,1,1,0,1,48,0,1,0,0,0,0,0,0,0,0,0,0,0,0,0,0,0
629193715,1200.0,0.63944364,658.66815,0.0,16725,0,33.93139,1220,97,0,0,184,0.0795082,0,0,1,1,0,1,48,0,1,0,0,0,0,0,0,0,0,0,0,0,0,0,0,0
630096697,1200.0,0.63944364,915.10504,0.0,16741,0,33.96678,1222,97,0,0,184,0.07937807,0,0,1,1,0,1,48,0,1,0,0,0,0,0,0,0,0,0,0,0,0,0,0,0
631121697,1200.0,0.63944364,756.94446,0.0,16768,0,33.73016,1225,97,0,0,184,0.079183675,0,0,1,1,0,1,48,0,1,0,0,0,0,0,0,0,0,0,0,0,0,0,0,0
632198095,1200.0,0.63944364,830.1895,0.0,16796,0,55.61078,1227,97,0,0,184,0.0790546,0,0,1,1,0,1,48,0,1,0,0,0,0,0,0,0,0,0,0,0,0,0,0,0
633098728,1200.0,0.63944364,908.42865,0.0,16813,0,33.79275,1229,97,0,0,184,0.07892596,0,0,1,1,0,1,48,0,1,0,0,0,0,0,0,0,0,0,0,0,0,0,0,0
634114776,1200.0,0.63944364,656.8027,0.0,16839,0,33.83529,1231,97,0,0,186,0.07879773,0,0,1,1,0,1,48,0,1,0,0,0,0,0,0,0,0,0,0,0,0,0,0,0
635182051,1200.0,0.63944364,917.1657,0.0,16859,0,33.932137,1233,97,0,0,186,0.07866991,0,0,1,1,0,1,48,0,1,0,0,0,0,0,0,0,0,0,0,0,0,0,0,0
636110719,1200.0,0.63944364,916.501,0.0,16885,0,33.797215,1235,97,0,0,186,0.07854251,0,0,1,1,0,1,48,0,1,0,0,0,0,0,0,0,0,0,0,0,0,0,0,0
637114718,1200.0,0.63944364,685.9429,0.0,16909,0,33.898342,1237,97,0,0,186,0.07841552,0,0,1,1,0,1,48,0,1,0,0,0,0,0,0,0,0,0,0,0,0,0,0,0
638164696,1200.0,0.63944364,890.54645,0.0,16930,0,33.830814,1239,97,0,0,186,0.07828894,0,0,1,1,0,1,48,0,1,0,0,0,0,0,0,0,0,0,0,0,0,0,0,0
639099697,1200.0,0.63944364,942.065,0.0,16956,0,33.71601,1241,97,0,0,186,0.078162774,0,0,1,1,0,1,48,0,1,0,0,0,0,0,0,0,0,0,0,0,0,0,0,0
640122717,1200.0,0.63944364,722.10596,0.0,16981,0,33.911053,1243,97,0,0,188,0.07803701,0,0,1,1,0,1,48,0,1,0,0,0,0,0,0,0,0,0,0,0,0,0,0,0
641179860,1200.0,0.63944364,806.8098,0.0,17003,0,33.866093,1246,97,0,0,188,0.07784912,0,0,1,1,0,1,48,0,1,0,0,0,0,0,0,0,0,0,0,0,0,0,0,0
642094713,1200.0,0.63944364,862.4352,0.0,17027,0,54.94468,1248,97,0,0,188,0.07772436,0,0,1,1,0,1,48,0,1,0,0,0,0,0,0,0,0,0,0,0,0,0,0,0
643120852,1200.0,0.63944364,796.5717,0.0,17053,0,33.939148,1250,97,0,0,188,0.0776,0,0,1,1,0,1,48,0,1,0,0,0,0,0,0,0,0,0,0,0,0,0,0,0
644170785,1200.0,0.63944364,832.9896,0.0,17072,0,33.796715,1252,97,0,0,188,0.07747604,0,0,1,1,0,1,48,0,1,0,0,0,0,0,0,0,0,0,0,0,0,0,0,0
645103696,1200.0,0.63944364,700.19434,0.0,17098,0,33.864307,1254,97,0,0,188,0.07735247,0,0,1,1,0,1,48,0,1,0,0,0,0,0,0,0,0,0,0,0,0,0,0,0
646122696,1200.0,0.63944364,943.529,0.0,17119,0,33.697464,1256,97,0,0,188,0.0772293,0,0,1,1,0,1,48,0,1,0,0,0,0,0,0,0,0,0,0,0,0,0,0,0
647170739,1200.0,0.63944364,830.1318,0.0,17143,0,33.76134,1258,97,0,0,190,0.07710652,0,0,1,1,0,1,48,0,1,0,0,0,0,0,0,0,0,0,0,0,0,0,0,0
648099710,1200.0,0.63944364,658.07184,0.0,17168,0,33.90067,1260,97,0,0,192,0.07698413,0,0,1,1,0,1,48,0,1,0,0,0,0,0,0,0,0,0,0,0,0,0,0,0
649124724,1200.0,0.63944364,1025.7694,0.0,17188,0,33.762012,1262,97,0,0,192,0.07686213,0,0,1,1,0,1,48,0,1,0,0,0,0,0,0,0,0,0,0,0,0,0,0,0
650178697,1200.0,0.63944364,803.22,0.0,17215,0,33.798862,1264,97,0,0,192,0.0767405,0,0,1,1,0,1,48,0,1,0,0,0,0,0,0,0,0,0,0,0,0,0,0,0
651127696,1200.0,0.63944364,683.89594,0.0,17241,0,33.797184,1267,97,0,0,192,0.0765588,0,0,1,1,0,1,48,0,1,0,0,0,0,0,0,0,0,0,0,0,0,0,0,0
652121697,1200.0,0.63944364,985.0894,0.0,17261,0,55.666,1269,97,0,0,192,0.076438144,0,0,1,1,0,1,48,0,1,0,0,0,0,0,0,0,0,0,0,0,0,0,0,0
653177698,1200.0,0.63944364,830.1887,0.0,17287,0,33.763657,1271,97,0,0,194,0.07631786,0,0,1,1,0,1,48,0,1,0,0,0,0,0,0,0,0,0,0,0,0,0,0,0
654150696,1200.0,0.63944364,760.19904,0.0,17313,0,33.830845,1273,97,0,0,194,0.07619796,0,0,1,1,0,1,48,0,1,0,0,0,0,0,0,0,0,0,0,0,0,0,0,0
655120738,1200.0,0.63944364,923.94635,0.0,17331,0,33.998028,1275,97,0,0,194,0.07607843,0,0,1,1,0,1,48,0,1,0,0,0,0,0,0,0,0,0,0,0,0,0,0,0
656179720,1200.0,0.63944364,873.1521,0.0,17358,0,33.69713,1277,97,0,0,194,0.07595928,0,0,1,1,0,1,48,0,1,0,0,0,0,0,0,0,0,0,0,0,0,0,0,0
657102696,1200.0,0.63944364,653.4951,0.0,17375,0,33.6649,1279,97,0,0,194,0.0758405,0,0,1,1,0,1,48,0,1,0,0,0,0,0,0,0,0,0,0,0,0,0,0,0
658118697,1200.0,0.63944364,944.44446,0.0,17402,0,33.73016,1281,97,0,0,194,0.07572209,0,0,1,1,0,1,48,0,1,0,0,0,0,0,0,0,0,0,0,0,0,0,0,0
659179710,1200.0,0.63944364,723.3838,0.0,17428,0,33.83088,1283,97,0,0,194,0.07560405,0,0,1,1,0,1,48,0,1,0,0,0,0,0,0,0,0,0,0,0,0,0,0,0
660089789,1200.0,0.63944364,808.34076,0.0,17445,0,33.76362,1285,97,0,0,194,0.075486384,0,0,1,1,0,1,48,0,1,0,0,0,0,0,0,0,0,0,0,0,0,0,0,0
661118696,1200.0,0.63944364,942.4613,0.0,17475,0,33.730194,1288,97,0,0,194,0.07531056,0,0,1,1,0,1,48,0,1,0,0,0,0,0,0,0,0,0,0,0,0,0,0,0
662173874,1200.0,0.63944364,643.42633,0.0,17499,0,55.776894,1290,97,0,0,196,0.0751938,0,0,1,1,0,1,48,0,1,0,0,0,0,0,0,0,0,0,0,0,0,0,0,0
663097697,1200.0,0.63944364,952.91406,0.0,17518,0,33.925735,1292,97,0,0,196,0.0750774,0,0,1,1,0,1,48,0,1,0,0,0,0,0,0,0,0,0,0,0,0,0,0,0
664257696,1200.0,0.63944364,899.57086,0.0,17548,0,33.870884,1294,97,0,0,196,0.07496136,0,0,1,1,0,1,48,0,1,0,0,0,0,0,0,0,0,0,0,0,0,0,0,0
665172699,1200.0,0.63944364,685.94214,0.0,17571,0,33.898304,1296,97,0,0,196,0.07484568,0,0,1,1,0,1,48,0,1,0,0,0,0,0,0,0,0,0,0,0,0,0,0,0
666195697,1200.0,0.63944364,889.2224,0.0,17591,0,33.932167,1298,97,0,0,198,0.07473035,0,0,1,1,0,1,48,0,1,0,0,0,0,0,0,0,0,0,0,0,0,0,0,0
667250070,1200.0,0.63944364,907.6455,0.0,17618,0,33.76362,1300,97,0,0,200,0.07461538,0,0,1,1,0,1,48,0,1,0,0,0,0,0,0,0,0,0,0,0,0,0,0,0
668190696,1200.0,0.63944364,721.55396,0.0,17642,0,33.88513,1302,97,0,0,200,0.07450077,0,0,1,1,0,1,48,0,1,0,0,0,0,0,0,0,0,0,0,0,0,0,0,0
669196696,1200.0,0.63944364,882.81305,0.0,17661,0,33.8777,1304,97,0,0,200,0.0743865,0,0,1,1,0,1,48,0,1,0,0,0,0,0,0,0,0,0,0,0,0,0,0,0
670246716,1200.0,0.63944364,815.29297,0.0,17690,0,33.763657,1306,97,0,0,202,0.07427259,0,0,1,1,0,1,48,0,1,0,0,0,0,0,0,0,0,0,0,0,0,0,0,0
671190717,1200.0,0.63944364,812.68585,0.0,17711,0,36.66997,1309,97,0,0,202,0.07410237,0,0,1,1,0,1,48,0,1,0,0,0,0,0,0,0,0,0,0,0,0,0,0,0
672198695,1200.0,0.63944364,869.61194,0.0,17733,0,52.733906,1311,97,0,0,202,0.073989324,0,0,1,1,0,1,48,0,1,0,0,0,0,0,0,0,0,0,0,0,0,0,0,0
673257138,1200.0,0.63944364,661.0806,0.0,17761,0,33.698265,1313,97,0,0,204,0.07387662,0,0,1,1,0,1,48,0,1,0,0,0,0,0,0,0,0,0,0,0,0,0,0,0
674270742,1200.0,0.63944364,951.9353,0.0,17782,0,50.996536,1315,97,0,0,204,0.07376426,0,0,1,1,0,1,48,0,1,0,0,0,0,0,0,0,0,0,0,0,0,0,0,0
675198089,1200.0,0.63944364,835.2224,0.0,17805,0,16.984188,1317,97,0,0,204,0.07365224,0,0,1,1,0,1,48,0,1,0,0,0,0,0,0,0,0,0,0,0,0,0,0,0
676244701,1200.0,0.63944364,657.27954,0.0,17831,0,33.859856,1319,97,0,0,204,0.07354056,0,0,1,1,0,1,48,0,1,0,0,0,0,0,0,0,0,0,0,0,0,0,0,0
677277695,1200.0,0.63944364,994.1547,0.0,17851,0,50.854454,1321,97,0,0,206,0.07342922,0,0,1,1,0,1,48,0,1,0,0,0,0,0,0,0,0,0,0,0,0,0,0,0
678195696,1200.0,0.63944364,843.1568,0.0,17875,0,16.983017,1323,97,0,0,206,0.07331821,0,0,1,1,0,1,48,0,1,0,0,0,0,0,0,0,0,0,0,0,0,0,0,0
679277746,1200.0,0.63944364,685.94214,0.0,17903,0,33.898304,1325,97,0,0,206,0.07320755,0,0,1,1,0,1,48,0,1,0,0,0,0,0,0,0,0,0,0,0,0,0,0,0
680271069,1200.0,0.63944364,960.3263,0.0,17923,0,50.54349,1327,97,0,0,206,0.073097214,0,0,1,1,0,1,48,0,1,0,0,0,0,0,0,0,0,0,0,0,0,0,0,0
681198829,1200.0,0.63944364,857.1711,0.0,17947,0,16.983576,1330,97,0,0,206,0.07293233,0,0,1,1,0,1,48,0,1,0,0,0,0,0,0,0,0,0,0,0,0,0,0,0
682296712,1200.0,0.63944364,723.9819,0.0,17975,0,55.9986,1332,97,0,0,206,0.072822824,0,0,1,1,0,1,48,0,1,0,0,0,0,0,0,0,0,0,0,0,0,0,0,0
683276696,1200.0,0.63944364,880.97424,0.0,17993,0,50.596493,1334,97,0,0,206,0.07271364,0,0,1,1,0,1,48,0,1,0,0,0,0,0,0,0,0,0,0,0,0,0,0,0
684195697,1200.0,0.63944364,903.4483,0.0,18018,0,33.497536,1336,97,0,0,206,0.07260479,0,0,1,1,0,1,48,0,1,0,0,0,0,0,0,0,0,0,0,0,0,0,0,0
685265022,1200.0,0.63944364,697.2112,0.0,18040,0,16.932272,1338,97,0,0,206,0.072496265,0,0,1,1,0,1,48,0,1,0,0,0,0,0,0,0,0,0,0,0,0,0,0,0
686278697,1200.0,0.63944364,913.25934,0.0,18065,0,50.84741,1340,97,0,0,206,0.07238806,0,0,1,1,0,1,48,0,1,0,0,0,0,0,0,0,0,0,0,0,0,0,0,0
687198697,1200.0,0.63944364,755.4291,0.0,18088,0,33.662632,1342,97,0,0,206,0.072280176,0,0,1,1,0,1,48,0,1,0,0,0,0,0,0,0,0,0,0,0,0,0,0,0
688248740,1200.0,0.63944364,805.959,0.0,18108,0,33.664135,1344,97,0,0,208,0.07217262,0,0,1,1,0,1,48,0,1,0,0,0,0,0,0,0,0,0,0,0,0,0,0,0
689276695,1200.0,0.63944364,906.74603,0.0,18137,0,33.73016,1346,97,0,0,208,0.072065376,0,0,1,1,0,1,48,0,1,0,0,0,0,0,0,0,0,0,0,0,0,0,0,0
690197696,1200.0,0.63944364,658.02527,0.0,18160,0,33.898273,1348,97,0,0,210,0.07195846,0,0,1,1,0,1,48,0,1,0,0,0,0,0,0,0,0,0,0,0,0,0,0,0
691250741,1200.0,0.63944364,969.2471,0.0,18181,0,33.730194,1351,97,0,0,210,0.07179867,0,0,1,1,0,1,48,0,1,0,0,0,0,0,0,0,0,0,0,0,0,0,0,0
692272695,1200.0,0.63944364,881.59204,0.0,18208,0,55.721394,1353,97,0,0,210,0.071692534,0,0,1,1,0,1,48,0,1,0,0,0,0,0,0,0,0,0,0,0,0,0,0,0
693194981,1200.0,0.63944364,685.1996,0.0,18232,0,33.86161,1355,97,0,0,210,0.07158671,0,0,1,1,0,1,48,0,1,0,0,0,0,0,0,0,0,0,0,0,0,0,0,0
694245439,1200.0,0.63944364,884.004,0.0,18252,0,33.73304,1357,97,0,0,210,0.071481206,0,0,1,1,0,1,48,0,1,0,0,0,0,0,0,0,0,0,0,0,0,0,0,0
695274719,1200.0,0.63944364,907.6465,0.0,18279,0,33.763657,1359,97,0,0,210,0.07137601,0,0,1,1,0,1,48,0,1,0,0,0,0,0,0,0,0,0,0,0,0,0,0,0
696281695,1200.0,0.63944364,719.4545,0.0,18304,0,33.786537,1360,97,0,0,210,0.07132353,0,0,1,1,0,1,48,0,1,0,0,0,0,0,0,0,0,0,0,0,0,0,0,0
697244757,1200.0,0.63944364,840.332,0.0,18322,0,33.772205,1363,97,0,0,210,0.071166545,0,0,1,1,0,1,48,0,1,0,0,0,0,0,0,0,0,0,0,0,0,0,0,0
698273708,1200.0,0.63944364,816.1545,0.0,18349,0,33.799335,1365,97,0,0,210,0.071062274,0,0,1,1,0,1,48,0,1,0,0,0,0,0,0,0,0,0,0,0,0,0,0,0
699282176,1200.0,0.63944364,795.2643,0.0,18370,0,33.883442,1366,97,0,0,210,0.07101025,0,0,1,1,0,1,48,0,1,0,0,0,0,0,0,0,0,0,0,0,0,0,0,0
700253697,1200.0,0.63944364,906.21747,0.0,18394,0,33.710495,1369,97,0,0,210,0.07085464,0,0,1,1,0,1,48,0,1,0,0,0,0,0,0,0,0,0,0,0,0,0,0,0
701273697,1200.0,0.63944364,684.1983,0.0,18421,0,55.609734,1372,97,0,0,210,0.07069971,0,0,1,1,0,1,48,0,1,0,0,0,0,0,0,0,0,0,0,0,0,0,0,0
702323743,1200.0,0.63944364,948.2516,0.0,18441,0,33.866127,1374,97,0,0,210,0.0705968,0,0,1,1,0,1,48,0,1,0,0,0,0,0,0,0,0,0,0,0,0,0,0,0
703255696,1200.0,0.63944364,834.33044,0.0,18466,0,33.9321,1376,97,0,0,210,0.07049418,0,0,1,1,0,1,48,0,1,0,0,0,0,0,0,0,0,0,0,0,0,0,0,0
704274698,1200.0,0.63944364,657.37115,0.0,18493,0,33.864574,1378,97,0,0,212,0.07039187,0,0,1,1,0,1,48,0,1,0,0,0,0,0,0,0,0,0,0,0,0,0,0,0
705280882,1200.0,0.63944364,1027.8597,0.0,18513,0,33.830814,1379,97,0,0,212,0.07034083,0,0,1,1,0,1,48,0,1,0,0,0,0,0,0,0,0,0,0,0,0,0,0,0
706262717,1200.0,0.63944364,801.5873,0.0,18537,0,33.73016,1382,97,0,0,214,0.070188135,0,0,1,1,0,1,48,0,1,0,0,0,0,0,0,0,0,0,0,0,0,0,0,0
707275743,1200.0,0.63944364,685.9429,0.0,18564,0,33.898342,1384,97,0,0,214,0.0700867,0,0,1,1,0,1,48,0,1,0,0,0,0,0,0,0,0,0,0,0,0,0,0,0
708332695,1200.0,0.63944364,965.1385,0.0,18585,0,33.864506,1386,97,0,0,216,0.06998557,0,0,1,1,0,1,48,0,1,0,0,0,0,0,0,0,0,0,0,0,0,0,0,0
709340696,1200.0,0.63944364,835.1648,0.0,18608,0,33.966034,1387,97,0,0,216,0.06993511,0,0,1,1,0,1,48,0,1,0,0,0,0,0,0,0,0,0,0,0,0,0,0,0
710273699,1200.0,0.63944364,721.8345,0.0,18626,0,33.898304,1390,97,0,0,216,0.06978417,0,0,1,1,0,1,48,0,1,0,0,0,0,0,0,0,0,0,0,0,0,0,0,0
711323717,1200.0,0.63944364,936.63367,0.0,18656,0,55.445545,1393,97,0,0,216,0.069633886,0,0,1,1,0,1,48,0,1,0,0,0,0,0,0,0,0,0,0,0,0,0,0,0
712248712,1200.0,0.63944364,876.61694,0.0,18678,0,33.830845,1395,97,0,0,216,0.06953405,0,0,1,1,0,1,48,0,1,0,0,0,0,0,0,0,0,0,0,0,0,0,0,0
713272042,1200.0,0.63944364,659.7203,0.0,18697,0,33.985588,1397,97,0,0,218,0.0694345,0,0,1,1,0,1,48,0,1,0,0,0,0,0,0,0,0,0,0,0,0,0,0,0
714328708,1200.0,0.63944364,907.07086,0.0,18726,0,33.668568,1399,97,0,0,220,0.06933524,0,0,1,1,0,1,48,0,1,0,0,0,0,0,0,0,0,0,0,0,0,0,0,0
715252983,1200.0,0.63944364,760.1631,0.0,18749,0,33.873585,1401,97,0,0,220,0.069236256,0,0,1,1,0,1,48,0,1,0,0,0,0,0,0,0,0,0,0,0,0,0,0,0
716275697,1200.0,0.63944364,845.50525,0.0,18770,0,33.6618,1403,97,0,0,220,0.069137566,0,0,1,1,0,1,48,0,1,0,0,0,0,0,0,0,0,0,0,0,0,0,0,0
717328739,1200.0,0.63944364,911.2881,0.0,18798,0,33.899117,1405,97,0,0,220,0.06903914,0,0,1,1,0,1,48,0,1,0,0,0,0,0,0,0,0,0,0,0,0,0,0,0
718264933,1200.0,0.63944364,656.0623,0.0,18821,0,33.79715,1407,97,0,0,222,0.06894101,0,0,1,1,0,1,48,0,1,0,0,0,0,0,0,0,0,0,0,0,0,0,0,0
719271040,1200.0,0.63944364,949.28345,0.0,18842,0,33.79648,1409,97,0,0,224,0.06884315,0,0,1,1,0,1,48,0,1,0,0,0,0,0,0,0,0,0,0,0,0,0,0,0
720332697,1200.0,0.63944364,881.614,0.0,18868,0,33.831688,1411,97,0,0,224,0.06874557,0,0,1,1,0,1,48,0,1,0,0,0,0,0,0,0,0,0,0,0,0,0,0,0
721288233,1200.0,0.63944364,707.8926,0.0,18894,0,55.833782,1414,97,0,0,224,0.068599716,0,0,1,1,0,1,48,0,1,0,0,0,0,0,0,0,0,0,0,0,0,0,0,0
722278717,1200.0,0.63944364,888.3341,0.0,18913,0,33.898273,1416,97,0,0,224,0.06850283,0,0,1,1,0,1,48,0,1,0,0,0,0,0,0,0,0,0,0,0,0,0,0,0
723326739,1200.0,0.63944364,906.4484,0.0,18940,0,33.71909,1418,97,0,0,224,0.06840621,0,0,1,1,0,1,48,0,1,0,0,0,0,0,0,0,0,0,0,0,0,0,0,0
724254570,1200.0,0.63944364,722.0397,0.0,18958,0,33.90794,1420,97,0,0,226,0.06830986,0,0,1,1,0,1,48,0,1,0,0,0,0,0,0,0,0,0,0,0,0,0,0,0
725274696,1200.0,0.63944364,844.35016,0.0,18995,0,33.933697,1422,97,0,0,226,0.06821378,0,0,1,1,0,1,48,0,1,0,0,0,0,0,0,0,0,0,0,0,0,0,0,0
726276774,1200.0,0.63944364,1206.1448,0.0,19021,0,33.69673,1423,97,0,0,226,0.068165846,0,0,1,1,0,1,48,0,1,0,0,0,0,0,0,0,0,0,0,0,0,0,0,0
727249697,1200.0,0.63944364,793.2035,0.0,19040,0,33.79564,1426,97,0,0,226,0.06802244,0,0,1,1,0,1,48,0,1,0,0,0,0,0,0,0,0,0,0,0,0,0,0,0
728278696,1200.0,0.63944364,836.1654,0.0,19066,0,33.925564,1428,97,0,0,226,0.067927174,0,0,1,1,0,1,48,0,1,0,0,0,0,0,0,0,0,0,0,0,0,0,0,0
729283756,1200.0,0.63944364,701.0476,0.0,19093,0,33.905575,1429,97,0,0,226,0.06787964,0,0,1,1,0,1,48,0,1,0,0,0,0,0,0,0,0,0,0,0,0,0,0,0
730268289,1200.0,0.63944364,949.1771,0.0,19112,0,33.89918,1432,97,0,0,226,0.06773743,0,0,1,1,0,1,48,0,1,0,0,0,0,0,0,0,0,0,0,0,0,0,0,0
731279764,1200.0,0.63944364,856.2729,0.0,19138,0,55.887276,1435,97,0,0,226,0.06759582,0,0,1,1,0,1,48,0,1,0,0,0,0,0,0,0,0,0,0,0,0,0,0,0
732288964,1200.0,0.63944364,695.8368,0.0,19166,0,33.797787,1436,97,0,0,226,0.067548744,0,0,1,1,0,1,48,0,1,0,0,0,0,0,0,0,0,0,0,0,0,0,0,0
732368889,1200.0,0.63944364,695.8368,0.0,19166,0,33.797787,1437,97,0,0,226,0.06750174,0,0,1,1,0,1,48,0,1,0,0,0,0,0,0,0,0,0,0,0,0,0,0,0
734274738,1200.0,0.63944364,839.8395,0.0,19209,0,33.832394,1441,97,0,0,226,0.067314364,0,0,1,1,0,1,48,0,1,0,0,0,0,0,0,0,0,0,0,0,0,0,0,0
735275059,1200.0,0.63944364,687.3134,0.0,19228,0,33.96607,1442,97,0,0,226,0.067267686,0,0,1,1,0,1,48,0,1,0,0,0,0,0,0,0,0,0,0,0,0,0,0,0
735358295,1200.0,0.63944364,687.3134,0.0,19235,0,33.96607,1443,97,0,0,226,0.06722107,0,0,1,1,0,1,48,0,1,0,0,0,0,0,0,0,0,0,0,0,0,0,0,0
737273756,1200.0,0.63944364,831.07336,0.0,19279,0,33.799633,1447,97,0,0,226,0.06703524,0,0,1,1,0,1,48,0,1,0,0,0,0,0,0,0,0,0,0,0,0,0,0,0
738330041,1200.0,0.63944364,718.8659,0.0,19300,0,33.758896,1449,97,0,0,226,0.06694272,0,0,1,1,0,1,48,0,1,0,0,0,0,0,0,0,0,0,0,0,0,0,0,0
739333697,1200.0,0.63944364,881.9647,0.0,19327,0,33.76892,1450,97,0,0,226,0.06689655,0,0,1,1,0,1,48,0,1,0,0,0,0,0,0,0,0,0,0,0,0,0,0,0
740278784,1200.0,0.63944364,912.43866,0.0,19350,0,33.83088,1453,97,0,0,228,0.06675843,0,0,1,1,0,1,48,0,1,0,0,0,0,0,0,0,0,0,0,0,0,0,0,0
741322696,1200.0,0.63944364,677.2235,0.0,19371,0,55.607796,1456,97,0,0,228,0.06662088,0,0,1,1,0,1,48,0,1,0,0,0,0,0,0,0,0,0,0,0,0,0,0,0
742323725,1200.0,0.63944364,908.777,0.0,19398,0,33.7319,1457,97,0,0,228,0.066575155,0,0,1,1,0,1,48,0,1,0,0,0,0,0,0,0,0,0,0,0,0,0,0,0
743281696,1200.0,0.63944364,756.94446,0.0,19422,0,33.73016,1460,97,0,0,230,0.066438355,0,0,1,1,0,1,48,0,1,0,0,0,0,0,0,0,0,0,0,0,0,0,0,0
744283697,1200.0,0.63944364,812.02515,0.0,19441,0,33.917515,1461,97,0,0,230,0.06639288,0,0,1,1,0,1,48,0,1,0,0,0,0,0,0,0,0,0,0,0,0,0,0,0
745268696,1200.0,0.63944364,909.8439,0.0,19468,0,33.845394,1464,97,0,0,230,0.06625683,0,0,1,1,0,1,48,0,1,0,0,0,0,0,0,0,0,0,0,0,0,0,0,0
746278753,1200.0,0.63944364,656.71643,0.0,19489,0,33.830845,1466,97,0,0,230,0.06616644,0,0,1,1,0,1,48,0,1,0,0,0,0,0,0,0,0,0,0,0,0,0,0,0
747279237,1200.0,0.63944364,954.2289,0.0,19513,0,33.830845,1467,97,0,0,230,0.06612133,0,0,1,1,0,1,48,0,1,0,0,0,0,0,0,0,0,0,0,0,0,0,0,0
747339034,1200.0,0.63944364,954.2289,0.0,19514,0,33.830845,1468,97,0,0,230,0.06607629,0,0,1,1,0,1,48,0,1,0,0,0,0,0,0,0,0,0,0,0,0,0,0,0
749276752,1200.0,0.63944364,685.97296,0.0,19559,0,33.899826,1472,97,0,0,230,0.06589674,0,0,1,1,0,1,48,0,1,0,0,0,0,0,0,0,0,0,0,0,0,0,0,0
750333696,1200.0,0.63944364,853.29346,0.0,19585,0,33.932137,1474,97,0,0,232,0.06580733,0,0,1,1,0,1,48,0,1,0,0,0,0,0,0,0,0,0,0,0,0,0,0,0
751339010,1200.0,0.63944364,967.1411,0.0,19612,0,55.720066,1476,97,0,0,232,0.06571816,0,0,1,1,0,1,48,0,1,0,0,0,0,0,0,0,0,0,0,0,0,0,0,0
752276106,1200.0,0.63944364,721.1328,0.0,19630,0,33.865353,1479,97,0,0,232,0.06558485,0,0,1,1,0,1,48,0,1,0,0,0,0,0,0,0,0,0,0,0,0,0,0,0
753332697,1200.0,0.63944364,801.9802,0.0,19656,0,33.66337,1481,97,0,0,232,0.06549629,0,0,1,1,0,1,48,0,1,0,0,0,0,0,0,0,0,0,0,0,0,0,0,0
754266737,1200.0,0.63944364,855.2894,0.0,19681,0,33.932137,1483,97,0,0,234,0.065407954,0,0,1,1,0,1,48,0,1,0,0,0,0,0,0,0,0,0,0,0,0,0,0,0
755273698,1200.0,0.63944364,793.24054,0.0,19702,0,33.797215,1485,97,0,0,234,0.065319866,0,0,1,1,0,1,48,0,1,0,0,0,0,0,0,0,0,0,0,0,0,0,0,0
756330696,1200.0,0.63944364,829.703,0.0,19727,0,33.66337,1487,97,0,0,234,0.06523201,0,0,1,1,0,1,48,0,1,0,0,0,0,0,0,0,0,0,0,0,0,0,0,0
757339698,1200.0,0.63944364,696.0396,0.0,19754,0,33.66337,1488,97,0,0,234,0.06518817,0,0,1,1,0,1,48,0,1,0,0,0,0,0,0,0,0,0,0,0,0,0,0,0
757359696,1200.0,0.63944364,696.0396,0.0,19754,0,33.66337,1489,97,0,0,234,0.06514439,0,0,1,1,0,1,48,0,1,0,0,0,0,0,0,0,0,0,0,0,0,0,0,0
758414696,1200.0,0.63944364,951.0489,0.0,19775,0,33.966034,1491,97,0,0,234,0.06505701,0,0,1,1,0,1,48,0,1,0,0,0,0,0,0,0,0,0,0,0,0,0,0,0
759335697,1200.0,0.63944364,832.67017,0.0,19798,0,33.864574,1493,97,0,0,234,0.06496986,0,0,1,1,0,1,48,0,1,0,0,0,0,0,0,0,0,0,0,0,0,0,0,0
760358696,1200.0,0.63944364,655.41144,0.0,19818,0,33.76362,1495,97,0,0,236,0.06488294,0,0,1,1,0,1,48,0,1,0,0,0,0,0,0,0,0,0,0,0,0,0,0,0
762329757,1200.0,0.63944364,836.46844,0.0,19870,0,33.696594,1500,97,0,0,236,0.064666666,0,0,1,1,0,1,48,0,1,0,0,0,0,0,0,0,0,0,0,0,0,0,0,0
763332696,1200.0,0.63944364,725.10034,0.0,19888,0,33.864574,1501,97,0,0,236,0.06462359,0,0,1,1,0,1,48,0,1,0,0,0,0,0,0,0,0,0,0,0,0,0,0,0
763352717,1200.0,0.63944364,725.10034,0.0,19890,0,33.864574,1502,97,0,0,236,0.06458056,0,0,1,1,0,1,48,0,1,0,0,0,0,0,0,0,0,0,0,0,0,0,0,0
764409696,1200.0,0.63944364,962.267,0.0,19918,0,33.763756,1504,97,0,0,236,0.064494684,0,0,1,1,0,1,48,0,1,0,0,0,0,0,0,0,0,0,0,0,0,0,0,0
765430696,1200.0,0.63944364,835.1657,0.0,19942,0,33.96607,1506,97,0,0,236,0.06440903,0,0,1,1,0,1,48,0,1,0,0,0,0,0,0,0,0,0,0,0,0,0,0,0
766353698,1200.0,0.63944364,723.5883,0.0,19960,0,33.980667,1508,97,0,0,236,0.064323604,0,0,1,1,0,1,48,0,1,0,0,0,0,0,0,0,0,0,0,0,0,0,0,0
767412697,1200.0,0.63944364,886.7302,0.0,19988,0,33.95138,1510,97,0,0,236,0.064238414,0,0,1,1,0,1,48,0,1,0,0,0,0,0,0,0,0,0,0,0,0,0,0,0
768428695,1200.0,0.63944364,904.3393,0.0,20013,0,33.530575,1512,97,0,0,238,0.06415344,0,0,1,1,0,1,48,0,1,0,0,0,0,0,0,0,0,0,0,0,0,0,0,0
769481711,1200.0,0.63944364,658.6827,0.0,20033,0,33.932137,1514,97,0,0,238,0.06406869,0,0,1,1,0,1,48,0,1,0,0,0,0,0,0,0,0,0,0,0,0,0,0,0
770420713,1200.0,0.63944364,914.1169,0.0,20059,0,33.930103,1516,97,0,0,238,0.06398417,0,0,1,1,0,1,48,0,1,0,0,0,0,0,0,0,0,0,0,0,0,0,0,0
771365696,1200.0,0.63944364,778.817,0.0,20084,0,55.558918,1519,97,0,0,238,0.0638578,0,0,1,1,0,1,48,0,1,0,0,0,0,0,0,0,0,0,0,0,0,0,0,0
772492713,1200.0,0.63944364,813.18677,0.0,20106,0,33.966034,1521,97,0,0,240,0.06377383,0,0,1,1,0,1,48,0,1,0,0,0,0,0,0,0,0,0,0,0,0,0,0,0
773420712,1200.0,0.63944364,913.086,0.0,20131,0,33.966,1523,97,0,0,240,0.06369009,0,0,1,1,0,1,48,0,1,0,0,0,0,0,0,0,0,0,0,0,0,0,0,0
774453235,1200.0,0.63944364,657.2448,0.0,20157,0,33.858067,1525,97,0,0,240,0.06360656,0,0,1,1,0,1,48,0,1,0,0,0,0,0,0,0,0,0,0,0,0,0,0,0
775492696,1200.0,0.63944364,911.88007,0.0,20176,0,33.736588,1527,97,0,0,240,0.06352325,0,0,1,1,0,1,48,0,1,0,0,0,0,0,0,0,0,0,0,0,0,0,0,0
776510760,1200.0,0.63944364,914.6825,0.0,20204,0,33.73016,1529,97,0,0,240,0.06344016,0,0,1,1,0,1,48,0,1,0,0,0,0,0,0,0,0,0,0,0,0,0,0,0
777589235,1200.0,0.63944364,685.9429,0.0,20230,0,33.898342,1531,97,0,0,240,0.063357286,0,0,1,1,0,1,48,0,1,0,0,0,0,0,0,0,0,0,0,0,0,0,0,0
778488791,1200.0,0.63944364,890.4524,0.0,20248,0,33.827244,1533,97,0,0,240,0.06327462,0,0,1,1,0,1,48,0,1,0,0,0,0,0,0,0,0,0,0,0,0,0,0,0
779514717,1200.0,0.63944364,945.12317,0.0,20275,0,33.825462,1535,97,0,0,240,0.06319218,0,0,1,1,0,1,48,0,1,0,0,0,0,0,0,0,0,0,0,0,0,0,0,0
780430696,1200.0,0.63944364,721.2463,0.0,20292,0,33.87068,1537,97,0,0,240,0.06310996,0,0,1,1,0,1,48,0,1,0,0,0,0,0,0,0,0,0,0,0,0,0,0,0
781488765,1200.0,0.63944364,831.2386,0.0,20320,0,55.94875,1540,97,0,0,242,0.062987015,0,0,1,1,0,1,48,0,1,0,0,0,0,0,0,0,0,0,0,0,0,0,0,0
782510720,1200.0,0.63944364,854.43665,0.0,20346,0,33.898304,1542,97,0,0,242,0.06290532,0,0,1,1,0,1,48,0,1,0,0,0,0,0,0,0,0,0,0,0,0,0,0,0
783563697,1200.0,0.63944364,790.8821,0.0,20366,0,33.69673,1544,97,0,0,242,0.06282383,0,0,1,1,0,1,48,0,1,0,0,0,0,0,0,0,0,0,0,0,0,0,0,0
784481695,1200.0,0.63944364,837.1595,0.0,20390,0,33.9659,1546,97,0,0,242,0.06274256,0,0,1,1,0,1,48,0,1,0,0,0,0,0,0,0,0,0,0,0,0,0,0,0
785509698,1200.0,0.63944364,698.80994,0.0,20417,0,33.79735,1548,97,0,0,242,0.0626615,0,0,1,1,0,1,48,0,1,0,0,0,0,0,0,0,0,0,0,0,0,0,0,0
786572697,1200.0,0.63944364,914.1717,0.0,20438,0,33.932137,1550,97,0,0,244,0.062580645,0,0,1,1,0,1,48,0,1,0,0,0,0,0,0,0,0,0,0,0,0,0,0,0
787496697,1200.0,0.63944364,838.0948,0.0,20461,0,33.76211,1552,97,0,0,244,0.0625,0,0,1,1,0,1,48,0,1,0,0,0,0,0,0,0,0,0,0,0,0,0,0,0
788530269,1200.0,0.63944364,685.97363,0.0,20486,0,33.89986,1554,97,0,0,244,0.062419564,0,0,1,1,0,1,48,0,1,0,0,0,0,0,0,0,0,0,0,0,0,0,0,0
789562696,1200.0,0.63944364,958.74506,0.0,20508,0,33.92022,1556,97,0,0,244,0.062339332,0,0,1,1,0,1,48,0,1,0,0,0,0,0,0,0,0,0,0,0,0,0,0,0
790497795,1200.0,0.63944364,875.0586,0.0,20532,0,33.809082,1558,97,0,0,244,0.062259305,0,0,1,1,0,1,48,0,1,0,0,0,0,0,0,0,0,0,0,0,0,0,0,0
791513374,1200.0,0.63944364,708.5489,0.0,20552,0,55.885544,1561,97,0,0,244,0.062139653,0,0,1,1,0,1,48,0,1,0,0,0,0,0,0,0,0,0,0,0,0,0,0,0
792566695,1200.0,0.63944364,926.5163,0.0,20580,0,33.763725,1563,97,0,0,244,0.06206014,0,0,1,1,0,1,48,0,1,0,0,0,0,0,0,0,0,0,0,0,0,0,0,0
793486035,1200.0,0.63944364,864.26135,0.0,20603,0,33.698265,1565,97,0,0,246,0.061980832,0,0,1,1,0,1,48,0,1,0,0,0,0,0,0,0,0,0,0,0,0,0,0,0
794509033,1200.0,0.63944364,699.9993,0.0,20623,0,33.99997,1567,97,0,0,246,0.061901722,0,0,1,1,0,1,48,0,1,0,0,0,0,0,0,0,0,0,0,0,0,0,0,0
795559696,1200.0,0.63944364,948.2072,0.0,20651,0,33.864544,1569,97,0,0,246,0.061822817,0,0,1,1,0,1,48,0,1,0,0,0,0,0,0,0,0,0,0,0,0,0,0,0
796493695,1200.0,0.63944364,749.75244,0.0,20674,0,33.763687,1571,97,0,0,246,0.061744113,0,0,1,1,0,1,48,0,1,0,0,0,0,0,0,0,0,0,0,0,0,0,0,0
797508763,1200.0,0.63944364,814.58563,0.0,20695,0,33.693325,1573,97,0,0,246,0.061665606,0,0,1,1,0,1,48,0,1,0,0,0,0,0,0,0,0,0,0,0,0,0,0,0
798575699,1200.0,0.63944364,907.9213,0.0,20722,0,33.700134,1575,97,0,0,246,0.0615873,0,0,1,1,0,1,48,0,1,0,0,0,0,0,0,0,0,0,0,0,0,0,0,0
799519989,1200.0,0.63944364,759.2009,0.0,20746,0,33.83071,1577,97,0,0,248,0.061509196,0,0,1,1,0,1,48,0,1,0,0,0,0,0,0,0,0,0,0,0,0,0,0,0
800509819,1200.0,0.63944364,777.8981,0.0,20765,0,33.995544,1579,97,0,0,250,0.061431285,0,0,1,1,0,1,48,0,1,0,0,0,0,0,0,0,0,0,0,0,0,0,0,0
801577698,1200.0,0.63944364,936.63245,0.0,20794,0,55.56294,1582,97,0,0,250,0.06131479,0,0,1,1,0,1,48,0,1,0,0,0,0,0,0,0,0,0,0,0,0,0,0,0
802505758,1200.0,0.63944364,685.9319,0.0,20813,0,33.897797,1584,97,0,0,250,0.061237372,0,0,1,1,0,1,48,0,1,0,0,0,0,0,0,0,0,0,0,0,0,0,0,0
803514718,1200.0,0.63944364,879.3674,0.0,20837,0,33.860126,1586,97,0,0,250,0.06116015,0,0,1,1,0,1,48,0,1,0,0,0,0,0,0,0,0,0,0,0,0,0,0,0
804569773,1200.0,0.63944364,953.3724,0.0,20865,0,33.835762,1588,97,0,0,252,0.061083123,0,0,1,1,0,1,48,0,1,0,0,0,0,0,0,0,0,0,0,0,0,0,0,0
805482695,1200.0,0.63944364,685.9319,0.0,20882,0,33.897797,1590,97,0,0,252,0.06100629,0,0,1,1,0,1,48,0,1,0,0,0,0,0,0,0,0,0,0,0,0,0,0,0
806516717,1200.0,0.63944364,851.6063,0.0,20908,0,33.865047,1592,97,0,0,252,0.06092965,0,0,1,1,0,1,48,0,1,0,0,0,0,0,0,0,0,0,0,0,0,0,0,0
807573695,1200.0,0.63944364,944.334,0.0,20935,0,33.797215,1594,97,0,0,252,0.0608532,0,0,1,1,0,1,48,0,1,0,0,0,0,0,0,0,0,0,0,0,0,0,0,0
808496717,1200.0,0.63944364,622.98267,0.0,20954,0,33.94457,1596,97,0,0,252,0.06077694,0,0,1,1,0,1,48,0,1,0,0,0,0,0,0,0,0,0,0,0,0,0,0,0
809511696,1200.0,0.63944364,943.00006,0.0,20979,0,33.749477,1598,97,0,0,252,0.060700875,0,0,1,1,0,1,48,0,1,0,0,0,0,0,0,0,0,0,0,0,0,0,0,0
810591697,1200.0,0.63944364,694.34454,0.0,21007,0,33.967934,1600,97,0,0,254,0.060625,0,0,1,1,0,1,48,0,1,0,0,0,0,0,0,0,0,0,0,0,0,0,0,0
811493716,1200.0,0.63944364,945.0549,0.0,21025,0,55.944054,1603,97,0,0,254,0.06051154,0,0,1,1,0,1,48,0,1,0,0,0,0,0,0,0,0,0,0,0,0,0,0,0
812515736,1200.0,0.63944364,872.2163,0.0,21051,0,33.93061,1605,97,0,0,254,0.060436137,0,0,1,1,0,1,48,0,1,0,0,0,0,0,0,0,0,0,0,0,0,0,0,0
813584712,1200.0,0.63944364,661.08,0.0,21076,0,33.69823,1607,97,0,0,254,0.06036092,0,0,1,1,0,1,48,0,1,0,0,0,0,0,0,0,0,0,0,0,0,0,0,0
814481784,1200.0,0.63944364,945.25085,0.0,21096,0,33.75896,1609,97,0,0,254,0.060285892,0,0,1,1,0,1,48,0,1,0,0,0,0,0,0,0,0,0,0,0,0,0,0,0
815512945,1200.0,0.63944364,843.2748,0.0,21122,0,33.970787,1611,97,0,0,254,0.060211048,0,0,1,1,0,1,48,0,1,0,0,0,0,0,0,0,0,0,0,0,0,0,0,0
816566699,1200.0,0.63944364,685.9429,0.0,21142,0,33.898342,1613,97,0,0,254,0.060136393,0,0,1,1,0,1,48,0,1,0,0,0,0,0,0,0,0,0,0,0,0,0,0,0
817500696,1200.0,0.63944364,956.218,0.0,21168,0,33.830814,1615,97,0,0,254,0.06006192,0,0,1,1,0,1,48,0,1,0,0,0,0,0,0,0,0,0,0,0,0,0,0,0
818511738,1200.0,0.63944364,878.91895,0.0,21192,0,33.958233,1617,97,0,0,256,0.05998763,0,0,1,1,0,1,48,0,1,0,0,0,0,0,0,0,0,0,0,0,0,0,0,0
819564739,1200.0,0.63944364,650.1925,0.0,21212,0,33.905743,1619,97,0,0,256,0.059913527,0,0,1,1,0,1,48,0,1,0,0,0,0,0,0,0,0,0,0,0,0,0,0,0
820498727,1200.0,0.63944364,965.149,0.0,21238,0,33.864876,1621,97,0,0,256,0.059839606,0,0,1,1,0,1,48,0,1,0,0,0,0,0,0,0,0,0,0,0,0,0,0,0
821509928,1200.0,0.63944364,893.1069,0.0,21263,0,55.944054,1624,97,0,0,256,0.059729066,0,0,1,1,0,1,48,0,1,0,0,0,0,0,0,0,0,0,0,0,0,0,0,0
822572741,1200.0,0.63944364,617.8218,0.0,21285,0,33.66337,1626,97,0,0,258,0.059655596,0,0,1,1,0,1,48,0,1,0,0,0,0,0,0,0,0,0,0,0,0,0,0,0
823491695,1200.0,0.63944364,986.02795,0.0,21309,0,33.932137,1628,97,0,0,258,0.059582308,0,0,1,1,0,1,48,0,1,0,0,0,0,0,0,0,0,0,0,0,0,0,0,0
824518710,1200.0,0.63944364,748.24927,0.0,21335,0,33.695995,1630,97,0,0,258,0.059509203,0,0,1,1,0,1,48,0,1,0,0,0,0,0,0,0,0,0,0,0,0,0,0,0
825568696,1200.0,0.63944364,783.7473,0.0,21355,0,33.730896,1632,97,0,0,258,0.059436273,0,0,1,1,0,1,48,0,1,0,0,0,0,0,0,0,0,0,0,0,0,0,0,0
826500696,1200.0,0.63944364,986.0092,0.0,21381,0,33.93149,1634,97,0,0,258,0.059363525,0,0,1,1,0,1,48,0,1,0,0,0,0,0,0,0,0,0,0,0,0,0,0,0
827518697,1200.0,0.63944364,721.95996,0.0,21402,0,33.76429,1636,97,0,0,258,0.059290953,0,0,1,1,0,1,48,0,1,0,0,0,0,0,0,0,0,0,0,0,0,0,0,0
828567696,1200.0,0.63944364,805.9406,0.0,21426,0,33.66337,1638,97,0,0,258,0.05921856,0,0,1,1,0,1,48,0,1,0,0,0,0,0,0,0,0,0,0,0,0,0,0,0
829497697,1200.0,0.63944364,921.97876,0.0,21451,0,33.999218,1640,97,0,0,258,0.05914634,0,0,1,1,0,1,48,0,1,0,0,0,0,0,0,0,0,0,0,0,0,0,0,0
830510697,1200.0,0.63944364,650.0129,0.0,21471,0,33.896378,1642,97,0,0,260,0.0590743,0,0,1,1,0,1,48,0,1,0,0,0,0,0,0,0,0,0,0,0,0,0,0,0
831566696,1200.0,0.63944364,935.46204,0.0,21499,0,55.67043,1645,97,0,0,260,0.058966566,0,0,1,1,0,1,48,0,1,0,0,0,0,0,0,0,0,0,0,0,0,0,0,0
832511769,1200.0,0.63944364,953.2338,0.0,21524,0,33.830845,1647,97,0,0,260,0.058894962,0,0,1,1,0,1,48,0,1,0,0,0,0,0,0,0,0,0,0,0,0,0,0,0
833514718,1200.0,0.63944364,650.0297,0.0,21544,0,33.89726,1649,97,0,0,260,0.05882353,0,0,1,1,0,1,48,0,1,0,0,0,0,0,0,0,0,0,0,0,0,0,0,0
834568792,1200.0,0.63944364,887.47845,0.0,21569,0,33.86562,1651,97,0,0,260,0.058752272,0,0,1,1,0,1,48,0,1,0,0,0,0,0,0,0,0,0,0,0,0,0,0,0
835507219,1200.0,0.63944364,942.00433,0.0,21595,0,50.57076,1653,97,0,0,260,0.058681186,0,0,1,1,0,1,48,0,1,0,0,0,0,0,0,0,0,0,0,0,0,0,0,0
836516713,1200.0,0.63944364,618.1198,0.0,21613,0,33.679604,1655,97,0,0,260,0.05861027,0,0,1,1,0,1,48,0,1,0,0,0,0,0,0,0,0,0,0,0,0,0,0,0
837438090,1200.0,0.63944364,618.1198,0.0,21637,0,33.679604,1657,97,0,0,260,0.05853953,0,0,1,1,0,1,48,0,1,0,0,0,0,0,0,0,0,0,0,0,0,0,0,0
838500740,1200.0,0.63944364,909.0428,0.0,21657,0,33.964237,1659,97,0,0,260,0.058468957,0,0,1,1,0,1,48,0,1,0,0,0,0,0,0,0,0,0,0,0,0,0,0,0
839509730,1200.0,0.63944364,692.9579,0.0,21684,0,33.900097,1661,97,0,0,260,0.058398556,0,0,1,1,0,1,48,0,1,0,0,0,0,0,0,0,0,0,0,0,0,0,0,0
840576697,1200.0,0.63944364,943.39624,0.0,21711,0,16.881828,1663,97,0,0,260,0.058328323,0,0,1,1,0,1,48,0,1,0,0,0,0,0,0,0,0,0,0,0,0,0,0,0
841489696,1200.0,0.63944364,943.39624,0.0,21729,0,16.881828,1666,97,0,0,260,0.05822329,0,0,1,1,0,1,48,0,1,0,0,0,0,0,0,0,0,0,0,0,0,0,0,0
842515695,1200.0,0.63944364,686.92413,0.0,21758,0,72.78006,1668,97,0,0,260,0.058153477,0,0,1,1,0,1,48,0,1,0,0,0,0,0,0,0,0,0,0,0,0,0,0,0
843442716,1200.0,0.63944364,946.3004,0.0,21781,0,33.796444,1670,97,0,0,260,0.058083832,0,0,1,1,0,1,48,0,1,0,0,0,0,0,0,0,0,0,0,0,0,0,0,0
844505018,1200.0,0.63944364,838.1705,0.0,21801,0,33.765163,1672,97,0,0,260,0.058014356,0,0,1,1,0,1,48,0,1,0,0,0,0,0,0,0,0,0,0,0,0,0,0,0
845516739,1200.0,0.63944364,650.68823,0.0,21828,0,33.931595,1674,97,0,0,260,0.057945043,0,0,1,1,0,1,48,0,1,0,0,0,0,0,0,0,0,0,0,0,0,0,0,0
846561697,1200.0,0.63944364,839.801,0.0,21853,0,33.830845,1676,97,0,0,260,0.057875894,0,0,1,1,0,1,48,0,1,0,0,0,0,0,0,0,0,0,0,0,0,0,0,0
847493709,1200.0,0.63944364,839.801,0.0,21871,0,33.830845,1678,97,0,0,260,0.057806913,0,0,1,1,0,1,48,0,1,0,0,0,0,0,0,0,0,0,0,0,0,0,0,0
848513719,1200.0,0.63944364,684.5444,0.0,21898,0,33.829227,1680,97,0,0,262,0.057738096,0,0,1,1,0,1,48,0,1,0,0,0,0,0,0,0,0,0,0,0,0,0,0,0
849592697,1200.0,0.63944364,864.2211,0.0,21925,0,16.848349,1682,97,0,0,262,0.057669442,0,0,1,1,0,1,48,0,1,0,0,0,0,0,0,0,0,0,0,0,0,0,0,0
850484695,1200.0,0.63944364,864.2211,0.0,21941,0,16.848349,1684,97,0,0,262,0.05760095,0,0,1,1,0,1,48,0,1,0,0,0,0,0,0,0,0,0,0,0,0,0,0,0
851517696,1200.0,0.63944364,622.75385,0.0,21970,0,50.89815,1687,97,0,0,262,0.05749852,0,0,1,1,0,1,48,0,1,0,0,0,0,0,0,0,0,0,0,0,0,0,0,0
852587714,1200.0,0.63944364,1006.98206,0.0,21992,0,55.83267,1689,97,0,0,262,0.05743043,0,0,1,1,0,1,48,0,1,0,0,0,0,0,0,0,0,0,0,0,0,0,0,0
853497701,1200.0,0.63944364,747.52405,0.0,22014,0,33.663334,1691,97,0,0,262,0.057362508,0,0,1,1,0,1,48,0,1,0,0,0,0,0,0,0,0,0,0,0,0,0,0,0
854511696,1200.0,0.63944364,749.9663,0.0,22040,0,33.99847,1693,97,0,0,264,0.05729474,0,0,1,1,0,1,48,0,1,0,0,0,0,0,0,0,0,0,0,0,0,0,0,0
855774451,1200.0,0.63944364,721.7944,0.0,22072,0,16.831968,1695,97,0,0,264,0.05722714,0,0,1,1,0,1,48,0,1,0,0,0,0,0,0,0,0,0,0,0,0,0,0,0
857031695,1200.0,0.63944364,885.5713,0.0,22096,0,16.915407,1696,97,0,0,264,0.057193395,0,0,1,1,0,1,48,0,0,0,0,0,0,0,0,0,0,0,0,0,0,0,0,0
858286695,1200.0,0.63944364,921.9797,0.0,22127,0,16.999624,1697,97,0,0,264,0.057159692,0,0,1,1,0,1,48,0,0,0,0,0,0,0,0,0,0,0,0,0,0,0,0,0
859292894,1200.0,0.63944364,648.7556,0.0,22152,0,16.915407,1698,97,0,0,264,0.05712603,0,0,1,1,0,1,48,0,0,0,0,0,0,0,0,0,0,0,0,0,0,0,0,0
859542730,1200.0,0.63944364,648.7556,0.0,22157,0,16.915407,1698,97,0,0,264,0.05712603,0,0,1,1,0,1,48,0,0,0,0,0,0,0,0,0,0,0,0,0,0,0,0,0
860801756,1200.0,0.63944364,913.75525,0.0,22190,0,16.847982,1700,97,0,0,264,0.057058822,0,0,1,1,0,1,48,0,0,0,0,0,0,0,0,0,0,0,0,0,0,0,0,0
862065697,1200.0,0.63944364,707.8609,0.0,22220,0,16.948782,1701,97,0,0,264,0.05702528,0,0,1,1,0,1,48,0,0,0,0,0,0,0,0,0,0,0,0,0,0,0,0,0
863308920,1200.0,0.63944364,845.1929,0.0,22243,0,16.98378,1702,97,0,0,264,0.056991775,0,0,1,1,0,1,48,0,0,0,0,0,0,0,0,0,0,0,0,0,0,0,0,0
864310733,1200.0,0.63944364,973.58124,0.0,22270,0,16.634052,1703,97,0,0,264,0.05695831,0,0,1,1,0,1,48,0,0,0,0,0,0,0,0,0,0,0,0,0,0,0,0,0
864560985,1200.0,0.63944364,973.58124,0.0,22274,0,16.634052,1703,97,0,0,264,0.05695831,0,0,1,1,0,1,48,0,0,0,0,0,0,0,0,0,0,0,0,0,0,0,0,0
865820695,1200.0,0.63944364,917.8626,0.0,22305,0,16.832432,1705,97,0,0,264,0.056891497,0,0,1,1,0,1,48,0,0,0,0,0,0,0,0,0,0,0,0,0,0,0,0,0
867074695,1200.0,0.366778,686.7589,0.0,22331,0,16.79842,1706,97,0,0,266,0.05685815,0,0,1,1,0,1,48,0,0,0,0,0,0,0,0,0,0,0,0,0,0,0,0,0
868324696,1200.0,0.366778,557.8842,0.0,22348,0,16.966068,1707,97,0,0,268,0.05682484,0,0,1,1,0,1,48,0,0,0,0,0,0,0,0,0,0,0,0,0,0,0,0,0
869333695,1200.0,0.366778,425.7422,0.0,22363,0,16.831667,1708,97,0,0,270,0.05679157,0,0,1,1,0,1,48,0,0,0,0,0,0,0,0,0,0,0,0,0,0,0,0,0
869583696,1200.0,0.366778,425.7422,0.0,22371,0,16.831667,1708,97,0,0,270,0.05679157,0,0,1,1,0,1,48,0,0,0,0,0,0,0,0,0,0,0,0,0,0,0,0,0
870836695,1200.0,0.366778,555.1293,0.0,22388,0,16.852139,1710,97,0,0,270,0.056725144,0,0,1,1,0,1,48,0,0,0,0,0,0,0,0,0,0,0,0,0,0,0,0,0
872096695,1200.0,0.366778,446.9872,0.0,22404,0,33.847584,1711,97,0,0,270,0.056691993,0,0,1,1,0,1,48,0,0,0,0,0,0,0,0,0,0,0,0,0,0,0,0,0
873105739,1200.0,0.366778,535.42584,0.0,22419,0,0.0,1712,97,0,0,272,0.05665888,0,0,1,1,0,1,48,0,0,0,0,0,0,0,0,0,0,0,0,0,0,0,0,0
873355727,1200.0,0.366778,535.42584,0.0,22421,0,0.0,1712,97,0,0,272,0.05665888,0,0,1,1,0,1,48,0,0,0,0,0,0,0,0,0,0,0,0,0,0,0,0,0
874610696,1200.0,0.366778,403.9788,0.0,22439,0,33.6649,1713,97,0,0,272,0.056625802,0,0,1,1,0,1,48,0,0,0,0,0,0,0,0,0,0,0,0,0,0,0,0,0
875867799,1200.0,0.366778,483.61472,0.0,22459,0,9.930487,1715,97,0,0,272,0.056559768,0,0,1,1,0,1,48,0,0,0,0,0,0,0,0,0,0,0,0,0,0,0,0,0
877117697,1200.0,0.366778,471.28714,0.0,22475,0,6.930693,1716,97,0,0,272,0.056526806,0,0,1,1,0,1,48,0,0,0,0,0,0,0,0,0,0,0,0,0,0,0,0,0
878117741,1200.0,0.366778,598.0204,0.0,22491,0,33.6634,1717,97,0,0,272,0.056493886,0,0,1,1,0,1,48,0,0,0,0,0,0,0,0,0,0,0,0,0,0,0,0,0
878377711,1200.0,0.366778,598.0204,0.0,22493,0,33.6634,1717,97,0,0,272,0.056493886,0,0,1,1,0,1,48,0,0,0,0,0,0,0,0,0,0,0,0,0,0,0,0,0
879637697,1200.0,0.366778,296.98572,0.0,22507,0,16.999184,1718,97,0,0,272,0.056461003,0,0,1,1,0,1,48,0,0,0,0,0,0,0,0,0,0,0,0,0,0,0,0,0
880895718,1200.0,0.366778,660.66626,0.0,22531,0,16.914648,1720,97,0,0,274,0.05639535,0,0,1,1,0,1,48,0,0,0,0,0,0,0,0,0,0,0,0,0,0,0,0,0
882145757,1200.0,0.366778,425.76196,0.0,22546,0,16.83245,1721,97,0,0,274,0.05636258,0,0,1,1,0,1,48,0,0,0,0,0,0,0,0,0,0,0,0,0,0,0,0,0
883155742,1200.0,0.366778,369.89032,0.0,22563,0,16.949152,1722,97,0,0,274,0.05632985,0,0,1,1,0,1,48,0,0,0,0,0,0,0,0,0,0,0,0,0,0,0,0,0
883405696,1200.0,0.366778,369.89032,0.0,22565,0,16.949152,1722,97,0,0,274,0.05632985,0,0,1,1,0,1,48,0,0,0,0,0,0,0,0,0,0,0,0,0,0,0,0,0
884666383,1200.0,0.366778,603.7736,0.0,22582,0,16.881828,1723,97,0,0,276,0.056297157,0,0,1,1,0,1,48,0,0,0,0,0,0,0,0,0,0,0,0,0,0,0,0,0
885917696,1200.0,0.366778,740.519,0.0,22603,0,16.966068,1725,97,0,0,276,0.056231882,0,0,1,1,0,1,48,0,0,0,0,0,0,0,0,0,0,0,0,0,0,0,0,0
887177696,1200.0,0.366778,353.4496,0.0,22617,0,16.830933,1726,97,0,0,276,0.056199305,0,0,1,1,0,1,48,0,0,0,0,0,0,0,0,0,0,0,0,0,0,0,0,0
888180696,1200.0,0.366778,403.97836,0.0,22629,0,16.832432,1727,97,0,0,276,0.056166764,0,0,1,1,0,1,48,0,0,0,0,0,0,0,0,0,0,0,0,0,0,0,0,0
888433697,1200.0,0.366778,403.97836,0.0,22632,0,16.832432,1727,97,0,0,276,0.056166764,0,0,1,1,0,1,48,0,0,0,0,0,0,0,0,0,0,0,0,0,0,0,0,0
889686695,1200.0,0.366778,535.1584,0.0,22650,0,16.84758,1728,97,0,0,276,0.056134257,0,0,1,1,0,1,48,0,0,0,0,0,0,0,0,0,0,0,0,0,0,0,0,0
890944699,1200.0,0.366778,426.22525,0.0,22669,0,16.890045,1730,97,0,0,276,0.056069363,0,0,1,1,0,1,48,0,0,0,0,0,0,0,0,0,0,0,0,0,0,0,0,0
892194696,1200.0,0.366778,641.0352,0.0,22687,0,16.974453,1731,97,0,0,276,0.05603697,0,0,1,1,0,1,48,0,0,0,0,0,0,0,0,0,0,0,0,0,0,0,0,0
893194715,1200.0,0.366778,498.8933,0.0,22699,0,16.827751,1732,97,0,0,276,0.056004617,0,0,1,1,0,1,48,0,0,0,0,0,0,0,0,0,0,0,0,0,0,0,0,0
893455113,1200.0,0.366778,498.8933,0.0,22704,0,16.827751,1732,97,0,0,276,0.056004617,0,0,1,1,0,1,48,0,0,0,0,0,0,0,0,0,0,0,0,0,0,0,0,0
894702696,1200.0,0.366778,374.35083,0.0,22723,0,16.835884,1734,97,0,0,276,0.055940025,0,0,1,1,0,1,48,0,0,0,0,0,0,0,0,0,0,0,0,0,0,0,0,0
895953266,1200.0,0.366778,376.29425,0.0,22736,0,16.834217,1735,97,0,0,276,0.055907782,0,0,1,1,0,1,48,0,0,0,0,0,0,0,0,0,0,0,0,0,0,0,0,0
897202737,1200.0,0.366778,735.3976,0.0,22759,0,16.848732,1736,97,0,0,276,0.055875577,0,0,1,1,0,1,48,0,0,0,0,0,0,0,0,0,0,0,0,0,0,0,0,0
898212757,1200.0,0.366778,356.64334,0.0,22771,0,16.983017,1737,97,0,0,276,0.05584341,0,0,1,1,0,1,48,0,0,0,0,0,0,0,0,0,0,0,0,0,0,0,0,0
898462696,1200.0,0.366778,356.64334,0.0,22773,0,16.983017,1737,97,0,0,276,0.05584341,0,0,1,1,0,1,48,0,0,0,0,0,0,0,0,0,0,0,0,0,0,0,0,0
899716696,1200.0,0.366778,478.5643,0.0,22793,0,16.949152,1738,97,0,0,276,0.05581128,0,0,1,1,0,1,48,0,0,0,0,0,0,0,0,0,0,0,0,0,0,0,0,0
900976777,1200.0,0.366778,388.02356,0.0,22808,0,16.827553,1740,97,0,0,276,0.055747125,0,0,1,1,0,1,48,0,0,0,0,0,0,0,0,0,0,0,0,0,0,0,0,0
902231698,1200.0,0.366778,508.12146,0.0,22831,0,16.970657,1741,97,0,0,276,0.055715106,0,0,1,1,0,1,48,0,0,0,0,0,0,0,0,0,0,0,0,0,0,0,0,0
903241697,1200.0,0.366778,566.3017,0.0,22842,0,16.949171,1742,97,0,0,276,0.05568312,0,0,1,1,0,1,48,0,0,0,0,0,0,0,0,0,0,0,0,0,0,0,0,0
903481696,1200.0,0.366778,566.3017,0.0,22845,0,16.949171,1742,97,0,0,276,0.05568312,0,0,1,1,0,1,48,0,0,0,0,0,0,0,0,0,0,0,0,0,0,0,0,0
904741816,1200.0,0.366778,439.99298,0.0,22860,0,16.99973,1744,97,0,0,276,0.055619266,0,0,1,1,0,1,48,0,0,0,0,0,0,0,0,0,0,0,0,0,0,0,0,0
905990746,1200.0,0.366778,332.30515,0.0,22878,0,16.964527,1745,97,0,0,276,0.055587392,0,0,1,1,0,1,48,0,0,0,0,0,0,0,0,0,0,0,0,0,0,0,0,0
907244713,1200.0,0.366778,404.0152,0.0,22893,0,16.833967,1746,97,0,0,276,0.055555556,0,0,1,1,0,1,48,0,0,0,0,0,0,0,0,0,0,0,0,0,0,0,0,0
908253696,1200.0,0.366778,675.8386,0.0,22912,0,0.0,1747,97,0,0,276,0.055523753,0,0,1,1,0,1,48,0,0,0,0,0,0,0,0,0,0,0,0,0,0,0,0,0
908504065,1200.0,0.366778,675.8386,0.0,22914,0,0.0,1747,97,0,0,276,0.055523753,0,0,1,1,0,1,48,0,0,0,0,0,0,0,0,0,0,0,0,0,0,0,0,0
909753783,1200.0,0.366778,425.79947,0.0,22932,0,33.667866,1748,97,0,0,276,0.05549199,0,0,1,1,0,1,48,0,0,0,0,0,0,0,0,0,0,0,0,0,0,0,0,0
911010695,1200.0,0.366778,589.83167,0.0,22951,0,16.880705,1750,97,0,0,276,0.055428572,0,0,1,1,0,1,48,0,0,0,0,0,0,0,0,0,0,0,0,0,0,0,0,0
912261015,1200.0,0.366778,411.9085,0.0,22964,0,16.8328,1751,97,0,0,276,0.055396914,0,0,1,1,0,1,48,0,0,0,0,0,0,0,0,0,0,0,0,0,0,0,0,0
913270733,1200.0,0.366778,514.4566,0.0,22985,0,16.949152,1752,97,0,0,276,0.055365298,0,0,1,1,0,1,48,0,0,0,0,0,0,0,0,0,0,0,0,0,0,0,0,0
913520740,1200.0,0.366778,514.4566,0.0,22987,0,16.949152,1752,97,0,0,276,0.055365298,0,0,1,1,0,1,48,0,0,0,0,0,0,0,0,0,0,0,0,0,0,0,0,0
914770696,1200.0,0.366778,483.60315,0.0,23003,0,16.881424,1754,97,0,0,276,0.055302165,0,0,1,1,0,1,48,0,0,0,0,0,0,0,0,0,0,0,0,0,0,0,0,0
916020831,1200.0,0.366778,597.9162,0.0,23022,0,16.828768,1755,97,0,0,276,0.055270657,0,0,1,1,0,1,48,0,0,0,0,0,0,0,0,0,0,0,0,0,0,0,0,0
916965638,1200.0,0.366778,597.9162,0.0,23033,0,16.828768,1758,139,0,0,278,0.07906712,0,0,1,1,0,1,48,0,1,0,0,0,0,0,0,0,0,0,0,0,0,0,0,0
917755258,1200.0,0.63944364,477.70792,0.0,23065,0,74.64186,1762,139,0,0,278,0.07888763,0,0,1,1,1,1,48,0,1,0,0,0,0,0,0,0,0,0,0,0,0,0,0,0
918671476,1200.0,0.63944364,2647.843,0.0,23123,0,208.4366,1772,139,0,0,278,0.07844244,0,0,1,1,1,1,48,0,1,0,0,0,0,0,0,0,0,0,0,0,0,0,0,0
919732679,1200.0,0.63944364,1213.1476,0.0,23151,0,135.01479,1776,139,0,0,278,0.078265764,0,0,1,1,1,1,48,0,1,0,0,0,0,0,0,0,0,0,0,0,0,0,0,0
920647700,1200.0,0.63944364,680.239,0.0,23175,0,41.708084,1777,139,0,0,278,0.07822172,0,0,1,1,1,1,48,0,1,0,0,0,0,0,0,0,0,0,0,0,0,0,0,0
921677701,1200.0,0.63944364,1094.3931,0.0,23195,0,67.83841,1780,139,0,0,278,0.078089885,0,0,1,1,1,1,48,0,1,0,0,0,0,0,0,0,0,0,0,0,0,0,0,0
922600698,1200.0,0.63944364,815.60156,0.0,23222,0,41.72383,1782,139,0,0,278,0.078002244,0,0,1,1,1,1,48,0,1,0,0,0,0,0,0,0,0,0,0,0,0,0,0,0
923671760,1200.0,0.63944364,1045.5752,0.0,23250,0,41.624794,1784,139,0,0,278,0.0779148,0,0,1,1,1,1,48,0,1,0,0,0,0,0,0,0,0,0,0,0,0,0,0,0
924676698,1200.0,0.63944364,1045.9688,0.0,23270,0,41.95863,1786,139,0,0,278,0.07782755,0,0,1,1,1,1,48,0,1,0,0,0,0,0,0,0,0,0,0,0,0,0,0,0
925741696,1200.0,0.63944364,764.17914,0.0,23299,0,41.791046,1789,139,0,0,278,0.07769704,0,0,1,1,1,1,48,0,1,0,0,0,0,0,0,0,0,0,0,0,0,0,0,0
926650758,1200.0,0.63944364,1022.88556,0.0,23319,0,41.791046,1790,139,0,0,278,0.07765363,0,0,1,1,1,1,48,0,1,0,0,0,0,0,0,0,0,0,0,0,0,0,0,0
927677696,1200.0,0.63944364,1020.8747,0.0,23343,0,41.7495,1792,139,0,0,278,0.07756697,0,0,1,1,1,1,48,0,1,0,0,0,0,0,0,0,0,0,0,0,0,0,0,0
928737430,1200.0,0.63944364,869.30774,0.0,23374,0,41.584198,1795,139,0,0,278,0.07743733,0,0,1,1,1,1,48,0,1,0,0,0,0,0,0,0,0,0,0,0,0,0,0,0
929680700,1200.0,0.63944364,992.66504,0.0,23393,0,41.608715,1796,139,0,0,278,0.07739421,0,0,1,1,1,1,48,0,1,0,0,0,0,0,0,0,0,0,0,0,0,0,0,0
930677740,1200.0,0.63944364,1071.3615,0.0,23418,0,41.97498,1798,139,0,0,278,0.07730812,0,0,1,1,1,1,48,0,1,0,0,0,0,0,0,0,0,0,0,0,0,0,0,0
931727696,1200.0,0.63944364,707.292,0.0,23446,0,67.932,1802,139,0,0,278,0.07713652,0,0,1,1,1,1,48,0,1,0,0,0,0,0,0,0,0,0,0,0,0,0,0,0
932754716,1200.0,0.63944364,1189.3677,0.0,23468,0,41.87212,1803,139,0,0,278,0.077093735,0,0,1,1,1,1,48,0,1,0,0,0,0,0,0,0,0,0,0,0,0,0,0,0
933675711,1200.0,0.63944364,957.21423,0.0,23491,0,41.834545,1805,139,0,0,278,0.07700831,0,0,1,1,1,1,48,0,1,0,0,0,0,0,0,0,0,0,0,0,0,0,0,0
934748693,1200.0,0.63944364,746.54126,0.0,23522,0,41.584526,1807,139,0,0,278,0.07692308,0,0,1,1,1,1,48,0,1,0,0,0,0,0,0,0,0,0,0,0,0,0,0,0
935748696,1200.0,0.63944364,1111.5708,0.0,23539,0,41.870827,1809,139,0,0,278,0.07683803,0,0,1,1,1,1,48,0,1,0,0,0,0,0,0,0,0,0,0,0,0,0,0,0
936807917,1200.0,0.63944364,996.1234,0.0,23567,0,41.587658,1812,139,0,0,278,0.07671082,0,0,1,1,1,1,48,0,1,0,0,0,0,0,0,0,0,0,0,0,0,0,0,0
937769372,1200.0,0.63944364,742.31915,0.0,23595,0,41.625374,1814,139,0,0,278,0.07662624,0,0,1,1,1,1,48,0,1,0,0,0,0,0,0,0,0,0,0,0,0,0,0,0
938748812,1200.0,0.63944364,1166.8331,0.0,23614,0,41.95804,1815,139,0,0,278,0.07658402,0,0,1,1,1,1,48,0,1,0,0,0,0,0,0,0,0,0,0,0,0,0,0,0
939803822,1200.0,0.63944364,832.65106,0.0,23640,0,41.831753,1818,139,0,0,278,0.07645765,0,0,1,1,1,1,48,0,1,0,0,0,0,0,0,0,0,0,0,0,0,0,0,0
940737743,1200.0,0.63944364,838.18024,0.0,23660,0,41.958965,1820,139,0,0,278,0.07637363,0,0,1,1,1,1,48,0,1,0,0,0,0,0,0,0,0,0,0,0,0,0,0,0
941754735,1200.0,0.63944364,1121.903,0.0,23687,0,67.39346,1822,139,0,0,278,0.07628979,0,0,1,1,1,1,48,0,1,0,0,0,0,0,0,0,0,0,0,0,0,0,0,0
942805716,1200.0,0.63944364,909.5437,0.0,23716,0,41.749546,1825,139,0,0,278,0.07616439,0,0,1,1,1,1,48,0,1,0,0,0,0,0,0,0,0,0,0,0,0,0,0,0
943825698,1200.0,0.63944364,874.87494,0.0,23737,0,41.708,1827,139,0,0,278,0.07608101,0,0,1,1,1,1,48,0,1,0,0,0,0,0,0,0,0,0,0,0,0,0,0,0
944892696,1200.0,0.63944364,1186.9998,0.0,23764,0,41.78876,1829,139,0,0,278,0.075997815,0,0,1,1,1,1,48,0,1,0,0,0,0,0,0,0,0,0,0,0,0,0,0,0
945803766,1200.0,0.63944364,685.6664,0.0,23788,0,41.91847,1831,139,0,0,278,0.0759148,0,0,1,1,1,1,48,0,1,0,0,0,0,0,0,0,0,0,0,0,0,0,0,0
946824695,1200.0,0.63944364,1069.8357,0.0,23810,0,41.915207,1833,139,0,0,278,0.07583197,0,0,1,1,1,1,48,0,1,0,0,0,0,0,0,0,0,0,0,0,0,0,0,0
947881718,1200.0,0.63944364,1076.6062,0.0,23837,0,41.79063,1835,139,0,0,278,0.075749315,0,0,1,1,1,1,48,0,1,0,0,0,0,0,0,0,0,0,0,0,0,0,0,0
948812798,1200.0,0.63944364,746.5591,0.0,23863,0,41.585518,1837,139,0,0,278,0.075666845,0,0,1,1,1,1,48,0,1,0,0,0,0,0,0,0,0,0,0,0,0,0,0,0
949823970,1200.0,0.63944364,990.04083,0.0,23881,0,41.83271,1839,139,0,0,278,0.07558455,0,0,1,1,1,1,48,0,1,0,0,0,0,0,0,0,0,0,0,0,0,0,0,0
950892738,1200.0,0.63944364,978.2169,0.0,23912,0,41.584118,1842,139,0,0,278,0.075461455,0,0,1,1,1,1,48,0,1,0,0,0,0,0,0,0,0,0,0,0,0,0,0,0
951825695,1200.0,0.63944364,906.2613,0.0,23936,0,67.79513,1844,139,0,0,278,0.07537961,0,0,1,1,1,1,48,0,1,0,0,0,0,0,0,0,0,0,0,0,0,0,0,0
952826695,1200.0,0.63944364,1037.6837,0.0,23957,0,41.626278,1846,139,0,0,278,0.075297944,0,0,1,1,1,1,48,0,1,0,0,0,0,0,0,0,0,0,0,0,0,0,0,0
953880714,1200.0,0.63944364,777.1152,0.0,23985,0,41.791084,1848,139,0,0,278,0.07521645,0,0,1,1,1,1,48,0,1,0,0,0,0,0,0,0,0,0,0,0,0,0,0,0
954905696,1200.0,0.63944364,1010.9088,0.0,24011,0,41.83071,1850,139,0,0,278,0.075135134,0,0,1,1,1,1,48,0,1,0,0,0,0,0,0,0,0,0,0,0,0,0,0,0
955827697,1200.0,0.63944364,989.0564,0.0,24029,0,41.95997,1852,139,0,0,278,0.075054,0,0,1,1,1,1,48,0,1,0,0,0,0,0,0,0,0,0,0,0,0,0,0,0
956889696,1200.0,0.63944364,846.7662,0.0,24059,0,41.791046,1854,139,0,0,278,0.07497303,0,0,1,1,1,1,48,0,1,0,0,0,0,0,0,0,0,0,0,0,0,0,0,0
957901294,1200.0,0.63944364,1018.81287,0.0,24081,0,41.584198,1856,139,0,0,278,0.07489224,0,0,1,1,1,1,48,0,1,0,0,0,0,0,0,0,0,0,0,0,0,0,0,0
958831711,1200.0,0.63944364,1107.891,0.0,24104,0,41.958,1858,139,0,0,278,0.07481162,0,0,1,1,1,1,48,0,1,0,0,0,0,0,0,0,0,0,0,0,0,0,0,0
959876719,1200.0,0.63944364,693.06866,0.0,24132,0,41.584118,1860,139,0,0,278,0.074731186,0,0,1,1,1,1,48,0,1,0,0,0,0,0,0,0,0,0,0,0,0,0,0,0
960909719,1200.0,0.63944364,1170.6361,0.0,24155,0,41.66671,1863,139,0,0,278,0.074610844,0,0,1,1,1,1,48,0,1,0,0,0,0,0,0,0,0,0,0,0,0,0,0,0
961959724,1200.0,0.63944364,975.167,0.0,24180,0,67.52684,1865,139,0,0,278,0.07453083,0,0,1,1,1,1,48,0,1,0,0,0,0,0,0,0,0,0,0,0,0,0,0,0
962875697,1200.0,0.63944364,764.71124,0.0,24207,0,41.87467,1867,139,0,0,278,0.07445099,0,0,1,1,1,1,48,0,1,0,0,0,0,0,0,0,0,0,0,0,0,0,0,0
963908695,1200.0,0.63944364,1092.1705,0.0,24225,0,41.625374,1869,139,0,0,278,0.07437132,0,0,1,1,1,1,48,0,1,0,0,0,0,0,0,0,0,0,0,0,0,0,0,0
964958315,1200.0,0.63944364,1041.958,0.0,24254,0,41.95804,1871,139,0,0,278,0.074291825,0,0,1,1,1,1,48,0,1,0,0,0,0,0,0,0,0,0,0,0,0,0,0,0
965950697,1200.0,0.63944364,723.5529,0.0,24281,0,41.91617,1873,139,0,0,278,0.07421249,0,0,1,1,1,1,48,0,1,0,0,0,0,0,0,0,0,0,0,0,0,0,0,0
966910697,1200.0,0.63944364,1144.6989,0.0,24300,0,41.625412,1875,139,0,0,278,0.07413334,0,0,1,1,1,1,48,0,1,0,0,0,0,0,0,0,0,0,0,0,0,0,0,0
967972742,1200.0,0.63944364,835.9992,0.0,24327,0,41.99996,1877,139,0,0,278,0.074054345,0,0,1,1,1,1,48,0,1,0,0,0,0,0,0,0,0,0,0,0,0,0,0,0
968877696,1200.0,0.63944364,849.32544,0.0,24346,0,41.868156,1879,139,0,0,278,0.07397552,0,0,1,1,1,1,48,0,1,0,0,0,0,0,0,0,0,0,0,0,0,0,0,0
969907747,1200.0,0.63944364,1094.8795,0.0,24372,0,41.88064,1881,139,0,0,278,0.07389686,0,0,1,1,1,1,48,0,1,0,0,0,0,0,0,0,0,0,0,0,0,0,0,0
970965696,1200.0,0.63944364,837.12354,0.0,24402,0,41.95607,1884,139,0,0,278,0.073779196,0,0,1,1,1,1,48,0,1,0,0,0,0,0,0,0,0,0,0,0,0,0,0,0
971985696,1200.0,0.63944364,947.46387,0.0,24422,0,67.463394,1886,139,0,0,278,0.07370096,0,0,1,1,1,1,48,0,1,0,0,0,0,0,0,0,0,0,0,0,0,0,0,0
973050716,1200.0,0.63944364,1174.0581,0.0,24450,0,41.788506,1888,139,0,0,278,0.07362288,0,0,1,1,1,1,48,0,1,0,0,0,0,0,0,0,0,0,0,0,0,0,0,0
973963696,1200.0,0.63944364,716.875,0.0,24475,0,41.586674,1890,139,0,0,278,0.07354497,0,0,1,1,1,1,48,0,1,0,0,0,0,0,0,0,0,0,0,0,0,0,0,0
974991714,1200.0,0.63944364,1080.6774,0.0,24498,0,41.832672,1892,139,0,0,278,0.07346723,0,0,1,1,1,1,48,0,1,0,0,0,0,0,0,0,0,0,0,0,0,0,0,0
976032014,1200.0,0.63944364,1065.8026,0.0,24524,0,41.874374,1894,139,0,0,278,0.07338965,0,0,1,1,1,1,48,0,1,0,0,0,0,0,0,0,0,0,0,0,0,0,0,0
976956696,1200.0,0.63944364,750.7141,0.0,24549,0,41.816967,1896,139,0,0,278,0.07331224,0,0,1,1,1,1,48,0,1,0,0,0,0,0,0,0,0,0,0,0,0,0,0,0
