timestamp,timestamp_sample,lat,lon,alt,alt_ellipsoid,delta_alt,eph,epv,terrain_alt,lat_lon_reset_counter,alt_reset_counter,terrain_alt_valid,dead_reckoning
539374294,539373583,42.35858129359789,-71.08728560267997,0.4894619,-29.408178,0.0,2.6554449,2.6211905,0.39322805,3,61,1,0
539384178,539383538,42.35858130089014,-71.08728560862835,0.48965883,-29.407982,0.0,2.6557367,2.62135,0.39313745,3,61,1,0
539573461,539572675,42.35858140952775,-71.08728568842366,0.49012232,-29.387495,0.0,2.6555865,2.6217604,0.38313246,3,61,1,0
539772415,539771767,42.35858147735363,-71.08728571593132,0.48311567,-29.374086,0.0,2.6560338,2.6217136,0.38141966,3,61,1,0
539971517,539970859,42.35858155259612,-71.08728576065442,0.47990322,-29.357037,0.0,2.6556618,2.6214592,0.38247252,3,61,1,0
540170534,540169951,42.3585816725827,-71.08728589863647,0.47871065,-29.338428,0.0,2.6534302,2.621371,0.37561035,3,61,1,0
540369706,540369043,42.35858182157533,-71.08728606163942,0.4768443,-29.320393,0.0,2.6517186,2.620686,0.38196278,3,61,1,0
540568961,540568136,42.35858196280399,-71.08728624704017,0.47999096,-29.297249,0.0,2.649787,2.619891,0.38629913,3,61,1,0
540777925,540777182,42.35858206326374,-71.08728654150796,0.48389912,-29.27354,0.0,2.6488233,2.6194797,0.38653135,3,61,1,0
540976897,540976274,42.358582094621816,-71.08728690197077,0.48780394,-29.249134,0.0,2.6476512,2.6195402,0.39786148,3,61,1,0
541175962,541175366,42.358582107428695,-71.0872872861458,0.49597025,-29.221668,0.0,2.6473029,2.6192818,0.4064083,3,61,1,0
541375111,541374459,42.358582132873195,-71.08728768417619,0.5053711,-29.191666,0.0,2.6467366,2.6189427,0.41845226,3,61,1,0
541574163,541573551,42.358582157738795,-71.08728801486811,0.5159297,-29.160807,0.0,2.646189,2.6192276,0.42325306,3,61,1,0
541773347,541772646,42.35858223180193,-71.08728824243263,0.52212954,-29.134308,0.0,2.6465187,2.6192398,0.42422724,3,61,1,0
541972402,541971735,42.35858230847237,-71.08728846270243,0.5277419,-29.109295,0.0,2.6466208,2.6191523,0.43452883,3,61,1,0
542171496,542170827,42.35858236605344,-71.08728870299358,0.5351,-29.082436,0.0,2.6468835,2.6197414,0.44241333,3,61,1,0
542370593,542369919,42.358582397467245,-71.08728908913014,0.54447556,-29.05326,0.0,2.6471248,2.6196933,0.4534273,3,61,1,0
542569657,542569011,42.35858244061166,-71.0872895522735,0.55830383,-29.019333,0.0,2.6473176,2.619618,0.46833372,3,61,1,0
542768735,542768104,42.358582528290114,-71.08728989776384,0.5715976,-28.985239,0.0,2.6465998,2.619859,0.4765005,3,61,1,0
542977856,542977150,42.35858263336196,-71.08729011281359,0.5863285,-28.95029,0.0,2.6464775,2.619743,0.48862648,3,61,1,0
543176853,543176242,42.35858268403886,-71.08729031965166,0.5973172,-28.91912,0.0,2.646422,2.6195836,0.49482107,3,61,1,0
543375954,543375335,42.358582640810575,-71.08729054158113,0.6066909,-28.888746,0.0,2.6463847,2.6194274,0.5039792,3,61,1,0
543575078,543574427,42.35858263559383,-71.08729064102343,0.615695,-28.860943,0.0,2.6463778,2.6199105,0.5086174,3,63,1,0
543774082,543773519,42.35858268799256,-71.08729063918382,0.62243605,-28.834301,0.0,2.6455965,2.6194894,0.51435137,3,63,1,0
543973262,543972611,42.35858279426947,-71.0872906795748,0.6284075,-28.808231,0.0,2.6455145,2.619313,0.5201812,3,63,1,0
544172307,544171704,42.35858293613713,-71.08729072281523,0.6331973,-28.783539,0.0,2.645531,2.6197975,0.5277605,3,63,1,0
544371360,544370796,42.35858300764883,-71.087290676151,0.6401043,-28.756632,0.0,2.6453233,2.6195827,0.5354047,3,63,1,0
544570479,544569888,42.35858305902911,-71.08729062987558,0.6439109,-28.732826,0.0,2.645169,2.6193833,0.5354271,3,63,1,0
544769563,544768980,42.35858318321184,-71.08729059778926,0.6448312,-28.712008,0.0,2.6454587,2.619959,0.5375595,3,63,1,0
544968698,544968073,42.358583312686314,-71.08729061786003,0.64840317,-28.689434,0.0,2.6463358,2.6200867,0.54224014,3,63,1,0
545168213,545167165,42.3585834308461,-71.08729066948911,0.6511464,-28.665691,0.0,2.646596,2.6200023,0.55120754,3,63,1,0
545376948,545376212,42.35858350058027,-71.08729071731987,0.65491056,-28.642027,0.0,2.6465034,2.6198647,0.54676247,3,63,1,0
545575870,545575304,42.358583452409775,-71.08729080072476,0.6549239,-28.622213,0.0,2.6471236,2.6205246,0.54800797,3,63,1,0
545775079,545774396,42.358583398583,-71.08729089618888,0.65756273,-28.598675,0.0,2.6479971,2.6206121,0.55628586,3,63,1,0
545974103,545973489,42.358583394500506,-71.08729099126421,0.663435,-28.573402,0.0,2.6482832,2.6205094,0.56292677,3,63,1,0
546173145,546172581,42.35858344027381,-71.08729103211942,0.67127466,-28.545763,0.0,2.6482058,2.6209571,0.57401514,3,65,1,0
546372358,546371673,42.35858347798725,-71.08729104447175,0.6804657,-28.516472,0.0,2.6489313,2.6209729,0.57748604,3,65,1,0
546571415,546570765,42.35858350446753,-71.08729098869922,0.68364286,-28.492992,0.0,2.6494699,2.6209345,0.5783038,3,65,1,0
546770523,546769858,42.358583563871235,-71.08729086969406,0.68524075,-28.470997,0.0,2.6498287,2.6208415,0.5774832,3,65,1,0
546969518,546968950,42.35858370176799,-71.08729071178368,0.68444014,-28.452291,0.0,2.650118,2.621398,0.5730767,3,65,1,0
547178564,547177997,42.358583879951205,-71.08729050810275,0.68215036,-28.434687,0.0,2.6510055,2.6215196,0.5726304,3,65,1,0
547377977,547377089,42.35858401586034,-71.08729035061889,0.67806053,-28.418877,0.0,2.650984,2.621306,0.5760002,3,65,1,0
547576745,547576181,42.35858409521967,-71.08729019239509,0.6769047,-28.401031,0.0,2.651604,2.621959,0.57013845,3,65,1,0
547775902,547775274,42.358584189731715,-71.08728997672159,0.67584324,-28.380592,0.0,2.6520486,2.621869,0.57050705,3,65,1,0
547974997,547974366,42.358584311221435,-71.08728988656463,0.67416143,-28.362574,0.0,2.6515784,2.6215281,0.571928,3,65,1,0
548174030,548173465,42.358584381879744,-71.0872898675821,0.66877556,-28.348162,0.0,2.6516647,2.6220326,0.5570278,3,65,1,0
548373149,548372551,42.358584604539026,-71.08728975815536,0.6601052,-28.336933,0.0,2.6519647,2.6218874,0.54822254,3,65,1,0
548572410,548571644,42.35858490499238,-71.08728954258065,0.6519604,-28.324978,0.0,2.6528063,2.6218858,0.54796505,3,65,1,0
548771393,548770736,42.35858513309998,-71.0872892860811,0.64612436,-28.310814,0.0,2.6532972,2.621784,0.54669046,3,65,1,0
548970442,548969828,42.358585273447524,-71.08728909960979,0.63903284,-28.298706,0.0,2.6539793,2.6224353,0.53567934,3,65,1,0
549169651,549168921,42.35858533588949,-71.08728897478973,0.6327076,-28.28413,0.0,2.65433,2.6222858,0.531878,3,65,1,0
549368578,549368013,42.35858536561172,-71.08728890185395,0.6271162,-28.269623,0.0,2.6541553,2.6220126,0.52631664,3,65,1,0
549567880,549567105,42.35858540034696,-71.08728885381723,0.62029123,-28.256548,0.0,2.6535876,2.6223464,0.52124166,3,65,1,0
549766780,549766198,42.358585407982254,-71.08728890513575,0.6172681,-28.23907,0.0,2.652841,2.6219108,0.5262208,3,65,1,0
549975808,549975245,42.35858554671513,-71.08728904161185,0.61781025,-28.219128,0.0,2.6527116,2.6217246,0.5285659,3,65,1,0
550175065,550174337,42.358585774556744,-71.08728914209891,0.6183553,-28.199385,0.0,2.6522534,2.6213682,0.52968645,3,65,1,0
550374030,550373430,42.358585967444455,-71.08728916541956,0.6209297,-28.175909,0.0,2.652325,2.6218657,0.5280566,3,65,1,0
550573116,550572522,42.35858602355259,-71.08728910081444,0.622087,-28.154852,0.0,2.6519327,2.6215332,0.53279305,3,65,1,0
550772330,550771615,42.358586024809085,-71.08728904064881,0.6247091,-28.132229,0.0,2.6505265,2.6208951,0.53914785,3,65,1,0
550971285,550970707,42.35858603605299,-71.08728907958891,0.6304035,-28.106535,0.0,2.6494153,2.6210098,0.54895735,3,65,1,0
551170367,551169800,42.35858607365708,-71.08728911281858,0.6388478,-28.078081,0.0,2.6494267,2.6208148,0.5532532,3,65,1,0
551369592,551368892,42.358586126098686,-71.08728913333036,0.64659214,-28.050747,0.0,2.6493373,2.62059,0.5608239,3,65,1,0
551578753,551577939,42.35858620445447,-71.08728920751099,0.6569371,-28.021004,0.0,2.648972,2.6203473,0.5726352,3,65,1,0
551777599,551777032,42.35858628393808,-71.08728927322753,0.66495275,-27.992546,0.0,2.6484802,2.6206555,0.5682311,3,65,1,0
551976691,551976124,42.35858641016416,-71.08728933634711,0.6686163,-27.973969,0.0,2.648313,2.6204047,0.574584,3,65,1,0
552175840,552175217,42.35858659924813,-71.08728940795986,0.67418814,-27.953875,0.0,2.6482868,2.6202083,0.5856614,3,65,1,0
552374876,552374309,42.35858673523009,-71.08728944732658,0.6818824,-27.93357,0.0,2.6481419,2.6206338,0.5871725,3,65,1,0
552574077,552573402,42.358586791998604,-71.0872894566235,0.6894293,-27.915867,0.0,2.6476142,2.6202726,0.59364605,3,65,1,0
552773214,552772494,42.358586827955946,-71.08728957794425,0.693552,-27.903542,0.0,2.6463764,2.619658,0.5946574,3,65,1,0
552972232,552971587,42.3585868331919,-71.08728974580158,0.694087,-27.895111,0.0,2.6453788,2.6197596,0.58550835,3,65,1,0
553171246,553170680,42.3585869253946,-71.08728985215859,0.6914191,-27.891508,0.0,2.645022,2.6194663,0.5899706,3,65,1,0
553370472,553369772,42.35858705874781,-71.08728996425506,0.68731976,-27.889736,0.0,2.6442008,2.6189969,0.5779185,3,65,1,0
553569454,553568865,42.35858720903548,-71.08729020061166,0.6802926,-27.89194,0.0,2.643016,2.618985,0.568347,3,65,1,0
553768577,553767957,42.358587325346925,-71.08729047475926,0.6733837,-27.895027,0.0,2.643198,2.6189299,0.5754881,3,65,1,0
553967736,553967050,42.35858741709501,-71.08729071018729,0.6733208,-27.89177,0.0,2.6430027,2.618717,0.57771206,3,65,1,0
554177121,554176097,42.35858738895086,-71.08729086194047,0.67601395,-27.885967,0.0,2.6427016,2.6185138,0.58457613,3,65,1,0
554375763,554375190,42.35858730112643,-71.08729097851115,0.6796646,-27.879103,0.0,2.6425004,2.6189015,0.58512306,3,65,1,0
554574898,554574282,42.35858725370639,-71.0872910674872,0.684896,-27.87087,0.0,2.6427286,2.618858,0.590055,3,65,1,0
554773972,554773375,42.358587199193515,-71.08729107994974,0.69106054,-27.861866,0.0,2.6423738,2.6185825,0.6042614,3,65,1,0
554973098,554972468,42.35858699147268,-71.08729080351847,0.7001581,-27.850761,0.0,2.6424658,2.6190886,0.6142225,3,65,1,0
555172173,555171560,42.358586736237505,-71.08729040673269,0.70773363,-27.84287,0.0,2.6421056,2.618823,0.60840416,3,65,1,0
555371270,555370653,42.358586650673104,-71.08729028795085,0.7125559,-27.83894,0.0,2.6415403,2.618474,0.6210637,3,65,1,0
555570365,555569746,42.35858653310939,-71.08729025238239,0.72071123,-27.832499,0.0,2.6412935,2.6188452,0.63016605,3,65,1,0
555769515,555768838,42.35858641251813,-71.08729021894374,0.7278533,-27.827202,0.0,2.6397908,2.6181033,0.6363244,3,65,1,0
555968507,555967931,42.358586321606204,-71.08729012953525,0.735867,-27.82112,0.0,2.6398215,2.6180074,0.6393566,3,65,1,0
556177643,556176978,42.35858625500038,-71.08728998761279,0.7450471,-27.814865,0.0,2.6402638,2.6181347,0.65197945,3,65,1,0
556376948,556376071,42.35858624819057,-71.08728999675007,0.7533212,-27.810059,0.0,2.6400793,2.6185327,0.6533165,3,65,1,0
556575730,556575164,42.35858631749377,-71.08729001443275,0.7575679,-27.809057,0.0,2.6397555,2.6182823,0.65613174,3,65,1,0
556774835,556774256,42.35858643281474,-71.08728996452162,0.7624459,-27.807592,0.0,2.639637,2.6181083,0.65913534,3,65,1,0
556973952,556973349,42.35858655709394,-71.08728997162493,0.7677865,-27.805626,0.0,2.640182,2.6187782,0.6701765,3,65,1,0
557173023,557172442,42.3585866609394,-71.08729000022652,0.777452,-27.798819,0.0,2.6409168,2.6189134,0.67943,3,65,1,0
557372135,557371535,42.358586719324606,-71.08728996419391,0.78658247,-27.792612,0.0,2.641158,2.6188548,0.68995714,3,65,1,0
557571391,557570627,42.358586766453016,-71.08728998697477,0.79694796,-27.784924,0.0,2.641289,2.6187458,0.6995516,3,65,1,0
557770303,557769720,42.35858683096188,-71.08729002990756,0.8050275,-27.779785,0.0,2.6420767,2.6194732,0.70180607,3,65,1,0
557969378,557968813,42.35858691041549,-71.08729008790863,0.8115473,-27.775421,0.0,2.642714,2.6195264,0.7097707,3,65,1,0
558168631,558167906,42.35858698004032,-71.08729005366054,0.81404257,-27.776796,0.0,2.6425936,2.6193297,0.70281506,3,65,1,0
558377573,558376953,42.35858709542995,-71.08728992835883,0.81071997,-27.783867,0.0,2.6426363,2.6198876,0.6955342,3,65,1,0
558576849,558576046,42.3585872226038,-71.08728979306093,0.8072529,-27.79126,0.0,2.6425908,2.6197162,0.69528866,3,65,1,0
558775752,558775139,42.358587330613226,-71.08728973895983,0.80509806,-27.795414,0.0,2.6428182,2.6196373,0.7023182,3,65,1,0
558974862,558974232,42.35858738825649,-71.08728986872728,0.8066907,-27.796543,0.0,2.642888,2.620139,0.69928217,3,65,1,0
559173924,559173324,42.358587429552735,-71.08729010081258,0.808445,-27.797745,0.0,2.642644,2.619895,0.70949316,3,65,1,0
559373004,559372417,42.35858747125637,-71.08729031735375,0.81758356,-27.791801,0.0,2.6424215,2.6196554,0.72028685,3,65,1,0
559572249,559571510,42.35858749464474,-71.087290379449,0.8201237,-27.793186,0.0,2.6425614,2.6195397,0.71203136,3,65,1,0
559771280,559770603,42.35858751177222,-71.0872903445074,0.8164153,-27.801199,0.0,2.6426587,2.6200387,0.70319843,3,65,1,0
559970259,559969696,42.35858753853125,-71.08729023201928,0.8106227,-27.81164,0.0,2.6424277,2.6197853,0.69372463,3,65,1,0
560169404,560168789,42.35858756547467,-71.08729013483446,0.8033061,-27.823256,0.0,2.6428664,2.61976,0.69865227,3,65,1,0
560368497,560367882,42.358587617689004,-71.08729016094641,0.80225086,-27.828411,0.0,2.6430597,2.6202881,0.70112085,3,65,1,0
560567548,560566974,42.35858766639978,-71.08729018608341,0.800169,-27.833597,0.0,2.643295,2.620177,0.6994138,3,65,1,0
560776638,560776022,42.358587777278075,-71.08729015790558,0.7997775,-27.836536,0.0,2.6437242,2.6202004,0.6997328,3,65,1,0
560976173,560975115,42.35858791729537,-71.08729007056033,0.7981467,-27.840307,0.0,2.6439102,2.62007,0.69399977,3,65,1,0
561174770,561174208,42.3585879710535,-71.08729003650083,0.79631996,-27.84324,0.0,2.6441574,2.6206079,0.6982393,3,65,1,0
561373907,561373300,42.358587915039735,-71.0872900597488,0.7959752,-27.8442,0.0,2.6447935,2.620611,0.6965966,3,65,1,0
561573080,561572393,42.35858783357489,-71.08729008227132,0.79449654,-27.8463,0.0,2.6449454,2.6204612,0.69389534,3,65,1,0
561772047,561771486,42.35858776469193,-71.08729010266114,0.78933,-27.85315,0.0,2.6444535,2.620777,0.67815113,3,65,1,0
561971273,561970579,42.358587698639305,-71.08728995699556,0.77761984,-27.866343,0.0,2.6440246,2.6204326,0.6666827,3,65,1,0
562170252,562169672,42.35858762494493,-71.0872897789679,0.76830053,-27.876741,0.0,2.6430938,2.6199193,0.6728544,3,65,1,0
562369335,562368765,42.358587534307496,-71.08728958927563,0.76591873,-27.880136,0.0,2.6438925,2.6206348,0.6737075,3,65,1,0
562578413,562577813,42.358587512094196,-71.08728934750754,0.76409006,-27.883898,0.0,2.644412,2.6206648,0.6663265,3,65,1,0
562777567,562776906,42.358587552275615,-71.08728918261282,0.7636404,-27.885609,0.0,2.6442156,2.6203835,0.67326784,3,65,1,0
562976588,562975999,42.35858753704792,-71.08728901557083,0.76706314,-27.884035,0.0,2.6444626,2.6202595,0.67787313,3,65,1,0
563176000,563175092,42.3585874464362,-71.08728886960927,0.7688818,-27.884838,0.0,2.6446333,2.620762,0.67372274,3,65,1,0
563374749,563374185,42.358587354906774,-71.08728876156641,0.77046776,-27.885769,0.0,2.6444485,2.6204984,0.6736827,3,65,1,0
563573859,563573278,42.358587293995825,-71.0872885800452,0.7702193,-27.88805,0.0,2.6444979,2.62031,0.6758709,3,65,1,0
563772959,563772371,42.358587194224285,-71.08728847982806,0.76960135,-27.890852,0.0,2.645142,2.620979,0.6689167,3,65,1,0
563972033,563971464,42.35858705210579,-71.08728835203948,0.76513624,-27.896698,0.0,2.6448693,2.6206813,0.65904284,3,65,1,0
564171142,564170557,42.35858689170629,-71.08728818696473,0.7589712,-27.904552,0.0,2.6444461,2.6203315,0.6547055,3,65,1,0
564370423,564369650,42.358586792003344,-71.08728810549225,0.7535963,-27.911465,0.0,2.645199,2.6210296,0.6528578,3,65,1,0
564569325,564568743,42.358586694491706,-71.08728810759298,0.7510519,-27.914513,0.0,2.64532,2.6208518,0.65223455,3,65,1,0
564768459,564767835,42.35858663138507,-71.08728814775172,0.7519269,-27.914114,0.0,2.6459754,2.6208398,0.65735054,3,65,1,0
564967553,564966929,42.35858650259885,-71.08728819888735,0.75211334,-27.914022,0.0,2.6465409,2.6207864,0.6588111,3,65,1,0
565166599,565166022,42.358586256754954,-71.08728807945836,0.74805546,-27.917568,0.0,2.6472113,2.6214464,0.65284395,3,65,1,0
565376043,565375069,42.35858596289927,-71.08728792697956,0.7451978,-27.91953,0.0,2.6480682,2.6215472,0.6520257,3,65,1,0
565574874,565574162,42.35858570066764,-71.08728785924627,0.7441468,-27.919191,0.0,2.6482987,2.62138,0.65218735,3,65,1,0
565774010,565773255,42.358585454214804,-71.08728776356145,0.7434373,-27.91765,0.0,2.6471865,2.6208272,0.6457834,3,65,1,0
565972952,565972348,42.35858517022863,-71.08728765364981,0.7401271,-27.918634,0.0,2.6477897,2.6214507,0.6450887,3,65,1,0
566172008,566171441,42.35858491407567,-71.08728753465316,0.7364197,-27.920786,0.0,2.6467845,2.6209052,0.63516665,3,65,1,0
566371152,566370534,42.358584606647526,-71.08728736694944,0.73226166,-27.923555,0.0,2.6475446,2.6215768,0.6353092,3,65,1,0
566570335,566569628,42.35858430775098,-71.08728712454574,0.730422,-27.924496,0.0,2.6478512,2.6214228,0.63484573,3,65,1,0
566779315,566778679,42.358584044320864,-71.0872867554388,0.73294306,-27.921726,0.0,2.6487496,2.6215196,0.64213085,3,65,1,0
566978412,566977768,42.35858391215562,-71.08728626189192,0.7328248,-27.922123,0.0,2.6492603,2.621414,0.6379423,3,65,1,0
567177424,567176861,42.35858379848796,-71.08728580142675,0.72580624,-27.930546,0.0,2.6495235,2.6219287,0.6257701,3,65,1,0
567376540,567375954,42.35858369941552,-71.08728533724167,0.7202625,-27.937555,0.0,2.6501422,2.621847,0.6222677,3,65,1,0
567575759,567575047,42.35858365728313,-71.08728484496868,0.7135587,-27.946802,0.0,2.6507764,2.6217601,0.6081004,3,65,1,0
567774861,567774140,42.35858371950012,-71.08728418770527,0.70377445,-27.958035,0.0,2.6516905,2.6224566,0.59918356,3,65,1,0
567973849,567973234,42.358583789307445,-71.08728334762363,0.6971798,-27.965765,0.0,2.652477,2.622401,0.60198593,3,65,1,0
568172920,568172327,42.358583688837065,-71.0872827201252,0.68916464,-27.975681,0.0,2.652513,2.6221433,0.5879364,3,65,1,0
568372170,568371420,42.358583457755735,-71.0872822621902,0.6799798,-27.98633,0.0,2.6529348,2.621978,0.587739,3,65,1,0
568571084,568570513,42.35858318405943,-71.087281842554,0.67472124,-27.992731,0.0,2.6539874,2.6226933,0.58212805,3,65,1,0
568770332,568769606,42.358582848023985,-71.08728183023055,0.67089415,-28.000996,0.0,2.654962,2.6226575,0.58032656,3,65,1,0
568969319,568968699,42.358582453408154,-71.08728207639147,0.66658497,-28.00967,0.0,2.6560066,2.6226356,0.57770205,3,65,1,0
569168464,569167792,42.35858212247152,-71.08728199716478,0.6605253,-28.020725,0.0,2.6558397,2.6230612,0.56406784,3,65,1,0
569367542,569366885,42.358581980871904,-71.08728187013934,0.65300894,-28.03362,0.0,2.6563983,2.6229253,0.55611324,3,65,1,0
569576501,569575933,42.35858195361548,-71.08728184545792,0.6468873,-28.0457,0.0,2.6577687,2.6230702,0.55604553,3,65,1,0
569775610,569775026,42.358581927250995,-71.08728190847296,0.6406336,-28.05791,0.0,2.657143,2.6233985,0.54284,3,65,1,0
569974696,569974119,42.358581831997164,-71.08728182976576,0.632422,-28.070736,0.0,2.657609,2.6232262,0.5372062,3,65,1,0
570173779,570173212,42.35858170393147,-71.0872815068067,0.6271415,-28.079351,0.0,2.6587253,2.6232126,0.54261017,3,65,1,0
570372971,570372305,42.35858153474956,-71.08728120315516,0.62767315,-28.082932,0.0,2.6596289,2.6231387,0.5466685,3,65,1,0
570572014,570571398,42.35858138840279,-71.08728109007214,0.6321831,-28.083925,0.0,2.6612227,2.6239703,0.55212593,3,65,1,0
570771058,570770491,42.35858130419993,-71.08728095180868,0.6418247,-28.080292,0.0,2.6629624,2.624053,0.56107855,3,65,1,0
570970225,570969584,42.35858132802148,-71.0872807418659,0.64994144,-28.079723,0.0,2.6642668,2.6240325,0.5650115,3,65,1,0
571169380,571168677,42.358581444860576,-71.08728043993808,0.65371656,-28.08318,0.0,2.6651523,2.6247141,0.55871964,3,65,1,0
571378396,571377725,42.35858159449013,-71.08728021480525,0.6538596,-28.089329,0.0,2.6670816,2.6249037,0.5602746,3,65,1,0
571577470,571576818,42.35858178544812,-71.08728015866429,0.65520144,-28.09385,0.0,2.6686053,2.6249056,0.56447935,3,65,1,0
571776599,571775911,42.35858193514194,-71.0872801569611,0.6547866,-28.10131,0.0,2.6693654,2.6247675,0.56040955,3,65,1,0
571975621,571975004,42.3585820269523,-71.08728014581882,0.65308,-28.110483,0.0,2.6702428,2.6254652,0.55911446,3,65,1,0
572174984,572174097,42.35858199855091,-71.0872800619003,0.65537643,-28.11578,0.0,2.6702647,2.625182,0.5619707,3,65,1,0
572373816,572373190,42.35858188874476,-71.08727987716696,0.6574378,-28.121716,0.0,2.6713645,2.625095,0.5714946,3,65,1,0
572572989,572572283,42.35858186283703,-71.08727974795956,0.66269636,-28.12485,0.0,2.6714334,2.6256502,0.5710087,3,65,1,0
572771962,572771377,42.35858175505493,-71.08727967583908,0.66238785,-28.134531,0.0,2.6705997,2.625196,0.5672684,3,65,1,0
572971053,572970470,42.35858150649869,-71.08727956082643,0.6661129,-28.138596,0.0,2.671548,2.6250756,0.5783291,3,65,1,0
573170185,573169563,42.35858127243261,-71.08727940558246,0.6712532,-28.141697,0.0,2.6726148,2.6258063,0.577374,3,65,1,0
573369271,573368656,42.35858104654644,-71.08727934914243,0.67255497,-28.150402,0.0,2.6696315,2.624935,0.56693983,3,65,1,0
573568331,573567749,42.35858076599518,-71.08727931588074,0.67049503,-28.161083,0.0,2.6693099,2.6245728,0.5777693,3,65,1,0
573777422,573776797,42.35858057617575,-71.08727926968645,0.6772475,-28.16292,0.0,2.6703236,2.624599,0.5902991,3,65,1,0
573976458,573975890,42.35858049937448,-71.08727914579482,0.6849408,-28.16309,0.0,2.670609,2.6251843,0.59403133,3,65,1,0
574175555,574174983,42.35858046699356,-71.08727904734197,0.6923022,-28.165054,0.0,2.6701794,2.6248126,0.60345364,3,65,1,0
574374951,574374076,42.35858033739901,-71.08727898442262,0.7062683,-28.16065,0.0,2.6697114,2.6244376,0.6304984,3,65,1,0
574573791,574573169,42.3585801595997,-71.0872788958324,0.7248287,-28.15125,0.0,2.6695433,2.6249313,0.63845253,3,65,1,0
574772824,574772262,42.35858001073783,-71.08727881255217,0.74311924,-28.142612,0.0,2.6694205,2.6246288,0.6587572,3,65,1,0
574972008,574971355,42.35857995220901,-71.08727866926887,0.76031065,-28.136051,0.0,2.6691728,2.6242995,0.67318726,3,65,1,0
575171013,575170448,42.35857991804631,-71.08727852667907,0.77486897,-28.13345,0.0,2.6686223,2.62471,0.6807208,3,65,1,0
575370108,575369541,42.358579825850086,-71.08727825427833,0.78332853,-28.13792,0.0,2.6673424,2.624149,0.6740818,3,65,1,0
575569367,575568634,42.3585797315676,-71.08727795966837,0.78676844,-28.148243,0.0,2.6663115,2.6236427,0.6852231,3,65,1,0
575768366,575767727,42.3585795849936,-71.08727764641823,0.79005957,-28.15975,0.0,2.6662567,2.623374,0.6839957,3,65,1,0
575977344,575976775,42.3585794509522,-71.08727713993879,0.79352045,-28.170435,0.0,2.6666086,2.6240618,0.6922698,3,65,1,0
576176482,576175868,42.3585793860789,-71.0872767370075,0.7970519,-28.179901,0.0,2.6667683,2.6238372,0.68276596,3,65,1,0
576375525,576374961,42.358579293440975,-71.08727640660575,0.7873864,-28.202036,0.0,2.6669512,2.6236198,0.6689987,3,65,1,0
576574901,576574055,42.3585791342229,-71.08727615924617,0.7816348,-28.219114,0.0,2.6671913,2.6234229,0.67032766,3,65,1,0
576773714,576773147,42.35857895653939,-71.08727601235319,0.7788887,-28.23149,0.0,2.6676974,2.6240504,0.67369556,3,65,1,0
576972812,576972240,42.35857870964699,-71.08727590420004,0.78629255,-28.233475,0.0,2.6682343,2.6239052,0.69525385,3,65,1,0
577172036,577171333,42.35857846936072,-71.08727580101161,0.80113935,-28.227179,0.0,2.6682696,2.623645,0.7143879,3,65,1,0
577371109,577370426,42.35857830655976,-71.0872756829929,0.81547356,-28.223173,0.0,2.668879,2.6242943,0.71889687,3,65,1,0
577570101,577569519,42.358578244853305,-71.08727553729834,0.82402945,-28.224525,0.0,2.6696634,2.6241884,0.7190118,3,65,1,0
577769331,577768612,42.358578209586355,-71.08727536528005,0.83230925,-28.227598,0.0,2.6703854,2.6240673,0.73584175,3,65,1,0
577978291,577977660,42.358578192424694,-71.08727487146055,0.8464656,-28.222925,0.0,2.6706307,2.6247375,0.748611,3,65,1,0
578177400,578176753,42.35857828057726,-71.08727425903051,0.86043596,-28.218822,0.0,2.671264,2.6245914,0.76003456,3,65,1,0
578376501,578375846,42.35857835217049,-71.08727392230615,0.8765631,-28.213696,0.0,2.67169,2.6244006,0.77758074,3,65,1,0
578575591,578574939,42.3585783918995,-71.08727368605707,0.89725256,-28.204638,0.0,2.6723242,2.6242485,0.8070631,3,65,1,0
578774678,578774032,42.35857833379308,-71.08727348084538,0.9216399,-28.191866,0.0,2.6721294,2.624738,0.82858896,3,65,1,0
578973696,578973125,42.3585782195914,-71.08727332452644,0.94080496,-28.185606,0.0,2.6727242,2.624582,0.83661795,3,65,1,0
579172845,579172218,42.35857807339902,-71.08727313665352,0.95381355,-28.184958,0.0,2.671445,2.6240528,0.8416228,3,65,1,0
579371939,579371310,42.358577912476335,-71.08727296038138,0.96297836,-28.188017,0.0,2.6721656,2.6247146,0.85427713,3,65,1,0
579570988,579570404,42.35857773319971,-71.08727277419867,0.97244215,-28.189478,0.0,2.6733274,2.6246576,0.86518335,3,65,1,0
579770142,579769497,42.358577563196526,-71.08727268714198,0.98336077,-28.191143,0.0,2.6740766,2.62451,0.87072134,3,65,1,0
579969281,579968589,42.358577370939166,-71.08727278290347,0.99021006,-28.198889,0.0,2.6747441,2.625153,0.88079214,3,65,1,0
580168302,580167682,42.358577142398524,-71.08727281700642,0.9924178,-28.211166,0.0,2.6760626,2.625096,0.87645245,3,65,1,0
580367404,580366775,42.35857692731245,-71.0872726710289,0.9890084,-28.230152,0.0,2.676503,2.6248763,0.86932325,3,65,1,0
580576434,580575823,42.35857676944089,-71.087272499057,0.98339367,-28.250526,0.0,2.6780832,2.6257882,0.8643203,3,65,1,0
580775544,580774916,42.358576691443176,-71.08727237834417,0.9763093,-28.273672,0.0,2.6772926,2.625338,0.8602047,3,65,1,0
580974633,580974009,42.358576700744536,-71.08727215399327,0.9661422,-28.303211,0.0,2.6782072,2.6251957,0.8498826,3,65,1,0
581174203,581173102,42.35857689245732,-71.08727185021714,0.9574208,-28.33165,0.0,2.679345,2.6250834,0.84531975,3,65,1,0
581372790,581372194,42.35857694102454,-71.08727146499322,0.9479089,-28.36008,0.0,2.6808007,2.625846,0.83495045,3,65,1,0
581571866,581571287,42.358576621870085,-71.08727089489807,0.93663216,-28.392021,0.0,2.6821601,2.6257637,0.819592,3,65,1,0
581771030,581770380,42.358576156274516,-71.08727018670629,0.9227872,-28.426567,0.0,2.6810849,2.62529,0.8075371,3,65,1,0
581970049,581969473,42.35857588799218,-71.08726950902974,0.905077,-28.463976,0.0,2.6805053,2.6257207,0.78563213,3,65,1,0
582179086,582178521,42.358575779695556,-71.08726897611201,0.8889098,-28.500343,0.0,2.6800203,2.6254404,0.7810159,3,65,1,0
582378216,582377613,42.35857566368639,-71.08726860769292,0.87375593,-28.535904,0.0,2.6775038,2.6246681,0.7609062,3,65,1,0
582577355,582576706,42.35857548888029,-71.0872686188323,0.860065,-28.568323,0.0,2.6793559,2.6247058,0.76080465,3,65,1,0
582776399,582775799,42.35857520638423,-71.08726879467339,0.8534012,-28.595581,0.0,2.680153,2.6253605,0.759542,3,65,1,0
582975460,582974892,42.35857500042576,-71.08726888266864,0.85002184,-28.623531,0.0,2.6812196,2.6252651,0.7572942,3,65,1,0
583174609,583173985,42.358574906535566,-71.08726906783711,0.85013247,-28.638771,0.0,2.6812205,2.6249726,0.76219654,3,65,1,0
583374000,583373077,42.358574777369796,-71.08726930580539,0.85609055,-28.653437,0.0,2.6806192,2.6254013,0.7719197,3,65,1,0
583572816,583572170,42.35857464009914,-71.0872695033842,0.8675246,-28.660187,0.0,2.6808076,2.625146,0.78457546,3,65,1,0
583771859,583771263,42.35857445243027,-71.08726959739165,0.8767276,-28.668041,0.0,2.6800709,2.6247318,0.7910075,3,65,1,0
583970959,583970356,42.35857427474673,-71.08726962302039,0.8837323,-28.676163,0.0,2.6801665,2.6252844,0.795805,3,65,1,0
584170025,584169449,42.358573992679496,-71.08726980655955,0.8929448,-28.682732,0.0,2.680678,2.625098,0.80800676,3,65,1,0
584369105,584368541,42.3585736266645,-71.08727006611161,0.9030142,-28.688,0.0,2.680232,2.6247418,0.8157816,3,65,1,0
584568410,584567634,42.35857348129539,-71.0872703084135,0.91356134,-28.692844,0.0,2.6772764,2.6238909,0.8267484,3,65,1,0
584767323,584766727,42.35857335749215,-71.08727045713295,0.92001677,-28.701294,0.0,2.6780221,2.624562,0.8258476,3,65,1,0
584976417,584975774,42.35857312903939,-71.08727068189869,0.9269676,-28.707443,0.0,2.6786573,2.624517,0.832428,3,65,1,0
585175433,585174867,42.35857286746163,-71.08727098316774,0.92945004,-28.718063,0.0,2.6795073,2.6244226,0.8310895,3,65,1,0
585374538,585373959,42.35857251675801,-71.08727128189929,0.9312954,-28.728228,0.0,2.6795452,2.6249743,0.8332381,3,65,1,0
585573862,585573054,42.358572124176995,-71.08727146649024,0.9314389,-28.74093,0.0,2.680224,2.6248486,0.8314781,3,65,1,0
585772709,585772145,42.35857165840976,-71.08727158740164,0.929235,-28.755571,0.0,2.6811533,2.624766,0.8246932,3,65,1,0
585971834,585971237,42.35857127176592,-71.08727169268191,0.9247608,-28.771564,0.0,2.6815085,2.6254008,0.82540894,3,65,1,0
586171006,586170330,42.35857094308919,-71.08727176065285,0.92098475,-28.78695,0.0,2.68227,2.625281,0.8201437,3,65,1,0
586370038,586369423,42.35857063359831,-71.08727183605635,0.9129977,-28.80702,0.0,2.6820922,2.6249926,0.804482,3,65,1,0
586569138,586568515,42.35857042065851,-71.08727177463858,0.9040766,-28.82759,0.0,2.682143,2.6247492,0.79532623,3,65,1,0
586778246,586777563,42.35857040592611,-71.08727154050482,0.8931141,-28.851625,0.0,2.6815972,2.6253269,0.7866235,3,65,1,0
586977268,586976655,42.358570449484546,-71.08727133046197,0.88374186,-28.873352,0.0,2.6821802,2.6251774,0.7776513,3,65,1,0
587176381,587175748,42.35857045724642,-71.0872710749895,0.87433195,-28.895226,0.0,2.6828158,2.625028,0.7679467,3,65,1,0
587375528,587374840,42.35857055279406,-71.08727085826708,0.8683677,-28.913473,0.0,2.682702,2.6247523,0.770504,3,65,1,0
587574607,587573933,42.35857068466145,-71.08727067094415,0.86233854,-28.931383,0.0,2.679976,2.624798,0.75181055,3,65,1,0
587773620,587773026,42.35857084904485,-71.08727054941603,0.8499212,-28.955956,0.0,2.6775937,2.624049,0.73612976,3,65,1,0
587972767,587972118,42.35857097143293,-71.08727054016708,0.8311548,-28.985275,0.0,2.676819,2.623619,0.71792555,3,65,1,0
588171777,588171210,42.35857093655619,-71.08727057140764,0.8129835,-29.013874,0.0,2.6760528,2.6239707,0.70222807,3,65,1,0
588370898,588370303,42.358570871361174,-71.08727054476905,0.800364,-29.037088,0.0,2.6767957,2.6238735,0.69988966,3,65,1,0
588570113,588569395,42.35857086115289,-71.0872704667859,0.792902,-29.054987,0.0,2.67512,2.6232452,0.6960006,3,65,1,0
588769048,588768488,42.35857086618953,-71.0872702959312,0.7856984,-29.072706,0.0,2.676042,2.6239598,0.68869686,3,65,1,0
588968227,588967580,42.358570856618094,-71.08727003533733,0.77693367,-29.09215,0.0,2.6749427,2.6234512,0.67435265,3,65,1,0
589177190,589176627,42.35857082177997,-71.08726991259189,0.7660446,-29.114376,0.0,2.6754694,2.6233995,0.67210627,3,65,1,0
589376373,589375720,42.35857082822958,-71.08726986326684,0.7588382,-29.133158,0.0,2.6758351,2.6232226,0.67053175,3,65,1,0
589575470,589574812,42.35857088454141,-71.08726972100932,0.75333595,-29.15047,0.0,2.675467,2.623649,0.6675525,3,65,1,0
589774583,589773905,42.35857087759009,-71.08726962260147,0.74784803,-29.168144,0.0,2.676045,2.623515,0.6629176,3,65,1,0
589973634,589972997,42.358570786339385,-71.08726950223392,0.74280167,-29.186172,0.0,2.6770759,2.6234684,0.6610637,3,65,1,0
590172980,590172090,42.35857069261865,-71.08726924424425,0.7352624,-29.207756,0.0,2.6770582,2.6239803,0.64339304,3,65,1,0
590371886,590371182,42.358570637664144,-71.08726893669738,0.72543573,-29.231688,0.0,2.678079,2.62393,0.6412182,3,65,1,0
590570904,590570274,42.358570664249505,-71.08726858001117,0.71551466,-29.256071,0.0,2.6798,2.6239965,0.63024807,3,65,1,0
590769987,590769367,42.35857071611657,-71.08726815220129,0.70499897,-29.281841,0.0,2.6814065,2.6248188,0.61778975,3,65,1,0
590969065,590968459,42.35857074551076,-71.087267870865,0.6989608,-29.302689,0.0,2.68302,2.6248422,0.619153,3,65,1,0
591168215,591167551,42.35857072180291,-71.08726770650273,0.6920519,-29.326328,0.0,2.6837087,2.624702,0.60797834,3,65,1,0
591377223,591376598,42.35857068569548,-71.08726741432733,0.68435526,-29.35351,0.0,2.6842704,2.6246521,0.60345745,3,65,1,0
591576251,591575690,42.35857065824398,-71.08726710798902,0.6835532,-29.374212,0.0,2.683304,2.625051,0.6076369,3,65,1,0
591775458,591774783,42.35857063971214,-71.08726678294524,0.68653727,-29.391005,0.0,2.6836288,2.6248581,0.6072297,3,65,1,0
591974521,591973875,42.358570580921736,-71.08726653209942,0.69160414,-29.406137,0.0,2.6852398,2.6248775,0.6149144,3,65,1,0
592173566,592172967,42.35857039494677,-71.08726644870028,0.69974375,-29.417799,0.0,2.6863174,2.6256251,0.62202406,3,65,1,0
592373172,592372059,42.35857013426748,-71.08726639873387,0.7110381,-29.426704,0.0,2.6843345,2.625044,0.6331711,3,65,1,0
592571785,592571151,42.35856990365346,-71.08726636398515,0.72022676,-29.437517,0.0,2.6853406,2.6249542,0.63170815,3,65,1,0
592770841,592770244,42.35856966904057,-71.0872664593056,0.7261081,-29.451635,0.0,2.6867352,2.6257463,0.6417165,3,65,1,0
592970007,592969336,42.358569422053776,-71.08726665634175,0.73841953,-29.458641,0.0,2.6880076,2.6256835,0.65152645,3,65,1,0
593169129,593168428,42.35856912217295,-71.08726693109412,0.7461839,-29.468403,0.0,2.689708,2.6256726,0.64863586,3,65,1,0
593378104,593377475,42.35856881903945,-71.08726715585985,0.7517996,-29.481709,0.0,2.6916382,2.6257956,0.6583452,3,65,1,0
593577280,593576567,42.35856860165482,-71.08726719714004,0.7571125,-29.495535,0.0,2.6923802,2.6264813,0.6565771,3,65,1,0
593776291,593775659,42.35856844316784,-71.08726722636682,0.75959826,-29.512833,0.0,2.6916258,2.6260812,0.6525941,3,65,1,0
593975388,593974751,42.35856825001637,-71.08726736412238,0.76519203,-29.524416,0.0,2.6934762,2.6260521,0.6733098,3,65,1,0
594174442,594173843,42.35856801112803,-71.08726758499411,0.77009726,-29.537806,0.0,2.6949027,2.6268237,0.67270565,3,65,1,0
594373516,594372935,42.35856764680476,-71.08726795856343,0.7777858,-29.548029,0.0,2.6965945,2.6267502,0.6899648,3,65,1,0
594572830,594572027,42.35856709920919,-71.08726846699682,0.7889986,-29.557014,0.0,2.6984012,2.6266885,0.6987581,3,65,1,0
594771729,594771119,42.358566413742636,-71.08726897202942,0.7948389,-29.571175,0.0,2.699931,2.6274757,0.6969166,3,65,1,0
594970801,594970211,42.35856584491679,-71.08726930763207,0.79443693,-29.591978,0.0,2.698708,2.627009,0.68642664,3,65,1,0
595169946,595169303,42.35856542475667,-71.08726952981091,0.78777933,-29.618237,0.0,2.6992724,2.6267743,0.6764889,3,65,1,0
595369144,595368395,42.35856510591834,-71.0872697436229,0.7817855,-29.644436,0.0,2.6985304,2.6263697,0.67644787,3,65,1,0
595568058,595567487,42.35856492743284,-71.08726998612494,0.77621603,-29.669098,0.0,2.6989732,2.626994,0.66704845,3,65,1,0
595767308,595766579,42.35856488494965,-71.08727039063604,0.7676878,-29.697094,0.0,2.6999798,2.626811,0.66174984,3,65,1,0
595976245,595975625,42.358565003092224,-71.08727086667128,0.7627239,-29.721642,0.0,2.7016766,2.6268413,0.66219187,3,65,1,0
596175318,596174717,42.35856510745007,-71.08727120225093,0.7622013,-29.741226,0.0,2.7008355,2.6273053,0.66078377,3,65,1,0
596374433,596373809,42.35856520099395,-71.0872713045383,0.7632556,-29.758223,0.0,2.700559,2.626943,0.66386604,3,65,1,0
596573533,596572901,42.35856529344539,-71.08727137079886,0.7630906,-29.776459,0.0,2.700262,2.6265845,0.66227293,3,65,1,0
596772568,596771993,42.35856533941699,-71.08727154427228,0.7635884,-29.791687,0.0,2.7009842,2.627251,0.666276,3,65,1,0
596971667,596971085,42.35856530687413,-71.08727170956594,0.7627115,-29.808056,0.0,2.6999228,2.6267757,0.66141605,3,65,1,0
597170752,597170176,42.358565271819415,-71.08727178048794,0.7595048,-29.826853,0.0,2.7007844,2.62657,0.6621194,3,65,1,0
597370000,597369268,42.35856523043624,-71.08727181600406,0.7591791,-29.840565,0.0,2.6991694,2.6260252,0.6643324,3,65,1,0
597578890,597578314,42.35856522725325,-71.08727184267744,0.7647228,-29.848122,0.0,2.700659,2.6269078,0.6743388,3,65,1,0
597778015,597777406,42.358565223938385,-71.08727187167358,0.7699137,-29.85617,0.0,2.7002103,2.6265147,0.67478657,3,65,1,0
597977223,597976498,42.358565091631476,-71.08727189241304,0.77493906,-29.86416,0.0,2.7009,2.6262898,0.68389463,3,65,1,0
598176238,598175590,42.358564939820305,-71.08727190430973,0.7818904,-29.870441,0.0,2.7020056,2.6261237,0.68877316,3,65,1,0
598375257,598374681,42.358564884850736,-71.08727192507244,0.78912926,-29.876701,0.0,2.703293,2.6268501,0.698318,3,65,1,0
598574474,598573773,42.35856492616313,-71.08727196146778,0.8020458,-29.878752,0.0,2.7042966,2.6266584,0.71448946,3,65,1,0
598773553,598772865,42.358564997622295,-71.08727193190585,0.81110525,-29.882269,0.0,2.7032585,2.6262019,0.7125354,3,65,1,0
598972564,598971956,42.3585649848657,-71.08727183170623,0.8147917,-29.889832,0.0,2.7019618,2.6265697,0.7137227,3,65,1,0
599172036,599171048,42.358564872914286,-71.08727172274071,0.8136549,-29.899673,0.0,2.7030962,2.6264017,0.71232176,3,65,1,0
599370834,599370139,42.35856471456133,-71.08727169453375,0.81428385,-29.907751,0.0,2.7042112,2.6262293,0.71710205,3,65,1,0
599569805,599569231,42.35856454214168,-71.08727160028391,0.8209176,-29.908157,0.0,2.7054005,2.6269488,0.73185825,3,65,1,0
599769030,599768327,42.35856436401434,-71.0872713588394,0.82776546,-29.908798,0.0,2.7050028,2.6265779,0.7332778,3,65,1,0
599968085,599967414,42.35856425332373,-71.08727111464417,0.83681965,-29.90615,0.0,2.705439,2.626319,0.7389631,3,65,1,0
600167122,600166505,42.358564117611955,-71.08727083859755,0.84316206,-29.904879,0.0,2.7052786,2.626865,0.74570465,3,65,1,0
600376180,600375551,42.35856398968023,-71.08727064287865,0.8554692,-29.897188,0.0,2.706087,2.6267948,0.7642236,3,65,1,0
600575222,600574643,42.35856381787488,-71.0872705405274,0.8684592,-29.88854,0.0,2.706668,2.6265686,0.77077293,3,65,1,0
600774409,600773734,42.358563538464324,-71.08727036346748,0.8776369,-29.883953,0.0,2.7072854,2.6263492,0.7721915,3,65,1,0
600973451,600972826,42.35856321995201,-71.08727000873111,0.8854399,-29.879818,0.0,2.7068949,2.6268861,0.78390646,3,65,1,0
601172502,601171917,42.35856277190733,-71.08726952329734,0.89705944,-29.869873,0.0,2.707355,2.6266646,0.8042226,3,65,1,0
601371989,601371008,42.35856201340159,-71.08726887655233,0.91724443,-29.850655,0.0,2.7084837,2.626521,0.82654095,3,65,1,0
601570863,601570100,42.35856113651843,-71.08726807246269,0.93732214,-29.831352,0.0,2.7096083,2.6272628,0.8430457,3,65,1,0
601769804,601769191,42.35856034260743,-71.08726723732696,0.95661163,-29.812405,0.0,2.7104847,2.6270833,0.85758877,3,65,1,0
601978871,601978237,42.358559667340806,-71.08726651753892,0.9694371,-29.799898,0.0,2.712203,2.627122,0.85812426,3,65,1,0
602177963,602177328,42.3585591823728,-71.08726584567742,0.97842693,-29.792198,0.0,2.7125905,2.626869,0.8662014,3,65,1,0
602376990,602376420,42.35855881620519,-71.08726516067296,0.9840026,-29.78836,0.0,2.7141318,2.627657,0.8642316,3,65,1,0
602576295,602575511,42.35855848127783,-71.08726446036378,0.988698,-29.786411,0.0,2.715318,2.627488,0.8748741,3,65,1,0
602775309,602774604,42.35855812595369,-71.0872637807767,0.9941139,-29.783813,0.0,2.7164822,2.6273098,0.8756218,3,65,1,0
602974322,602973693,42.35855771639328,-71.08726317176487,0.9943824,-29.78459,0.0,2.7175653,2.6280396,0.8729086,3,65,1,0
603173379,603172784,42.358557313753096,-71.08726271337018,0.9927578,-29.785473,0.0,2.71809,2.6277907,0.87859106,3,65,1,0
603372472,603371876,42.35855702659358,-71.08726235602386,0.9953642,-29.782722,0.0,2.7181234,2.627485,0.8852186,3,65,1,0
603571718,603570967,42.35855678004695,-71.08726201339323,0.9987817,-29.778696,0.0,2.7191083,2.6281948,0.89188766,3,65,1,0
603770648,603770058,42.3585564379468,-71.08726175621169,1.0028706,-29.774204,0.0,2.7192545,2.627897,0.89644957,3,65,1,0
603969725,603969149,42.35855613662196,-71.08726153784907,1.0030336,-29.775814,0.0,2.719489,2.6276073,0.8854513,3,65,1,0
604168847,604168240,42.35855595244164,-71.08726139587881,0.99772835,-29.784182,0.0,2.7190297,2.6281579,0.87918377,3,65,1,0
604367957,604367331,42.358555919330094,-71.08726120853412,0.9933257,-29.792845,0.0,2.7199326,2.62793,0.87640953,3,65,1,0
604576954,604576377,42.35855598609145,-71.0872607342726,0.985713,-29.806057,0.0,2.7200923,2.62776,0.8654437,3,65,1,0
604776250,604775468,42.358556107327075,-71.08726046738296,0.9713006,-29.827501,0.0,2.7155006,2.6269114,0.84533024,3,65,1,0
604975186,604974559,42.35855603781912,-71.08726021392718,0.95659685,-29.84945,0.0,2.7158134,2.6275396,0.8407445,3,65,1,0
605174224,605173650,42.358556021991575,-71.0872598268855,0.95071125,-29.862396,0.0,2.7155325,2.627198,0.8536196,3,65,1,0
605373399,605372741,42.35855617962039,-71.0872594257839,0.9535408,-29.865208,0.0,2.715059,2.6268437,0.85907507,3,65,1,0
605572463,605571832,42.358556151470964,-71.08725896899465,0.9579234,-29.86721,0.0,2.7106352,2.6268418,0.8649969,3,65,1,0
605771534,605770922,42.35855604454439,-71.08725856980665,0.9599838,-29.873363,0.0,2.710584,2.6265435,0.8568325,3,65,1,0
605970608,605970013,42.358555902519164,-71.08725802022278,0.95761395,-29.88525,0.0,2.7107058,2.6262846,0.8572593,3,65,1,0
606169736,606169104,42.35855581835596,-71.08725752122982,0.95701456,-29.89475,0.0,2.710587,2.6259918,0.85277987,3,65,1,0
606368773,606368195,42.35855570970333,-71.08725717622859,0.948905,-29.913074,0.0,2.7086596,2.6263006,0.83691454,3,65,1,0
606577885,606577240,42.358555710290325,-71.0872568030981,0.93863344,-29.9336,0.0,2.7084677,2.6261218,0.8340707,3,65,1,0
606776990,606776331,42.35855567358786,-71.08725632042545,0.9353819,-29.94423,0.0,2.70909,2.625955,0.8364029,3,65,1,0
606976167,606975422,42.358555476541596,-71.08725584447953,0.9357934,-29.948765,0.0,2.7100565,2.6267006,0.8400707,3,65,1,0
607175169,607174513,42.358555343113316,-71.08725561985774,0.93509626,-29.952822,0.0,2.706605,2.6259308,0.83681774,3,65,1,0
607374185,607373604,42.35855529602617,-71.08725566505667,0.93148565,-29.959543,0.0,2.7055593,2.62552,0.83414745,3,65,1,0
607573307,607572694,42.358555293984935,-71.08725579918266,0.92990875,-29.962746,0.0,2.7053473,2.626094,0.83388186,3,65,1,0
607772491,607771785,42.35855531718677,-71.08725602864037,0.93208313,-29.960485,0.0,2.7045753,2.6257308,0.84375095,3,65,1,0
607971453,607970876,42.35855532978791,-71.08725638151593,0.93307114,-29.958433,0.0,2.701204,2.6249316,0.83568096,3,65,1,0
608171101,608169966,42.35855528528822,-71.08725667233762,0.93579674,-29.952446,0.0,2.701362,2.624743,0.8468051,3,65,1,0
608369724,608369057,42.35855518781676,-71.08725673147747,0.9414625,-29.94363,0.0,2.701791,2.6254208,0.84956694,3,65,1,0
608568764,608568147,42.35855511150274,-71.08725661823352,0.94324493,-29.938736,0.0,2.7014766,2.6251462,0.84489775,3,65,1,0
608777785,608777193,42.35855510875018,-71.0872565323267,0.944098,-29.933561,0.0,2.7006652,2.6249003,0.8496375,3,65,1,0
608976916,608976283,42.3585551596464,-71.0872565748126,0.945426,-29.92672,0.0,2.697191,2.6240733,0.84562254,3,65,1,0
609175964,609175374,42.358555220280266,-71.08725671167738,0.9463606,-29.919827,0.0,2.695831,2.6244051,0.8501048,3,65,1,0
609375042,609374464,42.35855523805312,-71.08725682909171,0.9507508,-29.909565,0.0,2.695638,2.6241765,0.85810566,3,65,1,0
609574258,609573555,42.35855526875304,-71.08725701274915,0.9538007,-29.900831,0.0,2.6963518,2.6241224,0.85514164,3,65,1,0
609773283,609772645,42.35855527482205,-71.08725724570479,0.9529948,-29.894766,0.0,2.6965318,2.6247625,0.8481388,3,65,1,0
609972336,609971736,42.358555189233996,-71.08725754036608,0.95150995,-29.888288,0.0,2.6964908,2.6245584,0.8539314,3,65,1,0
610171455,610170826,42.35855508316074,-71.08725796533226,0.9485035,-29.88124,0.0,2.6958902,2.624256,0.85032845,3,65,1,0
610370807,610369916,42.35855500645482,-71.08725833059201,0.9483404,-29.871578,0.0,2.6940577,2.6245203,0.8505988,3,65,1,0
610569630,610569007,42.35855500734194,-71.08725866870907,0.94844246,-29.861177,0.0,2.6941562,2.6243472,0.8470478,3,65,1,0
610768728,610768097,42.35855498106696,-71.08725904654237,0.94390917,-29.855185,0.0,2.6900563,2.6233327,0.8349862,3,65,1,0
610967818,610967188,42.3585549231722,-71.08725946147321,0.93746805,-29.850622,0.0,2.690451,2.6240118,0.83815527,3,65,1,0
611176914,611176232,42.358554885757826,-71.08725981882091,0.9323983,-29.84379,0.0,2.6909041,2.6240242,0.8340616,3,65,1,0
611375928,611375327,42.35855486243911,-71.08726001471675,0.92963696,-29.835434,0.0,2.6899745,2.6236506,0.82903576,3,65,1,0
611575208,611574413,42.35855484542848,-71.08726018159324,0.9267945,-29.826426,0.0,2.689055,2.623284,0.8278408,3,65,1,0
611774100,611773504,42.35855481694986,-71.08726037754928,0.9230108,-29.818462,0.0,2.6881354,2.62368,0.82032204,3,65,1,0
611973185,611972593,42.358554814930585,-71.08726064170268,0.9167628,-29.811705,0.0,2.6876662,2.6234095,0.8128009,3,65,1,0
612172368,612171684,42.35855484311594,-71.08726092443533,0.9150262,-29.802261,0.0,2.686279,2.6229331,0.8254237,3,65,1,0
612371394,612370774,42.35855492823278,-71.0872610631579,0.91578674,-29.789541,0.0,2.6854439,2.6233325,0.8178921,3,65,1,0
612570683,612569864,42.35855498518566,-71.0872612986242,0.9157686,-29.779266,0.0,2.684668,2.6229916,0.8247614,3,65,1,0
612769628,612768954,42.35855496177741,-71.08726165174637,0.92131615,-29.763092,0.0,2.6847205,2.6228406,0.83409023,3,65,1,0
612978640,612977999,42.35855505606045,-71.08726205743406,0.9266443,-29.747864,0.0,2.6858525,2.6230102,0.8336992,3,65,1,0
613177690,613177089,42.358555295498675,-71.08726256888092,0.9288845,-29.734404,0.0,2.686511,2.6237361,0.83612347,3,65,1,0
613376827,613376179,42.35855554433095,-71.08726318443154,0.933095,-29.719402,0.0,2.6868699,2.6236286,0.8402896,3,65,1,0
613575901,613575269,42.35855573742656,-71.08726381216759,0.9391217,-29.70211,0.0,2.6871357,2.6234953,0.8538809,3,65,1,0
613775071,613774359,42.35855583798338,-71.0872643044868,0.9450922,-29.683437,0.0,2.6880174,2.6242576,0.85229206,3,65,1,0
613974129,613973450,42.35855582100917,-71.08726462404493,0.9488764,-29.667007,0.0,2.6891918,2.624286,0.8534713,3,65,1,0
614173149,614172539,42.358555737287055,-71.08726488618674,0.9502959,-29.654394,0.0,2.6903296,2.6242838,0.8555746,3,65,1,0
614372317,614371629,42.35855563644444,-71.08726516258871,0.95254946,-29.641249,0.0,2.6910915,2.6250103,0.85349274,3,65,1,0
614571394,614570719,42.358555557462495,-71.08726549071247,0.95972013,-29.62402,0.0,2.6920238,2.6249635,0.8685932,3,65,1,0
614770384,614769809,42.35855550516823,-71.08726588474421,0.9670615,-29.607819,0.0,2.6922078,2.624791,0.8688307,3,65,1,0
614969474,614968898,42.35855547386412,-71.08726630313816,0.9670062,-29.598434,0.0,2.691279,2.6252527,0.8639636,3,65,1,0
615168682,615167988,42.35855543544735,-71.08726656242624,0.961287,-29.596561,0.0,2.6897602,2.6247866,0.8445878,3,65,1,0
615367658,615367078,42.35855539028672,-71.08726670361736,0.953413,-29.596199,0.0,2.689132,2.624481,0.8432741,3,65,1,0
615566746,615566168,42.35855540870009,-71.08726697341373,0.94518757,-29.596203,0.0,2.6888168,2.6250262,0.83298874,3,65,1,0
615775792,615775212,42.358555553652614,-71.08726728735867,0.93394995,-29.598343,0.0,2.68856,2.624876,0.8212242,3,65,1,0
615974987,615974302,42.358555745222176,-71.08726749550821,0.9299855,-29.591959,0.0,2.6876445,2.6245053,0.8248148,3,65,1,0
616173965,616173392,42.35855591156475,-71.08726773535098,0.92726946,-29.583755,0.0,2.6872363,2.624228,0.8243489,3,65,1,0
616373051,616372481,42.35855607588484,-71.08726799548492,0.92204237,-29.578306,0.0,2.6869206,2.6247628,0.81327057,3,65,1,0
616572189,616571571,42.35855624487542,-71.08726826329229,0.9145441,-29.575855,0.0,2.6870599,2.6245801,0.8164115,3,65,1,0
616771297,616770661,42.358556335960486,-71.08726848301502,0.91128063,-29.568104,0.0,2.6876898,2.6244957,0.81889963,3,65,1,0
616970384,616969750,42.35855634918342,-71.08726869347856,0.9105382,-29.557512,0.0,2.6880662,2.624352,0.81919193,3,65,1,0
617179919,617178795,42.3585563357342,-71.08726892382563,0.9078679,-29.548553,0.0,2.6891928,2.625248,0.8146682,3,65,1,0
617378561,617377884,42.35855625147336,-71.08726915984104,0.9043846,-29.540611,0.0,2.6898966,2.6251478,0.81210136,3,65,1,0
617577586,617576974,42.358556145348096,-71.08726939970838,0.90079355,-29.53195,0.0,2.6909244,2.6250978,0.81247044,3,65,1,0
617776764,617776063,42.35855606280632,-71.08726961443877,0.8996439,-29.521294,0.0,2.6917903,2.6258404,0.8069091,3,65,1,0
617975838,617975153,42.35855593872487,-71.08726986810052,0.9016218,-29.508003,0.0,2.689719,2.6252646,0.8076916,3,65,1,0
618174815,618174242,42.35855576217607,-71.08727017064047,0.89836884,-29.50111,0.0,2.6887918,2.6248753,0.80398893,3,65,1,0
618373911,618373332,42.358555589335076,-71.08727014158913,0.89522505,-29.491652,0.0,2.6877341,2.6252744,0.79976034,3,65,1,0
618573002,618572421,42.35855550118429,-71.08726994639112,0.8958001,-29.479223,0.0,2.687626,2.6250226,0.8089404,3,65,1,0
618772112,618771511,42.35855548618274,-71.0872700065364,0.90269375,-29.460491,0.0,2.687134,2.624711,0.8159189,3,65,1,0
618971267,618970600,42.35855540559268,-71.08727020661057,0.9113126,-29.441034,0.0,2.682837,2.6236687,0.8228383,3,65,1,0
619170298,619169689,42.35855527225923,-71.08727044196729,0.9230881,-29.418785,0.0,2.682723,2.6242256,0.83964014,3,65,1,0
619369723,619368779,42.358555209633394,-71.08727063559694,0.935493,-29.396917,0.0,2.6829274,2.6240673,0.84464216,3,65,1,0
619568496,619567868,42.358555173220886,-71.08727078331385,0.94565725,-29.376976,0.0,2.6827474,2.623841,0.8495021,3,65,1,0
619767551,619766957,42.35855515433304,-71.08727089703366,0.94889164,-29.364124,0.0,2.682056,2.6242924,0.8398247,3,65,1,0
619976620,619976001,42.358555195698514,-71.08727096276462,0.94571924,-29.358345,0.0,2.6822598,2.6242383,0.8418665,3,65,1,0
620175774,620175090,42.358555261707245,-71.08727093026768,0.9424534,-29.35351,0.0,2.6824956,2.624088,0.8353987,3,65,1,0
620374842,620374180,42.35855523562315,-71.08727077833609,0.93349934,-29.354385,0.0,2.6830757,2.6239936,0.8200793,3,65,1,0
620573903,620573269,42.35855513728441,-71.08727069381261,0.9225645,-29.35786,0.0,2.6808066,2.6241117,0.81461287,3,65,1,0
620773081,620772358,42.35855502029479,-71.0872706657203,0.91365623,-29.360683,0.0,2.6816883,2.6240835,0.8095927,3,65,1,0
620972081,620971447,42.35855474439099,-71.08727040527727,0.91085196,-29.354233,0.0,2.6821795,2.6239681,0.8256483,3,65,1,0
621171127,621170536,42.358554303727026,-71.08726992210251,0.9170289,-29.33848,0.0,2.6822233,2.6245544,0.82751036,3,65,1,0
621370248,621369626,42.35855395895264,-71.0872694913895,0.92185974,-29.32396,0.0,2.6827872,2.624445,0.8288703,3,65,1,0
621569637,621568715,42.35855367636824,-71.08726909540631,0.9296222,-29.306889,0.0,2.682679,2.624204,0.84237385,3,65,1,0
621778417,621777758,42.358553520072896,-71.08726879536316,0.9420428,-29.284977,0.0,2.6836677,2.624272,0.8553958,3,65,1,0
621977426,621976847,42.35855343199447,-71.08726861081563,0.953259,-29.26272,0.0,2.6838436,2.6248877,0.8570795,3,65,1,0
622176573,622175936,42.35855332618715,-71.08726837289524,0.95916414,-29.245808,0.0,2.684115,2.6247103,0.85455513,3,65,1,0
622375663,622375025,42.35855320282594,-71.08726816697418,0.9656563,-29.226816,0.0,2.6844025,2.624537,0.8680601,3,67,1,0
622574723,622574114,42.358553099960105,-71.08726800320098,0.9751792,-29.205212,0.0,2.6838512,2.625012,0.87581444,3,67,1,0
622773890,622773203,42.35855309303667,-71.08726787329435,0.98496246,-29.18312,0.0,2.685043,2.6249843,0.8875451,3,67,1,0
622973008,622972292,42.35855311881471,-71.0872678495531,0.9948449,-29.160498,0.0,2.6850274,2.6247344,0.8897791,3,67,1,0
623171960,623171381,42.358553152460985,-71.08726782094725,1.0012436,-29.138842,0.0,2.6852598,2.6253455,0.8968444,3,67,1,0
623371129,623370470,42.3585532096023,-71.08726794702807,1.0058551,-29.117167,0.0,2.685974,2.625217,0.9037528,3,67,1,0
623570279,623569559,42.35855318524093,-71.08726833223734,1.0094514,-29.094646,0.0,2.6851566,2.6248205,0.9043021,3,67,1,0
623769257,623768648,42.358553104591365,-71.08726865736371,1.0119481,-29.072203,0.0,2.684642,2.6252954,0.91075706,3,67,1,0
623968410,623967737,42.35855299999704,-71.08726877704346,1.0217018,-29.04255,0.0,2.6848016,2.625073,0.9337764,3,67,1,0
624177439,624176780,42.35855290277914,-71.0872688116673,1.0344543,-29.010832,0.0,2.6830955,2.6246138,0.933763,3,67,1,0
624376523,624375869,42.358552871234146,-71.08726875161341,1.0414648,-28.98494,0.0,2.6834698,2.6244287,0.9405961,3,67,1,0
624575609,624574957,42.35855278344247,-71.08726874124001,1.0495114,-28.958826,0.0,2.6838195,2.6250548,0.9472356,3,67,1,0
624774622,624774046,42.358552668028786,-71.08726875010304,1.0571504,-28.931414,0.0,2.6843429,2.6249027,0.9548168,3,67,1,0
624973798,624973135,42.358552542309226,-71.08726880772531,1.0650077,-28.905989,0.0,2.6836734,2.6245334,0.9584398,3,69,1,0
625172802,625172223,42.35855248313714,-71.08726876264099,1.0691447,-28.887524,0.0,2.682811,2.624931,0.9542923,3,69,1,0
625371887,625371312,42.35855246080505,-71.08726849762944,1.0698614,-28.872017,0.0,2.6834543,2.6248066,0.9576645,3,69,1,0
625571066,625570401,42.35855239518125,-71.08726828395231,1.0694299,-28.857914,0.0,2.6837893,2.6246214,0.95424366,3,69,1,0
625770147,625769489,42.358552336792044,-71.08726814312531,1.0688066,-28.844532,0.0,2.6843681,2.625292,0.95393753,3,69,1,0
625969184,625968579,42.35855236503586,-71.08726812511192,1.0688424,-28.832228,0.0,2.68483,2.6251242,0.96112204,3,69,1,0
626168570,626167666,42.35855238141663,-71.08726809487678,1.0705681,-28.81744,0.0,2.6857693,2.625042,0.96230507,3,69,1,0
626377393,626376709,42.3585522981778,-71.08726803309493,1.071742,-28.80244,0.0,2.6876104,2.6252055,0.9661212,3,69,1,0
626576374,626575798,42.35855222722144,-71.08726812177788,1.0709438,-28.789783,0.0,2.6872892,2.6257339,0.95767164,3,69,1,0
626775457,626774886,42.35855215209497,-71.08726818780914,1.0663171,-28.781446,0.0,2.6882713,2.625644,0.95169735,3,69,1,0
626974649,626973975,42.35855216898899,-71.08726824222079,1.0615926,-28.775969,0.0,2.6894155,2.6255634,0.9516864,3,69,1,0
627173692,627173063,42.35855227196123,-71.08726834069537,1.0571084,-28.769344,0.0,2.6903794,2.6262987,0.951385,3,69,1,0
627372818,627372153,42.35855236498892,-71.08726834360576,1.0554118,-28.760487,0.0,2.6914477,2.6261923,0.9522958,3,69,1,0
627571891,627571240,42.358552459733545,-71.08726831826137,1.0530682,-28.75096,0.0,2.692871,2.6261346,0.94612074,3,69,1,0
627771015,627770330,42.35855256136302,-71.08726836712074,1.0502901,-28.742886,0.0,2.694202,2.6260526,0.9484477,3,69,1,0
627969992,627969417,42.358552610474774,-71.08726833802451,1.0509205,-28.732927,0.0,2.6943836,2.6266747,0.94899416,3,69,1,0
628169152,628168505,42.35855270192626,-71.08726831160942,1.048945,-28.725422,0.0,2.6957793,2.6265905,0.94611025,3,69,1,0
628378413,628377548,42.35855282254673,-71.08726839917239,1.0458612,-28.717724,0.0,2.6968741,2.6265857,0.94670534,3,69,1,0
628577237,628576636,42.35855293309397,-71.08726855191644,1.0430951,-28.71144,0.0,2.6970308,2.6272147,0.93649244,3,69,1,0
628776342,628775724,42.35855306925013,-71.08726878137709,1.0382457,-28.707645,0.0,2.6969545,2.6269197,0.9350581,3,69,1,0
628975459,628974812,42.3585532568932,-71.08726909828317,1.033215,-28.703558,0.0,2.6975343,2.6267207,0.9345608,3,69,1,0
629174508,629173901,42.35855341344313,-71.08726949417056,1.0280681,-28.699772,0.0,2.6958826,2.627098,0.92405844,3,69,1,0
629373587,629372990,42.35855344915926,-71.08726980033471,1.026617,-28.691301,0.0,2.6966527,2.6269171,0.93266535,3,69,1,0
629572654,629572077,42.358553422865796,-71.08726990154263,1.0283494,-28.677826,0.0,2.6970208,2.626685,0.9295993,3,69,1,0
629771900,629771165,42.358553394217,-71.08726997716091,1.030148,-28.662014,0.0,2.6966898,2.6263604,0.93368816,3,69,1,0
629970828,629970254,42.3585533658303,-71.08727013291539,1.0287862,-28.650627,0.0,2.6959453,2.6268516,0.9265685,3,69,1,0
630169933,630169341,42.35855325548107,-71.08727024050398,1.0250669,-28.639128,0.0,2.6958942,2.626556,0.9252496,3,69,1,0
630369007,630368429,42.358553027858406,-71.08727023185266,1.0204635,-28.627474,0.0,2.6966443,2.6263843,0.91642284,3,69,1,0
630568432,630567517,42.35855278970768,-71.0872702475882,1.019175,-28.611675,0.0,2.6970773,2.627036,0.9248028,3,69,1,0
630767230,630766605,42.358552558249926,-71.0872702646701,1.0202899,-28.59112,0.0,2.6981087,2.6268826,0.9265542,3,69,1,0
630976250,630975647,42.35855227921831,-71.08727024059507,1.0228648,-28.56751,0.0,2.6991441,2.626853,0.9357705,3,69,1,0
631175472,631174735,42.35855195842486,-71.08727009571584,1.0303059,-28.541437,0.0,2.7003756,2.6267219,0.9459591,3,69,1,0
631374448,631373823,42.35855152627647,-71.08726981150687,1.0384784,-28.513409,0.0,2.7015216,2.627468,0.9461107,3,69,1,0
631573532,631572911,42.358551029038665,-71.08726950686015,1.0390873,-28.4928,0.0,2.7028992,2.6273382,0.9460025,3,69,1,0
631772746,631771999,42.358550518219886,-71.08726921513444,1.0386329,-28.472754,0.0,2.7042468,2.6271992,0.9401164,3,69,1,0
631971663,631971087,42.35855006077615,-71.08726904415634,1.0393519,-28.452034,0.0,2.7046332,2.6278555,0.9427109,3,69,1,0
632170748,632170175,42.35854975186561,-71.08726906977198,1.0445137,-28.427372,0.0,2.704684,2.627548,0.95730114,3,69,1,0
632369838,632369263,42.35854948149486,-71.08726918553154,1.0542636,-28.396914,0.0,2.7050674,2.6272838,0.9656348,3,69,1,0
632579002,632578305,42.358549180494194,-71.08726935786447,1.0660491,-28.365627,0.0,2.7059996,2.627217,0.9729848,3,69,1,0
632778132,632777393,42.35854890183254,-71.08726958569136,1.074821,-28.336655,0.0,2.7062876,2.6278563,0.9763856,3,69,1,0
632977173,632976480,42.358548663779956,-71.0872697758607,1.0871544,-28.305536,0.0,2.7067926,2.6275973,0.9961157,3,69,1,0
633176280,633175568,42.358548582548714,-71.0872697526098,1.1013117,-28.272755,0.0,2.703706,2.6269002,1.0032644,3,69,1,0
633375274,633374656,42.35854849182225,-71.08726962365634,1.1103535,-28.248333,0.0,2.7045612,2.6275938,1.0055976,3,69,1,0
633574318,633573743,42.358548370940305,-71.08726964806493,1.1121349,-28.231169,0.0,2.7054667,2.6273928,0.99894905,3,69,1,0
633773484,633772831,42.3585483109617,-71.08726984907052,1.1094828,-28.216236,0.0,2.7060554,2.627157,0.9971194,3,69,1,0
633972585,633971918,42.35854815391581,-71.08727009830288,1.1093979,-28.199703,0.0,2.7065952,2.6278229,1.001142,3,69,1,0
634171580,634171006,42.35854793058596,-71.08727036637558,1.1117716,-28.179058,0.0,2.7071958,2.6275861,1.0122075,3,69,1,0
634370821,634370094,42.35854771100768,-71.08727063367644,1.111176,-28.161043,0.0,2.7080305,2.627372,1.004529,3,69,1,0
634569791,634569181,42.35854752867664,-71.08727086689024,1.1121879,-28.142744,0.0,2.708781,2.62807,1.0096335,3,69,1,0
634768881,634768269,42.35854737047934,-71.08727108873686,1.1131387,-28.124777,0.0,2.7098913,2.6278899,1.0122261,3,69,1,0
634968016,634967356,42.35854722733562,-71.08727118017923,1.1163754,-28.101841,0.0,2.7062476,2.627132,1.0151005,3,69,1,0
635167039,635166443,42.35854713784256,-71.08727122816224,1.1196342,-28.078583,0.0,2.7070408,2.627826,1.0220199,3,69,1,0
635376057,635375485,42.35854697809399,-71.08727135295031,1.1248169,-28.0537,0.0,2.7078772,2.627749,1.0242667,3,69,1,0
635575144,635574573,42.35854669670031,-71.0872714378233,1.1316175,-28.0271,0.0,2.7086756,2.6275375,1.0345464,3,69,1,0
635774254,635773660,42.358546344678615,-71.0872715255544,1.1402588,-27.997557,0.0,2.7094405,2.6273186,1.0419674,3,69,1,0
635973405,635972748,42.35854604002063,-71.08727166680488,1.1499085,-27.968508,0.0,2.7101543,2.6280086,1.0499592,3,69,1,0
636172488,636171835,42.35854575884915,-71.08727165894568,1.154325,-27.944391,0.0,2.7112162,2.6278188,1.0421515,3,69,1,0
636371587,636370922,42.35854537034264,-71.0872715039194,1.159749,-27.91869,0.0,2.712479,2.6276474,1.0611119,3,69,1,0
636570580,636570009,42.358544974726115,-71.08727142903652,1.1715956,-27.886963,0.0,2.714103,2.62844,1.0701184,3,69,1,0
636769765,636769097,42.35854469845347,-71.08727146700589,1.17658,-27.860592,0.0,2.7156796,2.6282992,1.0702243,3,69,1,0
636978818,636978138,42.358544524808934,-71.08727161507673,1.1801434,-27.837074,0.0,2.71798,2.6283667,1.0744734,3,71,1,0
637177925,637177225,42.35854443966149,-71.0872718320878,1.1851897,-27.812225,0.0,2.7195945,2.6282153,1.0834131,3,71,1,0
637377200,637376313,42.358544423592654,-71.08727204144141,1.190207,-27.788012,0.0,2.719759,2.6288655,1.0873966,3,71,1,0
637576028,637575400,42.35854445346655,-71.0872721016897,1.1929388,-27.764378,0.0,2.717611,2.6283307,1.0899625,3,71,1,0
637775058,637774487,42.35854449273075,-71.08727212461561,1.1978331,-27.73938,0.0,2.7192783,2.6281881,1.0932345,3,71,1,0
