timestamp,timestamp_sample,xyz[0],xyz[1],xyz[2]
539371305,539371094,-0.20793423,-0.2433264,-9.816734
539376287,539376072,-0.21526118,-0.23547392,-9.8212805
539426055,539425845,-0.18139517,-0.2630353,-9.754802
539475847,539475619,-0.17066148,-0.25327888,-9.749878
539525626,539525391,-0.17042668,-0.23758726,-9.733577
539575375,539575164,-0.16880804,-0.20859455,-9.795823
539625146,539624937,-0.1625208,-0.25866604,-9.620738
539674924,539674710,-0.18798505,-0.18108001,-9.778944
539724696,539724483,-0.18921997,-0.24923147,-9.8200655
539774467,539774256,-0.21983898,-0.19494031,-9.894447
539824240,539824029,-0.2068382,-0.24217442,-9.87423
539874014,539873802,-0.21984911,-0.24980062,-9.878717
539923788,539923575,-0.2101347,-0.2664444,-9.88924
539973560,539973348,-0.1992222,-0.23932236,-9.91277
540028323,540028098,-0.1843183,-0.22550954,-9.82536
540073122,540072894,-0.13393968,-0.22624795,-9.646814
540122898,540122667,-0.1625752,-0.20356493,-9.724269
540177632,540177417,-0.17039183,-0.2775045,-9.598996
540227408,540227190,-0.20532213,-0.25714967,-9.8068075
540272199,540271986,-0.24153109,-0.22348846,-9.916678
540321973,540321759,-0.21968347,-0.23493785,-9.8456955
540376715,540376509,-0.22186342,-0.24126916,-9.900892
540426489,540426282,-0.23421441,-0.2232815,-9.9246
540476263,540476055,-0.20974688,-0.2714083,-9.822761
540526033,540525828,-0.19946003,-0.250602,-9.808975
540575816,540575603,-0.19399221,-0.24478015,-9.853729
540625604,540625375,-0.19216998,-0.26662487,-9.802763
540675369,540675148,-0.19248363,-0.21862586,-9.784537
540725174,540724921,-0.17990184,-0.2336237,-9.74254
540774902,540774694,-0.19057377,-0.21762413,-9.725385
540824676,540824467,-0.19629078,-0.19979857,-9.80745
540874445,540874240,-0.17497426,-0.25093904,-9.811143
540924220,540924013,-0.19347972,-0.22128396,-9.846874
540973992,540973786,-0.19078486,-0.222863,-9.809344
541023779,541023559,-0.15916196,-0.25960946,-9.739369
541078520,541078309,-0.13132998,-0.25637412,-9.726809
541123312,541123105,-0.15863799,-0.23890728,-9.76546
541173099,541172878,-0.17540593,-0.23577906,-9.85419
541222858,541222651,-0.18334398,-0.23076615,-9.862858
541277610,541277401,-0.19043878,-0.22573952,-9.843183
541322407,541322198,-0.18903285,-0.23277894,-9.826202
541372176,541371970,-0.15666196,-0.24114932,-9.724843
541426929,541426720,-0.17611307,-0.23376875,-9.724857
541476701,541476493,-0.20931418,-0.26154146,-9.858773
541526478,541526266,-0.18111286,-0.24270266,-9.819311
541576244,541576039,-0.15100658,-0.26343226,-9.712611
541626021,541625813,-0.16659196,-0.2334502,-9.761869
541675793,541675585,-0.17376538,-0.23821615,-9.802496
541725581,541725358,-0.16182426,-0.23350604,-9.812243
541775342,541775132,-0.16789442,-0.22752933,-9.779277
541825120,541824909,-0.19591993,-0.23460679,-9.74109
541874899,541874678,-0.22063084,-0.22366196,-9.82416
541924675,541924451,-0.19126199,-0.23054071,-9.773696
541974428,541974224,-0.19442248,-0.26128843,-9.775825
542024202,542023997,-0.17960306,-0.24918558,-9.765598
542073976,542073770,-0.16840088,-0.26945305,-9.733752
542123749,542123543,-0.1984654,-0.25523904,-9.791033
542173525,542173316,-0.21037853,-0.21810372,-9.803783
542223297,542223089,-0.21939306,-0.22843343,-9.861554
542278063,542277839,-0.23567629,-0.23973511,-9.8800745
542327822,542327612,-0.22960493,-0.241833,-9.906874
542372615,542372408,-0.2144848,-0.24772355,-9.827644
542422387,542422181,-0.18822436,-0.24054812,-9.83463
542477160,542476931,-0.19561826,-0.22740422,-9.814646
542526912,542526704,-0.18377776,-0.24152559,-9.757616
542571731,542571500,-0.19866247,-0.23901112,-9.7543
542626458,542626250,-0.17565913,-0.22558293,-9.7654915
542676235,542676023,-0.18195897,-0.23520271,-9.774516
542726001,542725796,-0.17416714,-0.23167306,-9.742534
542775797,542775570,-0.17660645,-0.22638923,-9.828242
542825555,542825343,-0.19826809,-0.22270112,-9.848112
542875340,542875116,-0.20717424,-0.22080378,-9.886279
542925110,542924889,-0.20215169,-0.2417872,-9.807589
542974872,542974665,-0.21109007,-0.24658944,-9.766357
543024653,543024435,-0.21320361,-0.21305633,-9.857959
543074430,543074208,-0.18402925,-0.23593514,-9.847657
543124245,543123981,-0.19003409,-0.23053087,-9.844988
543173959,543173754,-0.20694661,-0.2233402,-9.826718
543223733,543223527,-0.19382682,-0.24376707,-9.784631
543273510,543273300,-0.18036519,-0.24538748,-9.786455
543328260,543328050,-0.1920942,-0.24278356,-9.788979
543378032,543377823,-0.18345091,-0.23694754,-9.824194
543422840,543422619,-0.17657606,-0.21409978,-9.802192
543472604,543472392,-0.19814149,-0.24581216,-9.770755
543527352,543527143,-0.2076071,-0.2107213,-9.857457
543577122,543576916,-0.17599452,-0.2200886,-9.784915
543621918,543621711,-0.16831952,-0.19711305,-9.692788
543676671,543676462,-0.17594092,-0.20554277,-9.781553
543726443,543726235,-0.17085378,-0.2190221,-9.835849
543776214,543776008,-0.19067827,-0.20924373,-9.915663
543825990,543825781,-0.16125052,-0.22957043,-9.854569
543875773,543875554,-0.16274044,-0.23394972,-9.762546
543925540,543925327,-0.14004917,-0.20630263,-9.704798
543975322,543975100,-0.16737907,-0.21307702,-9.867386
544025081,544024873,-0.16458687,-0.20586045,-9.7783
544074857,544074646,-0.13317451,-0.2869906,-9.703516
544124631,544124419,-0.16587624,-0.20211565,-9.764817
544174400,544174192,-0.18161426,-0.22878674,-9.781781
544224191,544223965,-0.16714443,-0.2160352,-9.785039
544273963,544273738,-0.17186879,-0.20597738,-9.783873
544323741,544323513,-0.16290726,-0.19383177,-9.787081
544378467,544378262,-0.17348795,-0.2243085,-9.826328
544423262,544423057,-0.17578642,-0.21789324,-9.841031
544473037,544472831,-0.2094206,-0.19632779,-9.736939
544522859,544522604,-0.1919384,-0.18849753,-9.787375
544577560,544577354,-0.18742453,-0.24527247,-9.751755
544627334,544627127,-0.20191589,-0.2112027,-9.855159
544672129,544671923,-0.18516271,-0.31101266,-9.77434
544726880,544726673,-0.19399595,-0.2235636,-9.817505
544776657,544776446,-0.19473092,-0.23848334,-9.8927555
544826430,544826219,-0.19223796,-0.20356023,-9.864023
544871221,544871015,-0.18327102,-0.22204117,-9.7606125
544925973,544925765,-0.17959975,-0.19412936,-9.71223
544975744,544975538,-0.19232847,-0.19007662,-9.724176
545025516,545025311,-0.18431258,-0.2199327,-9.782648
545075297,545075085,-0.20098482,-0.16448188,-9.78438
545125085,545124858,-0.16420771,-0.25147045,-9.7585745
545174841,545174631,-0.15637597,-0.2737634,-9.863215
545224634,545224404,-0.18204562,-0.22915803,-9.931434
545274385,545274177,-0.19647618,-0.28202763,-9.779846
545324162,545323950,-0.18390496,-0.2642088,-9.799462
545373930,545373723,-0.20194763,-0.20834105,-9.834705
545428717,545428473,-0.1791212,-0.25427422,-9.765569
545473491,545473269,-0.20710824,-0.18117349,-9.843144
545523247,545523042,-0.21083425,-0.15842506,-9.951028
545573021,545572815,-0.18412843,-0.2038674,-9.83211
545627774,545627566,-0.1376181,-0.30068415,-9.643576
545672582,545672361,-0.18055627,-0.16621357,-9.685867
545722353,545722134,-0.14831053,-0.29455888,-9.705626
545777090,545776885,-0.18020694,-0.16481587,-9.915991
545826868,545826658,-0.19180453,-0.14461635,-9.931571
545876641,545876431,-0.15617433,-0.31881973,-9.684117
545921433,545921227,-0.19972971,-0.17973192,-9.785885
545976184,545975977,-0.16453128,-0.21711704,-9.806508
546025956,546025750,-0.15659371,-0.2399914,-9.792335
546075730,546075523,-0.20367718,-0.06846152,-9.962561
546125508,546125296,-0.17824428,-0.25597906,-9.785022
546175274,546175069,-0.16730468,-0.26408035,-9.818598
546225063,546224842,-0.20663154,-0.14142618,-9.98773
546274826,546274616,-0.14959931,-0.34334314,-9.738381
546324596,546324389,-0.17917101,-0.21307851,-9.7584095
546374373,546374162,-0.12939268,-0.25604224,-9.690704
546424143,546423935,-0.14189202,-0.20498633,-9.742759
546478894,546478685,-0.20836999,-0.19377781,-9.819135
546523697,546523488,-0.20494625,-0.20646435,-9.897857
546573451,546573254,-0.19820404,-0.21737753,-9.770546
546623248,546623027,-0.22793609,-0.1963911,-9.84301
546678038,546677777,-0.21894093,-0.2531372,-9.896111
546727760,546727551,-0.23791043,-0.19653016,-9.87187
546772602,546772346,-0.22572951,-0.23411527,-9.806102
546827312,546827097,-0.1698204,-0.32022342,-9.702947
546877075,546876870,-0.19466369,-0.20678854,-9.817717
546926849,546926643,-0.17940895,-0.24037205,-9.803765
546971648,546971439,-0.19512874,-0.2128999,-9.87676
547026395,547026189,-0.20183446,-0.16136466,-9.856574
547076167,547075962,-0.17714263,-0.2533978,-9.728226
547125940,547125735,-0.21748018,-0.17837527,-9.790515
547175715,547175508,-0.2000875,-0.20489508,-9.708661
547225503,547225281,-0.18761787,-0.26128626,-9.6656065
547275259,547275054,-0.22757773,-0.15554847,-9.859931
547325038,547324828,-0.20571403,-0.26593107,-9.761229
547374822,547374601,-0.22375922,-0.2076886,-9.833327
547424582,547424374,-0.22743334,-0.18197334,-9.880771
547474356,547474147,-0.2188555,-0.22913408,-9.8928175
547524127,547523920,-0.22297317,-0.19362153,-9.915462
547573903,547573693,-0.23129585,-0.18408932,-9.840009
547623681,547623473,-0.20960717,-0.23683636,-9.788803
547673485,547673239,-0.2029839,-0.22387354,-9.794302
547728197,547727989,-0.19210833,-0.2228181,-9.777367
547773008,547772785,-0.20979604,-0.2236728,-9.884751
547822778,547822558,-0.22869305,-0.17883414,-9.8538475
547877569,547877309,-0.21236596,-0.2019954,-9.795657
547927319,547927082,-0.21239647,-0.21308762,-9.820932
547972085,547971878,-0.22643681,-0.22124632,-9.926327
548021858,548021651,-0.21156107,-0.21866569,-9.839631
548076609,548076401,-0.20132051,-0.23676017,-9.788614
548126383,548126174,-0.19839793,-0.21807986,-9.812881
548176155,548175947,-0.1974819,-0.22824131,-9.818168
548225931,548225720,-0.17730181,-0.2380144,-9.757771
548275700,548275493,-0.16819522,-0.3215959,-9.649776
548325472,548325266,-0.20289999,-0.152839,-9.921787
548375245,548375040,-0.19507787,-0.25191203,-9.751512
548425017,548424813,-0.20893398,-0.23741506,-9.748089
548474807,548474586,-0.22404635,-0.091408,-9.894247
548524582,548524359,-0.14210363,-0.32821634,-9.584889
548574341,548574132,-0.21915282,-0.15588363,-9.921797
548624120,548623905,-0.21878214,-0.21929844,-9.842019
548673897,548673682,-0.2040819,-0.2508391,-9.815648
548723667,548723458,-0.19827509,-0.26453722,-9.744729
548778409,548778202,-0.20124686,-0.2128655,-9.830916
548823206,548822997,-0.18932967,-0.27766255,-9.762143
548872983,548872771,-0.21275878,-0.17011625,-9.8842535
548927731,548927522,-0.19614108,-0.27374673,-9.725953
548977504,548977294,-0.21383333,-0.19106616,-9.784588
549022347,549022091,-0.2068507,-0.23455517,-9.840808
549072106,549071863,-0.20074326,-0.22279114,-9.847658
549126824,549126613,-0.21358137,-0.18324646,-9.868115
549176611,549176387,-0.18617888,-0.2284314,-9.781387
549226382,549226160,-0.2033574,-0.22391613,-9.786204
549276139,549275933,-0.20183009,-0.21313076,-9.800529
549325911,549325706,-0.2020516,-0.22816382,-9.765483
549375687,549375479,-0.2078136,-0.22472805,-9.801476
549425471,549425252,-0.19500367,-0.2253468,-9.809453
549475232,549475025,-0.19355461,-0.23546885,-9.797581
549525005,549524798,-0.20382753,-0.22052464,-9.821762
549574781,549574571,-0.19392179,-0.23259373,-9.776195
549624565,549624344,-0.19320258,-0.23362541,-9.763068
549674327,549674118,-0.19337915,-0.23307453,-9.786249
549724098,549723891,-0.20230553,-0.22637911,-9.791123
549773871,549773664,-0.20656252,-0.23936673,-9.798025
549823648,549823437,-0.21013074,-0.2291418,-9.798343
549873416,549873210,-0.19770814,-0.22591332,-9.796442
549923190,549922983,-0.19418566,-0.22849777,-9.788975
549972963,549972756,-0.21574463,-0.2331645,-9.798143
550027714,550027507,-0.22107573,-0.23577037,-9.861136
550072508,550072302,-0.20491295,-0.21818066,-9.841107
550122302,550122076,-0.20131208,-0.22673401,-9.833571
550177048,550176826,-0.19372526,-0.2276213,-9.816881
550226815,550226599,-0.18948759,-0.23340905,-9.792333
550271603,550271395,-0.17654446,-0.22820266,-9.782127
550326375,550326145,-0.17076564,-0.22060493,-9.769175
550376139,550375918,-0.18768671,-0.2218877,-9.802235
550425911,550425691,-0.17982717,-0.2144524,-9.779404
550475671,550475465,-0.18633252,-0.23614897,-9.74893
550525443,550525238,-0.19128954,-0.22758906,-9.786494
550575234,550575011,-0.1922758,-0.226328,-9.783583
550624989,550624784,-0.19250631,-0.22030699,-9.795538
550674762,550674557,-0.19557181,-0.24362582,-9.745438
550724560,550724330,-0.19728667,-0.21443231,-9.768588
550774311,550774103,-0.20433937,-0.22716898,-9.819524
550824100,550823876,-0.21249937,-0.2185629,-9.818146
550873858,550873650,-0.19827321,-0.22867288,-9.76398
550923634,550923423,-0.21582268,-0.22301523,-9.786591
550973405,550973196,-0.22926867,-0.21845667,-9.825903
551028154,551027946,-0.22482611,-0.22593303,-9.802869
551077927,551077719,-0.22311199,-0.23440543,-9.818013
551122722,551122515,-0.23162502,-0.24675843,-9.818287
551172499,551172288,-0.22499461,-0.2322227,-9.812415
551227248,551227039,-0.2197095,-0.21888393,-9.797642
551277034,551276812,-0.22545882,-0.21176946,-9.789529
551321835,551321608,-0.20994547,-0.22820717,-9.798416
551376565,551376358,-0.21716204,-0.23018783,-9.802459
551426342,551426131,-0.2224787,-0.22738625,-9.781081
551476110,551475904,-0.21203251,-0.22142373,-9.793066
551525916,551525677,-0.20593916,-0.24194856,-9.813362
551575676,551575451,-0.20829654,-0.23329538,-9.805472
551625459,551625224,-0.2090565,-0.23602231,-9.801934
551675204,551674997,-0.21499822,-0.22414541,-9.8464575
551724976,551724770,-0.20004348,-0.2169926,-9.820489
551774750,551774543,-0.20057483,-0.22663906,-9.763784
551824526,551824316,-0.18684283,-0.22459805,-9.746829
551874311,551874089,-0.18650886,-0.24558419,-9.793666
551924071,551923863,-0.17919868,-0.23774607,-9.802599
551973842,551973636,-0.15532653,-0.2346164,-9.733869
552023620,552023409,-0.18511645,-0.21041264,-9.788366
552078366,552078159,-0.19675991,-0.22626191,-9.842546
552123164,552122955,-0.19704884,-0.23257971,-9.821657
552172937,552172728,-0.19684744,-0.22658014,-9.840115
552222713,552222501,-0.18548691,-0.22800034,-9.829783
552277461,552277252,-0.17925453,-0.24692662,-9.778862
552327236,552327025,-0.1813099,-0.24230103,-9.790563
552372027,552371821,-0.18116613,-0.22375742,-9.735782
552426792,552426571,-0.18829513,-0.21393627,-9.7852335
552476571,552476347,-0.15381444,-0.21548009,-9.765666
552526325,552526117,-0.185822,-0.22909707,-9.7947035
552571142,552570913,-0.20106785,-0.21792206,-9.764647
552625874,552625664,-0.20768467,-0.22489542,-9.735335
552675634,552675437,-0.19847122,-0.22753629,-9.825419
552725447,552725210,-0.18763646,-0.238922,-9.851144
552775223,552774983,-0.1957167,-0.23108344,-9.825861
552824962,552824756,-0.20105588,-0.23785144,-9.816381
552874738,552874529,-0.19140545,-0.22019403,-9.782912
552924508,552924302,-0.1690397,-0.21822794,-9.774453
552974295,552974076,-0.17767698,-0.23798391,-9.71536
553024058,553023849,-0.17224845,-0.21271484,-9.782111
553073828,553073622,-0.18611136,-0.20671536,-9.797586
553128580,553128372,-0.18827273,-0.22602138,-9.797424
553173377,553173168,-0.1855238,-0.22231048,-9.740178
553223148,553222941,-0.18737051,-0.21928543,-9.805557
553272923,553272715,-0.19904573,-0.24300751,-9.879895
553327677,553327465,-0.20008942,-0.2327753,-9.856581
553377450,553377238,-0.20213988,-0.21706863,-9.863604
553422242,553422034,-0.19369215,-0.24786898,-9.788471
553476993,553476785,-0.19649032,-0.18265411,-9.800495
553526779,553526558,-0.18467669,-0.24261567,-9.700648
553576537,553576331,-0.20771153,-0.22188441,-9.79791
553621334,553621127,-0.20410034,-0.2035919,-9.794976
553676091,553675877,-0.1772521,-0.23329006,-9.767521
553725858,553725650,-0.17867905,-0.23184286,-9.759216
553775633,553775423,-0.18291436,-0.2121597,-9.823887
553825419,553825196,-0.17613389,-0.23668748,-9.858067
553875177,553874970,-0.17764194,-0.22983581,-9.815272
553924961,553924743,-0.18410748,-0.22363083,-9.824646
553974764,553974516,-0.17262368,-0.234579,-9.824207
554024494,554024289,-0.17644341,-0.23741493,-9.7969055
554074275,554074062,-0.18489331,-0.2251619,-9.771131
554124061,554123835,-0.18042916,-0.2343163,-9.769934
554178794,554178586,-0.18413144,-0.21648343,-9.76429
554223589,554223382,-0.20005861,-0.22716768,-9.846697
554273363,554273155,-0.18538682,-0.21566513,-9.778207
554323135,554322928,-0.19426358,-0.2187391,-9.7817955
554377886,554377678,-0.18411289,-0.20799759,-9.831375
554422681,554422474,-0.16326895,-0.24494185,-9.812985
554472456,554472247,-0.14538562,-0.20559964,-9.789676
554527207,554526998,-0.14776525,-0.22228537,-9.838424
554576983,554576771,-0.123212606,-0.20856528,-9.760767
554626752,554626544,-0.11972579,-0.2084932,-9.7002
554671560,554671340,-0.12641037,-0.22356513,-9.69172
554726298,554726091,-0.15792796,-0.21925406,-9.743545
554776085,554775864,-0.15937147,-0.22996885,-9.801356
554825852,554825637,-0.15313107,-0.2247627,-9.799635
554875622,554875410,-0.17949665,-0.2101392,-9.806156
554925393,554925183,-0.18744498,-0.22266293,-9.78886
554975162,554974956,-0.21612212,-0.24500963,-9.815425
555024935,555024729,-0.21104063,-0.21962433,-9.8087225
555074725,555074503,-0.19733134,-0.24516866,-9.820339
555124500,555124276,-0.20747206,-0.21070147,-9.816105
555174254,555174049,-0.20552956,-0.23265052,-9.7844
555229021,555228799,-0.20718992,-0.2064292,-9.787566
555273802,555273595,-0.2026471,-0.22196105,-9.802671
555323576,555323369,-0.19327103,-0.22894911,-9.813514
555373347,555373142,-0.17812806,-0.22044614,-9.791082
555428121,555427892,-0.17207406,-0.23747072,-9.755097
555472894,555472688,-0.17136395,-0.23845084,-9.789877
555522682,555522461,-0.18523058,-0.24434079,-9.80658
555577419,555577212,-0.17365943,-0.2688716,-9.748409
555627194,555626985,-0.1770784,-0.20943679,-9.816325
555676986,555676759,-0.15574275,-0.25020903,-9.768672
555721760,555721554,-0.19873723,-0.19625625,-9.782872
555776528,555776305,-0.1934356,-0.23074573,-9.782656
555826297,555826078,-0.18484794,-0.22408395,-9.808478
555876057,555875851,-0.18871549,-0.23054649,-9.847333
555925832,555925625,-0.20343864,-0.25419495,-9.81156
555975606,555975397,-0.19139905,-0.2311196,-9.8443775
556025380,556025170,-0.19786674,-0.26043475,-9.844174
556075148,556074943,-0.19836321,-0.24577142,-9.855492
556124931,556124716,-0.18473564,-0.27751008,-9.78668
556174696,556174490,-0.15668923,-0.22603942,-9.745981
556224468,556224263,-0.14502464,-0.20819604,-9.691965
556274257,556274036,-0.16257817,-0.2315118,-9.762041
556324101,556323809,-0.18278551,-0.24350727,-9.904854
556373806,556373583,-0.17824438,-0.24781457,-9.828713
556423563,556423356,-0.17579031,-0.26383838,-9.760989
556478313,556478106,-0.1811092,-0.22778034,-9.7751255
556523108,556522902,-0.17667675,-0.24771948,-9.815624
556572882,556572675,-0.18852992,-0.2433498,-9.828754
556627636,556627426,-0.19690499,-0.24789838,-9.835606
556677407,556677199,-0.19200206,-0.25688934,-9.805313
556722206,556721995,-0.2018084,-0.23865686,-9.811828
556771973,556771768,-0.20732482,-0.2426746,-9.78528
556826728,556826518,-0.2046743,-0.23745903,-9.785264
556876502,556876292,-0.21837293,-0.22591075,-9.806514
556926288,556926065,-0.20521693,-0.20567182,-9.7960615
556976046,556975838,-0.21327464,-0.21799135,-9.814904
557025824,557025612,-0.20682561,-0.23891796,-9.815243
557075592,557075384,-0.19507825,-0.22826031,-9.786285
557125365,557125157,-0.19119814,-0.2526569,-9.861766
557175138,557174931,-0.17953965,-0.22762716,-9.820534
557224916,557224704,-0.18302381,-0.23571558,-9.816651
557274685,557274477,-0.17595237,-0.18621856,-9.832204
557324459,557324250,-0.16883552,-0.21961805,-9.783723
557374229,557374023,-0.1696908,-0.20498967,-9.847477
557424017,557423796,-0.17288515,-0.2073205,-9.790415
557473791,557473570,-0.1880483,-0.21792713,-9.721997
557523548,557523343,-0.20816866,-0.21696031,-9.807492
557573327,557573116,-0.18539739,-0.223404,-9.722824
557623096,557622889,-0.21394616,-0.2408743,-9.769166
557677854,557677640,-0.1953604,-0.26243997,-9.791813
557727622,557727413,-0.1752917,-0.22244698,-9.767478
557772415,557772209,-0.19752578,-0.20953552,-9.784496
557822191,557821982,-0.20373972,-0.21919665,-9.789693
557876961,557876733,-0.20639445,-0.17771912,-9.813843
557926714,557926506,-0.20517088,-0.21396998,-9.787011
557976492,557976279,-0.18914793,-0.22854282,-9.779841
558026279,558026052,-0.16877274,-0.2419206,-9.758435
558076031,558075825,-0.21044226,-0.2209064,-9.819685
558125805,558125599,-0.21668401,-0.24802133,-9.834625
558175578,558175372,-0.22920968,-0.22945093,-9.806827
558225352,558225145,-0.22345783,-0.23434739,-9.836746
558275127,558274918,-0.24661398,-0.20923513,-9.808846
558324902,558324692,-0.23894355,-0.21982287,-9.832026
558374674,558374465,-0.2230735,-0.20294967,-9.772284
558424449,558424238,-0.21013598,-0.21154386,-9.698281
558474218,558474011,-0.23579463,-0.2333216,-9.739157
558523989,558523784,-0.23197162,-0.2510423,-9.775611
558573787,558573557,-0.22490452,-0.25703904,-9.754051
558623556,558623331,-0.22438702,-0.25929514,-9.761368
558673327,558673104,-0.24686442,-0.2161856,-9.831103
558728060,558727854,-0.21437271,-0.23575729,-9.853089
558777834,558777628,-0.25949976,-0.2062515,-9.883201
558822632,558822423,-0.23346366,-0.22054532,-9.854983
558872415,558872196,-0.24576731,-0.23422855,-9.853873
558927155,558926947,-0.23460282,-0.24676101,-9.843153
558976941,558976720,-0.22913417,-0.24870874,-9.804975
559021723,559021516,-0.22283451,-0.2413411,-9.785983
559076476,559076267,-0.22893165,-0.22699924,-9.810439
559126253,559126040,-0.21796177,-0.2239805,-9.774077
559176034,559175813,-0.21056782,-0.21643363,-9.820659
559225792,559225586,-0.18112102,-0.22653931,-9.807633
559275566,559275360,-0.175605,-0.21079797,-9.787824
559325344,559325133,-0.17902918,-0.21470466,-9.749992
559375112,559374906,-0.18629722,-0.24981278,-9.778142
559424886,559424679,-0.16977069,-0.22626148,-9.781749
559474664,559474452,-0.19063686,-0.21389309,-9.791661
559524433,559524226,-0.2154765,-0.23169334,-9.807453
559574205,559573999,-0.21621244,-0.23366821,-9.859948
559623981,559623772,-0.20453666,-0.21853141,-9.857444
559673764,559673545,-0.22089587,-0.21664907,-9.809425
559723547,559723318,-0.22181754,-0.22229776,-9.791283
559778291,559778069,-0.21588342,-0.22940806,-9.74659
559823093,559822865,-0.25017893,-0.23953576,-9.830787
559872843,559872638,-0.21585801,-0.24280906,-9.837996
559922623,559922411,-0.19781294,-0.22429892,-9.785485
559977367,559977162,-0.19851989,-0.23426636,-9.781126
560027139,560026935,-0.19292025,-0.23709281,-9.82696
560071938,560071731,-0.1977081,-0.22121505,-9.836336
560126689,560126481,-0.21656625,-0.22174968,-9.828712
560176462,560176255,-0.21709771,-0.2124287,-9.80695
560226245,560226028,-0.22291736,-0.21526988,-9.769435
560276036,560275801,-0.21487927,-0.22398174,-9.750255
560325823,560325574,-0.23266874,-0.21083729,-9.763444
560375575,560375348,-0.22200903,-0.22872454,-9.753551
560425329,560425121,-0.22723198,-0.21948844,-9.75836
560475102,560474894,-0.22344986,-0.21957353,-9.824823
560524876,560524667,-0.24018393,-0.20276678,-9.834549
560574654,560574440,-0.25195396,-0.22432041,-9.779697
560624421,560624214,-0.25643173,-0.23665571,-9.857244
560674192,560673987,-0.24211018,-0.2415823,-9.87789
560723970,560723760,-0.22664374,-0.22026376,-9.894914
560773739,560773533,-0.23017025,-0.21953353,-9.804273
560828526,560828284,-0.20160079,-0.215419,-9.745354
560873305,560873080,-0.24440522,-0.24181154,-9.76195
560923076,560922853,-0.2297395,-0.2284594,-9.761689
560972847,560972626,-0.20353082,-0.220129,-9.772623
561027582,561027377,-0.21766363,-0.19929305,-9.832871
561077359,561077150,-0.21747383,-0.2069738,-9.817123
561122153,561121946,-0.22551924,-0.21076451,-9.806395
561176903,561176696,-0.23550178,-0.19839972,-9.800867
561226681,561226470,-0.22692628,-0.22066855,-9.807518
561276451,561276243,-0.2159456,-0.19700187,-9.78685
561321244,561321039,-0.20733681,-0.21155871,-9.742933
561375998,561375789,-0.21989273,-0.21273805,-9.723972
561425781,561425562,-0.24029392,-0.26824284,-9.740604
561475541,561475336,-0.20822111,-0.24305125,-9.785056
561525316,561525109,-0.18312827,-0.22845034,-9.884838
561575088,561574882,-0.17961277,-0.22433625,-9.848224
561624863,561624655,-0.19691683,-0.21994428,-9.900049
561674642,561674429,-0.23304603,-0.20636526,-9.864161
561724408,561724202,-0.21282533,-0.22813778,-9.808965
561774217,561773975,-0.19382143,-0.21506341,-9.7870245
561823964,561823748,-0.19895075,-0.20521311,-9.751701
561878718,561878499,-0.17953363,-0.22279437,-9.70169
561923502,561923295,-0.18677421,-0.21521816,-9.688795
561973290,561973068,-0.19096704,-0.23940927,-9.752821
562023050,562022841,-0.16962518,-0.2198705,-9.795202
562077816,562077592,-0.19931066,-0.22997603,-9.821758
562122609,562122388,-0.2233459,-0.20773275,-9.811084
562172377,562172163,-0.22334716,-0.25961715,-9.736101
562227121,562226912,-0.21820922,-0.2187309,-9.803492
562276890,562276685,-0.20171109,-0.25228864,-9.839734
562326666,562326458,-0.1973552,-0.23353693,-9.846569
562371460,562371254,-0.19558287,-0.24772143,-9.791868
562426211,562426004,-0.20200787,-0.23557392,-9.882051
562475987,562475778,-0.18282926,-0.2548648,-9.818643
562525830,562525553,-0.20546857,-0.2324889,-9.838342
562575531,562575324,-0.23142786,-0.21939649,-9.877506
562625305,562625097,-0.1986654,-0.27316406,-9.570324
562675079,562674871,-0.21423462,-0.22000371,-9.722255
562724852,562724644,-0.25760043,-0.2334726,-10.424656
562774646,562774417,-0.2247522,-0.20039111,-9.924111
562824398,562824190,-0.23819369,-0.21047555,-9.649553
562874171,562873963,-0.1958661,-0.32459098,-9.489569
562928933,562928714,-0.10913805,-0.3599495,-9.642827
562973740,562973512,-0.21424854,-0.181497,-9.97089
563023495,563023283,-0.21643975,-0.22884692,-9.784302
563073266,563073056,-0.18910612,-0.23905307,-9.716967
563128029,563127807,-0.19929498,-0.2287652,-9.670793
563172811,563172603,-0.20598376,-0.24919078,-9.860061
563222600,563222376,-0.21565753,-0.21520378,-9.7954855
563277349,563277127,-0.21212192,-0.2077682,-9.819352
563327105,563326900,-0.19432452,-0.23728812,-9.840537
563376878,563376673,-0.1944106,-0.24727847,-9.778365
563421691,563421469,-0.2014796,-0.22778398,-9.797622
563476426,563476220,-0.18974584,-0.24482416,-9.823205
563526200,563525993,-0.18163241,-0.2389709,-9.824187
563575975,563575767,-0.18217133,-0.22896747,-9.8738
563625749,563625540,-0.20605417,-0.2209319,-9.881086
563675552,563675313,-0.19039378,-0.18244158,-9.783011
563725294,563725086,-0.21605942,-0.22478776,-9.653453
563775067,563774859,-0.2504516,-0.19767985,-9.876796
563824841,563824633,-0.23409559,-0.23043759,-9.831211
563874592,563874406,-0.28866506,-0.27719772,-9.948201
563924386,563924179,-0.22407036,-0.2403095,-10.086374
563974158,563973952,-0.16514155,-0.26881862,-9.89016
564023943,564023726,-0.1846886,-0.22411579,-9.755949
564073719,564073502,-0.16678737,-0.22853945,-9.795866
564123482,564123272,-0.1478836,-0.2360323,-9.7723465
564178226,564178022,-0.16546996,-0.2037991,-9.7643175
564223040,564222818,-0.1827131,-0.17412217,-9.846605
564272801,564272592,-0.21039452,-0.21011192,-9.792273
564327551,564327342,-0.21843371,-0.21344247,-9.754279
564377341,564377116,-0.24649689,-0.2292168,-9.706071
564422133,564421911,-0.24301246,-0.23799953,-9.826591
564471893,564471685,-0.20886767,-0.22987993,-9.861648
564526644,564526435,-0.2121752,-0.2063756,-9.802991
564576414,564576209,-0.18632057,-0.20386267,-9.787328
564626189,564625982,-0.15984209,-0.2447739,-9.724715
564675964,564675755,-0.14240114,-0.20085959,-9.797641
564725741,564725528,-0.12131475,-0.23720515,-9.77654
564775596,564775304,-0.13076803,-0.20089862,-9.825222
564825282,564825075,-0.16414694,-0.1860921,-9.804316
564875056,564874848,-0.18082778,-0.14983459,-9.830324
564924828,564924621,-0.2175222,-0.2116489,-9.59496
564974603,564974395,-0.1710771,-0.19046612,-9.608853
565024374,565024168,-0.09839238,-0.23787096,-9.678664
565074147,565073941,-0.14016615,-0.20524912,-9.78638
565123929,565123714,-0.14060764,-0.20083874,-9.873894
565173693,565173488,-0.16977918,-0.2708241,-9.812451
565228447,565228238,-0.22080933,-0.18188986,-9.860181
565273239,565273034,-0.19366303,-0.2609722,-9.789991
565323020,565322807,-0.22448897,-0.19891465,-9.888717
565372805,565372581,-0.22341868,-0.19006336,-9.822778
565427560,565427331,-0.22505265,-0.25302294,-9.80106
565472335,565472127,-0.22730646,-0.22356762,-9.849003
565522107,565521900,-0.21100053,-0.21377309,-9.76855
565576872,565576651,-0.2313565,-0.22685826,-9.856971
565626647,565626424,-0.2272464,-0.20475072,-9.86595
565676406,565676198,-0.21500693,-0.21014121,-9.786822
565726179,565725971,-0.20014554,-0.26199406,-9.7171955
565775954,565775744,-0.19533296,-0.25087813,-9.7689905
565825726,565825517,-0.21673173,-0.19743219,-9.849758
565875500,565875291,-0.222598,-0.2301169,-9.808483
565925285,565925064,-0.224177,-0.21664253,-9.811768
565975044,565974837,-0.23622864,-0.21630658,-9.810032
566024819,566024610,-0.20721215,-0.23548084,-9.801771
566074590,566074384,-0.22224152,-0.16788778,-9.81251
566124364,566124157,-0.20755632,-0.22870073,-9.738403
566174137,566173930,-0.2055308,-0.23361018,-9.812038
566223912,566223703,-0.22722189,-0.24917835,-9.843795
566273689,566273480,-0.22756287,-0.2863244,-9.779956
566323471,566323250,-0.23470204,-0.242093,-9.869602
566373229,566373023,-0.21326637,-0.2618664,-9.830785
566423002,566422796,-0.20341943,-0.23174667,-9.797822
566477771,566477547,-0.19253133,-0.20925802,-9.858751
566522551,566522343,-0.16852781,-0.24268019,-9.793174
566572324,566572116,-0.14335255,-0.21487713,-9.795741
566627076,566626867,-0.1500016,-0.2003966,-9.811705
566676849,566676640,-0.12811984,-0.23653851,-9.731696
566721662,566721436,-0.14640957,-0.20541218,-9.8024435
566776411,566776187,-0.13907582,-0.21913333,-9.75774
566826165,566825960,-0.13897751,-0.20605935,-9.747388
566875938,566875733,-0.15023714,-0.20476438,-9.737401
566925716,566925506,-0.13370405,-0.2303732,-9.709668
566975491,566975280,-0.13578294,-0.24315627,-9.739891
567025329,567025054,-0.15629353,-0.25121903,-9.769006
567075033,567074826,-0.16405042,-0.22895613,-9.755277
567124805,567124599,-0.19027135,-0.24475917,-9.792797
567174581,567174373,-0.1802005,-0.2196232,-9.840111
567224357,567224146,-0.20012648,-0.23146705,-9.868057
567274138,567273919,-0.2049695,-0.26296765,-9.886715
567323905,567323692,-0.21205838,-0.27753246,-9.918982
567373678,567373472,-0.23675613,-0.22105972,-9.9208765
567423449,567423239,-0.21337181,-0.22796097,-9.864313
567478195,567477989,-0.24103785,-0.25408188,-9.777164
567527972,567527763,-0.24455202,-0.22825637,-9.823018
567572770,567572559,-0.22958986,-0.2513245,-9.805873
567622555,567622332,-0.21518584,-0.23919083,-9.878907
567677292,567677083,-0.2245939,-0.2340946,-9.810779
567727063,567726856,-0.21265142,-0.22251016,-9.789528
567771861,567771652,-0.21363206,-0.21108918,-9.835048
567826611,567826402,-0.20967221,-0.21064588,-9.803317
567876418,567876176,-0.16934237,-0.22638577,-9.728449
567926170,567925949,-0.17971918,-0.23161931,-9.777381
567975926,567975722,-0.19270425,-0.23638028,-9.783509
568025715,568025495,-0.16459575,-0.2367598,-9.686226
568075492,568075269,-0.14143558,-0.22695114,-9.746041
568125250,568125042,-0.1519195,-0.23608679,-9.71313
568175034,568174815,-0.16075912,-0.2062634,-9.797909
568224795,568224588,-0.14912099,-0.25502965,-9.724539
568274574,568274362,-0.1843076,-0.19875398,-9.877485
568324341,568324135,-0.16925305,-0.24959084,-9.758038
568374115,568373908,-0.159128,-0.251602,-9.611332
568423891,568423681,-0.1402422,-0.31266806,-9.800647
568473669,568473458,-0.16953424,-0.19605543,-9.965713
568528411,568528205,-0.18297747,-0.22522807,-9.646116
568573207,568573001,-0.16874482,-0.2201107,-9.842605
568622980,568622775,-0.1731353,-0.24110973,-9.753666
568672754,568672548,-0.14742841,-0.2797823,-9.752419
568727523,568727298,-0.19673397,-0.18444096,-9.882752
568777292,568777072,-0.18786745,-0.25731143,-9.774492
568822087,568821868,-0.20215645,-0.21167184,-9.7788515
568876825,568876618,-0.23543185,-0.050423436,-9.965061
568926599,568926391,-0.14052816,-0.38607103,-9.497562
568976375,568976165,-0.20870788,-0.17092468,-9.819422
569021167,569020961,-0.19008365,-0.28171015,-9.78572
569075919,569075711,-0.17096841,-0.29900986,-9.737522
569125693,569125485,-0.20815781,-0.20401579,-9.859323
569175466,569175258,-0.17059545,-0.280956,-9.6765785
569225242,569225031,-0.19353603,-0.19644347,-9.847967
569275098,569274806,-0.1590304,-0.34412906,-9.601069
569324842,569324578,-0.17712457,-0.2709049,-9.773677
569374556,569374351,-0.20529188,-0.16748884,-9.88946
569424331,569424124,-0.18855602,-0.30872065,-9.747702
569474104,569473897,-0.23618759,-0.20178808,-9.881156
569523881,569523671,-0.20093453,-0.21022709,-9.818622
569578628,569578421,-0.25139546,-0.1000972,-9.911431
569623422,569623217,-0.17876795,-0.2814189,-9.680644
569673195,569672990,-0.18220742,-0.21199201,-9.716077
569722991,569722764,-0.15253997,-0.26076356,-9.7607765
569777720,569777514,-0.14471611,-0.26910523,-9.784887
569827513,569827288,-0.18322332,-0.18822277,-9.927694
569872325,569872084,-0.16770427,-0.27794537,-9.75176
569927041,569926834,-0.16628338,-0.29485145,-9.700289
569976818,569976608,-0.1874051,-0.23902166,-9.799778
570026588,570026381,-0.18045385,-0.24573226,-9.812621
570071386,570071177,-0.19276626,-0.2175552,-9.8369255
570126136,570125927,-0.18540286,-0.22832176,-9.828227
570175908,570175700,-0.1795806,-0.24477452,-9.761126
570225685,570225474,-0.17570229,-0.22384171,-9.79137
570275459,570275247,-0.14867999,-0.22691567,-9.733789
570325249,570325020,-0.13806905,-0.22122549,-9.737822
570375019,570374794,-0.16057242,-0.24429391,-9.775394
570424790,570424567,-0.1817691,-0.2689658,-9.813104
570474546,570474341,-0.20991696,-0.2371875,-9.881356
570524320,570524113,-0.23363107,-0.23848435,-9.863567
570574092,570573887,-0.23561259,-0.25739446,-9.807475
570628844,570628637,-0.24523443,-0.2549984,-9.768654
570673647,570673433,-0.24615434,-0.2451733,-9.799359
570723412,570723206,-0.2421499,-0.25676975,-9.803682
570773186,570772980,-0.23956706,-0.25204515,-9.801738
570827936,570827730,-0.2252623,-0.24086632,-9.808421
570872732,570872526,-0.20806433,-0.2587666,-9.7645
570922503,570922299,-0.20481613,-0.24667946,-9.77377
570977271,570977050,-0.20433529,-0.2564554,-9.797971
571027032,571026823,-0.19955271,-0.26458472,-9.788464
571076807,571076597,-0.20287065,-0.23942195,-9.844088
571121600,571121393,-0.19340052,-0.26747668,-9.787749
571176352,571176143,-0.19414875,-0.29625928,-9.732172
571226125,571225916,-0.20030138,-0.23673132,-9.804332
571275897,571275690,-0.19699755,-0.33235297,-9.8759
571325675,571325463,-0.23338932,-0.21623705,-9.9099455
571375447,571375236,-0.21962807,-0.28075677,-9.69584
571425217,571425010,-0.19908784,-0.22278036,-9.751485
571474994,571474783,-0.20247576,-0.2509281,-9.773772
571524848,571524556,-0.19491328,-0.27335203,-9.755931
571574616,571574330,-0.19404045,-0.27276134,-9.727197
571624307,571624103,-0.20379373,-0.29823962,-9.777407
571674081,571673876,-0.21471204,-0.25255176,-9.811427
571723861,571723649,-0.21449158,-0.2398276,-9.807053
571773635,571773422,-0.20381984,-0.27224436,-9.779214
571823403,571823196,-0.2198065,-0.26223308,-9.820767
571878154,571877946,-0.20436491,-0.25356668,-9.83211
571922949,571922742,-0.19749516,-0.28767693,-9.772944
571972729,571972516,-0.20483953,-0.26985046,-9.798236
572027472,572027266,-0.18760204,-0.28239214,-9.764905
572077241,572077039,-0.20807847,-0.2668311,-9.864106
572127049,572126813,-0.20795417,-0.28399587,-9.794576
572171818,572171609,-0.2089187,-0.30753756,-9.807292
572226567,572226359,-0.20197494,-0.2957171,-9.791875
572276343,572276133,-0.21579053,-0.3010495,-9.788234
572326114,572325906,-0.21170828,-0.27058387,-9.821914
572375888,572375679,-0.2152765,-0.26631996,-9.802062
572425664,572425452,-0.21331026,-0.27880645,-9.833028
572475434,572475226,-0.20650618,-0.25155014,-9.887099
572525206,572524999,-0.19202602,-0.31030774,-9.777273
572574985,572574772,-0.20518678,-0.29626644,-9.7712145
572624775,572624545,-0.18706724,-0.321532,-9.753338
572674546,572674319,-0.21925372,-0.24241644,-9.806544
572724322,572724092,-0.21454306,-0.25711778,-9.753209
572774090,572773865,-0.1825859,-0.29416835,-9.74958
572823851,572823639,-0.15661018,-0.31351584,-9.836744
572873622,572873412,-0.16976787,-0.27340597,-9.751017
572928369,572928162,-0.1402243,-0.36368164,-9.664413
572973164,572972958,-0.19373783,-0.2676225,-9.941127
573022939,573022732,-0.20720358,-0.28806323,-9.746671
573077689,573077482,-0.23900644,-0.2461105,-9.84664
573127461,573127255,-0.17779052,-0.4145058,-9.884395
573172257,573172051,-0.18754618,-0.2843331,-9.716164
573222047,573221825,-0.18814275,-0.3692611,-9.810322
573276782,573276575,-0.20971698,-0.3451358,-9.765336
573326555,573326349,-0.20484042,-0.31368938,-9.759705
573376328,573376122,-0.19077355,-0.3883666,-9.719643
573426105,573425895,-0.23079315,-0.345082,-9.70237
573475877,573475668,-0.19201727,-0.29884875,-9.770063
573525653,573525442,-0.18405199,-0.31960127,-9.877984
573575435,573575215,-0.17348762,-0.35594794,-9.704396
573625205,573624989,-0.20346236,-0.33337414,-9.721338
573674971,573674761,-0.18300167,-0.34525067,-9.8137045
573724745,573724535,-0.18207383,-0.32244557,-9.869702
573774597,573774308,-0.18828557,-0.30955854,-9.844762
573824304,573824081,-0.213462,-0.41316962,-9.7532
573874060,573873855,-0.2797844,-0.3879945,-9.792091
573923836,573923628,-0.18039861,-0.43744475,-9.675978
573973609,573973401,-0.25928292,-0.5429552,-9.594516
574023380,574023174,-0.11845155,-0.5364834,-9.768634
574073154,574072949,-0.19867732,-0.6412499,-9.734288
574122927,574122721,-0.17110504,-0.80347794,-9.797005
574177678,574177471,-0.18613137,-0.78975606,-9.844177
574222473,574222267,-0.17829789,-0.97367424,-9.752286
574272245,574272041,-0.15527283,-0.8913562,-9.704858
574327022,574326791,-0.15270557,-0.9743107,-9.49912
574376790,574376564,-0.1882474,-0.886439,-9.7838545
574421567,574421360,-0.1296333,-0.9612634,-9.504534
574476319,574476111,-0.16386095,-0.94471526,-9.7051735
574526094,574525884,-0.1854518,-0.9832405,-9.7112
574575866,574575658,-0.17678945,-0.94815457,-9.654887
574625643,574625431,-0.17845654,-0.96800077,-9.675254
574675412,574675204,-0.17081301,-0.9501002,-9.778502
574725185,574724977,-0.16812962,-0.9362476,-9.757759
574774959,574774751,-0.18266015,-0.9135121,-9.76571
574824749,574824525,-0.18231581,-0.92731273,-9.745375
574874509,574874297,-0.1844352,-0.94357675,-9.720726
574924291,574924070,-0.1866772,-0.9354625,-9.727892
574974074,574973844,-0.1875416,-0.9449062,-9.850803
575023846,575023618,-0.16447139,-1.0184107,-9.695709
575073596,575073390,-0.18863036,-0.96016777,-9.8019705
575123377,575123164,-0.16769391,-1.0150958,-9.650207
575178119,575177914,-0.20182636,-0.9380047,-9.825977
575227893,575227687,-0.060597803,-1.0139409,-9.818113
575272691,575272483,-0.13310851,-0.9889968,-9.932644
575322465,575322256,-0.47427204,-0.92861915,-9.291959
575377213,575377007,-0.18530342,-0.9510093,-9.786114
575427007,575426780,-0.18346173,-0.9926543,-9.763676
575471797,575471576,-0.16610043,-0.98294896,-9.68231
575526536,575526327,-0.14570439,-0.95313275,-9.780429
575576306,575576100,-0.1599788,-0.97863966,-9.772159
575626079,575625873,-0.1489873,-0.9608676,-9.729699
575675865,575675647,-0.12973697,-0.9576441,-9.72563
575725641,575725420,-0.16651738,-0.9020005,-9.735627
575775402,575775193,-0.17928523,-0.9242156,-9.902667
575825173,575824967,-0.15522268,-0.95358986,-9.749407
575874947,575874740,-0.17650272,-1.0028379,-9.725617
575924721,575924513,-0.27785748,-0.85121155,-10.287067
575974510,575974286,-0.17278072,-0.9682547,-9.833167
576024334,576024060,-0.16043906,-0.9702121,-9.630064
576074040,576073833,-0.1778938,-0.98153585,-9.750027
576123861,576123606,-0.19790868,-0.9365406,-9.626075
576173602,576173379,-0.14614129,-0.9613147,-9.68867
576228366,576228130,-0.16577244,-0.97886205,-9.8272705
576273131,576272926,-0.17353772,-1.0016403,-9.794102
576322908,576322700,-0.1751461,-0.8983578,-9.833651
576372680,576372472,-0.17083427,-0.95894265,-9.791825
576427428,576427223,-0.17968121,-0.9616216,-9.719014
576477201,576476996,-0.1926204,-0.9075167,-9.79957
576522000,576521792,-0.1968009,-0.90751034,-9.814374
576576765,576576543,-0.22387776,-0.8717272,-9.746296
576626542,576626316,-0.15842424,-0.9835073,-9.777467
576676295,576676089,-0.09230614,-1.0481379,-9.785752
576721094,576720885,-0.04394938,-0.983714,-9.6817465
576775844,576775636,-0.19804007,-0.9010871,-9.740449
576825619,576825409,-0.12368771,-0.96181273,-9.815762
576875391,576875182,-0.17070386,-0.9263863,-9.798938
576925163,576924955,-0.14604072,-0.94971746,-9.719503
576974937,576974729,-0.13680945,-0.88006806,-9.663332
577024710,577024502,-0.22284947,-0.8780829,-9.779839
577074484,577074275,-0.13918391,-0.92789435,-9.716648
577124259,577124049,-0.15469378,-0.9514268,-9.754774
577174040,577173822,-0.1731154,-0.9980068,-9.745284
577223803,577223595,-0.10973095,-1.0025375,-9.828585
577278553,577278346,-0.19049549,-1.0039747,-9.819048
577323369,577323142,-0.21652113,-0.9385015,-9.780492
577373134,577372915,-0.16691485,-0.9243076,-9.817203
577422914,577422688,-0.1667379,-0.9502258,-9.750427
577477648,577477439,-0.14437737,-1.0094926,-9.724212
577527417,577527212,-0.14842719,-0.9405027,-9.855642
577572220,577572008,-0.18943736,-0.9400086,-9.83249
577626977,577626758,-0.16586113,-0.9689023,-9.766549
577676737,577676532,-0.18017174,-0.9633979,-9.787798
577726526,577726305,-0.15629515,-0.9956342,-9.717478
577771307,577771101,-0.1545268,-0.953231,-9.743599
577826059,577825851,-0.17413864,-0.9509266,-9.737029
577875878,577875625,-0.17869064,-0.9404592,-9.745476
577925606,577925398,-0.16348103,-0.9379208,-9.762843
577975378,577975171,-0.17489454,-0.9401613,-9.760891
578025153,578024944,-0.16886677,-0.9568185,-9.776818
578074925,578074718,-0.16597441,-0.9818478,-9.751968
578124702,578124491,-0.16584845,-0.96828806,-9.782495
578174472,578174264,-0.16446273,-0.99040276,-9.796094
578224247,578224038,-0.17399964,-0.97688717,-9.76932
578274084,578273811,-0.15827985,-0.97693014,-9.769145
578328771,578328561,-0.16935843,-0.962595,-9.786772
578373565,578373357,-0.17028993,-0.9681811,-9.757245
578423341,578423130,-0.15653975,-0.94985574,-9.760816
578473113,578472904,-0.1530903,-0.9606142,-9.760505
578527875,578527654,-0.15913957,-0.9662609,-9.761418
578572672,578572450,-0.1516503,-0.99057347,-9.71456
578622433,578622223,-0.14523607,-0.9672078,-9.756355
578677179,578676974,-0.15585223,-0.975059,-9.717035
578726952,578726747,-0.16611014,-0.95610005,-9.748305
578776725,578776520,-0.17548189,-0.9508799,-9.775562
578821521,578821316,-0.16551775,-0.9685017,-9.769054
578876287,578876067,-0.17114972,-0.9346342,-9.814584
578926046,578925840,-0.15792143,-0.95202935,-9.78542
578975822,578975613,-0.15508881,-0.97253436,-9.740263
579025594,579025387,-0.14168276,-0.977435,-9.724575
579075367,579075160,-0.16645835,-0.9751995,-9.836093
579125139,579124933,-0.15666851,-0.9263218,-9.773295
579174914,579174706,-0.16150053,-0.9507596,-9.668282
579224687,579224480,-0.15423784,-0.9513495,-9.663475
579274461,579274253,-0.14896801,-0.923696,-9.761779
579324237,579324028,-0.15955064,-0.93327814,-9.796703
579378994,579378777,-0.15253027,-0.94607574,-9.751329
579423793,579423573,-0.1611783,-0.9442928,-9.757153
579473556,579473348,-0.14037049,-0.9475162,-9.695564
579523328,579523119,-0.15999284,-0.9283745,-9.776837
579578075,579577869,-0.15915766,-0.9380541,-9.756707
579622871,579622665,-0.15938191,-0.93832403,-9.7575655
579672649,579672439,-0.1336091,-1.0143543,-9.820908
579727412,579727189,-0.15695299,-0.83550674,-9.783324
579777204,579776963,-0.22622019,-1.0029069,-9.965391
579826967,579826736,-0.19594574,-0.8423021,-9.511462
579871739,579871532,-0.1057067,-0.9552731,-9.618451
579926488,579926282,-0.07157174,-0.9447089,-9.703985
579976275,579976055,-0.09207128,-0.9168407,-9.592742
580026037,580025829,-0.087770596,-0.98765785,-9.7332325
580075809,580075602,-0.13868314,-0.9040749,-9.824958
580125581,580125375,-0.12006542,-0.95659655,-9.7298155
580175359,580175148,-0.12929684,-0.9276629,-9.8372965
580225147,580224922,-0.16809098,-0.8986591,-9.627879
580274900,580274695,-0.11166591,-0.9779517,-9.763167
580324696,580324468,-0.07766536,-1.0281062,-9.590954
580374449,580374241,-0.09913799,-0.97254527,-9.83783
580424223,580424015,-0.08031599,-1.0323501,-9.786764
580473998,580473788,-0.12679768,-0.95733654,-9.826176
580523843,580523561,-0.15151137,-0.89266264,-9.89303
580573547,580573334,-0.109452136,-0.9877301,-9.620279
580628295,580628085,-0.15634635,-0.8659514,-9.842531
580673087,580672881,-0.10894221,-0.923175,-9.70054
580722859,580722654,-0.05982227,-0.9412806,-9.69169
580777610,580777404,-0.11053348,-0.9333908,-9.738266
580827386,580827178,-0.11969305,-0.9509026,-9.728923
580872182,580871974,-0.11172068,-0.97804385,-9.774201
580921954,580921747,-0.11393376,-0.96938187,-9.743573
580976715,580976497,-0.13500692,-0.9449264,-9.781638
581026476,581026271,-0.13319246,-0.9351499,-9.772647
581076268,581076044,-0.14874782,-0.94881374,-9.735863
581126043,581125817,-0.17134662,-0.9408181,-9.7791
581175812,581175590,-0.16562891,-0.97061175,-9.806551
581225608,581225364,-0.16205962,-0.9211804,-9.760297
581275344,581275137,-0.13852817,-0.98592526,-9.661446
581325117,581324910,-0.13478099,-0.9888406,-9.76822
581374890,581374683,-0.13188387,-0.95241773,-9.837875
581424704,581424456,-0.1307938,-0.97183454,-9.752013
581474435,581474230,-0.13826405,-0.9549892,-9.784231
581524212,581524003,-0.13579342,-0.9717361,-9.745712
581573986,581573776,-0.15817173,-0.9430036,-9.772396
581623762,581623552,-0.13976152,-0.9337093,-9.759645
581678522,581678300,-0.12838127,-0.95890105,-9.711933
581723304,581723096,-0.111905016,-0.8984015,-9.7621975
581773077,581772869,-0.10676375,-0.8837012,-9.57472
581827829,581827619,-0.1336213,-0.95893383,-9.921846
581877598,581877393,-0.13674513,-0.912733,-9.675712
581922396,581922188,-0.14818338,-0.7609969,-9.311166
581972167,581971962,-0.08761739,-0.9917241,-9.788434
582026920,582026712,-0.1106928,-0.9656099,-9.77958
582076695,582076485,-0.15949066,-0.95453393,-9.943515
582126472,582126259,-0.120044306,-0.961485,-9.578353
582176237,582176032,-0.12935247,-0.9425834,-9.813839
582226027,582225805,-0.14171854,-0.9506096,-9.820116
582275787,582275578,-0.15534748,-0.93355036,-9.832729
582325579,582325352,-0.15794188,-0.9310136,-9.749424
582375347,582375125,-0.15857102,-0.9579936,-9.822533
582425169,582424898,-0.14880979,-0.9505805,-9.750824
582474877,582474671,-0.1451872,-0.9600311,-9.755536
582524655,582524444,-0.1379429,-0.93433636,-9.736563
582574440,582574218,-0.14241855,-0.9197131,-9.738766
582624214,582623991,-0.114532836,-0.9352316,-9.782818
582673974,582673764,-0.12130266,-0.9542218,-9.767729
582723748,582723537,-0.13204846,-0.96579766,-9.741059
582773607,582773310,-0.13564911,-0.9532063,-9.744999
582823323,582823084,-0.13261524,-0.96058685,-9.75754
582878045,582877834,-0.14209192,-0.9517759,-9.78395
582927816,582927607,-0.1322948,-0.95885897,-9.780055
582972625,582972403,-0.14167911,-0.9416009,-9.803622
583022387,583022176,-0.13326138,-0.9412426,-9.78505
583077134,583076927,-0.1285687,-0.96085703,-9.74286
583126906,583126700,-0.12423162,-0.9269976,-9.780995
583171704,583171496,-0.11241179,-0.93499833,-9.793341
583226454,583226247,-0.110060886,-0.9426806,-9.780209
583276225,583276020,-0.10725953,-0.93093765,-9.788893
583326017,583325793,-0.1026869,-0.9745698,-9.750847
583375790,583375566,-0.121779494,-0.9463369,-9.769759
583425549,583425339,-0.12610942,-0.9346447,-9.764124
583475325,583475113,-0.119609624,-0.9544947,-9.779176
583525096,583524886,-0.12171934,-0.9438721,-9.719238
583574882,583574659,-0.10537792,-0.92840135,-9.746475
583624661,583624432,-0.11162134,-0.92274565,-9.750606
583674411,583674205,-0.10979912,-0.9500518,-9.7314
583724185,583723979,-0.111585245,-0.92184603,-9.748187
583773975,583773752,-0.10715238,-0.9618404,-9.730042
583823757,583823525,-0.11576984,-0.93324494,-9.735912
583873529,583873298,-0.12234541,-0.94429445,-9.695196
583928268,583928049,-0.1289457,-0.91710454,-9.766658
583978032,583977822,-0.116769925,-0.94354963,-9.782666
584022825,584022618,-0.14201073,-0.9028865,-9.803324
584072598,584072391,-0.14529341,-0.95851636,-9.784812
584127356,584127141,-0.17131442,-0.9259193,-9.810669
584177121,584176915,-0.1673568,-0.9075108,-9.808434
584221920,584221712,-0.1810007,-0.93454015,-9.720075
584276649,584276461,-0.19004846,-0.89920014,-9.685655
584326439,584326234,-0.21085857,-0.9155385,-9.704042
584376212,584376007,-0.22890751,-0.9029683,-9.73545
584425989,584425780,-0.21913703,-0.94298804,-9.7546425
584475778,584475554,-0.21657917,-0.93028516,-9.73453
584525557,584525327,-0.19509849,-0.89829314,-9.7008705
584575307,584575100,-0.15531194,-0.9342752,-9.720566
584625082,584624873,-0.18477723,-0.9186141,-9.711104
584674855,584674646,-0.20742011,-0.9398005,-9.726137
584724631,584724420,-0.22437696,-0.89149934,-9.817977
584774416,584774193,-0.22777054,-0.88283503,-9.809581
584824187,584823966,-0.22353095,-0.8890826,-9.798394
584873949,584873739,-0.249268,-0.89038706,-9.756004
584923719,584923512,-0.23621789,-0.91601527,-9.680363
584978483,584978263,-0.21507029,-0.8646176,-9.7669935
585023351,585023059,-0.21628724,-0.9219967,-9.643776
585073037,585072832,-0.21380597,-0.89818853,-9.732244
585122816,585122605,-0.2257394,-0.91999185,-9.836994
585177561,585177355,-0.21652243,-0.9366518,-9.764568
585227337,585227129,-0.20794478,-0.91845846,-9.788071
585272130,585271924,-0.22054535,-0.90327275,-9.7602005
585326888,585326675,-0.2061103,-0.90667224,-9.75121
585376658,585376448,-0.21587749,-0.8636252,-9.773619
585426452,585426222,-0.2018618,-0.88415253,-9.694088
585471224,585471017,-0.23259865,-0.8986404,-9.719119
585525975,585525768,-0.24365409,-0.8941479,-9.739584
585575763,585575541,-0.22004077,-0.8920169,-9.713647
585625538,585625314,-0.21150771,-0.88183826,-9.7321825
585675296,585675087,-0.22724868,-0.8800497,-9.719135
585725070,585724860,-0.24024336,-0.8726818,-9.7615185
585774844,585774634,-0.23249143,-0.8846087,-9.762419
585824619,585824407,-0.22923806,-0.8980229,-9.7463455
585874387,585874180,-0.23092028,-0.90341616,-9.726442
585924162,585923953,-0.24920733,-0.8934201,-9.782843
585973949,585973726,-0.24658026,-0.92737275,-9.789469
586028702,586028477,-0.23836584,-0.91009057,-9.769477
586073489,586073273,-0.24812643,-0.9170485,-9.763282
586123256,586123046,-0.24692017,-0.9083159,-9.756505
586173042,586172819,-0.25097778,-0.9205061,-9.742025
586227793,586227569,-0.2735289,-0.8630503,-9.760347
586272571,586272365,-0.26591322,-0.8784453,-9.788457
586322347,586322138,-0.25422704,-0.8759148,-9.792511
586377094,586376889,-0.26181492,-0.8657327,-9.797449
586426868,586426662,-0.25777045,-0.8933444,-9.78558
586476646,586476435,-0.2493889,-0.8820854,-9.80306
586521437,586521231,-0.23969032,-0.89540327,-9.761479
586576186,586575981,-0.21444124,-0.90057963,-9.670069
586625960,586625754,-0.25426665,-0.88958275,-9.737695
586675735,586675528,-0.25733447,-0.8940843,-9.772681
586725521,586725301,-0.25375098,-0.8932421,-9.813582
586775282,586775074,-0.24914308,-0.8921233,-9.807411
586825054,586824847,-0.2175318,-0.89288265,-9.687945
586874828,586874620,-0.26504174,-0.8872659,-9.658035
586924603,586924393,-0.26637495,-0.88424593,-9.774465
586974376,586974167,-0.2523922,-0.9026306,-9.808636
587024149,587023940,-0.2486397,-0.8994634,-9.827532
587078898,587078690,-0.2500112,-0.920976,-9.784237
587123697,587123488,-0.23661008,-0.92717415,-9.774911
587173486,587173259,-0.23276499,-0.9313953,-9.818129
587223258,587223032,-0.23036796,-0.9414299,-9.783933
587278008,587277783,-0.19819568,-0.90741324,-9.7844
587322787,587322579,-0.18986332,-0.9020438,-9.737623
587372574,587372352,-0.18761067,-0.9169198,-9.738196
587427329,587427102,-0.1931742,-0.90853244,-9.8050995
587477103,587476875,-0.20366223,-0.9182797,-9.8051
587526856,587526648,-0.2116555,-0.9098653,-9.789316
587571661,587571448,-0.20441946,-0.91401196,-9.778468
587626401,587626195,-0.22480601,-0.9181548,-9.787321
587676175,587675968,-0.2175392,-0.91804844,-9.804616
587725949,587725741,-0.1898943,-0.9169971,-9.731354
587775727,587775514,-0.19158047,-0.9130066,-9.769611
587825512,587825287,-0.19389708,-0.93030286,-9.715441
587875303,587875060,-0.212548,-0.9111205,-9.779852
587925041,587924834,-0.21371631,-0.93009293,-9.748343
587974817,587974607,-0.2178348,-0.8930489,-9.784728
588024587,588024380,-0.18493342,-0.9300092,-9.740494
588074364,588074153,-0.209901,-0.9140818,-9.757285
588124134,588123926,-0.22334506,-0.9365309,-9.808603
588173906,588173699,-0.22220144,-0.9393166,-9.790277
588223682,588223473,-0.22588935,-0.95740443,-9.748861
588273459,588273245,-0.23968168,-0.9601548,-9.822985
588328202,588327996,-0.24011327,-0.975343,-9.806863
588373001,588372792,-0.23271626,-0.9766389,-9.77712
588422787,588422565,-0.22125432,-0.9612861,-9.7675295
588477524,588477315,-0.21781646,-0.9526019,-9.685267
588527295,588527088,-0.23121768,-0.92694134,-9.743376
588572094,588571884,-0.21815613,-0.91036737,-9.741488
588621882,588621657,-0.18994115,-0.92222345,-9.786693
588676663,588676408,-0.19002885,-0.92434007,-9.767799
588726386,588726181,-0.21217515,-0.9003637,-9.775898
588776159,588775954,-0.21486454,-0.9204954,-9.718991
588825934,588825727,-0.21638174,-0.9104923,-9.742494
588875711,588875500,-0.21331416,-0.91960776,-9.769431
588925479,588925273,-0.22423951,-0.9359596,-9.741887
588975268,588975046,-0.22892965,-0.9445223,-9.744079
589025032,589024820,-0.22938949,-0.9462156,-9.73304
589074818,589074593,-0.25415787,-0.88123333,-9.748437
589124573,589124366,-0.21597466,-0.91044176,-9.782581
589174344,589174139,-0.21728194,-0.9282605,-9.71349
589224120,589223912,-0.2341642,-0.9196817,-9.714948
589273894,589273685,-0.19447917,-0.91093516,-9.742678
589323670,589323458,-0.17721738,-0.9188807,-9.65263
589378417,589378209,-0.2059533,-0.9041282,-9.757044
589423212,589423004,-0.21638083,-0.92194265,-9.737497
589472992,589472778,-0.22362605,-0.9135504,-9.698732
589522831,589522551,-0.2404218,-0.90119344,-9.720554
589577510,589577301,-0.24438678,-0.9097764,-9.734974
589622306,589622097,-0.24813375,-0.9010881,-9.766455
589672079,589671870,-0.24293847,-0.9157968,-9.726679
589726829,589726620,-0.24375975,-0.93103987,-9.708176
589776599,589776393,-0.24370249,-0.9113846,-9.729399
589826378,589826167,-0.23037165,-0.91915035,-9.759759
589876165,589875940,-0.22098026,-0.8927317,-9.716208
589925967,589925713,-0.2746537,-0.8716585,-9.805807
589975691,589975486,-0.25417465,-0.9033284,-9.8117485
590025468,590025259,-0.25204143,-0.9329654,-9.735393
590075261,590075032,-0.2332622,-0.90296066,-9.714866
590125031,590124805,-0.25206771,-0.9158387,-9.693275
590174787,590174578,-0.26979652,-0.89336157,-9.742874
590224561,590224351,-0.25228184,-0.88772947,-9.776208
590274332,590274124,-0.25725842,-0.8973263,-9.768159
590324125,590323897,-0.25510925,-0.88427246,-9.715537
590373879,590373671,-0.24740107,-0.888116,-9.718491
590423661,590423450,-0.2805058,-0.85496956,-9.730884
590473430,590473217,-0.24987927,-0.90738696,-9.753444
590523198,590522990,-0.23111898,-0.8716742,-9.610184
590577949,590577740,-0.23790215,-0.85914123,-9.6947975
590627724,590627515,-0.25823057,-0.8961179,-9.761818
590672531,590672309,-0.2257634,-0.9033656,-9.799239
590722290,590722082,-0.21955547,-0.91438794,-9.749416
590777050,590776832,-0.22089024,-0.8889395,-9.773733
590826822,590826606,-0.23008329,-0.88907367,-9.768101
590871609,590871401,-0.23608826,-0.8874888,-9.749074
590926359,590926152,-0.24203278,-0.88848174,-9.750981
590976132,590975925,-0.23981161,-0.8895701,-9.755804
591025905,591025698,-0.2401779,-0.88651127,-9.758931
591075698,591075471,-0.2484638,-0.89153063,-9.640183
591125466,591125244,-0.23415007,-0.90348893,-9.7964115
591175248,591175017,-0.23268738,-0.8508377,-9.761499
591225025,591224790,-0.24917272,-0.88665146,-9.751261
591274769,591274563,-0.22019236,-0.8962701,-9.791978
591324543,591324336,-0.20750058,-0.8749448,-9.715682
591374315,591374109,-0.21541567,-0.9027564,-9.773127
591424088,591423883,-0.2363302,-0.90708715,-9.780751
591473864,591473656,-0.24163832,-0.9070804,-9.806487
591523643,591523429,-0.25255817,-0.92894244,-9.780364
591573410,591573202,-0.23479587,-0.91095924,-9.766469
591628158,591627952,-0.23977357,-0.9148576,-9.790515
591677932,591677725,-0.26215497,-0.89331996,-9.799035
591722730,591722521,-0.2672015,-0.89106256,-9.755455
591772569,591772295,-0.29736057,-0.90562904,-9.720338
591827252,591827044,-0.27586615,-0.93658817,-9.855749
591877025,591876817,-0.269661,-0.9263724,-9.813004
591921822,591921613,-0.27090472,-0.9435796,-9.770083
591976572,591976364,-0.2758807,-0.9514305,-9.646478
592026343,592026137,-0.22448531,-0.9278779,-9.7944355
592076115,592075910,-0.2096011,-0.9698298,-9.740405
592125890,592125683,-0.21668425,-0.9193814,-9.7634115
592175666,592175456,-0.2518491,-0.9721752,-9.703723
592225434,592225229,-0.19387466,-0.9205511,-9.699154
592275206,592275002,-0.5581721,-1.501538,-9.766306
592325017,592324775,-0.29808784,-1.1472203,-9.705186
592374772,592374548,-0.543718,-1.4420134,-9.709149
592424545,592424321,-0.41459668,-1.356538,-9.648593
592474301,592474094,-0.40675488,-1.3562019,-9.6453285
592524075,592523867,-0.34917963,-1.2702907,-9.616611
592573851,592573641,-0.34513244,-1.2209015,-9.72813
592623625,592623413,-0.33539018,-1.170566,-9.69549
592678369,592678163,-0.29002997,-1.1309435,-9.791102
592723168,592722959,-0.31270194,-1.0724499,-9.7864
592772960,592772732,-0.37290865,-1.0640091,-9.851634
592822719,592822506,-0.2920295,-1.1339561,-9.8791685
592877467,592877256,-0.32580787,-1.0998302,-9.788812
592927249,592927029,-0.28540358,-1.065858,-9.733847
592972033,592971824,-0.22590286,-0.9258615,-9.881762
593026781,593026575,-0.36441302,-1.4383404,-9.745945
593076556,593076348,-0.41433343,-1.6351255,-9.618871
593126331,593126121,-0.39193788,-1.4608277,-9.658606
593171122,593170917,-0.31853643,-1.1740685,-9.785309
593225875,593225667,-0.34263852,-1.2044984,-9.737247
593275650,593275440,-0.35063615,-1.2658435,-9.635193
593325417,593325213,-0.3443329,-1.1687461,-9.744935
593375197,593374986,-0.35007337,-1.1490045,-9.656119
593424964,593424759,-0.37971452,-1.1691976,-9.698957
593474754,593474532,-0.37955582,-1.1231292,-9.731643
593524527,593524305,-0.37016124,-1.1702442,-9.803023
593574286,593574078,-0.4157511,-1.0884378,-9.836317
593624075,593623851,-0.39784065,-1.1507332,-9.846223
593673885,593673624,-0.33600405,-1.1322182,-9.764251
593728584,593728374,-0.3265256,-1.1304679,-9.746069
593773376,593773170,-0.31312108,-1.1331575,-9.671585
593823152,593822943,-0.31925943,-1.1101373,-9.758356
593872925,593872716,-0.3037705,-1.1095831,-9.707884
593927676,593927467,-0.32131937,-1.0665419,-9.666095
593977450,593977240,-0.32297775,-1.0800903,-9.658185
594022316,594022038,-0.33475438,-1.0818354,-9.687886
594076994,594076786,-0.3258938,-1.115109,-9.776144
594126780,594126559,-0.360367,-1.0714093,-9.70105
594176540,594176332,-0.35341728,-1.088141,-9.690015
594221336,594221127,-0.37094027,-1.0817002,-9.7283535
594276085,594275878,-0.36974153,-1.0774901,-9.7136135
594325860,594325651,-0.3524957,-1.1098922,-9.73996
594375632,594375424,-0.36335438,-1.1078382,-9.755377
594425403,594425197,-0.338622,-1.0786893,-9.712053
594475181,594474970,-0.3546751,-1.0901682,-9.693717
594524948,594524743,-0.37757394,-1.067308,-9.72211
594574761,594574516,-0.3692128,-1.0491486,-9.712903
594624523,594624289,-0.38051853,-1.0567325,-9.719363
594674270,594674062,-0.37129125,-1.0174391,-9.70278
594724047,594723835,-0.39950293,-1.0665191,-9.758955
594778791,594778585,-0.4039188,-1.0699211,-9.739371
594823590,594823381,-0.39249447,-1.074016,-9.716868
594873374,594873154,-0.3947005,-1.0731095,-9.729569
594923188,594922927,-0.37654716,-1.0852001,-9.690744
594977886,594977677,-0.38480943,-1.0788963,-9.730611
595022681,595022473,-0.39459854,-1.0719045,-9.739924
595072455,595072246,-0.406997,-1.0853467,-9.787578
595127203,595126996,-0.39235824,-1.07137,-9.768266
595176992,595176769,-0.33255714,-1.052957,-9.786098
595226748,595226542,-0.36937323,-1.0470481,-9.744103
595271545,595271338,-0.35885555,-1.0919241,-9.827211
595326299,595326088,-0.3544825,-1.067297,-9.760491
595376066,595375861,-0.350325,-1.0696287,-9.7430525
595425894,595425634,-0.34568298,-1.0597557,-9.743326
