timestamp,timestamp_sample,baro_device_id,bias,bias_var,innov,innov_var,innov_test_ratio
539708519,539594913,4028193,2.924025,0.007467713,-6.910924,16.608868,0.31951383
540108487,539969316,4028193,2.9175503,0.007461499,-7.12315,16.59219,0.3397801
540708414,540567003,4028193,2.9077814,0.0074522374,-7.349185,16.55064,0.36259437
541098345,540948676,4028193,2.9013593,0.0074460404,-7.2125273,16.509295,0.35010952
541718515,541596698,4028193,2.891399,0.007436801,-7.4422846,16.394598,0.3753784
542108222,541971106,4028193,2.8848045,0.007430546,-7.3190346,16.35806,0.36385912
542708139,542561507,4028193,2.8748496,0.007421213,-7.2634926,16.337826,0.35880145
543118080,542993477,4028193,2.868296,0.0074150586,-7.299081,16.337818,0.36232623
543708019,543591071,4028193,2.8584373,0.0074057723,-7.3395557,16.30153,0.36717126
544108023,543972664,4028193,2.8520396,0.007399563,-7.0297737,16.285452,0.33716336
544707960,544563057,4028193,2.8428643,0.0073902914,-6.9453163,16.325684,0.32829946
545107991,544995075,4028193,2.8368385,0.007384209,-6.603257,16.394545,0.2955116
545717791,545585498,4028193,2.8280456,0.007375077,-6.354139,16.500978,0.27186996
546107749,545967163,4028193,2.8222249,0.00736903,-6.5141096,16.571302,0.2845188
546717824,546615085,4028193,2.8138273,0.0073601184,-6.1881347,16.654774,0.25546905
547107646,546996689,4028193,2.8083549,0.007354153,-6.2424984,16.709457,0.25912663
547717572,547587137,4028193,2.8001916,0.0073452736,-6.096958,16.785734,0.24606144
548107518,547961576,4028193,2.7948978,0.0073393686,-6.06049,16.849792,0.2422024
548707491,548559069,4028193,2.7873433,0.0073306556,-5.8382564,17.001019,0.22276597
549107455,548991108,4028193,2.7824028,0.007324946,-5.6654043,17.084137,0.20874989
549717429,549588673,4028193,2.7750323,0.00731636,-5.6443586,17.123756,0.20672245
550097306,549963097,4028193,2.7702627,0.0073106172,-5.573036,17.136995,0.20137547
550707306,550553475,4028193,2.7632632,0.0073020575,-5.4555054,17.114922,0.1932202
551107175,550985458,4028193,2.7585697,0.0072964095,-5.4392333,17.101702,0.19221777
551717147,551583081,4028193,2.7516959,0.007287889,-5.296632,17.097292,0.18231808
552107172,551964671,4028193,2.7473836,0.0072821993,-4.9859333,17.097286,0.16155605
552707046,552555090,4028193,2.7412686,0.0072736866,-4.767648,17.070913,0.14794801
553106952,552987170,4028193,2.7373486,0.0072680647,-4.572744,17.031496,0.13641384
553706885,553577485,4028193,2.7312908,0.007259516,-4.5601625,16.914227,0.1366048
554097015,553959082,4028193,2.7272892,0.0072537926,-4.7145514,16.862574,0.14645843
554706774,554556686,4028193,2.721243,0.007245216,-4.4970417,16.751648,0.13413861
555106731,554988675,4028193,2.7173083,0.0072395066,-4.4485855,16.646267,0.13209443
555716720,555579081,4028193,2.7116184,0.0072308304,-4.402445,16.56701,0.12998737
556126615,556011065,4028193,2.708005,0.0072250944,-4.0383024,16.529718,0.109619975
556716537,556601471,4028193,2.7022529,0.007216405,-4.365704,16.480246,0.12849979
557116515,556983070,4028193,2.698508,0.007210608,-4.237067,16.48024,0.12103881
557726431,557580661,4028193,2.6927521,0.0072019747,-4.5312366,16.517303,0.1381185
558116407,558012695,4028193,2.6890595,0.007196289,-4.2013135,16.537962,0.11858935
558716363,558603093,4028193,2.6834466,0.0071877036,-4.3942585,16.562817,0.1295372
559106364,558977527,4028193,2.679813,0.0071819755,-4.1529093,16.579426,0.11558273
559716425,559575116,4028193,2.6741774,0.0071734823,-4.3631525,16.62946,0.12719797
560106241,559956705,4028193,2.6705434,0.0071678204,-4.337432,16.642008,0.12560794
560706125,560604676,4028193,2.6649766,0.0071594403,-4.3778133,16.633627,0.12802212
561106044,560979094,4028193,2.6613295,0.007153779,-4.2670193,16.625257,0.12168535
561705984,561569473,4028193,2.655581,0.0071453326,-4.3700027,16.58355,0.1279509
562105967,562001515,4028193,2.6518164,0.0071397545,-4.2830057,16.558619,0.123092234
562705908,562599115,4028193,2.646322,0.007131357,-4.3298593,16.604359,0.12545355
563106017,562980733,4028193,2.6426346,0.007125763,-4.299429,16.629412,0.12351
563715760,563571167,4028193,2.6372273,0.0071173813,-4.382766,16.562746,0.12886105
564115713,564003064,4028193,2.6334243,0.007111838,-4.4401994,16.52134,0.13259196
564715661,564593519,4028193,2.6277182,0.0071034436,-4.3371253,16.496588,0.12669729
565115596,564975079,4028193,2.6238492,0.0070978473,-4.48929,16.488352,0.1358112
565715569,565572659,4028193,2.618197,0.0070895012,-4.314907,16.48423,0.12549654
566125565,566004700,4028193,2.6143708,0.007083991,-4.3847265,16.484224,0.12959075
566715420,566595075,4028193,2.6086855,0.007075662,-4.2700663,16.492443,0.12284053
567105384,566969493,4028193,2.6049685,0.007070105,-4.3352633,16.529562,0.126336
567715462,567567085,4028193,2.599335,0.0070618805,-4.374979,16.60429,0.1280823
568105385,567999079,4028193,2.5955899,0.0070564765,-4.4550986,16.66286,0.13234958
568705294,568596732,4028193,2.590423,0.0070483666,-3.906981,16.755693,0.10122265
569105153,568971095,4028193,2.5870714,0.0070429533,-4.0320687,16.802471,0.10750785
569710118,569561460,4028193,2.5820725,0.007034924,-3.9377332,16.883839,0.102041975
570115094,569993458,4028193,2.5786893,0.007029662,-3.9758792,16.931276,0.103737116
570714992,570591066,4028193,2.5737588,0.0070217717,-3.7998648,17.083834,0.09390926
571114943,570972664,4028193,2.570606,0.0070165545,-3.837191,17.203196,0.09509884
571714880,571563097,4028193,2.5659354,0.0070088254,-3.8004208,17.369133,0.09239377
572114914,571995083,4028193,2.562987,0.0070037856,-3.6892145,17.49195,0.0864544
572714761,572585531,4028193,2.558484,0.0069962176,-3.7789817,17.620855,0.09004925
573114730,572967072,4028193,2.5555604,0.0069912006,-3.7635562,17.685896,0.088987134
573724765,573615076,4028193,2.5511396,0.006983796,-3.8307176,17.681227,0.092215806
574124639,573996666,4028193,2.5481155,0.0069787963,-3.7395906,17.65331,0.08801962
574704548,574587065,4028193,2.5438662,0.006971304,-3.420076,17.588455,0.07389266
575104507,574961455,4028193,2.541064,0.00696627,-3.5034075,17.537773,0.07776144
575714569,575609512,4028193,2.5370271,0.006958836,-3.3218865,17.505644,0.07004046
576104401,575991092,4028193,2.5341828,0.006953831,-3.7329834,17.523981,0.08835615
576714329,576588734,4028193,2.5299757,0.006946393,-3.3997123,17.606918,0.07293878
577114350,576963081,4028193,2.5272183,0.006941439,-3.449966,17.70917,0.074677356
577714463,577611069,4028193,2.523213,0.006934205,-3.1707416,17.859627,0.06254705
578114156,577985501,4028193,2.5205479,0.006929343,-3.5634322,17.945158,0.078622565
578704190,578583067,4028193,2.5169013,0.0069221654,-3.0433164,18.036142,0.057056878
579104077,578964693,4028193,2.5144072,0.006917387,-3.1258998,18.089146,0.06001911
579714008,579612695,4028193,2.5106342,0.006910374,-3.3888705,18.23005,0.06999703
580103956,579987113,4028193,2.5081503,0.0069056577,-3.3129075,18.318354,0.066571705
580713891,580577498,4028193,2.5045025,0.0068986723,-3.1811357,18.397385,0.06111753
581113972,581009468,4028193,2.5023642,0.0068940953,-2.7598362,18.442066,0.045889627
581503798,581391062,4028193,2.500542,0.006889463,-2.3290899,18.427149,0.032709345
581913864,581772696,4028193,2.4988434,0.0068848324,-2.2141416,18.422176,0.029568365
582503680,582363121,4028193,2.4961753,0.0068779294,-2.6995983,18.51188,0.04374266
583113711,583011093,4028193,2.4932303,0.0068711657,-2.7716758,18.572042,0.045960285
583713600,583601522,4028193,2.4903724,0.006864343,-2.8295505,18.582092,0.047873788
583913663,583767093,4028193,2.4893637,0.0068620397,-2.7344646,18.607265,0.044649802
584713425,584580718,4028193,2.4853144,0.006853043,-2.8078563,18.61734,0.047053248
585113407,585012678,4028193,2.4832504,0.0068485783,-2.8527415,18.59214,0.048635453
585713380,585603100,4028193,2.4801757,0.006841786,-2.8588862,18.521852,0.049030554
586103411,585977451,4028193,2.4780905,0.006837237,-2.8415792,18.531864,0.048412547
586503274,586359160,4028193,2.4759712,0.006832719,-2.748217,18.551918,0.045234602
586903271,586791152,4028193,2.4740129,0.0068282792,-2.754533,18.587086,0.045356777
587713110,587604740,4028193,2.4701216,0.0068193874,-2.8172843,18.657724,0.047267232
588093067,587979066,4028193,2.4680498,0.006814913,-2.8403594,18.688112,0.047966573
588503006,588353471,4028193,2.4661338,0.0068104505,-2.5526018,18.708414,0.038697835
588902994,588785466,4028193,2.464217,0.006806081,-2.5785944,18.72366,0.039457798
589702902,589599086,4028193,2.4605744,0.0067973086,-2.5737133,18.749104,0.039255213
590102955,589980670,4028193,2.4589415,0.006792908,-2.2082787,18.779713,0.028852025
590502781,590355130,4028193,2.4573655,0.0067885127,-2.3486307,18.86169,0.032494236
590902735,590787111,4028193,2.455779,0.0067842216,-2.1577141,18.897717,0.027373854
591712663,591593455,4028193,2.452947,0.006775524,-1.8217378,18.749083,0.0196675
592112588,591975097,4028193,2.4517496,0.006771154,-1.7092972,18.769478,0.017295793
592512587,592407129,4028193,2.450484,0.0067668585,-1.8824809,18.784794,0.020961009
592912633,592788663,4028193,2.4492855,0.0067625083,-1.7914379,18.805246,0.018961905
593712405,593595156,4028193,2.4465804,0.0067539276,-1.9340994,18.964857,0.021916213
594102372,593969536,4028193,2.445335,0.0067496435,-1.9386415,19.089748,0.021875214
594502338,594401479,4028193,2.4442427,0.0067454814,-1.5473242,19.22107,0.013840206
594902298,594783075,4028193,2.4430926,0.006741291,-1.8157547,19.337666,0.01894383
595702287,595596659,4028193,2.4407685,0.0067330715,-1.627394,19.530544,0.0150670605
596112178,595971083,4028193,2.4396605,0.0067289374,-1.5852704,19.557535,0.014277431
596522084,596403087,4028193,2.438566,0.0067249076,-1.5834699,19.644253,0.0141821345
596912037,596777465,4028193,2.4374409,0.0067208214,-1.6620038,19.726013,0.015559017
597711983,597591112,4028193,2.435168,0.0067128274,-1.6036601,19.907473,0.014353772
598111899,597972660,4028193,2.433975,0.006708844,-1.7867057,20.035233,0.01770391
598711830,598563083,4028193,2.4324698,0.0067029446,-1.7003951,20.226034,0.01588351
599111861,598995067,4028193,2.4312906,0.0066991076,-1.8584104,20.345037,0.018861761
599501741,599369497,4028193,2.4300122,0.006695215,-1.9111459,20.453466,0.019841673
599911721,599801511,4028193,2.4287577,0.006691439,-1.954901,20.58569,0.020627262
600711620,600564684,4028193,2.426109,0.006683824,-2.0762885,20.672487,0.023170752
601111546,600996682,4028193,2.424644,0.0066800877,-2.2833788,20.666681,0.028031264
601501537,601371072,4028193,2.4232066,0.006676296,-2.2512355,20.812304,0.027056973
601901633,601745464,4028193,2.4216466,0.0066725346,-2.5270731,20.93559,0.033892836
602701369,602559086,4028193,2.418789,0.0066652116,-2.401023,21.226694,0.030176422
603101345,602991067,4028193,2.417228,0.006661631,-2.657086,21.358955,0.036727272
603501315,603372691,4028193,2.4156542,0.0066580125,-2.5620027,21.449684,0.034001317
603911246,603804701,4028193,2.4141753,0.0066544753,-2.4755619,21.522594,0.0316381
604701197,604553498,4028193,2.4114203,0.006647274,-2.1386347,21.50433,0.023632234
605101088,604985534,4028193,2.4102361,0.006643736,-1.8343439,21.401222,0.0174695
605501029,605367093,4028193,2.4090092,0.006640118,-2.0677185,21.29869,0.022304239
605901072,605799067,4028193,2.4077759,0.0066365516,-1.9658706,21.220676,0.020235231
606710899,606555107,4028193,2.4054656,0.0066292034,-1.9147904,20.8826,0.019508118
607110847,606987069,4028193,2.404208,0.0066255536,-2.0100114,20.707277,0.021678615
607500901,607361468,4028193,2.402823,0.006621789,-2.17152,20.528002,0.025523396
607900801,607793507,4028193,2.4013062,0.006618081,-2.3652067,20.38482,0.030492203
608700690,608556675,4028193,2.3981817,0.006610467,-2.3519044,20.158335,0.030488927
609110742,608988688,4028193,2.3965485,0.0066066957,-2.381805,20.02398,0.031478893
609510579,609363096,4028193,2.3949547,0.006602813,-2.5411613,19.863169,0.036122136
609900604,609795097,4028193,2.3932104,0.006598976,-2.5631683,19.665886,0.037119165
610700417,610551076,4028193,2.3894413,0.006591059,-2.8099062,19.35349,0.045329597
611100362,610983140,4028193,2.3875077,0.0065871305,-2.8115647,19.205088,0.045733806
611500380,611364693,4028193,2.3853889,0.00658311,-3.0971398,19.068687,0.055893116
612100308,611955055,4028193,2.3823059,0.006577071,-2.9840567,18.985415,0.052113656
612710238,612603068,4028193,2.3793077,0.006571094,-2.888674,18.902657,0.04904918
613110241,612977509,4028193,2.377166,0.0065670335,-3.0747862,18.92846,0.055497326
613700291,613575066,4028193,2.374051,0.0065610283,-3.0546145,18.990587,0.05459237
614100000,613956673,4028193,2.3719099,0.006557038,-3.2036307,19.110483,0.059672013
614699986,614547129,4028193,2.3687484,0.006551132,-3.0328429,19.294964,0.052967973
615099920,614979083,4028193,2.3666606,0.0065472717,-3.132554,19.29496,0.05650811
615699806,615569496,4028193,2.3636048,0.006541396,-3.0977907,19.241995,0.05541299
616099760,615951071,4028193,2.361532,0.0065374635,-3.0367992,19.21031,0.053340275
616709742,616599069,4028193,2.3584154,0.0065316805,-3.1706955,19.273737,0.057956297
617099707,616980660,4028193,2.3562434,0.0065277913,-3.3039787,19.358757,0.062654816
617709641,617571070,4028193,2.353005,0.0065220217,-3.261013,19.524942,0.060516357
618099533,617945507,4028193,2.3509128,0.0065181544,-3.1415439,19.417498,0.056474254
618709516,618593465,4028193,2.3476086,0.006512454,-3.391373,19.326797,0.06612241
619099386,618975065,4028193,2.3454208,0.006508567,-3.118428,19.226112,0.05620015
619709364,619572685,4028193,2.3420596,0.0065027834,-3.3708186,19.263113,0.0655393
620099320,619947074,4028193,2.3398669,0.006498911,-3.2822435,19.34807,0.06186734
620709187,620595089,4028193,2.3365865,0.006493259,-3.250503,19.428179,0.060426377
621099165,620969489,4028193,2.3343894,0.00648943,-3.2289748,19.45498,0.059546463
621699088,621567086,4028193,2.3311489,0.006483776,-3.2033029,19.568102,0.058264606
622099104,621948701,4028193,2.3288143,0.0064800233,-3.60511,19.703924,0.073289506
622699124,622596704,4028193,2.325364,0.006474559,-3.4094243,19.907234,0.06487968
623108891,622971089,4028193,2.3230188,0.006470864,-3.6487074,20.001564,0.07395569
623708815,623561512,4028193,2.3190913,0.0064654127,-4.1090307,20.152569,0.09309061
624108766,623993490,4028193,2.3166037,0.0064618643,-4.1110487,20.24274,0.09276698
624708717,624591113,4028193,2.312708,0.0064565376,-4.1790915,20.464684,0.09482355
625098698,624972687,4028193,2.310185,0.006453003,-4.012575,20.585451,0.08690474
625708577,625563088,4028193,2.3065085,0.0064477907,-3.837854,20.888296,0.07834862
626108532,625995073,4028193,2.3041794,0.0064444267,-3.882873,21.113022,0.079343885
626708434,626585473,4028193,2.3006194,0.0064393873,-3.9123015,21.4616,0.07924285
627098398,626967062,4028193,2.29825,0.0064360797,-4.0544806,21.724367,0.08407769
627708460,627564660,4028193,2.2948167,0.006431251,-3.8719375,22.15375,0.075191185
628098356,627996701,4028193,2.2925637,0.0064281314,-3.908752,22.36883,0.07589103
628698189,628587066,4028193,2.2891576,0.0064234165,-3.9911258,22.528452,0.0785628
629098135,628961492,4028193,2.2869868,0.0064202654,-3.7280655,22.599077,0.06833353
629708053,629559079,4028193,2.2836523,0.0064156367,-4.0384398,22.754019,0.07963915
630098026,629991068,4028193,2.2813232,0.0064126123,-4.2587256,22.818916,0.088312425
630688030,630531075,4028193,2.2776957,0.0064079766,-4.479006,23.047636,0.096715115
631088037,630963067,4028193,2.2751935,0.0064050164,-4.4762926,23.19927,0.0959666
631697885,631553472,4028193,2.2712214,0.0064005447,-4.9902506,23.445429,0.11801685
632087785,631985465,4028193,2.2686474,0.0063976515,-4.5474195,23.586355,0.097415194
632697666,632583098,4028193,2.2647665,0.0063932966,-4.792391,23.84361,0.10702616
633097701,632964705,4028193,2.2622406,0.006390414,-4.7145576,24.055616,0.10266512
633707590,633555093,4028193,2.2585099,0.0063861343,-4.7870493,24.158888,0.10539411
634097527,633987128,4028193,2.2559469,0.0063833576,-4.9225616,24.297287,0.11081079
634687440,634577499,4028193,2.2521276,0.006379148,-4.696371,24.478395,0.100115046
635097359,634959066,4028193,2.2495468,0.006376355,-4.877046,24.57648,0.10753542
635707269,635556698,4028193,2.2456186,0.0063722385,-5.189527,24.823399,0.12054572
636097262,635988663,4028193,2.242872,0.0063695703,-5.3983793,25.008411,0.12947866
636707245,636579057,4028193,2.2388253,0.0063655446,-5.5316343,25.346292,0.13413742
637107087,636953524,4028193,2.2360654,0.006362867,-5.4333715,25.52053,0.12853062
637707044,637601473,4028193,2.2319074,0.006359013,-5.5422974,25.725262,0.1326714
638107020,637983111,4028193,2.2290916,0.006356401,-5.5541077,25.828215,0.13270634
638696953,638580696,4028193,2.224877,0.006352531,-5.934444,25.879835,0.15120149
639106829,638955147,4028193,2.2220128,0.0063499156,-5.8045635,25.909378,0.14449061
639696779,639545513,4028193,2.2178605,0.0063460423,-5.541238,25.901985,0.13171585
640096878,639977453,4028193,2.215087,0.006343509,-5.5519595,25.81347,0.13267945
640696767,640575074,4028193,2.2110229,0.0063396483,-5.615777,25.820831,0.13570848
641096665,640956675,4028193,2.2081923,0.0063370625,-5.7660446,25.872438,0.14278287
641706548,641604689,4028193,2.2037356,0.0063332412,-6.042815,25.46229,0.15934509
642106427,641979092,4028193,2.2007136,0.0063305874,-6.070943,25.418718,0.16110763
642706355,642569474,4028193,2.1962504,0.006326637,-5.898305,25.245144,0.15312076
643106387,643001542,4028193,2.1933787,0.0063240402,-5.798415,25.122894,0.14869845
643696227,643548685,4028193,2.1889794,0.006320011,-5.853031,25.072723,0.15181604
644106167,643980719,4028193,2.1860209,0.00631741,-5.9440255,25.09421,0.1564391
644706092,644571091,4028193,2.181542,0.006313452,-6.0976896,25.23072,0.1637414
645096108,644945465,4028193,2.1785557,0.006310799,-5.8955364,25.266762,0.15284617
645716081,645593503,4028193,2.174208,0.0063069584,-5.7672205,25.331766,0.14588988
646105955,645975069,4028193,2.1713886,0.0063043353,-5.5813246,25.273972,0.1369489
646715816,646572663,4028193,2.1670365,0.00630042,-5.728092,25.16595,0.14486521
647115752,647004663,4028193,2.164231,0.006297844,-5.495119,25.079863,0.13377857
647705689,647595063,4028193,2.160032,0.006293872,-5.5463543,24.873003,0.13741827
648105612,647969574,4028193,2.157211,0.0062911697,-5.477673,24.667822,0.1351509
648705574,648567128,4028193,2.1530323,0.006287131,-5.3654823,24.34582,0.13138646
649105551,648999081,4028193,2.150311,0.006284444,-5.2240124,24.110537,0.12576477
649705485,649596666,4028193,2.1463933,0.0062802914,-4.808664,23.707739,0.10837177
650095352,649971130,4028193,2.1438577,0.0062774452,-4.7594037,23.485481,0.10716751
650705282,650561489,4028193,2.1402044,0.0062731155,-4.387431,22.80578,0.09378495
651105310,650993457,4028193,2.1377072,0.006270208,-4.572665,22.464298,0.10341974
651715158,651591074,4028193,2.134044,0.0062657217,-4.24262,22.134716,0.09035492
652115121,651972705,4028193,2.1316347,0.0062626665,-4.2088356,21.884872,0.089936785
652714976,652563126,4028193,2.1279688,0.0062580225,-4.1350355,21.510025,0.08832325
653104952,652995209,4028193,2.1256156,0.00625494,-3.9691436,21.298306,0.082187556
653714901,653585463,4028193,2.1221619,0.0062501812,-3.7927964,21.047478,0.075941026
654104860,653967085,4028193,2.1198275,0.00624697,-3.837758,20.888094,0.07834546
654704831,654564694,4028193,2.1163476,0.0062421467,-3.8455265,20.706894,0.07935131
655114655,654996659,4028193,2.1139498,0.0062389644,-3.952583,20.672043,0.08397231
655714572,655587093,4028193,2.1103082,0.0062341215,-4.097111,20.73598,0.089947365
656114515,655961502,4028193,2.107928,0.0062308847,-3.995566,20.788475,0.085327975
656714557,656609455,4028193,2.104376,0.006226176,-3.8590667,20.864584,0.079307154
657114363,656991067,4028193,2.1020677,0.006222982,-3.7165718,20.852852,0.07359988
657724287,657588666,4028193,2.0985231,0.006218234,-4.2318697,20.893942,0.09523612
658104258,657963073,4028193,2.0962834,0.006215036,-3.7515602,20.893938,0.074844696
658704167,658553457,4028193,2.0929215,0.006210286,-3.7165663,20.87044,0.07353764
659104179,658985529,4028193,2.090665,0.00620718,-3.8623888,20.89393,0.07933217
659714095,659583118,4028193,2.0872731,0.0062024645,-3.792049,20.882174,0.07651202
660103945,659964668,4028193,2.0849755,0.0061993008,-3.929824,20.876297,0.082195915
660703871,660555156,4028193,2.0815835,0.0061945757,-3.9019113,20.882166,0.08100964
661113855,660987081,4028193,2.0794227,0.0061914898,-3.7350366,20.917442,0.07410348
661713776,661577459,4028193,2.0761719,0.0061867996,-3.6151896,20.982306,0.06920961
662113703,662009497,4028193,2.074045,0.006183742,-3.6971295,21.017786,0.07226031
674951777,674811103,4028193,2.0726,0.006199239,-4.845875,20.794287,0.12547518
675161835,675027084,4028193,2.0711854,0.006197685,-4.748221,20.811825,0.12036748
675351768,675243079,4028193,2.0698485,0.0061961324,-4.4916935,20.823528,0.107652314
675951720,675833473,4028193,2.0659087,0.0061914013,-4.440737,20.835234,0.1051645
676351614,676215073,4028193,2.0632982,0.006188245,-4.407256,20.84109,0.10355561
676751586,676646924,4028193,2.0607593,0.006185156,-4.188821,20.835228,0.09357133
677361448,677244584,4028193,2.0568624,0.0061804513,-4.4488096,20.735926,0.10605269
677791374,677676543,4028193,2.0542204,0.0061773392,-4.4241657,20.637207,0.1053827
678361257,678209310,4028193,2.050192,0.0061724763,-4.566738,20.493074,0.11307396
678951215,678806941,4028193,2.0462856,0.0061677005,-4.3412476,20.407194,0.10261321
679351196,679238870,4028193,2.0435746,0.0061645475,-4.4698257,20.338816,0.109147295
679951067,679836475,4028193,2.0396771,0.0061597475,-4.3681374,20.270721,0.104587756
680350968,680210882,4028193,2.0370796,0.006156499,-4.2282305,20.219843,0.09824196
680950964,680801285,4028193,2.0331068,0.006151668,-4.3544984,20.191643,0.10434271
681360895,681233272,4028193,2.030405,0.0061485004,-4.3668017,20.157873,0.10510897
681760756,681614861,4028193,2.0277674,0.0061452696,-4.4164543,20.146627,0.10757284
682360681,682212533,4028193,2.023725,0.0061404565,-4.602812,20.118559,0.11700571
682950560,682802899,4028193,2.0194993,0.0061356295,-4.5764675,20.10174,0.11576696
683340578,683234869,4028193,2.0167148,0.0061324695,-4.5544662,20.101736,0.11465656
683950400,683825312,4028193,2.012594,0.0061276443,-4.4999657,20.062567,0.11214745
684350463,684206903,4028193,2.0098205,0.006124424,-4.583116,20.056976,0.11636269
684950385,684804593,4028193,2.0057688,0.006119632,-4.484202,20.05697,0.11139417
685340238,685236497,4028193,2.003102,0.0061164764,-4.418518,20.00121,0.10845623
685950138,685826917,4028193,1.9990969,0.0061116554,-4.4193125,19.978954,0.108616084
686350027,686201271,4028193,1.9962797,0.0061084195,-4.724834,19.990072,0.12408414
686740106,686633277,4028193,1.9933357,0.0061052795,-4.837491,20.04579,0.12971036
687359920,687230930,4028193,1.9890028,0.0061005484,-4.7123566,20.214144,0.122061424
687949788,687828469,4028193,1.9846296,0.006095833,-5.057332,20.118515,0.14125521
688359764,688202935,4028193,1.9816247,0.006092636,-4.87897,20.056944,0.13187093
688949636,688793346,4028193,1.9770858,0.006087882,-4.94265,20.073708,0.1352227
689349560,689225403,4028193,1.9740579,0.006084782,-4.9105406,20.112896,0.13321143
689949635,689822940,4028193,1.9696333,0.0060800626,-4.912055,20.045765,0.13374
690349414,690204522,4028193,1.966592,0.006076893,-5.1842527,20.023449,0.1491389
690949341,690794928,4028193,1.9622196,0.0060721426,-4.6519446,19.9179,0.12072105
691359249,691226885,4028193,1.9593654,0.006069012,-4.6811204,19.818573,0.122852705
691949151,691817325,4028193,1.9550726,0.006064225,-4.803716,19.77463,0.12965934
692349154,692198894,4028193,1.952135,0.006061026,-4.8139515,19.758184,0.13032085
692759100,692630881,4028193,1.9492352,0.0060578925,-4.6700425,19.752705,0.12267967
693359131,693228477,4028193,1.944751,0.0060531264,-4.8308115,19.703497,0.13159955
693948889,693818864,4028193,1.9400729,0.0060483366,-5.172495,19.659893,0.1512086
694348785,694193318,4028193,1.9370058,0.006045115,-4.9076495,19.638138,0.13627125
694948700,694841289,4028193,1.9323825,0.006040403,-4.8304486,19.58389,0.13238338
695348651,695222887,4028193,1.929315,0.0060371966,-5.047636,19.556843,0.14475542
695748563,695604525,4028193,1.9262729,0.0060339835,-4.8222733,19.502901,0.13248354
696348458,696194968,4028193,1.9216284,0.0060291747,-5.157902,19.481377,0.15173437
696748510,696626892,4028193,1.9184586,0.006026023,-5.1289268,19.44379,0.15032442
697368291,697217350,4028193,1.9137732,0.006021202,-5.1049833,19.347593,0.14966463
697758272,697649267,4028193,1.910514,0.0060180314,-5.1652584,19.289124,0.15368415
698348265,698246883,4028193,1.9056331,0.006013195,-5.3005013,19.178177,0.16277364
698758101,698628470,4028193,1.902085,0.006009936,-5.848606,19.109936,0.19888544
699357973,699218887,4028193,1.8968885,0.006005051,-5.625984,19.047243,0.18463856
699757955,699650901,4028193,1.8933417,0.006001842,-5.6450443,18.99522,0.18640085
700357843,700241265,4028193,1.8878865,0.0059969393,-5.763151,18.943396,0.1948138
700777761,700673289,4028193,1.8841298,0.0059937257,-5.8594937,18.927885,0.20154665
701357658,701220508,4028193,1.8784357,0.005988784,-6.0379,18.927881,0.21400668
701777750,701652474,4028193,1.8745477,0.005985583,-6.3347054,18.943384,0.23537087
702367541,702242911,4028193,1.8688039,0.0059807147,-6.1248617,18.979633,0.21961513
702767412,702617318,4028193,1.864966,0.005977446,-6.149458,18.96408,0.22156408
703367353,703265315,4028193,1.8592957,0.005972676,-6.1573677,18.969255,0.22207384
703777287,703647024,4028193,1.8554332,0.0059694336,-6.2708626,18.938196,0.23071374
704367143,704244672,4028193,1.8497746,0.005964599,-6.032254,18.907207,0.21384022
704777111,704676737,4028193,1.8459035,0.005961422,-6.129902,18.902046,0.22087967
705367022,705209514,4028193,1.8401072,0.0059564956,-6.201744,18.896889,0.2261491
705786945,705641452,4028193,1.836305,0.0059533273,-6.163929,18.902039,0.22333877
706376815,706239093,4028193,1.8306549,0.0059485207,-6.0206146,18.902035,0.21307406
706756834,706620692,4028193,1.8269415,0.0059452946,-5.965329,18.876278,0.20946427
707366864,707211070,4028193,1.8211287,0.005940472,-6.0468965,18.865984,0.21534912
707776625,707643109,4028193,1.8172904,0.0059373155,-6.1417007,18.845428,0.22239694
708356495,708233458,4028193,1.8116071,0.0059324894,-6.1351423,18.7993,0.22246675
708746469,708615108,4028193,1.8079214,0.005929269,-5.847274,18.804413,0.20202476
709366409,709263092,4028193,1.802342,0.005924551,-5.8872547,18.881403,0.2039618
709776304,709644687,4028193,1.7985201,0.0059213666,-6.129057,18.953667,0.22021735
710366159,710235089,4028193,1.7930294,0.0059166416,-5.846349,19.099375,0.19884184
710776110,710667115,4028193,1.7893583,0.005913576,-6.049141,19.19387,0.21182749
711355995,711207077,4028193,1.7839247,0.005908879,-5.9349413,19.374136,0.20200776
711776051,711639084,4028193,1.7803425,0.0059058773,-6.0187874,19.497389,0.20644248
712155915,712020666,4028193,1.7766371,0.005902836,-6.228194,19.61085,0.2197786
733932128,733779286,4028193,1.7754333,0.005930715,-4.4864426,22.109253,0.101155065
734132069,733995287,4028193,1.7742038,0.005929416,-4.583498,22.109253,0.10557899
734332082,734211364,4028193,1.7730232,0.0059281182,-4.401712,22.109251,0.09737034
734921942,734801781,4028193,1.7695714,0.005924151,-4.283715,22.140661,0.09208905
735321933,735183374,4028193,1.7673564,0.005921496,-4.0443926,22.084148,0.08229689
735921870,735781005,4028193,1.7639519,0.0059175426,-4.1946545,22.034048,0.08872695
747119797,747013131,4028193,1.7626374,0.005930973,-4.373971,19.741629,0.10767784
747319794,747171476,4028193,1.7613233,0.0059293997,-4.3711452,19.73069,0.10759837
747539676,747387473,4028193,1.7600518,0.005927904,-4.21663,19.665215,0.10045921
747929690,747819538,4028193,1.757523,0.005924906,-4.273121,19.61087,0.10345487
748519557,748409898,4028193,1.7534038,0.0059203533,-4.5752163,19.736147,0.11784696
749119389,749007489,4028193,1.7491181,0.005915878,-4.8334837,19.93436,0.1302194
749519354,749389128,4028193,1.7462286,0.0059128995,-4.7661753,20.01771,0.12609072
750119211,749979496,4028193,1.7418318,0.0059084804,-5.104392,20.16888,0.14353696
750529197,750411514,4028193,1.7388843,0.005905619,-5.195525,20.287464,0.14783888
750929078,750785884,4028193,1.7359593,0.0059026936,-5.1015024,20.372707,0.14194004
751529032,751383474,4028193,1.7314706,0.005898407,-5.2653227,20.53303,0.15002182
751928894,751815489,4028193,1.7285243,0.005895612,-5.0953584,20.590668,0.14009948
752528771,752413070,4028193,1.7240682,0.00589133,-5.102495,20.378395,0.14195567
752928702,752787497,4028193,1.7209457,0.005888402,-5.375085,20.185747,0.15903156
753528628,753377889,4028193,1.7160374,0.005884012,-5.548622,19.99541,0.1710793
753938548,753809893,4028193,1.7127066,0.0058811186,-5.722352,19.873484,0.1830765
754528449,754407513,4028193,1.7073053,0.005876684,-6.2476807,19.665163,0.22054519
754928540,754789112,4028193,1.7035488,0.005873677,-6.2748756,19.540476,0.22388892
755518238,755379479,4028193,1.6976551,0.0058691464,-6.4124618,19.374096,0.2358227
755938146,755811507,4028193,1.6938046,0.005866163,-6.2286525,19.278368,0.22360188
756528174,756401869,4028193,1.6879768,0.0058615943,-6.4370728,19.225464,0.23947352
756917992,756783485,4028193,1.6841437,0.0058585377,-6.3140025,19.193815,0.23078398
757527903,757381088,4028193,1.6782863,0.005853978,-6.3363585,19.130741,0.23318747
757937798,757813063,4028193,1.6745325,0.0058509717,-6.1314363,19.04188,0.21936741
758527682,758403479,4028193,1.6688951,0.005846349,-6.110702,18.922573,0.21926005
758927662,758777875,4028193,1.6652052,0.005843235,-6.0030584,18.896774,0.21189219
759507498,759375480,4028193,1.6596241,0.005838619,-5.8210793,18.82481,0.2000018
760117439,759973062,4028193,1.6543438,0.0058339927,-5.5710697,18.799202,0.18344052
760527323,760405073,4028193,1.6509398,0.0058309683,-5.348131,18.876163,0.16836347
760927229,760779582,4028193,1.6475853,0.0058278833,-5.4333525,18.974293,0.1728732
761517131,761369910,4028193,1.6424266,0.00582334,-5.585147,19.13071,0.18117389
761927043,761801899,4028193,1.6389618,0.0058203964,-5.6776752,19.251846,0.18604851
772915039,772767704,4028193,1.6378717,0.0058336128,-3.8734417,20.735579,0.080396175
773115062,772983664,4028193,1.6368275,0.005832267,-3.718803,20.776396,0.07395944
773324997,773199736,4028193,1.6358142,0.0058309245,-3.6143355,20.805609,0.06976442
773724880,773581278,4028193,1.6338457,0.005828184,-3.4842598,20.852457,0.06468765
774114825,774013297,4028193,1.6317627,0.0058255135,-3.7664807,20.864183,0.075548805
774514730,774387728,4028193,1.6297551,0.005822768,-3.6333885,20.905308,0.070165664
775324536,775194016,4028193,1.6260046,0.005817408,-3.2268915,21.088604,0.05486285
775724483,775575501,4028193,1.6242647,0.0058147316,-3.0030203,21.18396,0.047300626
776124455,776007486,4028193,1.622661,0.005812135,-2.9992428,21.273823,0.046982404
776514326,776389117,4028193,1.621257,0.0058094934,-2.6345491,21.376213,0.036077738
777319198,777195488,4028193,1.6185551,0.0058042766,-2.3537655,21.376207,0.028797397
777724091,777569888,4028193,1.6173303,0.00580162,-2.1784992,21.315905,0.024738224
778134006,778001940,4028193,1.616176,0.0057990476,-1.9852241,21.3159,0.020543426
778713963,778599508,4028193,1.6146601,0.005795136,-1.9169428,21.346022,0.01912753
779313853,779197085,4028193,1.6135229,0.0057912273,-1.0742096,21.309874,0.006016649
780113679,780003468,4028193,1.6124182,0.0057860515,-0.83300436,21.479156,0.003589507
781523367,781407480,4028193,1.6114044,0.005777119,-0.45545745,21.570484,0.0010685461
783323065,783185894,4028193,1.6102784,0.005765392,-0.59999716,20.864124,0.0019171484
785132704,785029104,4028193,1.6092342,0.0057532773,-0.41841793,20.17998,0.0009639563
786922338,786807462,4028193,1.6081542,0.0057408437,-0.46352053,19.984144,0.0011945652
788342145,788211489,4028193,1.607112,0.0057311803,-0.6916733,19.862297,0.0026762704
789134457,789017870,4028193,1.6060486,0.0057256427,-0.8396336,19.785265,0.0039590886
789731844,789615501,4028193,1.6050209,0.0057214615,-1.3021629,19.616093,0.009604519
790321715,790213066,4028193,1.6039504,0.005717251,-1.4669333,19.507967,0.012256492
790921563,790803504,4028193,1.6026633,0.0057130163,-1.601787,19.486435,0.014629673
791511515,791393929,4028193,1.6011882,0.0057088127,-1.7012212,19.637802,0.016375184
791921389,791775485,4028193,1.6001215,0.0057060313,-1.8700361,19.757828,0.019666102
792321481,792207469,4028193,1.5990165,0.005703329,-1.9060452,19.818207,0.020368522
792931202,792805101,4028193,1.5975766,0.0056992043,-1.7677087,19.719526,0.01760688
793521076,793395510,4028193,1.5961002,0.005695045,-1.8688116,19.65954,0.019738548
794130959,793985915,4028193,1.5946923,0.00569089,-1.5478224,19.637785,0.013555241
794720836,794583498,4028193,1.5935009,0.00568676,-1.2716513,19.64865,0.0091445185
795320706,795181072,4028193,1.5923696,0.0056826524,-1.2837356,19.74138,0.009275368
795920663,795771477,4028193,1.5912914,0.0056785624,-1.3400941,19.867762,0.010043362
796520524,796419494,4028193,1.5900487,0.0056745913,-1.5476584,19.978518,0.013321235
797120357,797009966,4028193,1.5888042,0.005670566,-1.4602137,20.056522,0.011812305
797730261,797607496,4028193,1.5877202,0.0056665847,-1.2704521,20.140533,0.008904369
798340115,798205092,4028193,1.5864635,0.0056626345,-1.4288597,20.241941,0.011206875
798930011,798795469,4028193,1.5851167,0.005658688,-1.5954802,20.281551,0.013945662
799529903,799385859,4028193,1.5837334,0.0056547374,-1.6827569,20.230633,0.015552162
800129871,799983463,4028193,1.5822256,0.005650821,-1.9399358,20.292875,0.02060576
800529703,800415461,4028193,1.5811956,0.005648262,-1.8707802,20.31557,0.019141413
800939734,800797144,4028193,1.5801032,0.005645647,-1.9591999,20.343985,0.020964233
801329565,801229083,4028193,1.579014,0.0056431005,-1.9435493,20.361053,0.020613339
801729549,801603497,4028193,1.5778906,0.0056404765,-2.0611782,20.378143,0.023164555
802119392,801977899,4028193,1.5766582,0.0056378613,-2.1608307,20.418089,0.025408784
802519335,802409989,4028193,1.5752941,0.0056353263,-2.4165163,20.34966,0.031884514
802929332,802791504,4028193,1.5738623,0.0056327195,-2.6066508,20.281525,0.037223965
803329245,803223488,4028193,1.572297,0.005630153,-3.031909,20.090033,0.05084043
804129017,803979494,4028193,1.568845,0.005624815,-3.0732255,19.823627,0.052937474
804528917,804411479,4028193,1.5669491,0.0056221755,-3.3245814,19.556427,0.062797435
804918840,804785882,4028193,1.5650736,0.005619391,-3.1195679,19.093845,0.05663084
805328760,805217858,4028193,1.5631708,0.0056166267,-3.242762,18.783644,0.062202495
806128604,805981105,4028193,1.5595886,0.005610847,-2.7419672,18.312136,0.04561871
806528519,806413089,4028193,1.5578892,0.005607962,-2.5656366,18.083006,0.040446147
806928454,806787465,4028193,1.5562596,0.0056049502,-2.6496005,17.834652,0.043737467
807328402,807219475,4028193,1.5545259,0.0056019817,-2.646084,17.624094,0.044142604
807728277,807593905,4028193,1.5527794,0.0055989125,-2.7463381,17.53181,0.047801193
808538223,808407457,4028193,1.5495248,0.0055927993,-2.461254,17.255291,0.039007492
808928033,808789070,4028193,1.5479652,0.0055896766,-2.32372,17.130857,0.035022404
809327984,809221143,4028193,1.5465199,0.0055865985,-2.2268267,17.029814,0.032353435
810117828,809969856,4028193,1.5435073,0.005580248,-2.2653642,16.921183,0.0336979
810527755,810401943,4028193,1.5420308,0.0055771433,-2.13429,16.860895,0.030018136
810927651,810783487,4028193,1.5406564,0.005573966,-2.0782773,16.796736,0.028571932
811327686,811215467,4028193,1.5392923,0.005570842,-1.989329,16.741497,0.02626494
812127477,811971484,4028193,1.536661,0.005564435,-1.8534402,16.669767,0.022897344
812527346,812403464,4028193,1.5353224,0.005561304,-2.0074124,16.657167,0.026880018
812937415,812835512,4028193,1.5339639,0.005558172,-2.023664,16.640396,0.02734454
813337155,813209877,4028193,1.5327263,0.005554954,-1.8873553,16.581957,0.023868717
814127112,814023465,4028193,1.5299451,0.005548594,-2.115137,16.490915,0.030143227
814526958,814405133,4028193,1.5284832,0.005545375,-2.1348848,16.441662,0.030800704
814926896,814779511,4028193,1.5272491,0.0055421316,-1.8849504,16.408989,0.024058886
815326852,815211469,4028193,1.5259671,0.005538975,-1.7172008,16.417141,0.019957313
816126641,816017892,4028193,1.5233328,0.005532607,-2.054193,16.474451,0.028459614
816526572,816399479,4028193,1.5220133,0.005529418,-1.9159944,16.503254,0.024715899
816926536,816781088,4028193,1.5206379,0.005526241,-2.0390007,16.540428,0.027928364
817326362,817213179,4028193,1.5192434,0.0055231433,-2.1485572,16.59025,0.030917075
817736280,817587496,4028193,1.5178427,0.0055199764,-1.92699,16.636171,0.024800649
818536239,818393907,4028193,1.5148494,0.005513775,-2.3142095,16.7584,0.035508335
818936059,818825862,4028193,1.5133742,0.005510742,-2.1747081,16.813738,0.03125325
819325988,819207534,4028193,1.5119553,0.0055076634,-2.1932917,16.886616,0.031652473
820125837,820021123,4028193,1.5091318,0.005501639,-2.122949,17.064753,0.029345164
820525720,820395472,4028193,1.5077084,0.0054986123,-2.2911181,17.1839,0.033941474
820925659,820769909,4028193,1.5062683,0.0054956134,-2.273161,17.295523,0.03319588
821315663,821201942,4028193,1.504844,0.0054927217,-2.2742436,17.394785,0.033037897
822115395,821965067,4028193,1.5020516,0.0054868776,-2.1638598,17.573126,0.029605115
822515329,822397077,4028193,1.500534,0.005484048,-2.4024506,17.651815,0.036330972
822925282,822771596,4028193,1.4991771,0.0054811537,-2.2267842,17.726406,0.031080863
823325209,823203479,4028193,1.4977258,0.0054783598,-2.2918518,17.787384,0.032810923
824125068,824009891,4028193,1.4948201,0.005472717,-2.286203,17.839245,0.032554463
824524912,824391486,4028193,1.4933926,0.0054698824,-2.3121305,17.848698,0.03327941
824934827,824823541,4028193,1.4919173,0.0054671178,-2.4389825,17.86763,0.036992006
825324767,825205066,4028193,1.4905455,0.0054642987,-2.3658888,17.900843,0.03474343
826124619,826011503,4028193,1.4875,0.005458733,-2.5714517,17.958006,0.04091251
826524538,826385916,4028193,1.4859991,0.0054559223,-2.2972035,17.996273,0.03258171
826934534,826817906,4028193,1.484481,0.0054532066,-2.5443597,18.044292,0.039863426
827334373,827199464,4028193,1.4829061,0.0054504387,-2.6948051,18.087677,0.044609714
828134251,828013143,4028193,1.4796469,0.0054450002,-2.8576584,18.170073,0.049936883
828524102,828387488,4028193,1.4779718,0.005442231,-2.7742805,18.116684,0.047204077
828934097,828819461,4028193,1.4762186,0.0054395497,-2.9686897,18.136068,0.053993806
829323945,829193861,4028193,1.4745235,0.005436795,-2.8539984,18.179794,0.049782414
830123848,830007465,4028193,1.4710153,0.0054314276,-2.9413688,18.297197,0.0525378
830533704,830389077,4028193,1.4692318,0.0054287347,-3.2448347,18.366215,0.063697584
830923657,830821118,4028193,1.467322,0.0054261256,-3.1634207,18.485445,0.060150813
831343567,831195495,4028193,1.4654737,0.00542346,-3.2082858,18.620953,0.06141885
831733530,831627480,4028193,1.463758,0.0054208827,-2.893773,18.570591,0.05010265
832533408,832383468,4028193,1.4606467,0.0054155206,-2.543296,18.272627,0.039332394
832923255,832815470,4028193,1.4591042,0.00541289,-2.6443417,18.228552,0.042622656
833323119,833197099,4028193,1.4576081,0.005410194,-2.4909468,18.204132,0.03787184
834122975,834003464,4028193,1.4548252,0.0054048323,-2.4574873,18.092464,0.037088763
834522874,834377926,4028193,1.4534574,0.005402093,-2.284313,18.001013,0.032208595
834922808,834809914,4028193,1.4521618,0.0053994204,-2.1609244,17.877043,0.02902291
835325392,835191529,4028193,1.4508634,0.005396664,-2.1358817,17.754423,0.028549945
836122548,836005068,4028193,1.4484934,0.0053911647,-1.9256377,17.559202,0.02346399
836522524,836379523,4028193,1.447148,0.005388348,-2.139977,17.49949,0.029077046
836932504,836811479,4028193,1.4457306,0.0053856117,-2.386553,17.476612,0.03621116
837332306,837185863,4028193,1.4440738,0.0053827944,-2.8112378,17.47204,0.050258443
838132165,837999480,4028193,1.4410151,0.0053772693,-2.3394973,17.481174,0.034788202
838542049,838431501,4028193,1.4396217,0.0053745634,-2.2865255,17.609974,0.032987613
838991972,838863529,4028193,1.4381002,0.0053718947,-2.5343175,17.801397,0.040089022
839371881,839245067,4028193,1.4363546,0.0053691957,-2.6973767,17.95314,0.045029826
839791945,839677069,4028193,1.4348351,0.0053665885,-2.704792,18.092424,0.04492918
840571636,840425888,4028193,1.4317176,0.005361276,-2.6036358,18.297129,0.04116565
840971552,840857887,4028193,1.4299408,0.005358731,-3.2472305,18.385937,0.06372326
841371498,841239488,4028193,1.4282162,0.0053561414,-3.0924106,18.480383,0.05749643
841781490,841671459,4028193,1.42651,0.005353635,-2.7692533,18.590645,0.04583407
842561424,842427579,4028193,1.4234473,0.005348531,-2.545092,18.737467,0.038410824
842951172,842801855,4028193,1.4219141,0.0053459844,-2.7148576,18.773159,0.043622866
843351236,843233883,4028193,1.4202427,0.0053435327,-2.939164,18.829441,0.050976224
843771007,843665914,4028193,1.4186498,0.005341092,-2.962597,18.891119,0.051623203
844560863,844429145,4028193,1.415312,0.005336009,-3.0127397,18.385914,0.05485238
844970771,844861137,4028193,1.413581,0.005333471,-3.0870395,18.189432,0.058213364
845560733,845451478,4028193,1.4105438,0.005329537,-3.574283,17.929256,0.07917226
845970519,845825865,4028193,1.4083033,0.0053268326,-3.70393,17.64237,0.08640246
846550405,846423458,4028193,1.4045448,0.0053227767,-4.1612687,17.421854,0.110437
846960365,846855508,4028193,1.4020475,0.0053201052,-4.0883274,17.394611,0.106766276
847560302,847453088,4028193,1.3985225,0.0053160503,-3.8586946,17.453718,0.09478734
847960159,847827498,4028193,1.3961257,0.0053133173,-3.9229398,17.476542,0.097841986
848569969,848417866,4028193,1.3925155,0.005309278,-3.9118328,17.536114,0.096958235
848959927,848849885,4028193,1.3900585,0.005306655,-4.1289034,17.58679,0.107706115
849559784,849447464,4028193,1.3864007,0.0053026904,-4.116803,17.716875,0.10628956
849969692,849829072,4028193,1.3839952,0.005300051,-4.0533714,17.815466,0.102469146
850569640,850419528,4028193,1.3804151,0.005296143,-4.2281466,17.96262,0.11058288
850969514,850851510,4028193,1.3781587,0.005293614,-3.7294145,18.034512,0.08569084
851579370,851441872,4028193,1.3745459,0.0052897646,-4.191984,18.135918,0.107660696
851959288,851823491,4028193,1.3722845,0.0052872133,-4.002474,18.238205,0.09759609
852579230,852471496,4028193,1.3689338,0.0052835317,-3.7072,18.470335,0.08267511
852969043,852853152,4028193,1.3668867,0.005281051,-3.5869684,18.630909,0.07673236
853568919,853443470,4028193,1.363738,0.005277391,-3.5706565,18.844769,0.07517316
853958914,853817856,4028193,1.3616942,0.0052749477,-3.5963783,18.927166,0.075928114
854558772,854415579,4028193,1.3587292,0.00527138,-3.6291,19.103962,0.07660056
854958631,854847512,4028193,1.3568414,0.005269069,-3.5837703,19.219591,0.07424953
855558492,855445118,4028193,1.3538892,0.0052655735,-3.7265234,19.373491,0.07964478
855758457,855603486,4028193,1.3528619,0.005264356,-3.7901223,19.42695,0.08215978
856558283,856409858,4028193,1.3489017,0.005259793,-3.5033433,19.735485,0.06909953
856958224,856841869,4028193,1.346866,0.0052575762,-3.7795398,19.730017,0.08044664
857558085,857439481,4028193,1.3437892,0.005254147,-3.8524523,19.432297,0.08486095
857958013,857821070,4028193,1.341587,0.0052518114,-4.144314,19.283054,0.09896621
858567908,858411489,4028193,1.338259,0.0052482844,-3.9600685,19.030859,0.09155973
858977789,858843514,4028193,1.3359696,0.005245946,-4.03646,18.773058,0.096432574
859557711,859433889,4028193,1.332246,0.0052422923,-4.2820153,18.460325,0.110360734
859967583,859865889,4028193,1.3299267,0.0052398792,-4.0386596,18.297007,0.09904942
860557438,860413065,4028193,1.3264776,0.005236094,-3.801087,18.077806,0.08880294
860967508,860845080,4028193,1.3241725,0.0052336343,-3.9459872,17.986471,0.09618844
861397288,861277123,4028193,1.3219538,0.0052311635,-3.8222404,17.910116,0.09063482
861797229,861651485,4028193,1.3208743,0.00523014,-3.702227,17.943459,0.08487455
862577020,862457857,4028193,1.3175915,0.005226647,-3.828394,17.853186,0.09121684
862976915,862839605,4028193,1.3153346,0.0052240845,-3.8616471,17.66085,0.093819045
863566784,863437315,4028193,1.3120465,0.0052202083,-3.7983437,17.362822,0.09232636
863796736,863653395,4028193,1.3109084,0.005218921,-3.760645,17.250446,0.09109233
864566662,864459674,4028193,1.3075572,0.0052152267,-3.7519827,16.990192,0.0920621
864976496,864834106,4028193,1.3052081,0.005212503,-3.7929373,16.81771,0.095047764
865576379,865431671,4028193,1.3013743,0.0052084243,-4.1870604,16.560837,0.11762338
865976363,865863769,4028193,1.2987972,0.0052057034,-4.0501504,16.363937,0.111381225
866576167,866461457,4028193,1.294627,0.00520151,-4.448212,16.183527,0.13584863
866976106,866835984,4028193,1.2918696,0.005198663,-4.3819575,16.143984,0.13215485
867565934,867426378,4028193,1.2875439,0.005194432,-4.5005937,16.112492,0.13968006
867975909,867858492,4028193,1.284694,0.0051916633,-4.4096713,16.08113,0.13435486
868575712,868456064,4028193,1.2803648,0.00518745,-4.5168877,16.069399,0.14107059
868980701,868837663,4028193,1.2773193,0.00518462,-4.856555,16.04989,0.1632834
869575585,869428089,4028193,1.2726545,0.0051803896,-4.8453474,16.042099,0.16260959
869955408,869802489,4028193,1.2693847,0.0051775486,-5.168763,16.057678,0.18486215
870575268,870450463,4028193,1.2645497,0.005173428,-5.1098585,16.100697,0.18018997
870975257,870832082,4028193,1.2612494,0.0051706303,-5.123788,16.132133,0.18082061
871585176,871480090,4028193,1.2562557,0.005166536,-5.3024087,16.112465,0.19388399
871974966,871861668,4028193,1.2529012,0.005163744,-5.224129,16.108534,0.18824753
872564845,872452105,4028193,1.2478809,0.0051595746,-5.227031,16.104607,0.18850268
872974751,872826501,4028193,1.2445767,0.0051567694,-5.0972075,16.088923,0.17943004
873574671,873424077,4028193,1.2396026,0.005152621,-5.0712957,16.053755,0.17799948
873967121,873856265,4028193,1.2362273,0.0051498967,-5.1120753,16.034288,0.18109326
874574528,874453900,4028193,1.2311223,0.005145745,-5.4901404,16.007116,0.20922391
874969351,874828308,4028193,1.2277542,0.0051429346,-5.186302,15.976186,0.18706822
875574195,875418661,4028193,1.2227391,0.0051387665,-5.2235727,15.995497,0.18953745
875804164,875692317,4028193,1.2211142,0.0051374924,-5.0625696,16.010983,0.17786133
876574156,876448277,4028193,1.2163583,0.005133581,-4.99258,16.018734,0.17289376
876973886,876829921,4028193,1.213354,0.0051308046,-4.6873684,15.968462,0.15288067
877573756,877420331,4028193,1.20878,0.005126636,-4.7311378,15.884153,0.15657578
877973670,877852279,4028193,1.2057269,0.0051239114,-4.8776727,15.8803425,0.166465
878573531,878442662,4028193,1.2011675,0.0051197354,-4.8048334,15.812118,0.16222738
878963487,878824298,4028193,1.1979891,0.005116935,-4.9120364,15.7632475,0.17007282
879563316,879421897,4028193,1.1932583,0.005112758,-4.899961,15.729611,0.16959956
879973306,879853950,4028193,1.1901276,0.0051100245,-4.833828,15.763241,0.16470028
880563107,880444316,4028193,1.1852949,0.005105868,-4.8375726,15.834772,0.1642104
880973015,880818722,4028193,1.18211,0.005103076,-4.800235,15.823426,0.16180126
881402902,881250753,4028193,1.1788504,0.0051003615,-5.064599,15.770727,0.18071572
881972906,881848350,4028193,1.1755811,0.0050978772,-5.009964,15.763228,0.17692187
882572708,882445971,4028193,1.1708212,0.0050937342,-4.75136,15.699832,0.15977113
882962611,882820492,4028193,1.1677282,0.0050909305,-4.7234945,15.688702,0.15801464
883572507,883468481,4028193,1.1633513,0.005086855,-4.453472,15.688698,0.14046499
883792488,883684533,4028193,1.1619184,0.0050854976,-4.418028,15.684992,0.13827068
884582217,884440701,4028193,1.1577206,0.005081585,-4.4553833,15.69982,0.14048599
884982165,884872699,4028193,1.1548786,0.005078885,-4.5148044,15.725849,0.1440195
885562038,885412744,4028193,1.1507167,0.0050747003,-4.219311,15.733302,0.12572473
885961900,885844788,4028193,1.1480465,0.005072012,-4.27386,15.725842,0.12905777
886561859,886435071,4028193,1.1440126,0.0050679045,-4.1594844,15.7444935,0.12209778
886961686,886816709,4028193,1.141259,0.0050651664,-4.385565,15.759451,0.13560244
887561550,887414355,4028193,1.1369427,0.0050611147,-4.401903,15.838512,0.13593273
887971488,887846328,4028193,1.1340617,0.0050584744,-4.480169,15.899342,0.14027075
888561389,888436667,4028193,1.129673,0.0050544734,-4.7380934,16.053658,0.15537845
888971311,888868714,4028193,1.126732,0.0050518927,-4.819376,16.163582,0.159662
889561148,889459084,4028193,1.1222559,0.0050479677,-4.649255,16.239065,0.1478983
889971127,889840729,4028193,1.1193576,0.0050453558,-4.6881504,16.271065,0.15008754
890560928,890438315,4028193,1.1148138,0.0050414847,-4.979525,16.295143,0.16907336
890970826,890870281,4028193,1.1115779,0.005038946,-5.2193065,16.251043,0.18625239
891560697,891403118,4028193,1.106648,0.0050349603,-5.4374466,16.215137,0.20259415
891970594,891835113,4028193,1.1031927,0.005032423,-5.507581,16.23905,0.20754807
892570442,892432682,4028193,1.0980332,0.005028566,-5.463787,16.271048,0.20385884
892970408,892864739,4028193,1.0945463,0.005026043,-5.724634,16.267036,0.22384351
893580240,893462283,4028193,1.0892543,0.005022188,-5.6085033,16.183348,0.21596485
893810285,893678279,4028193,1.087405,0.005020921,-5.9543643,16.171463,0.24360093
894570017,894427094,4028193,1.0818504,0.0050172657,-6.0423183,16.223082,0.25005257
894979991,894859139,4028193,1.078089,0.005014748,-5.9160514,16.219097,0.2397699
895569940,895456686,4028193,1.0725807,0.00501091,-5.994915,16.207157,0.2463864
895809727,895672655,4028193,1.070679,0.005009653,-6.15061,16.207155,0.25935048
896579634,896428709,4028193,1.064864,0.0050060498,-6.311081,16.26301,0.27212223
896789529,896644667,4028193,1.062862,0.005004801,-6.501888,16.259008,0.28889656
897579370,897451141,4028193,1.0568398,0.005001289,-6.516517,16.331364,0.2889124
897799372,897667124,4028193,1.0548549,0.0050000497,-6.4813933,16.331362,0.28580636
898394194,898264796,4028193,1.050872,0.0049978164,-6.448043,16.40437,0.28161368
898799199,898696790,4028193,1.0489073,0.004996883,-6.4689364,16.4575,0.2825266
899561466,899452706,4028193,1.0429078,0.004993367,-6.569618,16.461597,0.291317
899798850,899668704,4028193,1.0409057,0.004992142,-6.5884156,16.43293,0.29349753
900578791,900475151,4028193,1.0347515,0.004988676,-6.896964,16.367775,0.3229117
900958610,900856695,4028193,1.0305897,0.0049861474,-6.950612,16.303133,0.3292551
901568506,901454280,4028193,1.024247,0.004982388,-6.770337,16.299105,0.3124743
901978365,901828716,4028193,1.0198343,0.0049798437,-7.085025,16.291063,0.34236616
902558256,902419049,4028193,1.0133713,0.0049760737,-7.064211,16.295078,0.34027368
902968196,902851150,4028193,1.0089519,0.0049736197,-7.2263155,16.27901,0.35642102
903558043,903448683,4028193,1.0024312,0.0049698744,-6.9708996,16.279007,0.3316708
903967949,903830287,4028193,0.99819803,0.0049673663,-7.039941,16.311165,0.3376063
904557800,904420663,4028193,0.99183124,0.004963635,-7.071347,16.375866,0.33927944
904957862,904852685,4028193,0.98757416,0.004961218,-6.900787,16.424726,0.32214886
905557679,905443119,4028193,0.9813399,0.0049575306,-6.7553687,16.48621,0.30756348
905957525,905824747,4028193,0.9772068,0.004955078,-6.8910346,16.539858,0.31900287
906557401,906422277,4028193,0.9710107,0.0049514575,-6.9751973,16.635603,0.3249615
906957288,906854296,4028193,0.966913,0.0049491026,-6.867504,16.685976,0.31405357
907557115,907444724,4028193,0.9608152,0.004945507,-6.858905,16.75359,0.31200328
907957035,907819067,4028193,0.9567709,0.0049430947,-6.820333,16.791843,0.3078012
908566941,908416660,4028193,0.95079297,0.004939558,-6.7971034,16.864552,0.30439004
908786884,908683111,4028193,0.9488179,0.0049384693,-6.7513914,16.886045,0.29992738
909556712,909446274,4028193,0.9432566,0.00493522,-6.455745,17.068573,0.27130204
909946709,909820688,4028193,0.9395449,0.0049328767,-6.35765,17.1302,0.26217318
910546539,910411076,4028193,0.93424994,0.004929429,-6.083588,17.245687,0.2384496
910936396,910792711,4028193,0.9307708,0.0049271453,-6.122287,17.348978,0.24005508
911536288,911390269,4028193,0.92585176,0.004923793,-6.0051827,17.531136,0.22855985
911946172,911822318,4028193,0.92261475,0.0049216277,-5.7703333,17.660547,0.20948605
912506012,912355070,4028193,0.91803646,0.004918405,-5.715107,18.534956,0.1958009
913095884,912952712,4028193,0.9135309,0.0049153212,-5.492925,18.645702,0.17979851
913495804,913384715,4028193,0.91069025,0.004913322,-5.4275684,18.711597,0.17492716
914105667,913982296,4028193,0.90654737,0.004910297,-5.2880516,18.937136,0.16407204
914505577,914356711,4028193,0.9038169,0.004908266,-5.335318,19.06701,0.16588056
915105477,915004701,4028193,0.8996452,0.004905368,-5.435207,19.166548,0.17125598
915505395,915379125,4028193,0.8969475,0.0049033645,-5.265845,19.213947,0.16035298
916095311,915976670,4028193,0.89302355,0.0049004336,-5.090249,19.272104,0.1493848
916515147,916408671,4028193,0.8903416,0.0048985323,-5.295136,19.335821,0.16111988
917115017,917006277,4028193,0.8864043,0.004895648,-5.0092373,19.512533,0.14288515
917504904,917380686,4028193,0.8838457,0.004893702,-5.099393,19.598995,0.14742142
918104767,917971106,4028193,0.8799765,0.0048908447,-5.2925057,19.702333,0.15796559
918514680,918403065,4028193,0.8774987,0.0048890123,-4.9653,19.817392,0.13822989
919114579,919000688,4028193,0.8737909,0.0048862197,-4.875365,19.872488,0.13289832
919514470,919382292,4028193,0.8713253,0.004884337,-5.023671,19.855936,0.14122432
919914361,919756695,4028193,0.8689249,0.0048824404,-4.865539,19.900108,0.13217945
920564337,920462532,4028193,0.8653256,0.0048798043,-4.8861938,19.839397,0.133712
920964132,920836873,4028193,0.86301214,0.004877898,-4.6952586,19.757,0.12398111
921514002,921376881,4028193,0.85956633,0.004874999,-4.4778523,19.561087,0.11389484
922103892,921974495,4028193,0.8564733,0.0048721535,-4.0211024,19.437273,0.092429884
922353890,922240881,4028193,0.85544515,0.004871283,-4.085792,19.36243,0.095796615
922753834,922622518,4028193,0.8535614,0.004869342,-3.695005,19.235037,0.07886686
923553648,923428877,4028193,0.84979683,0.0048654736,-3.6343448,19.087864,0.076886915
923953512,923803268,4028193,0.8478971,0.0048634973,-3.6509972,19.103556,0.07752937
924353390,924235298,4028193,0.846093,0.004861607,-3.4885335,19.114025,0.070744246
924763317,924616912,4028193,0.84426016,0.0048596524,-3.4673135,19.077406,0.07002037
925563178,925430489,4028193,0.84084153,0.004855807,-3.4548907,19.087852,0.06948148
925943089,925804882,4028193,0.83906883,0.004853845,-3.5039806,19.161238,0.07119629
926362941,926236945,4028193,0.8373083,0.00485198,-3.482661,19.256168,0.069985814
926772914,926668946,4028193,0.83551353,0.0048501296,-3.5395284,19.346422,0.07195279
927542673,927424868,4028193,0.83178586,0.004846314,-3.9606671,19.480192,0.08947484
927952608,927806478,4028193,0.8299336,0.0048444318,-3.6573784,19.55565,0.076002
928372622,928238527,4028193,0.8279464,0.004842624,-4.070121,19.6315,0.093760215
928792384,928670479,4028193,0.82594156,0.004840819,-4.1185784,19.636934,0.095979504
929562273,929419386,4028193,0.822882,0.0048382804,-4.2460256,19.87244,0.10080254
929792211,929635490,4028193,0.8218686,0.0048373993,-4.174947,19.93328,0.097158454
930572121,930449207,4028193,0.8187079,0.004835039,-4.483836,20.286394,0.11011642
930961948,930830865,4028193,0.8168661,0.004833233,-3.9113631,20.033356,0.08485161
931371837,931262889,4028193,0.81506306,0.00483148,-3.691021,19.96101,0.0758347
931781727,931637279,4028193,0.81321365,0.0048296456,-3.7820055,19.988792,0.079508804
932561565,932443726,4028193,0.8098249,0.0048260535,-3.3832002,19.866909,0.06401512
932971541,932825299,4028193,0.80814207,0.004824217,-3.419067,19.691357,0.06596249
933371441,933257282,4028193,0.80659056,0.0048224186,-2.825383,19.474792,0.04554485
933781294,933638912,4028193,0.80515134,0.0048205364,-2.784355,19.298538,0.04463569
934571196,934445263,4028193,0.80212075,0.004816789,-3.0090454,19.213861,0.052360076
934951073,934819662,4028193,0.8006569,0.0048148697,-3.0405083,19.145443,0.05365182
935370915,935251788,4028193,0.7991224,0.00481303,-3.0119681,19.103504,0.05276491
935790882,935683863,4028193,0.7976625,0.0048111835,-3.0481143,19.030422,0.054246478
936570658,936447150,4028193,0.79508024,0.004807342,-2.3427398,18.926699,0.032220386
936960653,936821506,4028193,0.7938827,0.0048054033,-2.2385783,18.942204,0.029394872
937360504,937253689,4028193,0.7927541,0.0048035574,-2.1694727,19.009607,0.027510133
937750392,937628264,4028193,0.7916256,0.0048016426,-2.3524165,19.113964,0.03216882
938560212,938441971,4028193,0.78948766,0.004797964,-2.1505013,19.341043,0.026567886
938950188,938823478,4028193,0.78839636,0.004796114,-2.2036216,19.437197,0.027758624
939360111,939255510,4028193,0.7873354,0.0047943383,-2.086913,19.50166,0.02481388
939769987,939629891,4028193,0.78627086,0.004792491,-2.1118524,19.588058,0.02529841
940559778,940436319,4028193,0.78407854,0.0047889194,-2.410877,19.789816,0.032633666
940959711,940817923,4028193,0.782996,0.004787131,-2.3130054,19.877909,0.029904744
941359646,941249880,4028193,0.78184885,0.0047854185,-2.4812202,19.966518,0.034259874
941759596,941631457,4028193,0.7806768,0.0047836537,-2.4319005,20.044468,0.032783445
942559312,942437865,4028193,0.7785425,0.0047801896,-2.3004603,20.12842,0.029213076
942959277,942812274,4028193,0.7774792,0.004778421,-2.1135345,20.122805,0.024665369
943359160,943244255,4028193,0.77644277,0.00477673,-2.072001,20.04446,0.023798142
943779070,943676303,4028193,0.7753966,0.004775037,-2.225526,20.011002,0.02750135
944568867,944439477,4028193,0.7732451,0.004771512,-2.329958,19.927673,0.03026893
944958843,944813869,4028193,0.77217484,0.0047697253,-2.1591682,19.877892,0.026059141
945558743,945404279,4028193,0.7706438,0.0047670817,-2.2688558,19.82277,0.02885406
945968567,945836279,4028193,0.7695961,0.004765364,-2.1727433,19.691298,0.026637902
946358532,946217894,4028193,0.7685183,0.0047635604,-2.2274022,19.46936,0.028314121
946768525,946649903,4028193,0.7673402,0.004761794,-2.3926945,19.240213,0.033061467
947568234,947463476,4028193,0.7648948,0.00475814,-2.5381541,18.92665,0.037819844
948188076,948053891,4028193,0.7635975,0.004756525,-2.5961342,18.741966,0.03995734
948787953,948644298,4028193,0.76231235,0.0047548837,-2.5550776,18.529781,0.039146718
949157860,949025952,4028193,0.76110274,0.0047529535,-2.2156262,18.41508,0.029619442
949567856,949457872,4028193,0.75992274,0.004751077,-2.3750186,18.330978,0.03419053
950167654,950055482,4028193,0.75871783,0.004749425,-2.149272,18.311274,0.028029907
950557549,950429867,4028193,0.7576249,0.004747455,-2.2508876,18.227886,0.030883662
950977439,950861861,4028193,0.75655234,0.0047455593,-2.0027933,18.149933,0.024555836
951397408,951293917,4028193,0.75547135,0.0047436515,-1.9642618,18.029156,0.0237783
951967268,951833950,4028193,0.75443345,0.0047418824,-1.889138,17.952513,0.022088164
952377132,952265886,4028193,0.7534078,0.004739944,-1.9050856,17.781942,0.022678131
952977037,952863488,4028193,0.7520675,0.0047369413,-1.6366186,17.563154,0.016945327
953566884,953453876,4028193,0.7509746,0.004733867,-1.3973806,17.312738,0.012532021
954366721,954260348,4028193,0.74964094,0.004729741,-1.2260895,17.112347,0.0097609535
955176565,955073880,4028193,0.74847275,0.004725587,-0.98436856,16.92897,0.0063597844
956156317,956045864,4028193,0.7473499,0.0047202734,-0.6794595,16.77885,0.0030571902
957376023,957233900,4028193,0.746229,0.0047138836,-0.60287964,16.647932,0.0024258194
958775768,958637860,4028193,0.7452232,0.004707846,-0.351829,16.907358,0.00081347645
960155493,960041883,4028193,0.74407566,0.004700622,-0.6784338,16.959263,0.0030155426
961175335,961071575,4028193,0.74306786,0.004695504,-0.99555933,16.920296,0.006508544
962564882,962418101,4028193,0.7419994,0.004690824,-0.74610174,16.924614,0.0036545575
964174523,964038069,4028193,0.7409041,0.0046838676,-0.6590161,16.778814,0.0028759958
965964124,965823879,4028193,0.73983216,0.0046744337,-0.35806584,16.5189,0.00086238695
967374004,967220885,4028193,0.73872226,0.0046670344,-0.53147197,16.383694,0.0019156068
968963502,968848086,4028193,0.7377194,0.0046585463,-0.608049,16.198856,0.002536006
972372904,972246718,4028193,0.7367175,0.0046430263,-0.13907874,16.108013,0.00013342494
975791993,975645086,4028193,0.7377841,0.004624935,0.5182561,16.002722,0.0018648871
977194155,977056270,4028193,0.73887384,0.0046201777,0.950268,16.014343,0.006265281
978381394,978237153,4028193,0.74004567,0.004615089,0.8535353,15.967946,0.0050693396
979381210,979266815,4028193,0.74131715,0.00461115,1.1982672,15.956389,0.009998393
980121106,979965271,4028193,0.742388,0.0046081,1.304307,15.987233,0.011823439
980723648,980613376,4028193,0.7434647,0.0046049817,1.0615902,15.914176,0.007868413
