timestamp,timestamp_sample,gyro_device_id,gyro_bias[0],gyro_bias[1],gyro_bias[2],gyro_bias_limit,gyro_bias_variance[0],gyro_bias_variance[1],gyro_bias_variance[2],accel_device_id,accel_bias[0],accel_bias[1],accel_bias[2],accel_bias_limit,accel_bias_variance[0],accel_bias_variance[1],accel_bias_variance[2],mag_device_id,mag_bias[0],mag_bias[1],mag_bias[2],mag_bias_limit,mag_bias_variance[0],mag_bias_variance[1],mag_bias_variance[2],gyro_bias_valid,gyro_bias_stable,accel_bias_valid,accel_bias_stable,mag_bias_valid,mag_bias_stable
538398501,538298300,4325386,0.0031298494,-0.0069253654,-0.0015781755,0.34906584,2.070358e-07,2.0729686e-07,4.3117439e-07,4259850,-0.16397986,0.37257716,-0.10664787,0.4,0.0005023327,0.00050203264,0.00050059624,396809,0.0,0.0,0.0,0.5,0.0025000002,0.0025000002,0.0025000002,1,1,1,1,1,0
539408388,539308184,4325386,0.0031315144,-0.0069247414,-0.0015193413,0.34906584,2.0716348e-07,2.0740902e-07,4.3043104e-07,4259850,-0.16391891,0.37243333,-0.10700417,0.4,0.0005019657,0.00050166406,0.00050014124,396809,0.0,0.0,0.0,0.5,0.0025000002,0.0025000002,0.0025000002,1,1,1,1,1,0
540108506,540008103,4325386,0.003133223,-0.0069101634,-0.0014740842,0.34906584,2.0388994e-07,2.0412469e-07,4.3064355e-07,4259850,-0.16391802,0.37242296,-0.108261086,0.4,0.0005019725,0.00050166954,0.00050008553,396809,0.0,0.0,0.0,0.5,0.0025000002,0.0025000002,0.0025000002,1,1,1,1,1,0
541118388,541017987,4325386,0.0031087522,-0.0068738884,-0.0013923574,0.34906584,2.0069147e-07,2.009073e-07,4.2981802e-07,4259850,-0.16382824,0.37224868,-0.10746404,0.4,0.0005015313,0.00050122716,0.0004995602,396809,0.0,0.0,0.0,0.5,0.0025000002,0.0025000002,0.0025000002,1,1,1,1,1,0
542128118,542027871,4325386,0.0031052302,-0.006858788,-0.0013545764,0.34906584,2.0340826e-07,2.0360771e-07,4.3087607e-07,4259850,-0.16395254,0.37254015,-0.10656653,0.4,0.000502388,0.0005020827,0.00050032616,396809,0.0,0.0,0.0,0.5,0.0025000002,0.0025000002,0.0025000002,1,1,1,1,1,0
542828087,542727790,4325386,0.0030970685,-0.0068529285,-0.0013300173,0.34906584,2.047066e-07,2.048956e-07,4.311042e-07,4259850,-0.16394052,0.37252593,-0.105554745,0.4,0.00050238805,0.0005020823,0.0005002631,396809,0.0,0.0,0.0,0.5,0.0025000002,0.0025000002,0.0025000002,1,1,1,1,1,0
543837879,543737674,4325386,0.0031272022,-0.0068293232,-0.0012947974,0.34906584,2.0414792e-07,2.0432037e-07,4.3031352e-07,4259850,-0.16387317,0.37233675,-0.10564069,0.4,0.0005019714,0.00050166534,0.0004997631,396809,0.0,0.0,0.0,0.5,0.0025000002,0.0025000002,0.0025000002,1,1,1,1,1,0
544847760,544747558,4325386,0.00316772,-0.0068543367,-0.0012697072,0.34906584,2.0521313e-07,2.0537142e-07,4.3136774e-07,4259850,-0.16402364,0.37263224,-0.10638102,0.4,0.00050282915,0.00050252286,0.0005005281,396809,0.0,0.0,0.0,0.5,0.0025000002,0.0025000002,0.0025000002,1,1,1,1,1,0
545857677,545757443,4325386,0.0031704847,-0.0068422444,-0.0012464114,0.34906584,2.0683726e-07,2.0698147e-07,4.3063994e-07,4259850,-0.16395444,0.37246984,-0.106644146,0.4,0.0005024698,0.00050216395,0.00050007994,396809,0.0,0.0,0.0,0.5,0.0025000002,0.0025000002,0.0025000002,1,1,1,1,1,0
546867530,546767328,4325386,0.0032096351,-0.006844834,-0.0012127201,0.34906584,2.0702767e-07,2.071636e-07,4.3057892e-07,4259850,-0.1638924,0.37227637,-0.107102215,0.4,0.0005020301,0.0005017257,0.0004995581,396809,0.0,0.0,0.0,0.5,0.0025000002,0.0025000002,0.0025000002,1,1,1,1,1,0
547507645,547407254,4325386,0.0032434657,-0.006849117,-0.0011974869,0.34906584,2.0596569e-07,2.0610233e-07,4.3112598e-07,4259850,-0.16407782,0.37264875,-0.10813219,0.4,0.0005031019,0.00050279876,0.0005005663,396809,0.0,0.0,0.0,0.5,0.0025000002,0.0025000002,0.0025000002,1,1,1,1,1,0
548307513,548207163,4325386,0.0032531328,-0.00687638,-0.0011706515,0.34906584,2.0536356e-07,2.0550092e-07,4.3092945e-07,4259850,-0.16410507,0.37266585,-0.10976543,0.4,0.00050319685,0.00050289574,0.00050059194,396809,0.0,0.0,0.0,0.5,0.0025000002,0.0025000002,0.0025000002,1,1,1,1,1,0
549307401,549207049,4325386,0.0032586847,-0.0068542897,-0.0011466384,0.34906584,2.056306e-07,2.0576877e-07,4.3056056e-07,4259850,-0.1639933,0.37237754,-0.11098753,0.4,0.0005025142,0.00050221593,0.0004998264,396809,0.0,0.0,0.0,0.5,0.0025000002,0.0025000002,0.0025000002,1,1,1,1,1,0
550317136,550216935,4325386,0.0032394663,-0.006859139,-0.0010980874,0.34906584,2.0439019e-07,2.0452764e-07,4.308306e-07,4259850,-0.16413018,0.37265903,-0.111150086,0.4,0.0005033512,0.0005030539,0.0005005716,396809,0.0,0.0,0.0,0.5,0.0025000002,0.0025000002,0.0025000002,1,1,1,1,1,0
551327026,551226820,4325386,0.0032256518,-0.006836795,-0.0010480686,0.34906584,2.0324417e-07,2.0337866e-07,4.3082505e-07,4259850,-0.16406888,0.37249172,-0.11032413,0.4,0.00050299405,0.0005026983,0.0005001289,396809,0.0,0.0,0.0,0.5,0.0025000002,0.0025000002,0.0025000002,1,1,1,1,1,0
552336935,552236706,4325386,0.0032205787,-0.006825537,-0.0010174301,0.34906584,2.0345357e-07,2.0358068e-07,4.300262e-07,4259850,-0.16399392,0.37230405,-0.1100413,0.4,0.00050257705,0.00050228264,0.0004996239,396809,0.0,0.0,0.0,0.5,0.0025000002,0.0025000002,0.0025000002,1,1,1,1,1,0
552917070,552816640,4325386,0.0032055508,-0.006829232,-0.0009995197,0.34906584,2.0193188e-07,2.0205394e-07,4.3127343e-07,4259850,-0.16412726,0.3726112,-0.11105482,0.4,0.00050344155,0.00050314644,0.0005004317,396809,0.0,0.0,0.0,0.5,0.0025000002,0.0025000002,0.0025000002,1,1,1,1,1,0
553926767,553826526,4325386,0.0031829446,-0.006836362,-0.0009650211,0.34906584,2.0199785e-07,2.0211444e-07,4.3056036e-07,4259850,-0.1640664,0.37246546,-0.11140504,0.4,0.0005031212,0.0005028269,0.00050002587,396809,0.0,0.0,0.0,0.5,0.0025000002,0.0025000002,0.0025000002,1,1,1,1,1,0
554906771,554806415,4325386,0.0032235046,-0.0067729694,-0.0009389132,0.34906584,2.0302993e-07,2.0313931e-07,4.3119792e-07,4259850,-0.16416752,0.37269902,-0.11032176,0.4,0.00050385366,0.0005035586,0.0005006646,396809,0.0,0.0,0.0,0.5,0.0025000002,0.0025000002,0.0025000002,1,1,1,1,1,0
555726557,555626327,4325386,0.0031957268,-0.0067821587,-0.00091289566,0.34906584,2.0079749e-07,2.0090629e-07,4.3021504e-07,4259850,-0.16399084,0.3722888,-0.109406434,0.4,0.00050280866,0.00050251506,0.0004995551,396809,0.0,0.0,0.0,0.5,0.0025000002,0.0025000002,0.0025000002,1,1,1,1,1,0
556736464,556636210,4325386,0.0032073618,-0.006816538,-0.00088672334,0.34906584,2.0241521e-07,2.0251706e-07,4.3072168e-07,4259850,-0.16416182,0.3726691,-0.109188356,0.4,0.0005039055,0.000503611,0.00050055573,396809,0.0,0.0,0.0,0.5,0.0025000002,0.0025000002,0.0025000002,1,1,1,1,1,0
557506530,557406123,4325386,0.003198137,-0.006820248,-0.0008695984,0.34906584,2.0393401e-07,2.0403033e-07,4.309262e-07,4259850,-0.16415754,0.37266037,-0.108109266,0.4,0.00050393987,0.0005036452,0.0005005194,396809,0.0,0.0,0.0,0.5,0.0025000002,0.0025000002,0.0025000002,1,1,1,1,1,0
558516400,558416010,4325386,0.0032066926,-0.0068331803,-0.00085177994,0.34906584,2.0384034e-07,2.0393986e-07,4.3093377e-07,4259850,-0.16409509,0.3724946,-0.10865761,0.4,0.00050358404,0.0005032911,0.0005000773,396809,0.0,0.0,0.0,0.5,0.0025000002,0.0025000002,0.0025000002,1,1,1,1,1,0
559526105,559425897,4325386,0.003171536,-0.006834588,-0.0008264004,0.34906584,2.0325473e-07,2.0335479e-07,4.3017081e-07,4259850,-0.16402419,0.3723217,-0.10825412,0.4,0.000503205,0.0005029136,0.00049961323,396809,0.0,0.0,0.0,0.5,0.0025000002,0.0025000002,0.0025000002,1,1,1,1,1,0
560536052,560435784,4325386,0.0031740358,-0.006855261,-0.00080611976,0.34906584,2.0414868e-07,2.0424835e-07,4.3124055e-07,4259850,-0.16416311,0.37261552,-0.10909439,0.4,0.000504092,0.0005038014,0.0005004069,396809,0.0,0.0,0.0,0.5,0.0025000002,0.0025000002,0.0025000002,1,1,1,1,1,0
561545892,561445673,4325386,0.0031616539,-0.0068530603,-0.00078036106,0.34906584,2.0487343e-07,2.049671e-07,4.3072976e-07,4259850,-0.164141,0.3725463,-0.10920235,0.4,0.0005040004,0.0005037111,0.00050022715,396809,0.0,0.0,0.0,0.5,0.0025000002,0.0025000002,0.0025000002,1,1,1,1,1,0
561905988,561805631,4325386,0.0031787064,-0.00684479,-0.0007736356,0.34906584,2.0333171e-07,2.0341895e-07,4.3036255e-07,4259850,-0.16410337,0.37244865,-0.11024362,0.4,0.00050377264,0.0005034835,0.0004999665,396809,0.0,0.0,0.0,0.5,0.0025000002,0.0025000002,0.0025000002,1,1,1,1,1,0
562915891,562815519,4325386,0.003189201,-0.0068419348,-0.00074988755,0.34906584,2.0346982e-07,2.035405e-07,4.3031866e-07,4259850,-0.16402635,0.37226748,-0.11000477,0.4,0.00050336804,0.00050307927,0.0004994755,396809,0.0,0.0,0.0,0.5,0.0025000002,0.0025000002,0.0025000002,1,1,1,1,1,0
563925651,563825406,4325386,0.0031840287,-0.006844912,-0.0007252749,0.34906584,2.0415423e-07,2.042087e-07,4.3067647e-07,4259850,-0.16416602,0.3725772,-0.11061983,0.4,0.00050429354,0.0005040045,0.0005003053,396809,0.0,0.0,0.0,0.5,0.0025000002,0.0025000002,0.0025000002,1,1,1,1,1,0
564935506,564835294,4325386,0.003164935,-0.0068593603,-0.00069512747,0.34906584,2.0536882e-07,2.0540962e-07,4.3092862e-07,4259850,-0.16414145,0.3725224,-0.11081581,0.4,0.00050422346,0.00050393457,0.00050014706,396809,0.0,0.0,0.0,0.5,0.0025000002,0.0025000002,0.0025000002,1,1,1,1,1,0
565945411,565845182,4325386,0.003168671,-0.0068492964,-0.00065710215,0.34906584,2.0496344e-07,2.0499257e-07,4.3013338e-07,4259850,-0.16406268,0.37233588,-0.11088926,0.4,0.0005038066,0.0005035182,0.0004996422,396809,0.0,0.0,0.0,0.5,0.0025000002,0.0025000002,0.0025000002,1,1,1,1,1,0
566955269,566855070,4325386,0.003212824,-0.006854287,-0.000635875,0.34906584,2.0577303e-07,2.0579304e-07,4.3124072e-07,4259850,-0.1642081,0.37264526,-0.11129528,0.4,0.0005047402,0.0005044517,0.0005004821,396809,0.0,0.0,0.0,0.5,0.0025000002,0.0025000002,0.0025000002,1,1,1,1,1,0
567745186,567644983,4325386,0.0032765244,-0.0068883984,-0.00061518094,0.34906584,2.0672377e-07,2.067421e-07,4.3096142e-07,4259850,-0.16422845,0.3726613,-0.11229582,0.4,0.00050485,0.00050456176,0.0005005192,396809,0.0,0.0,0.0,0.5,0.0025000002,0.0025000002,0.0025000002,1,1,1,1,1,0
568755117,568654870,4325386,0.0032013573,-0.006858646,-0.0005937456,0.34906584,2.073624e-07,2.0737647e-07,4.3079027e-07,4259850,-0.16411135,0.37242144,-0.11236275,0.4,0.0005042856,0.0005039981,0.0004998681,396809,0.0,0.0,0.0,0.5,0.0025000002,0.0025000002,0.0025000002,1,1,1,0,1,0
569710137,569604765,4325386,0.0031846436,-0.0068947976,-0.0005662741,0.34906584,2.0663552e-07,2.0664959e-07,4.31218e-07,4259850,-0.1642342,0.37270692,-0.11352981,0.4,0.0005051318,0.0005048439,0.00050062226,396809,0.0,0.0,0.0,0.5,0.0025000002,0.0025000002,0.0025000002,1,1,1,0,1,0
570644898,570544661,4325386,0.0031870506,-0.0068987007,-0.00054229697,0.34906584,2.0943622e-07,2.0944881e-07,4.3037124e-07,4259850,-0.16413063,0.37247273,-0.112559184,0.4,0.00050457363,0.00050428614,0.0004999853,396809,0.0,0.0,0.0,0.5,0.0025000002,0.0025000002,0.0025000002,1,1,1,0,1,0
571654757,571554549,4325386,0.0031870813,-0.0069536977,-0.0005163512,0.34906584,2.1145976e-07,2.1147176e-07,4.3037664e-07,4259850,-0.16406348,0.37231386,-0.112274736,0.4,0.00050421315,0.00050392613,0.00049954193,396809,0.0,0.0,0.0,0.5,0.0025000002,0.0025000002,0.0025000002,1,1,1,0,1,0
572664797,572564437,4325386,0.0031881644,-0.006961154,-0.00049263594,0.34906584,2.111389e-07,2.1115173e-07,4.3074817e-07,4259850,-0.16420335,0.3726334,-0.111946166,0.4,0.00050516526,0.00050487753,0.00050039333,396809,0.0,0.0,0.0,0.5,0.0025000002,0.0025000002,0.0025000002,1,1,1,0,1,0
573674566,573574325,4325386,0.0031692758,-0.006928157,-0.00047979603,0.34906584,2.0851797e-07,2.0853149e-07,4.3075616e-07,4259850,-0.1641324,0.3724724,-0.11139325,0.4,0.00050483074,0.0005045428,0.0004999702,396809,0.0,0.0,0.0,0.5,0.0025000002,0.0025000002,0.0025000002,1,1,1,0,1,0
574314711,574214255,4325386,0.0031614143,-0.006934759,-0.00046949176,0.34906584,2.0690668e-07,2.0691938e-07,4.3016854e-07,4259850,-0.1640864,0.3723676,-0.110240705,0.4,0.00050459185,0.0005043033,0.00049967674,396809,0.0,0.0,0.0,0.5,0.0025000002,0.0025000002,0.0025000002,1,1,1,0,1,0
574854443,574754195,4325386,0.0031616145,-0.0069443462,-0.00048275138,0.34906584,2.085095e-07,2.0851824e-07,4.3070452e-07,4259850,-0.16415708,0.37252572,-0.10924866,0.4,0.00050505926,0.00050476927,0.0005000918,396809,0.0,0.0,0.0,0.5,0.0025000002,0.0025000002,0.0025000002,1,1,1,0,1,0
575864342,575764083,4325386,0.0032124773,-0.0069464245,-0.00050366507,0.34906584,2.0727532e-07,2.0726355e-07,4.29896e-07,4259850,-0.16404395,0.3723292,-0.10878614,0.4,0.0005046074,0.00050430425,0.0004995609,396809,0.0,0.0,0.0,0.5,0.0025000002,0.0025000002,0.0025000002,1,1,1,0,1,0
576874204,576773973,4325386,0.0032441015,-0.0069510574,-0.00053830293,0.34906584,2.0935886e-07,2.0932342e-07,4.3099388e-07,4259850,-0.16415706,0.37262836,-0.10887948,0.4,0.0005054994,0.00050516997,0.000500359,396809,0.0,0.0,0.0,0.5,0.0025000002,0.0025000002,0.0025000002,1,1,1,0,1,0
577884111,577783859,4325386,0.003292215,-0.0069591086,-0.00055309635,0.34906584,2.1089154e-07,2.1083426e-07,4.3047567e-07,4259850,-0.16408677,0.37258464,-0.10793508,0.4,0.0005053705,0.000504998,0.0005001482,396809,0.0,0.0,0.0,0.5,0.0025000002,0.0025000002,0.0025000002,1,1,1,0,1,0
578893950,578793747,4325386,0.0033681134,-0.0069748615,-0.00057957665,0.34906584,2.1061463e-07,2.105454e-07,4.303893e-07,4259850,-0.16393544,0.37242368,-0.10722198,0.4,0.0005049159,0.0005044731,0.00049962144,396809,0.0,0.0,0.0,0.5,0.0025000002,0.0025000002,0.0025000002,1,1,1,0,1,0
579903935,579803635,4325386,0.003399928,-0.006971082,-0.0006156985,0.34906584,2.1141597e-07,2.1134817e-07,4.3063244e-07,4259850,-0.16402802,0.37268794,-0.10772562,0.4,0.0005057579,0.000505223,0.0005003735,396809,0.0,0.0,0.0,0.5,0.0025000002,0.0025000002,0.0025000002,1,1,1,0,1,0
580513985,580413567,4325386,0.003418423,-0.006966721,-0.00063992187,0.34906584,2.1013611e-07,2.100868e-07,4.298668e-07,4259850,-0.16385332,0.37228677,-0.10866442,0.4,0.000504849,0.00050424616,0.0004994235,396809,0.0,0.0,0.0,0.5,0.0025000002,0.0025000002,0.0025000002,1,1,1,0,1,0
581083810,580983504,4325386,0.003452056,-0.006995884,-0.0006635932,0.34906584,2.1156507e-07,2.1153318e-07,4.3097367e-07,4259850,-0.16396256,0.37254488,-0.109625556,0.4,0.0005057029,0.00050503924,0.0005002229,396809,0.0,0.0,0.0,0.5,0.0025000002,0.0025000002,0.0025000002,1,1,1,0,1,0
581503816,581403458,4325386,0.003486626,-0.0069545684,-0.0006960947,0.34906584,2.1109493e-07,2.110865e-07,4.3058668e-07,4259850,-0.16391237,0.37246773,-0.11104348,0.4,0.00050569215,0.000504976,0.0005001763,396809,0.0,0.0,0.0,0.5,0.0025000002,0.0025000002,0.0025000002,1,1,1,0,1,0
581913883,581813411,4325386,0.0035157646,-0.0069722845,-0.00070016144,0.34906584,2.0961119e-07,2.0964227e-07,4.302401e-07,4259850,-0.16391608,0.37243468,-0.112811424,0.4,0.00050588883,0.0005051133,0.000500338,396809,0.0,0.0,0.0,0.5,0.0025000002,0.0025000002,0.0025000002,1,1,1,0,1,0
582313767,582213367,4325386,0.0035263386,-0.0069823056,-0.00069992867,0.34906584,2.0742263e-07,2.0750831e-07,4.3048502e-07,4259850,-0.16392712,0.37239948,-0.11433329,0.4,0.0005060502,0.0005052041,0.0005004653,396809,0.0,0.0,0.0,0.5,0.0025000002,0.0025000002,0.0025000002,1,1,1,0,1,0
583323672,583223254,4325386,0.0034879302,-0.006994086,-0.0007101321,0.34906584,2.0892121e-07,2.0908824e-07,4.3029996e-07,4259850,-0.16387409,0.37222925,-0.11386891,0.4,0.00050565053,0.00050469453,0.00049998367,396809,0.0,0.0,0.0,0.5,0.0025000002,0.0025000002,0.0025000002,1,1,1,0,1,0
584333347,584233141,4325386,0.0034745645,-0.00699886,-0.0007264402,0.34906584,2.091613e-07,2.0945802e-07,4.303032e-07,4259850,-0.16399615,0.37252954,-0.11302159,0.4,0.00050643925,0.00050536095,0.00050067744,396809,0.0,0.0,0.0,0.5,0.0025000002,0.0025000002,0.0025000002,1,1,1,0,1,0
585343236,585243028,4325386,0.0034569588,-0.0069887475,-0.0007616469,0.34906584,2.0917298e-07,2.096147e-07,4.3005375e-07,4259850,-0.16392967,0.37237203,-0.11268498,0.4,0.0005060714,0.0005048846,0.00050022546,396809,0.0,0.0,0.0,0.5,0.0025000002,0.0025000002,0.0025000002,1,1,1,0,1,0
586353152,586252915,4325386,0.0034429664,-0.0069659734,-0.0008077025,0.34906584,2.1056466e-07,2.1113334e-07,4.2904563e-07,4259850,-0.16384953,0.3721564,-0.11319083,0.4,0.0005056397,0.0005043696,0.0004997089,396809,0.0,0.0,0.0,0.5,0.0025000002,0.0025000002,0.0025000002,1,1,1,0,1,0
586903290,586802853,4325386,0.0034724919,-0.006997026,-0.000829626,0.34906584,2.100247e-07,2.1070538e-07,4.2972303e-07,4259850,-0.16395524,0.3723691,-0.114399634,0.4,0.0005063841,0.0005050677,0.00050039636,396809,0.0,0.0,0.0,0.5,0.0025000002,0.0025000002,0.0025000002,1,1,1,0,1,0
587503124,587402786,4325386,0.0034623712,-0.0070293345,-0.00085679337,0.34906584,2.0811581e-07,2.089342e-07,4.289196e-07,4259850,-0.16383827,0.37205282,-0.11578509,0.4,0.00050572015,0.0005043609,0.0004996879,396809,0.0,0.0,0.0,0.5,0.0025000002,0.0025000002,0.0025000002,1,1,1,0,1,0
587893140,587792742,4325386,0.0034373936,-0.0070411637,-0.0008745649,0.34906584,2.0642074e-07,2.0734346e-07,4.2828196e-07,4259850,-0.16386268,0.37204978,-0.117166035,0.4,0.00050586706,0.00050447916,0.0004997991,396809,0.0,0.0,0.0,0.5,0.0025000002,0.0025000002,0.0025000002,1,1,1,0,1,0
588503024,588402673,4325386,0.003427383,-0.0070531624,-0.0009030689,0.34906584,2.0652264e-07,2.0755608e-07,4.2897904e-07,4259850,-0.16400623,0.37232572,-0.11850558,0.4,0.0005067647,0.0005053409,0.0005006325,396809,0.0,0.0,0.0,0.5,0.0025000002,0.0025000002,0.0025000002,1,1,1,0,1,0
589102972,589002607,4325386,0.0034125845,-0.0070621707,-0.00093490706,0.34906584,2.0690834e-07,2.0802021e-07,4.2835205e-07,4259850,-0.16390286,0.3720525,-0.11956546,0.4,0.0005061507,0.00050470117,0.0004999735,396809,0.0,0.0,0.0,0.5,0.0025000002,0.0025000002,0.0025000002,1,1,1,0,1,0
590102974,590002492,4325386,0.0034168775,-0.0070730085,-0.000965336,0.34906584,2.0866324e-07,2.0989175e-07,4.2906422e-07,4259850,-0.16401425,0.37226775,-0.12087645,0.4,0.0005068717,0.00050538755,0.0005005984,396809,0.0,0.0,0.0,0.5,0.0025000002,0.0025000002,0.0025000002,1,1,1,0,1,0
591112757,591012378,4325386,0.0034172777,-0.0070866207,-0.00096733775,0.34906584,2.1173335e-07,2.1302344e-07,4.2825087e-07,4259850,-0.16392754,0.3720829,-0.1209582,0.4,0.00050645607,0.0005049507,0.00050010026,396809,0.0,0.0,0.0,0.5,0.0025000002,0.0025000002,0.0025000002,1,1,1,0,1,0
591977552,591872280,4325386,0.0033938098,-0.007085758,-0.000963558,0.34906584,2.1193914e-07,2.1333894e-07,4.2890974e-07,4259850,-0.1639902,0.37226924,-0.11997643,0.4,0.0005069747,0.0005054537,0.00050053856,396809,0.0,0.0,0.0,0.5,0.0025000002,0.0025000002,0.0025000002,1,1,1,0,1,0
592712571,592612196,4325386,0.003347901,-0.00706009,-0.0009480151,0.34906584,2.1111367e-07,2.1259737e-07,4.2864482e-07,4259850,-0.1639578,0.37224153,-0.11890938,0.4,0.00050688535,0.0005053567,0.0005003874,396809,0.0,0.0,0.0,0.5,0.0025000002,0.0025000002,0.0025000002,1,1,1,0,1,0
593722332,593622080,4325386,0.0033588028,-0.0070290444,-0.00090194,0.34906584,2.1158658e-07,2.1307659e-07,4.2787926e-07,4259850,-0.16388038,0.3720562,-0.11872594,0.4,0.0005064382,0.0005049043,0.0004998626,396809,0.0,0.0,0.0,0.5,0.0025000002,0.0025000002,0.0025000002,1,1,1,0,1,0
594732165,594631965,4325386,0.0033518164,-0.0069657825,-0.0008816665,0.34906584,2.1424708e-07,2.1571363e-07,4.2894686e-07,4259850,-0.16401076,0.37234217,-0.11792335,0.4,0.0005072377,0.0005056991,0.0005005684,396809,0.0,0.0,0.0,0.5,0.0025000002,0.0025000002,0.0025000002,1,1,1,0,1,0
595302250,595201900,4325386,0.0034219609,-0.006966769,-0.0008819801,0.34906584,2.1169242e-07,2.131556e-07,4.2819173e-07,4259850,-0.16395111,0.3721071,-0.11898786,0.4,0.000506695,0.0005051609,0.00049998856,396809,0.0,0.0,0.0,0.5,0.0025000002,0.0025000002,0.0025000002,1,1,1,0,1,0
596312158,596211783,4325386,0.0035084593,-0.0070171254,-0.00089364505,0.34906584,2.1155641e-07,2.1301818e-07,4.291618e-07,4259850,-0.16408303,0.37232316,-0.12014848,0.4,0.00050741446,0.0005058841,0.0005006204,396809,0.0,0.0,0.0,0.5,0.0025000002,0.0025000002,0.0025000002,1,1,1,0,1,0
597321876,597221667,4325386,0.0036033075,-0.007017385,-0.00091989274,0.34906584,2.1020398e-07,2.1168417e-07,4.2832025e-07,4259850,-0.16402502,0.37208858,-0.12058033,0.4,0.0005068991,0.0005053789,0.00050003565,396809,0.0,0.0,0.0,0.5,0.0025000002,0.0025000002,0.0025000002,1,1,1,0,1,0
598331787,598231551,4325386,0.0036702238,-0.0070230006,-0.0009428966,0.34906584,2.1224683e-07,2.1375108e-07,4.292175e-07,4259850,-0.16413689,0.37229794,-0.12051335,0.4,0.00050756894,0.00050605444,0.0005006184,396809,0.0,0.0,0.0,0.5,0.0025000002,0.0025000002,0.0025000002,1,1,1,0,1,0
599341640,599241434,4325386,0.0037258316,-0.007010489,-0.0009725224,0.34906584,2.1202023e-07,2.1358083e-07,4.2831851e-07,4259850,-0.16406132,0.3720783,-0.1205506,0.4,0.00050706713,0.0005055641,0.00050004525,396809,0.0,0.0,0.0,0.5,0.0025000002,0.0025000002,0.0025000002,1,1,1,0,1,0
600351517,600251316,4325386,0.0037756842,-0.0069966335,-0.0009802752,0.34906584,2.1240857e-07,2.1404958e-07,4.2894595e-07,4259850,-0.16412449,0.37222582,-0.11961786,0.4,0.0005075544,0.00050606066,0.0005004456,396809,0.0,0.0,0.0,0.5,0.0025000002,0.0025000002,0.0025000002,1,1,1,0,1,0
601161420,601061223,4325386,0.0038033782,-0.006924216,-0.0009796945,0.34906584,2.1247992e-07,2.1418148e-07,4.2787894e-07,4259850,-0.16396031,0.37185255,-0.11864504,0.4,0.0005066008,0.0005051177,0.00049944175,396809,0.0,0.0,0.0,0.5,0.0025000002,0.0025000002,0.0025000002,1,1,1,0,1,0
602171304,602071103,4325386,0.0038481834,-0.0068634665,-0.0009588858,0.34906584,2.1448973e-07,2.1625397e-07,4.2805485e-07,4259850,-0.16407512,0.37211373,-0.11778458,0.4,0.000507403,0.00050592545,0.0005001545,396809,0.0,0.0,0.0,0.5,0.0025000002,0.0025000002,0.0025000002,1,1,1,0,1,0
603181190,603080985,4325386,0.0038413256,-0.006846153,-0.0009398912,0.34906584,2.1537372e-07,2.1720615e-07,4.2781045e-07,4259850,-0.16398326,0.3718784,-0.11837524,0.4,0.00050685,0.00050538045,0.0004995244,396809,0.0,0.0,0.0,0.5,0.0025000002,0.0025000002,0.0025000002,1,1,1,0,1,0
604191066,604090866,4325386,0.0037979153,-0.0068688854,-0.0008924327,0.34906584,2.1462459e-07,2.165579e-07,4.2792476e-07,4259850,-0.16411,0.3721389,-0.119237386,0.4,0.00050765055,0.0005061836,0.00050022674,396809,0.0,0.0,0.0,0.5,0.0025000002,0.0025000002,0.0025000002,1,1,1,0,1,0
604701216,604600806,4325386,0.003788426,-0.0069092102,-0.0008784573,0.34906584,2.1151361e-07,2.1354084e-07,4.287702e-07,4259850,-0.16419621,0.37229562,-0.12089994,0.4,0.00050813315,0.0005066669,0.00050065806,396809,0.0,0.0,0.0,0.5,0.0025000002,0.0025000002,0.0025000002,1,1,1,0,1,0
605710886,605610687,4325386,0.0037988494,-0.0069062924,-0.00085401285,0.34906584,2.0997408e-07,2.1206236e-07,4.2787033e-07,4259850,-0.16410947,0.3720892,-0.12123772,0.4,0.0005076676,0.0005062057,0.00050011347,396809,0.0,0.0,0.0,0.5,0.0025000002,0.0025000002,0.0025000002,1,1,1,0,1,0
606310830,606210615,4325386,0.0037979854,-0.0069245147,-0.00085020484,0.34906584,2.1014458e-07,2.1225728e-07,4.2829876e-07,4259850,-0.16419578,0.37227106,-0.12221799,0.4,0.00050822285,0.0005067608,0.0005006085,396809,0.0,0.0,0.0,0.5,0.0025000002,0.0025000002,0.0025000002,1,1,1,0,1,0
607320751,607220495,4325386,0.0037780998,-0.0069364165,-0.00083954725,0.34906584,2.09774e-07,2.1192379e-07,4.2745447e-07,4259850,-0.16410868,0.37207,-0.12247796,0.4,0.00050776394,0.0005063054,0.00050006906,396809,0.0,0.0,0.0,0.5,0.0025000002,0.0025000002,0.0025000002,1,1,1,0,1,0
608330627,608230375,4325386,0.0037354298,-0.006949742,-0.0008382185,0.34906584,2.0982893e-07,2.120271e-07,4.2746333e-07,4259850,-0.1640425,0.37192422,-0.1218242,0.4,0.00050745084,0.00050599483,0.00049967173,396809,0.0,0.0,0.0,0.5,0.0025000002,0.0025000002,0.0025000002,1,1,1,0,1,0
609340505,609240254,4325386,0.0037056003,-0.0069692982,-0.00084801036,0.34906584,2.0857036e-07,2.1084882e-07,4.2756957e-07,4259850,-0.16414301,0.37216178,-0.12170763,0.4,0.0005081803,0.0005067241,0.0005003048,396809,0.0,0.0,0.0,0.5,0.0025000002,0.0025000002,0.0025000002,1,1,1,0,1,0
610350426,610250133,4325386,0.0036368275,-0.0069645625,-0.00085120054,0.34906584,2.0919485e-07,2.1152643e-07,4.273515e-07,4259850,-0.16402343,0.3719161,-0.12141405,0.4,0.00050759554,0.00050614256,0.0004996401,396809,0.0,0.0,0.0,0.5,0.0025000002,0.0025000002,0.0025000002,1,1,1,0,1,0
611360263,611260011,4325386,0.003598031,-0.006966145,-0.00083871564,0.34906584,2.0872488e-07,2.1113034e-07,4.2752094e-07,4259850,-0.16412362,0.37216905,-0.12195448,0.4,0.000508374,0.0005069209,0.0005003178,396809,0.0,0.0,0.0,0.5,0.0025000002,0.0025000002,0.0025000002,1,1,1,0,1,0
612370090,612269889,4325386,0.0035803963,-0.006974637,-0.00080909784,0.34906584,2.0794238e-07,2.1040772e-07,4.281994e-07,4259850,-0.16418216,0.37231022,-0.12224184,0.4,0.0005088535,0.0005074015,0.000500705,396809,0.0,0.0,0.0,0.5,0.0025000002,0.0025000002,0.0025000002,1,1,1,0,1,0
613110260,613009799,4325386,0.0035376814,-0.0069892546,-0.0007719292,0.34906584,2.093245e-07,2.1178074e-07,4.2809356e-07,4259850,-0.16417016,0.37227923,-0.121123694,0.4,0.0005088329,0.0005073829,0.0005006173,396809,0.0,0.0,0.0,0.5,0.0025000002,0.0025000002,0.0025000002,1,1,1,1,1,0
613700310,613599728,4325386,0.003525142,-0.0069697434,-0.0007519774,0.34906584,2.1016793e-07,2.1260455e-07,4.27345e-07,4259850,-0.16403697,0.3719699,-0.12009748,0.4,0.00050804106,0.0005065944,0.00049978704,396809,0.0,0.0,0.0,0.5,0.0025000002,0.0025000002,0.0025000002,1,1,1,1,1,0
614709863,614609605,4325386,0.0035142284,-0.0069387327,-0.00073145796,0.34906584,2.1218983e-07,2.1461601e-07,4.2822916e-07,4259850,-0.1641238,0.37216184,-0.11921032,0.4,0.00050866394,0.00050721725,0.00050031184,396809,0.0,0.0,0.0,0.5,0.0025000002,0.0025000002,0.0025000002,1,1,1,1,1,0
615499858,615399509,4325386,0.0035164335,-0.006930933,-0.0007071077,0.34906584,2.093924e-07,2.1185387e-07,4.277356e-07,4259850,-0.1640861,0.3720849,-0.120382756,0.4,0.0005085414,0.00050709717,0.00050012354,396809,0.0,0.0,0.0,0.5,0.0025000002,0.0025000002,0.0025000002,1,1,1,1,1,0
616299761,616199410,4325386,0.0035422554,-0.0069476543,-0.0006703326,0.34906584,2.0849656e-07,2.1096102e-07,4.276131e-07,4259850,-0.16409679,0.37210232,-0.121534534,0.4,0.0005086853,0.0005072441,0.00050019793,396809,0.0,0.0,0.0,0.5,0.0025000002,0.0025000002,0.0025000002,1,1,1,1,1,0
617309489,617209287,4325386,0.003566587,-0.0069217486,-0.00063056854,0.34906584,2.1081506e-07,2.1325495e-07,4.2846412e-07,4259850,-0.16417378,0.37225944,-0.12102046,0.4,0.0005092255,0.0005077888,0.0005006467,396809,0.0,0.0,0.0,0.5,0.0025000002,0.0025000002,0.0025000002,1,1,1,1,1,0
618319392,618219162,4325386,0.0036085492,-0.00690025,-0.0006134511,0.34906584,2.089948e-07,2.1145725e-07,4.2756932e-07,4259850,-0.16407911,0.37200364,-0.12022375,0.4,0.00050861115,0.00050718995,0.0004999663,396809,0.0,0.0,0.0,0.5,0.0025000002,0.0025000002,0.0025000002,1,1,1,1,1,0
618709534,618609114,4325386,0.0036003087,-0.0069138412,-0.00061047514,0.34906584,2.0880591e-07,2.1128403e-07,4.2774607e-07,4259850,-0.16410097,0.37200436,-0.11919614,0.4,0.00050864136,0.0005072261,0.00049996754,396809,0.0,0.0,0.0,0.5,0.0025000002,0.0025000002,0.0025000002,1,1,1,1,1,0
619099404,618999066,4325386,0.003594686,-0.006905811,-0.00060579093,0.34906584,2.0666127e-07,2.0918601e-07,4.277136e-07,4259850,-0.16408473,0.37192702,-0.11797864,0.4,0.00050845346,0.0005070481,0.0004997576,396809,0.0,0.0,0.0,0.5,0.0025000002,0.0025000002,0.0025000002,1,1,1,1,1,0
620109170,620008940,4325386,0.0036201973,-0.006913282,-0.0005640339,0.34906584,2.085642e-07,2.1108909e-07,4.2804166e-07,4259850,-0.16422015,0.3721912,-0.11758397,0.4,0.00050926494,0.00050787086,0.00050047896,396809,0.0,0.0,0.0,0.5,0.0025000002,0.0025000002,0.0025000002,1,1,1,1,1,0
620909217,620808841,4325386,0.0036496154,-0.006852176,-0.00054278655,0.34906584,2.0913384e-07,2.1167646e-07,4.2844783e-07,4259850,-0.16420944,0.37211612,-0.11648359,0.4,0.00050915056,0.00050776626,0.000500305,396809,0.0,0.0,0.0,0.5,0.0025000002,0.0025000002,0.0025000002,1,1,1,1,1,0
621519073,621418765,4325386,0.0036611126,-0.006835369,-0.0005103104,0.34906584,2.0944262e-07,2.1198996e-07,4.2712028e-07,4259850,-0.16408648,0.37179387,-0.11546392,0.4,0.00050833105,0.0005069554,0.0004994531,396809,0.0,0.0,0.0,0.5,0.0025000002,0.0025000002,0.0025000002,1,1,1,1,1,0
622299013,622198668,4325386,0.0036491044,-0.0068392265,-0.00047503313,0.34906584,2.100068e-07,2.1259102e-07,4.2746532e-07,4259850,-0.16410482,0.3717965,-0.114186056,0.4,0.0005084073,0.0005070391,0.00049946614,396809,0.0,0.0,0.0,0.5,0.0025000002,0.0025000002,0.0025000002,1,1,1,1,1,0
623108909,623008566,4325386,0.003634773,-0.0068755355,-0.0004492198,0.34906584,2.1058361e-07,2.1322661e-07,4.2830155e-07,4259850,-0.16430601,0.37221542,-0.11320375,0.4,0.00050961267,0.0005082502,0.0005005879,396809,0.0,0.0,0.0,0.5,0.0025000002,0.0025000002,0.0025000002,1,1,1,1,1,0
623708833,623608493,4325386,0.0035807132,-0.0068783653,-0.00045413908,0.34906584,2.0938079e-07,2.1209574e-07,4.2759874e-07,4259850,-0.16417973,0.37192088,-0.11211961,0.4,0.00050883973,0.0005074881,0.0004997845,396809,0.0,0.0,0.0,0.5,0.0025000002,0.0025000002,0.0025000002,1,1,1,1,1,0
624308822,624208415,4325386,0.0035684523,-0.0068875006,-0.0004461505,0.34906584,2.0866479e-07,2.114665e-07,4.281321e-07,4259850,-0.1643094,0.37216055,-0.11085011,0.4,0.00050954276,0.0005081998,0.0005004325,396809,0.0,0.0,0.0,0.5,0.0025000002,0.0025000002,0.0025000002,1,1,1,1,1,0
624908798,624808339,4325386,0.0035368102,-0.0068842103,-0.00043465578,0.34906584,2.0855761e-07,2.114071e-07,4.2743e-07,4259850,-0.16418391,0.37184864,-0.109907255,0.4,0.00050873443,0.00050740497,0.000499597,396809,0.0,0.0,0.0,0.5,0.0025000002,0.0025000002,0.0025000002,1,1,1,1,1,0
625918411,625818212,4325386,0.003530943,-0.006918312,-0.0004156489,0.34906584,2.0989579e-07,2.1282135e-07,4.2840992e-07,4259850,-0.16430084,0.3721087,-0.110205874,0.4,0.0005095169,0.0005082043,0.00050029584,396809,0.0,0.0,0.0,0.5,0.0025000002,0.0025000002,0.0025000002,1,1,1,1,1,0
626928288,626828084,4325386,0.003489929,-0.0069328053,-0.00039487192,0.34906584,2.1195875e-07,2.149217e-07,4.2839937e-07,4259850,-0.16435173,0.37225088,-0.1104611,0.4,0.00050997874,0.00050868205,0.000500678,396809,0.0,0.0,0.0,0.5,0.0025000002,0.0025000002,0.0025000002,1,1,1,1,1,0
627938253,627837955,4325386,0.003459624,-0.006942148,-0.00036723254,0.34906584,2.1292261e-07,2.1591798e-07,4.2743204e-07,4259850,-0.16423434,0.37197572,-0.11005386,0.4,0.0005093014,0.0005080233,0.00049993914,396809,0.0,0.0,0.0,0.5,0.0025000002,0.0025000002,0.0025000002,1,1,1,1,1,0
628948051,628847826,4325386,0.0033892586,-0.006975257,-0.00034765687,0.34906584,2.1291191e-07,2.1597775e-07,4.2822086e-07,4259850,-0.16430141,0.37216413,-0.11018199,0.4,0.0005098773,0.00050861406,0.0005004352,396809,0.0,0.0,0.0,0.5,0.0025000002,0.0025000002,0.0025000002,1,1,1,1,1,0
629958029,629857696,4325386,0.0033329865,-0.0069500604,-0.00033204615,0.34906584,2.111018e-07,2.142257e-07,4.271737e-07,4259850,-0.16416149,0.3718688,-0.11017452,0.4,0.0005091516,0.000507906,0.0004996491,396809,0.0,0.0,0.0,0.5,0.0025000002,0.0025000002,0.0025000002,1,1,1,1,1,0
630907806,630807574,4325386,0.0033082815,-0.0069141663,-0.0003201116,0.34906584,2.1185589e-07,2.1500071e-07,4.2791544e-07,4259850,-0.1642094,0.37194362,-0.10914054,0.4,0.00050945464,0.0005082204,0.0004998722,396809,0.0,0.0,0.0,0.5,0.0025000002,0.0025000002,0.0025000002,1,1,1,1,1,0
631897872,631797446,4325386,0.00330156,-0.0068644476,-0.00030937357,0.34906584,2.1346216e-07,2.165916e-07,4.2752202e-07,4259850,-0.16424756,0.37197983,-0.107964545,0.4,0.0005096665,0.00050844176,0.000500003,396809,0.0,0.0,0.0,0.5,0.0025000002,0.0025000002,0.0025000002,1,1,1,1,1,0
632497762,632397369,4325386,0.0032622765,-0.0068738917,-0.00029395957,0.34906584,2.1331716e-07,2.1646375e-07,4.280377e-07,4259850,-0.16434751,0.3721886,-0.106864884,0.4,0.0005102945,0.0005090742,0.00050057215,396809,0.0,0.0,0.0,0.5,0.0025000002,0.0025000002,0.0025000002,1,1,1,1,1,0
632927530,632827315,4325386,0.003241687,-0.0068688947,-0.0002848256,0.34906584,2.1304743e-07,2.1619273e-07,4.2760695e-07,4259850,-0.16416097,0.37175223,-0.10596891,0.4,0.00050913723,0.00050792354,0.0004994046,396809,0.0,0.0,0.0,0.5,0.0025000002,0.0025000002,0.0025000002,1,1,1,1,1,0
633937578,633837182,4325386,0.0032126154,-0.0068816,-0.00025412085,0.34906584,2.1270822e-07,2.1584732e-07,4.276633e-07,4259850,-0.16422714,0.37191308,-0.105767064,0.4,0.00050966407,0.0005084575,0.00049983885,396809,0.0,0.0,0.0,0.5,0.0025000002,0.0025000002,0.0025000002,1,1,1,1,1,0
634947269,634847050,4325386,0.0031939836,-0.0068967408,-0.00022290774,0.34906584,2.1208852e-07,2.1522712e-07,4.2840207e-07,4259850,-0.16428854,0.37205145,-0.10522148,0.4,0.0005101335,0.0005089325,0.0005002214,396809,0.0,0.0,0.0,0.5,0.0025000002,0.0025000002,0.0025000002,1,1,1,1,1,0
635927171,635826922,4325386,0.003173791,-0.00689378,-0.00019542064,0.34906584,2.1340632e-07,2.1650884e-07,4.287726e-07,4259850,-0.1643356,0.37214223,-0.10421564,0.4,0.00051048014,0.0005092836,0.0005004757,396809,0.0,0.0,0.0,0.5,0.0025000002,0.0025000002,0.0025000002,1,1,1,1,1,0
636936995,636836789,4325386,0.0031621177,-0.0068944353,-0.00019213861,0.34906584,2.1548833e-07,2.1852009e-07,4.2772467e-07,4259850,-0.16418456,0.37180445,-0.10382677,0.4,0.00050963915,0.00050844887,0.000499569,396809,0.0,0.0,0.0,0.5,0.0025000002,0.0025000002,0.0025000002,1,1,1,1,1,0
637946854,637846656,4325386,0.003145622,-0.006932074,-0.00017904803,0.34906584,2.1499598e-07,2.1801742e-07,4.2857565e-07,4259850,-0.1642576,0.37199494,-0.103942096,0.4,0.00051023555,0.000509048,0.00050006766,396809,0.0,0.0,0.0,0.5,0.0025000002,0.0025000002,0.0025000002,1,1,1,1,1,0
638956877,638856523,4325386,0.0031416947,-0.0069252895,-0.00016643296,0.34906584,2.1566359e-07,2.1865107e-07,4.2854504e-07,4259850,-0.16430299,0.37211344,-0.10492729,0.4,0.00051065173,0.00050946645,0.0005003879,396809,0.0,0.0,0.0,0.5,0.0025000002,0.0025000002,0.0025000002,1,1,1,1,1,0
639696814,639596425,4325386,0.0031454638,-0.006939737,-0.000159481,0.34906584,2.1285985e-07,2.1585618e-07,4.2828137e-07,4259850,-0.16425622,0.37203282,-0.106203236,0.4,0.00051048753,0.000509305,0.00050016405,396809,0.0,0.0,0.0,0.5,0.0025000002,0.0025000002,0.0025000002,1,1,1,1,1,0
640706585,640606290,4325386,0.0031111077,-0.0069242707,-0.00013440748,0.34906584,2.1018165e-07,2.1320582e-07,4.289324e-07,4259850,-0.1643049,0.37214985,-0.106452756,0.4,0.0005109065,0.0005097261,0.0005004895,396809,0.0,0.0,0.0,0.5,0.0025000002,0.0025000002,0.0025000002,1,1,1,1,1,0
641716351,641616156,4325386,0.0030771145,-0.0068928455,-0.00010809228,0.34906584,2.0727138e-07,2.1033912e-07,4.2773792e-07,4259850,-0.16414963,0.3717991,-0.10672142,0.4,0.0005100433,0.0005088674,0.0004995576,396809,0.0,0.0,0.0,0.5,0.0025000002,0.0025000002,0.0025000002,1,1,1,1,1,0
642726219,642626020,4325386,0.0030471964,-0.0068718484,-7.9002915e-05,0.34906584,2.0892844e-07,2.1199826e-07,4.284103e-07,4259850,-0.16420755,0.37191007,-0.10588131,0.4,0.0005104567,0.0005092818,0.00049987645,396809,0.0,0.0,0.0,0.5,0.0025000002,0.0025000002,0.0025000002,1,1,1,1,1,0
643696245,643595890,4325386,0.0030027418,-0.0068521607,-4.762835e-05,0.34906584,2.0920943e-07,2.1229205e-07,4.2839525e-07,4259850,-0.164212,0.37190056,-0.10476611,0.4,0.0005105413,0.00050936744,0.0004998734,396809,0.0,0.0,0.0,0.5,0.0025000002,0.0025000002,0.0025000002,1,1,1,1,1,0
644706110,644605754,4325386,0.0029591226,-0.0068603107,-2.0059075e-05,0.34906584,2.1070178e-07,2.1377272e-07,4.2851394e-07,4259850,-0.16429676,0.37209255,-0.10393716,0.4,0.00051117165,0.0005099975,0.00050040276,396809,0.0,0.0,0.0,0.5,0.0025000002,0.0025000002,0.0025000002,1,1,1,1,1,0
645716100,645615618,4325386,0.002932642,-0.0068489756,1.1091581e-05,0.34906584,2.102324e-07,2.1330044e-07,4.2911083e-07,4259850,-0.16433236,0.37217626,-0.10442738,0.4,0.00051150215,0.00051032816,0.00050063845,396809,0.0,0.0,0.0,0.5,0.0025000002,0.0025000002,0.0025000002,1,1,1,1,1,0
646725735,646625480,4325386,0.0029172772,-0.0068116463,4.8036567e-05,0.34906584,2.0822235e-07,2.1126881e-07,4.279427e-07,4259850,-0.1641745,0.37180898,-0.10467247,0.4,0.0005106039,0.00050943287,0.0004996716,396809,0.0,0.0,0.0,0.5,0.0025000002,0.0025000002,0.0025000002,1,1,1,1,1,0
647735542,647635343,4325386,0.0029179386,-0.0067763445,0.00010880405,0.34906584,2.0703615e-07,2.1007273e-07,4.2863735e-07,4259850,-0.16423266,0.37192276,-0.10484571,0.4,0.00051103934,0.0005098677,0.00050001213,396809,0.0,0.0,0.0,0.5,0.0025000002,0.0025000002,0.0025000002,1,1,1,1,1,0
648745407,648645205,4325386,0.00291361,-0.0067315307,0.00021749511,0.34906584,2.0715704e-07,2.1014897e-07,4.285114e-07,4259850,-0.16426991,0.37198412,-0.1048091,0.4,0.0005113477,0.00051017554,0.0005002245,396809,0.0,0.0,0.0,0.5,0.0025000002,0.0025000002,0.0025000002,1,1,1,1,1,0
649755421,649655066,4325386,0.0029109076,-0.006699325,0.00036095915,0.34906584,2.071017e-07,2.1005162e-07,4.2842305e-07,4259850,-0.16431265,0.37206244,-0.10546918,0.4,0.0005117002,0.0005105274,0.00050047925,396809,0.0,0.0,0.0,0.5,0.0025000002,0.0025000002,0.0025000002,1,1,1,1,1,0
650505407,650404963,4325386,0.0029090208,-0.0066717276,0.00046459318,0.34906584,2.0623386e-07,2.0915948e-07,4.2825428e-07,4259850,-0.16426827,0.37194937,-0.10650814,0.4,0.0005114972,0.000510325,0.00050021557,396809,0.0,0.0,0.0,0.5,0.0025000002,0.0025000002,0.0025000002,1,1,1,1,1,0
651515056,651414824,4325386,0.0029125032,-0.006645279,0.00059999275,0.34906584,2.0861998e-07,2.1149282e-07,4.2887888e-07,4259850,-0.16430388,0.37200314,-0.10622189,0.4,0.0005117913,0.00051061885,0.0005004165,396809,0.0,0.0,0.0,0.5,0.0025000002,0.0025000002,0.0025000002,1,1,1,1,1,0
652524982,652424684,4325386,0.0029154553,-0.006552778,0.00078049133,0.34906584,2.0457198e-07,2.0744956e-07,4.2855135e-07,4259850,-0.16431464,0.37196264,-0.10573233,0.4,0.0005119061,0.00051073387,0.00050044345,396809,0.0,0.0,0.0,0.5,0.0025000002,0.0025000002,0.0025000002,1,1,1,1,1,0
653534788,653434544,4325386,0.0029364284,-0.0065140887,0.0010089333,0.34906584,2.0579445e-07,2.0863948e-07,4.2913018e-07,4259850,-0.16435951,0.3719993,-0.10661158,0.4,0.0005121667,0.00051099417,0.00050061184,396809,0.0,0.0,0.0,0.5,0.0025000002,0.0025000002,0.0025000002,1,1,1,1,1,0
654544684,654444403,4325386,0.0029566844,-0.0064505693,0.0012625058,0.34906584,2.0746519e-07,2.1025434e-07,4.279615e-07,4259850,-0.16422004,0.37157857,-0.10577823,0.4,0.00051120506,0.000510035,0.0004995913,396809,0.0,0.0,0.0,0.5,0.0025000002,0.0025000002,0.0025000002,1,1,1,1,1,0
655554463,655454262,4325386,0.0029639946,-0.0064227968,0.0014939946,0.34906584,2.1054869e-07,2.1329161e-07,4.2857718e-07,4259850,-0.1642684,0.37163076,-0.10512903,0.4,0.00051148335,0.0005103131,0.0004997782,396809,0.0,0.0,0.0,0.5,0.0025000002,0.0025000002,0.0025000002,1,1,1,1,1,0
656534347,656434125,4325386,0.0029701614,-0.006415004,0.0017096179,0.34906584,2.0861178e-07,2.1136498e-07,4.2876707e-07,4259850,-0.16430368,0.37167016,-0.106130645,0.4,0.00051166693,0.00051049684,0.0004998837,396809,0.0,0.0,0.0,0.5,0.0025000002,0.0025000002,0.0025000002,1,1,1,1,1,0
657544180,657443983,4325386,0.0030151969,-0.0063780746,0.0019197714,0.34906584,2.0674983e-07,2.0951424e-07,4.2877318e-07,4259850,-0.16443619,0.3717911,-0.10594355,0.4,0.0005121627,0.00051099196,0.0005002948,396809,0.0,0.0,0.0,0.5,0.0025000002,0.0025000002,0.0025000002,1,1,1,1,1,0
658554118,658453840,4325386,0.0030375402,-0.006328162,0.002103952,0.34906584,2.0953088e-07,2.1226366e-07,4.2931072e-07,4259850,-0.16449581,0.37178573,-0.10620934,0.4,0.0005123594,0.0005111885,0.0005004072,396809,0.0,0.0,0.0,0.5,0.0025000002,0.0025000002,0.0025000002,1,1,1,1,1,0
659563899,659463697,4325386,0.003063962,-0.006299013,0.0022742809,0.34906584,2.0758671e-07,2.103417e-07,4.2904995e-07,4259850,-0.16456196,0.37180424,-0.10688847,0.4,0.000512547,0.000511376,0.0005005251,396809,0.0,0.0,0.0,0.5,0.0025000002,0.0025000002,0.0025000002,1,1,1,1,1,0
660573753,660473553,4325386,0.0030762046,-0.0062829056,0.0024213614,0.34906584,2.070307e-07,2.0978722e-07,4.2949534e-07,4259850,-0.16459867,0.37181506,-0.10740133,0.4,0.0005126697,0.00051149883,0.000500573,396809,0.0,0.0,0.0,0.5,0.0025000002,0.0025000002,0.0025000002,1,1,1,1,1,0
661583653,661483409,4325386,0.0031137427,-0.0062278975,0.002567011,0.34906584,2.1112207e-07,2.1381803e-07,4.2930685e-07,4259850,-0.16468064,0.37179318,-0.10734308,0.4,0.00051285804,0.00051168696,0.0005006767,396809,0.0,0.0,0.0,0.5,0.0025000002,0.0025000002,0.0025000002,1,1,1,1,1,0
662593484,662493267,4325386,0.003126041,-0.0062111462,0.0026844586,0.34906584,2.1231307e-07,2.149755e-07,4.287103e-07,4259850,-0.16451569,0.37135014,-0.10712899,0.4,0.00051171076,0.00051054277,0.00049948663,396809,0.0,0.0,0.0,0.5,0.0025000002,0.0025000002,0.0025000002,1,1,1,1,1,0
663603317,663503120,4325386,0.0031535781,-0.006182723,0.0028047059,0.34906584,2.1535722e-07,2.1797003e-07,4.2836987e-07,4259850,-0.16455373,0.37130594,-0.106589764,0.4,0.00051173154,0.0005105636,0.0004994274,396809,0.0,0.0,0.0,0.5,0.0025000002,0.0025000002,0.0025000002,1,1,1,1,1,0
664613170,664512974,4325386,0.0031853567,-0.0061517903,0.0029025213,0.34906584,2.1895826e-07,2.2153148e-07,4.2910298e-07,4259850,-0.16465865,0.37140247,-0.106608175,0.4,0.00051216094,0.00051099237,0.00049976574,396809,0.0,0.0,0.0,0.5,0.0025000002,0.0025000002,0.0025000002,1,1,1,0,1,0
665623028,665522828,4325386,0.0032094654,-0.0062290267,0.0029381448,0.34906584,2.1250959e-07,2.151474e-07,4.287729e-07,4259850,-0.16470289,0.37153125,-0.10652656,0.4,0.00051233795,0.00051116897,0.0004998749,396809,0.0,0.0,0.0,0.5,0.0025000002,0.0025000002,0.0025000002,1,1,1,0,1,0
666632883,666532683,4325386,0.0032138245,-0.00625155,0.0028893908,0.34906584,2.1172977e-07,2.1438105e-07,4.2916375e-07,4259850,-0.1647045,0.3715588,-0.106434755,0.4,0.00051243784,0.00051126856,0.00049989333,396809,0.0,0.0,0.0,0.5,0.0025000002,0.0025000002,0.0025000002,1,1,1,0,1,0
667642771,667542538,4325386,0.0032282053,-0.006255114,0.00279003,0.34906584,2.1317763e-07,2.1580583e-07,4.2888132e-07,4259850,-0.16472183,0.37157404,-0.1069609,0.4,0.00051258627,0.0005114166,0.0004999544,396809,0.0,0.0,0.0,0.5,0.0025000002,0.0025000002,0.0025000002,1,1,1,0,1,0
668652632,668552387,4325386,0.0032320723,-0.0062797493,0.002646508,0.34906584,2.1264884e-07,2.152919e-07,4.2925276e-07,4259850,-0.1647161,0.3715871,-0.106583044,0.4,0.0005126856,0.0005115157,0.00049996696,396809,0.0,0.0,0.0,0.5,0.0025000002,0.0025000002,0.0025000002,1,1,1,0,1,0
669662445,669562239,4325386,0.0032421525,-0.0063095,0.002495505,0.34906584,2.1358106e-07,2.1621457e-07,4.2888192e-07,4259850,-0.16471148,0.37159202,-0.10701056,0.4,0.0005127689,0.00051159895,0.0004999655,396809,0.0,0.0,0.0,0.5,0.0025000002,0.0025000002,0.0025000002,1,1,1,0,1,0
670672290,670572090,4325386,0.003266158,-0.0063120974,0.0023501466,0.34906584,2.1432832e-07,2.1696687e-07,4.293067e-07,4259850,-0.16472231,0.3716188,-0.107211515,0.4,0.0005129312,0.0005117613,0.00050003437,396809,0.0,0.0,0.0,0.5,0.0025000002,0.0025000002,0.0025000002,1,1,1,0,1,0
671682142,671581941,4325386,0.003291049,-0.006324405,0.0022089148,0.34906584,2.1021056e-07,2.129184e-07,4.290596e-07,4259850,-0.16475905,0.3717167,-0.10720493,0.4,0.0005132834,0.00051211356,0.0005002892,396809,0.0,0.0,0.0,0.5,0.0025000002,0.0025000002,0.0025000002,1,1,1,0,1,0
672692047,672591791,4325386,0.0032996505,-0.006282049,0.0020717413,0.34906584,2.0980215e-07,2.1252335e-07,4.2863596e-07,4259850,-0.16475345,0.37172702,-0.1069962,0.4,0.00051335123,0.00051218225,0.00050027145,396809,0.0,0.0,0.0,0.5,0.0025000002,0.0025000002,0.0025000002,1,1,1,0,1,0
673421880,673321682,4325386,0.003293215,-0.006290725,0.0019860442,0.34906584,2.0838293e-07,2.1113405e-07,4.2848987e-07,4259850,-0.16462259,0.3714385,-0.10596082,0.4,0.00051262364,0.00051145745,0.00049949996,396809,0.0,0.0,0.0,0.5,0.0025000002,0.0025000002,0.0025000002,1,1,1,0,1,0
674431751,674331532,4325386,0.003300635,-0.006307462,0.0018648815,0.34906584,2.1062216e-07,2.1336372e-07,4.291849e-07,4259850,-0.16481929,0.37190032,-0.10552581,0.4,0.00051398214,0.00051281415,0.0005007389,396809,0.0,0.0,0.0,0.5,0.0025000002,0.0025000002,0.0025000002,1,1,1,0,1,0
675441761,675341380,4325386,0.0033060927,-0.0063154013,0.0017547276,0.34906584,2.0951938e-07,2.1228576e-07,4.2928406e-07,4259850,-0.1647682,0.3718026,-0.10571969,0.4,0.000513791,0.0005126252,0.0005004753,396809,0.0,0.0,0.0,0.5,0.0025000002,0.0025000002,0.0025000002,1,1,1,0,1,0
676451467,676351228,4325386,0.0033289653,-0.0063200514,0.0016736253,0.34906584,2.0655848e-07,2.0936773e-07,4.2878983e-07,4259850,-0.16473445,0.37178782,-0.10622778,0.4,0.0005138041,0.0005126403,0.0005004099,396809,0.0,0.0,0.0,0.5,0.0025000002,0.0025000002,0.0025000002,1,1,1,0,1,0
677461270,677361076,4325386,0.0033441116,-0.006319001,0.0015874341,0.34906584,2.0959884e-07,2.123853e-07,4.2935577e-07,4259850,-0.16475113,0.3718789,-0.10658642,0.4,0.0005140902,0.000512927,0.0005006064,396809,0.0,0.0,0.0,0.5,0.0025000002,0.0025000002,0.0025000002,1,1,1,0,1,0
678471118,678370923,4325386,0.0033413689,-0.006349817,0.0014651275,0.34906584,2.0987258e-07,2.1266118e-07,4.2896363e-07,4259850,-0.16474982,0.3718611,-0.106542416,0.4,0.0005141595,0.00051299774,0.00050059834,396809,0.0,0.0,0.0,0.5,0.0025000002,0.0025000002,0.0025000002,1,1,1,0,1,0
679480963,679380769,4325386,0.00335982,-0.0063112285,0.0013598767,0.34906584,2.0579088e-07,2.0864857e-07,4.2922113e-07,4259850,-0.16472644,0.37189785,-0.10629488,0.4,0.0005141988,0.0005130387,0.0005005621,396809,0.0,0.0,0.0,0.5,0.0025000002,0.0025000002,0.0025000002,1,1,1,0,1,0
680490960,680390615,4325386,0.0033561718,-0.006311499,0.0012539395,0.34906584,2.0888584e-07,2.1170945e-07,4.2883195e-07,4259850,-0.16472211,0.3718861,-0.10678851,0.4,0.00051421724,0.00051305816,0.0005004976,396809,0.0,0.0,0.0,0.5,0.0025000002,0.0025000002,0.0025000002,1,1,1,0,1,0
681500727,681400461,4325386,0.0033648412,-0.006294836,0.0011567203,0.34906584,2.0911521e-07,2.119603e-07,4.2918563e-07,4259850,-0.16471408,0.37191343,-0.10752492,0.4,0.00051429775,0.0005131394,0.00050049485,396809,0.0,0.0,0.0,0.5,0.0025000002,0.0025000002,0.0025000002,1,1,1,0,1,0
682510507,682410306,4325386,0.0033413977,-0.006323792,0.0010757498,0.34906584,2.0985534e-07,2.1270665e-07,4.2873734e-07,4259850,-0.16472444,0.3718602,-0.10755334,0.4,0.00051429286,0.0005131352,0.00050041225,396809,0.0,0.0,0.0,0.5,0.0025000002,0.0025000002,0.0025000002,1,1,1,0,1,0
683520349,683420150,4325386,0.0033324773,-0.006281089,0.0009862976,0.34906584,2.1112622e-07,2.1398135e-07,4.2880487e-07,4259850,-0.16467682,0.37176752,-0.10664659,0.4,0.00051401,0.00051285385,0.0005000546,396809,0.0,0.0,0.0,0.5,0.0025000002,0.0025000002,0.0025000002,1,1,1,0,1,0
684530296,684429994,4325386,0.0033241352,-0.0062603746,0.00089593837,0.34906584,2.068323e-07,2.0976515e-07,4.284517e-07,4259850,-0.1647088,0.3718325,-0.106115036,0.4,0.0005142133,0.0005130578,0.0005001725,396809,0.0,0.0,0.0,0.5,0.0025000002,0.0025000002,0.0025000002,1,1,1,0,1,0
685540131,685439837,4325386,0.0032890064,-0.0062492914,0.0008199854,0.34906584,2.0734211e-07,2.1028468e-07,4.28714e-07,4259850,-0.16471982,0.37179103,-0.10592065,0.4,0.00051416276,0.000513008,0.00050004444,396809,0.0,0.0,0.0,0.5,0.0025000002,0.0025000002,0.0025000002,1,1,1,0,1,0
686550016,686449680,4325386,0.0032788112,-0.006259442,0.0007400836,0.34906584,2.0851957e-07,2.1143916e-07,4.2825533e-07,4259850,-0.16470954,0.3717281,-0.10540573,0.4,0.00051410234,0.00051294843,0.00049989845,396809,0.0,0.0,0.0,0.5,0.0025000002,0.0025000002,0.0025000002,1,1,1,0,1,0
687559915,687459523,4325386,0.0032754322,-0.006259001,0.00066658633,0.34906584,2.1070014e-07,2.1357924e-07,4.278083e-07,4259850,-0.16469353,0.37166986,-0.10579501,0.4,0.00051403267,0.0005128798,0.0004997461,396809,0.0,0.0,0.0,0.5,0.0025000002,0.0025000002,0.0025000002,1,1,1,0,1,0
688569558,688469367,4325386,0.0032530308,-0.006227567,0.0006167099,0.34906584,2.104742e-07,2.1335013e-07,4.2804947e-07,4259850,-0.16468881,0.37162328,-0.10631744,0.4,0.0005139461,0.00051279453,0.00049957994,396809,0.0,0.0,0.0,0.5,0.0025000002,0.0025000002,0.0025000002,1,1,1,0,1,0
689349578,689249242,4325386,0.0032644512,-0.006240279,0.0005802946,0.34906584,2.0543301e-07,2.0835853e-07,4.2879543e-07,4259850,-0.16478212,0.3718224,-0.1075034,0.4,0.00051458296,0.00051343127,0.0005001338,396809,0.0,0.0,0.0,0.5,0.0025000002,0.0025000002,0.0025000002,1,1,1,0,1,0
690149457,690049117,4325386,0.003255733,-0.0062287506,0.00053892477,0.34906584,2.058416e-07,2.0873627e-07,4.2816325e-07,4259850,-0.16471294,0.3716337,-0.10891505,0.4,0.00051412353,0.00051297364,0.0004996198,396809,0.0,0.0,0.0,0.5,0.0025000002,0.0025000002,0.0025000002,1,1,1,0,1,0
691159171,691058957,4325386,0.003238802,-0.006271093,0.0005022301,0.34906584,2.063826e-07,2.0925341e-07,4.2872878e-07,4259850,-0.16489753,0.3720024,-0.10900862,0.4,0.00051528786,0.0005141363,0.00050066656,396809,0.0,0.0,0.0,0.5,0.0025000002,0.0025000002,0.0025000002,1,1,1,0,1,0
692169001,692068797,4325386,0.0032392268,-0.006272351,0.00048742472,0.34906584,2.0853959e-07,2.1136353e-07,4.291027e-07,4259850,-0.16488582,0.3719699,-0.10858364,0.4,0.00051529665,0.00051414577,0.0005005893,396809,0.0,0.0,0.0,0.5,0.0025000002,0.0025000002,0.0025000002,1,1,1,0,1,0
693178841,693078637,4325386,0.003231849,-0.006262746,0.00047631984,0.34906584,2.0944609e-07,2.1222843e-07,4.2867785e-07,4259850,-0.1648684,0.37192294,-0.10790314,0.4,0.0005152569,0.00051410653,0.0005004629,396809,0.0,0.0,0.0,0.5,0.0025000002,0.0025000002,0.0025000002,1,1,1,0,1,0
693818766,693718535,4325386,0.003230588,-0.0062479707,0.0004658068,0.34906584,2.1006798e-07,2.1282418e-07,4.2832184e-07,4259850,-0.1647144,0.3715789,-0.1069092,0.4,0.00051435817,0.00051321,0.00049953384,396809,0.0,0.0,0.0,0.5,0.0025000002,0.0025000002,0.0025000002,1,1,1,0,1,0
694348804,694248450,4325386,0.0032350004,-0.0062474837,0.0004606108,0.34906584,2.0807961e-07,2.1085401e-07,4.2933445e-07,4259850,-0.16489764,0.37199628,-0.10598659,0.4,0.00051556143,0.0005144108,0.0005006568,396809,0.0,0.0,0.0,0.5,0.0025000002,0.0025000002,0.0025000002,1,1,1,0,1,0
695358489,695258289,4325386,0.0032393623,-0.006244944,0.00043631412,0.34906584,2.0954853e-07,2.1227814e-07,4.286803e-07,4259850,-0.16483417,0.3718441,-0.105728455,0.4,0.0005152465,0.00051409693,0.0005002643,396809,0.0,0.0,0.0,0.5,0.0025000002,0.0025000002,0.0025000002,1,1,1,1,1,0
696368327,696268127,4325386,0.003247998,-0.0062436126,0.00040506627,0.34906584,2.1083116e-07,2.1353563e-07,4.2913445e-07,4259850,-0.1648433,0.37185767,-0.10524857,0.4,0.0005153886,0.0005142392,0.0005003147,396809,0.0,0.0,0.0,0.5,0.0025000002,0.0025000002,0.0025000002,1,1,1,1,1,0
697378193,697277966,4325386,0.0032738873,-0.006208835,0.00036409433,0.34906584,2.0766338e-07,2.1038308e-07,4.2856797e-07,4259850,-0.16481219,0.37177694,-0.10587396,0.4,0.0005152609,0.00051411253,0.00050010247,396809,0.0,0.0,0.0,0.5,0.0025000002,0.0025000002,0.0025000002,1,1,1,1,1,0
698388075,698287801,4325386,0.0032986419,-0.0061998037,0.00033625663,0.34906584,2.0710908e-07,2.0983279e-07,4.2874933e-07,4259850,-0.16477126,0.37168583,-0.10532952,0.4,0.0005151119,0.0005139643,0.0004998738,396809,0.0,0.0,0.0,0.5,0.0025000002,0.0025000002,0.0025000002,1,1,1,1,1,0
699397836,699297638,4325386,0.0033020612,-0.006167726,0.00036599475,0.34906584,2.0786409e-07,2.1057421e-07,4.2814494e-07,4259850,-0.16471983,0.3715779,-0.10549394,0.4,0.00051489647,0.00051374955,0.000499575,396809,0.0,0.0,0.0,0.5,0.0025000002,0.0025000002,0.0025000002,1,1,1,1,1,0
700407701,700307474,4325386,0.0033262216,-0.006145426,0.00045044933,0.34906584,2.0935467e-07,2.1207063e-07,4.2945962e-07,4259850,-0.16488934,0.37198463,-0.105490625,0.4,0.00051610026,0.000514951,0.00050065306,396809,0.0,0.0,0.0,0.5,0.0025000002,0.0025000002,0.0025000002,1,1,1,1,1,0
701327554,701227324,4325386,0.0033362617,-0.0060993433,0.0005803852,0.34906584,2.1278173e-07,2.1545247e-07,4.286467e-07,4259850,-0.16481416,0.37184027,-0.10649903,0.4,0.000515761,0.00051461277,0.0005002437,396809,0.0,0.0,0.0,0.5,0.0025000002,0.0025000002,0.0025000002,1,1,1,1,1,0
702337472,702237159,4325386,0.0033354422,-0.0061142924,0.00071886677,0.34906584,2.134081e-07,2.1608864e-07,4.2875425e-07,4259850,-0.16475888,0.37173396,-0.106611654,0.4,0.00051553047,0.000514383,0.0004999366,396809,0.0,0.0,0.0,0.5,0.0025000002,0.0025000002,0.0025000002,1,1,1,1,1,0
703347189,703246993,4325386,0.0033480616,-0.0061040698,0.00081870414,0.34906584,2.132122e-07,2.1590594e-07,4.2828742e-07,4259850,-0.16474031,0.37169775,-0.106722414,0.4,0.0005155094,0.0005143624,0.00049982674,396809,0.0,0.0,0.0,0.5,0.0025000002,0.0025000002,0.0025000002,1,1,1,1,1,0
704357026,704256828,4325386,0.003363924,-0.0060714004,0.0009161242,0.34906584,2.1459105e-07,2.1729815e-07,4.2944046e-07,4259850,-0.16488741,0.3720286,-0.10701983,0.4,0.00051653065,0.00051538175,0.0005007277,396809,0.0,0.0,0.0,0.5,0.0025000002,0.0025000002,0.0025000002,1,1,1,1,1,0
705316894,705216669,4325386,0.0033650822,-0.006064136,0.0010306238,0.34906584,2.1289843e-07,2.1564229e-07,4.2895806e-07,4259850,-0.16482376,0.3718923,-0.10802894,0.4,0.00051621674,0.000515069,0.00050034036,396809,0.0,0.0,0.0,0.5,0.0025000002,0.0025000002,0.0025000002,1,1,1,1,1,0
705966968,705866562,4325386,0.0033588943,-0.006079276,0.0011124854,0.34906584,2.1092997e-07,2.1370855e-07,4.2876843e-07,4259850,-0.1648362,0.37193638,-0.10936671,0.4,0.00051635946,0.0005152117,0.0005004238,396809,0.0,0.0,0.0,0.5,0.0025000002,0.0025000002,0.0025000002,1,1,1,1,1,0
706976592,706876395,4325386,0.003385282,-0.006088214,0.0012016712,0.34906584,2.0821952e-07,2.1104019e-07,4.2887115e-07,4259850,-0.1648082,0.371847,-0.10938913,0.4,0.00051616033,0.0005150137,0.00050014775,396809,0.0,0.0,0.0,0.5,0.0025000002,0.0025000002,0.0025000002,1,1,1,1,1,0
707986441,707886228,4325386,0.0033970797,-0.006079157,0.0011880904,0.34906584,2.0901375e-07,2.1181546e-07,4.2850527e-07,4259850,-0.16481371,0.37182525,-0.10932022,0.4,0.0005162183,0.00051507197,0.00050012034,396809,0.0,0.0,0.0,0.5,0.0025000002,0.0025000002,0.0025000002,1,1,1,1,1,0
708996272,708896060,4325386,0.003406088,-0.0060862703,0.0011675279,0.34906584,2.0961053e-07,2.1239835e-07,4.2862936e-07,4259850,-0.16477327,0.37170696,-0.11000365,0.4,0.00051597983,0.0005148344,0.0004998043,396809,0.0,0.0,0.0,0.5,0.0025000002,0.0025000002,0.0025000002,1,1,1,1,1,0
710006089,709905891,4325386,0.0034063929,-0.0060993815,0.0011462002,0.34906584,2.1125109e-07,2.1401029e-07,4.290676e-07,4259850,-0.16492125,0.37204024,-0.10957612,0.4,0.0005169963,0.00051584904,0.0005007069,396809,0.0,0.0,0.0,0.5,0.0025000002,0.0025000002,0.0025000002,1,1,1,1,1,0
710646029,710545784,4325386,0.0034082138,-0.0060944105,0.0011217023,0.34906584,2.1274319e-07,2.1545856e-07,4.2772288e-07,4259850,-0.16472125,0.37158144,-0.108699314,0.4,0.00051577965,0.0005146353,0.0004994734,396809,0.0,0.0,0.0,0.5,0.0025000002,0.0025000002,0.0025000002,1,1,1,1,1,0
711655865,711555615,4325386,0.0034295982,-0.006098148,0.0010852421,0.34906584,2.1477369e-07,2.1746278e-07,4.2895525e-07,4259850,-0.16488811,0.37193233,-0.10836012,0.4,0.0005168547,0.0005157085,0.00050042785,396809,0.0,0.0,0.0,0.5,0.0025000002,0.0025000002,0.0025000002,1,1,1,1,1,0
712355924,712255498,4325386,0.0034497576,-0.006046128,0.0010059993,0.34906584,2.1536378e-07,2.1803032e-07,4.2855967e-07,4259850,-0.16476636,0.37161043,-0.10738189,0.4,0.00051609107,0.00051494694,0.000499627,396809,0.0,0.0,0.0,0.5,0.0025000002,0.0025000002,0.0025000002,1,1,1,1,1,0
713365578,713265328,4325386,0.0034561183,-0.0060652182,0.0008866406,0.34906584,2.1530089e-07,2.1796275e-07,4.2897872e-07,4259850,-0.1649213,0.37194368,-0.10697556,0.4,0.00051712175,0.00051597564,0.0005005381,396809,0.0,0.0,0.0,0.5,0.0025000002,0.0025000002,0.0025000002,1,1,1,1,1,0
714375353,714275158,4325386,0.0034410928,-0.0061044716,0.000781998,0.34906584,2.1563521e-07,2.1829683e-07,4.2915488e-07,4259850,-0.16488472,0.37185594,-0.10678335,0.4,0.00051696453,0.0005158191,0.00050030026,396809,0.0,0.0,0.0,0.5,0.0025000002,0.0025000002,0.0025000002,1,1,1,1,1,0
715385182,715284987,4325386,0.0034225362,-0.0061393306,0.0006658378,0.34906584,2.1625799e-07,2.1890791e-07,4.283167e-07,4259850,-0.1647981,0.37164706,-0.10717866,0.4,0.0005164754,0.0005153313,0.0004997392,396809,0.0,0.0,0.0,0.5,0.0025000002,0.0025000002,0.0025000002,1,1,1,1,1,0
716395044,716294816,4325386,0.0034134923,-0.006171966,0.0005710697,0.34906584,2.1519384e-07,2.1787875e-07,4.293436e-07,4259850,-0.16493747,0.37194568,-0.10773946,0.4,0.0005174009,0.000516255,0.0005005462,396809,0.0,0.0,0.0,0.5,0.0025000002,0.0025000002,0.0025000002,1,1,1,1,1,0
717405001,717304645,4325386,0.0033853184,-0.0061590746,0.0004666952,0.34906584,2.1066604e-07,2.1341708e-07,4.288145e-07,4259850,-0.16493596,0.37192008,-0.10777657,0.4,0.0005174021,0.0005162563,0.00050046307,396809,0.0,0.0,0.0,0.5,0.0025000002,0.0025000002,0.0025000002,1,1,1,1,1,0
718334716,718234486,4325386,0.0033819485,-0.0061719706,0.0003789736,0.34906584,2.1308509e-07,2.1581404e-07,4.2868177e-07,4259850,-0.16484876,0.37170783,-0.10876647,0.4,0.0005169059,0.00051576144,0.0004998996,396809,0.0,0.0,0.0,0.5,0.0025000002,0.0025000002,0.0025000002,1,1,1,1,1,0
719344527,719244314,4325386,0.003368299,-0.006179749,0.00027605068,0.34906584,2.1414093e-07,2.1685823e-07,4.2794872e-07,4259850,-0.16478938,0.3715472,-0.10856536,0.4,0.0005165452,0.0005154017,0.0004994687,396809,0.0,0.0,0.0,0.5,0.0025000002,0.0025000002,0.0025000002,1,1,1,1,1,0
720354353,720254141,4325386,0.0033757875,-0.006192331,0.00018054503,0.34906584,2.1707064e-07,2.1977355e-07,4.2915318e-07,4259850,-0.16494545,0.3718959,-0.108782925,0.4,0.00051759876,0.000516453,0.00050039985,396809,0.0,0.0,0.0,0.5,0.0025000002,0.0025000002,0.0025000002,1,1,1,1,1,0
721364303,721263968,4325386,0.0033347392,-0.0062118866,9.574206e-05,0.34906584,2.1453813e-07,2.1727914e-07,4.2842294e-07,4259850,-0.16491857,0.37175018,-0.10809275,0.4,0.000517303,0.0005161583,0.0005000301,396809,0.0,0.0,0.0,0.5,0.0025000002,0.0025000002,0.0025000002,1,1,1,1,1,0
722374019,722273795,4325386,0.003323865,-0.0062293797,3.098545e-05,0.34906584,2.173301e-07,2.2004141e-07,4.284715e-07,4259850,-0.16485937,0.37158385,-0.10798321,0.4,0.0005169517,0.000515808,0.00049960497,396809,0.0,0.0,0.0,0.5,0.0025000002,0.0025000002,0.0025000002,1,1,1,1,1,0
723383869,723283621,4325386,0.0033233403,-0.006205448,-4.7480302e-05,0.34906584,2.2045685e-07,2.2313577e-07,4.2890093e-07,4259850,-0.16501114,0.37193516,-0.10793151,0.4,0.0005179464,0.00051680073,0.0005004825,396809,0.0,0.0,0.0,0.5,0.0025000002,0.0025000002,0.0025000002,1,1,1,1,1,0
724393737,724293450,4325386,0.0032946027,-0.0062252567,-0.000101558915,0.34906584,2.1438693e-07,2.1714818e-07,4.283989e-07,4259850,-0.16502824,0.3719061,-0.10721832,0.4,0.0005179809,0.0005168356,0.0005004356,396809,0.0,0.0,0.0,0.5,0.0025000002,0.0025000002,0.0025000002,1,1,1,1,1,0
725363635,725263279,4325386,0.003294727,-0.0061747716,-0.00016158786,0.34906584,2.1543798e-07,2.1819561e-07,4.2885733e-07,4259850,-0.16497803,0.37181932,-0.10604332,0.4,0.00051772094,0.0005165767,0.00050010293,396809,0.0,0.0,0.0,0.5,0.0025000002,0.0025000002,0.0025000002,1,1,1,1,1,0
726373387,726273104,4325386,0.0032679262,-0.006221808,-0.00022191979,0.34906584,2.1183747e-07,2.1462836e-07,4.2796347e-07,4259850,-0.16490428,0.37157962,-0.10660601,0.4,0.0005172217,0.0005160788,0.0004995394,396809,0.0,0.0,0.0,0.5,0.0025000002,0.0025000002,0.0025000002,1,1,1,1,1,0
727383179,727282928,4325386,0.0032739495,-0.0062063416,-0.00029483254,0.34906584,2.1462529e-07,2.1737857e-07,4.2817558e-07,4259850,-0.16500686,0.3718217,-0.10664094,0.4,0.00051794125,0.0005167969,0.0005001519,396809,0.0,0.0,0.0,0.5,0.0025000002,0.0025000002,0.0025000002,1,1,1,1,1,0
728392945,728292753,4325386,0.0032527104,-0.006204491,-0.00033802152,0.34906584,2.1260637e-07,2.1538415e-07,4.2812994e-07,4259850,-0.16494523,0.37164885,-0.10645452,0.4,0.00051754777,0.0005164046,0.0004996862,396809,0.0,0.0,0.0,0.5,0.0025000002,0.0025000002,0.0025000002,1,1,1,1,1,0
729402878,729302577,4325386,0.0032385637,-0.006232602,-0.00038541673,0.34906584,2.1358971e-07,2.1635488e-07,4.2850354e-07,4259850,-0.16509354,0.3719463,-0.10664995,0.4,0.0005184953,0.00051735016,0.00050051376,396809,0.0,0.0,0.0,0.5,0.0025000002,0.0025000002,0.0025000002,1,1,1,1,1,0
730412595,730312400,4325386,0.0032234902,-0.0062480466,-0.00043202672,0.34906584,2.1399934e-07,2.1675245e-07,4.2876917e-07,4259850,-0.16507731,0.3718791,-0.1060409,0.4,0.0005184174,0.0005172725,0.0005003554,396809,0.0,0.0,0.0,0.5,0.0025000002,0.0025000002,0.0025000002,1,1,1,1,1,0
