timestamp,roll,pitch,yaw,thrust_body[0],thrust_body[1],thrust_body[2]
592093760,-0.23641855,0.061453722,-0.005828906,0.0,0.0,0.0
592098621,-0.23635398,0.06126653,-0.005809555,0.0,0.0,0.0
592113814,-0.23632416,0.061668202,-0.005846901,0.0,0.0,0.0
592133603,-0.23706491,0.06371938,-0.006060428,0.0,0.0,0.0
592153555,-0.23902969,0.06512619,-0.006245882,0.0,0.0,0.0
592173384,-0.24018057,0.06522898,-0.0062860446,0.0,0.0,0.0
592193297,-0.24163112,0.06636173,-0.006434072,0.0,0.0,0.0
592213204,-0.24877241,0.070466824,-0.007035317,0.0,0.0,0.0
592237995,-0.27360117,0.084144235,-0.009245727,0.0,0.0,0.0
592253062,-0.30041826,0.096892424,-0.011699671,0.0,0.0,0.0
592272974,-0.30930465,0.09747647,-0.012121883,0.0,0.0,0.0
592293008,-0.30818334,0.09421753,-0.011673703,0.0,0.0,0.0
592313302,-0.31274062,0.09778716,-0.012297019,0.0,0.0,0.0
592332899,-0.3256183,0.10619872,-0.0139108505,0.0,0.0,0.0
592352883,-0.34318936,0.1166327,-0.016112177,0.0,0.0,0.0
592377409,-0.35171717,0.12065153,-0.017086968,0.0,0.0,0.0
592392700,-0.3502804,0.118322745,-0.016687801,0.0,0.0,0.0
592412763,-0.34786668,0.11477145,-0.01607394,0.0,0.0,0.0
592437076,-0.3470436,0.11289007,-0.015772555,0.0,0.0,0.0
592452161,-0.34583247,0.11164593,-0.015543591,0.0,0.0,0.0
592472019,-0.3412953,0.10856989,-0.014914528,0.0,0.0,0.0
592496803,-0.33259034,0.10380098,-0.013891331,0.0,0.0,0.0
592516711,-0.32334587,0.09884965,-0.012856823,0.0,0.0,0.0
592531782,-0.3168361,0.09534012,-0.0121479845,0.0,0.0,0.0
592556534,-0.30808413,0.090600334,-0.011221875,0.0,0.0,0.0
592576437,-0.3052891,0.08934728,-0.010965259,0.0,0.0,0.0
592591480,-0.30173194,0.08826451,-0.010704918,0.0,0.0,0.0
592611385,-0.2951816,0.08599216,-0.010200769,0.0,0.0,0.0
592636167,-0.28746855,0.082779974,-0.00956083,0.0,0.0,0.0
592656075,-0.28350112,0.081262656,-0.009254927,0.0,0.0,0.0
592671186,-0.2813991,0.080279626,-0.009074602,0.0,0.0,0.0
592695897,-0.27873844,0.07952793,-0.0089039225,0.0,0.0,0.0
592715803,-0.27753988,0.07881913,-0.008786307,0.0,0.0,0.0
592730877,-0.27682906,0.07861027,-0.008740396,0.0,0.0,0.0
592755642,-0.277014,0.0773038,-0.008600922,0.0,0.0,0.0
592775533,-0.2779009,0.07572249,-0.008452183,0.0,0.0,0.0
592795440,-0.27646488,0.07670988,-0.008517786,0.0,0.0,0.0
592815349,-0.27508888,0.078394584,-0.008661176,0.0,0.0,0.0
592835263,-0.27488512,0.07870376,-0.008688841,0.0,0.0,0.0
592855170,-0.27462357,0.07905483,-0.008719228,0.0,0.0,0.0
592875100,-0.27494115,0.0790137,-0.00872485,0.0,0.0,0.0
592895046,-0.27474275,0.07928138,-0.008748041,0.0,0.0,0.0
592914924,-0.27491874,0.07935705,-0.008762044,0.0,0.0,0.0
592934839,-0.2794682,0.079949066,-0.008974705,0.0,0.0,0.0
592954753,-0.29273373,0.080092005,-0.00942135,0.0,0.0,0.0
592974635,-0.31760663,0.08577992,-0.0109567195,0.0,0.0,0.0
592994534,-0.34918478,0.09653716,-0.013572097,0.0,0.0,0.0
593014441,-0.36296612,0.1014709,-0.014836594,0.0,0.0,0.0
593034357,-0.37005392,0.10372375,-0.015466475,0.0,0.0,0.0
593054261,-0.38536534,0.107022285,-0.016628988,0.0,0.0,0.0
593074172,-0.39424312,0.10965622,-0.01743727,0.0,0.0,0.0
593094082,-0.3902035,0.10828931,-0.01704055,0.0,0.0,0.0
593113987,-0.376344,0.103316635,-0.015671598,0.0,0.0,0.0
593133895,-0.36023188,0.09734133,-0.014124067,0.0,0.0,0.0
593153803,-0.33542767,0.09141758,-0.01233973,0.0,0.0,0.0
593173719,-0.33047527,0.090998836,-0.012099707,0.0,0.0,0.0
593193634,-0.32447737,0.090694025,-0.01183781,0.0,0.0,0.0
593213537,-0.31821337,0.090258196,-0.011550995,0.0,0.0,0.0
593233452,-0.31630117,0.09047935,-0.011508966,0.0,0.0,0.0
593253352,-0.31511295,0.090125725,-0.011420459,0.0,0.0,0.0
593273266,-0.3078758,0.08897067,-0.0110124955,0.0,0.0,0.0
593293188,-0.30196556,0.088522896,-0.010744649,0.0,0.0,0.0
593313085,-0.29927716,0.0883564,-0.010628039,0.0,0.0,0.0
593333052,-0.2977095,0.08826662,-0.010561094,0.0,0.0,0.0
593357985,-0.2964795,0.08854799,-0.010550573,0.0,0.0,0.0
593372808,-0.29575223,0.08877795,-0.010551781,0.0,0.0,0.0
593392726,-0.29428563,0.08941532,-0.0105743455,0.0,0.0,0.0
593417792,-0.29243255,0.08954433,-0.010522307,0.0,0.0,0.0
593432631,-0.29113942,0.08962229,-0.010484472,0.0,0.0,0.0
593452615,-0.2896015,0.08958313,-0.010424031,0.0,0.0,0.0
593472734,-0.28853726,0.08936934,-0.010360599,0.0,0.0,0.0
593492683,-0.2885921,0.08830635,-0.010239328,0.0,0.0,0.0
593512790,-0.28829443,0.088151336,-0.010210718,0.0,0.0,0.0
593532078,-0.28834626,0.08718015,-0.010100056,0.0,0.0,0.0
593557189,-0.2878463,0.08680061,-0.010038493,0.0,0.0,0.0
593571932,-0.28794703,0.086471975,-0.0100040175,0.0,0.0,0.0
593591856,-0.28739583,0.08619467,-0.009952677,0.0,0.0,0.0
593616829,-0.28702265,0.08605286,-0.009923286,0.0,0.0,0.0
593636744,-0.28719562,0.0847507,-0.009779068,0.0,0.0,0.0
593651576,-0.2868985,0.08439356,-0.009727696,0.0,0.0,0.0
593676642,-0.28645507,0.084151626,-0.009684685,0.0,0.0,0.0
593696475,-0.28612638,0.08381471,-0.009634745,0.0,0.0,0.0
593711258,-0.28593034,0.083621524,-0.009605895,0.0,0.0,0.0
593731194,-0.2854551,0.08367139,-0.009595508,0.0,0.0,0.0
593756193,-0.2846395,0.08395711,-0.009600524,0.0,0.0,0.0
593776080,-0.2844098,0.08389795,-0.009585949,0.0,0.0,0.0
593790894,-0.28426403,0.083738275,-0.00956276,0.0,0.0,0.0
593815892,-0.28385893,0.08353351,-0.009525664,0.0,0.0,0.0
593835805,-0.28351754,0.083420366,-0.0095012225,0.0,0.0,0.0
593850647,-0.28300127,0.08367073,-0.009512235,0.0,0.0,0.0
593875627,-0.2817571,0.08440135,-0.009552752,0.0,0.0,0.0
593895565,-0.28083032,0.08482778,-0.009569169,0.0,0.0,0.0
593915511,-0.28019658,0.08507088,-0.009574753,0.0,0.0,0.0
593935353,-0.27981666,0.08519084,-0.009575143,0.0,0.0,0.0
593955259,-0.2795632,0.085297614,-0.009578388,0.0,0.0,0.0
593975195,-0.27939138,0.085415006,-0.009585626,0.0,0.0,0.0
593995150,-0.27927002,0.0856009,-0.00960228,0.0,0.0,0.0
594015069,-0.27910155,0.08596141,-0.009636855,0.0,0.0,0.0
594034940,-0.27874917,0.086414464,-0.009675313,0.0,0.0,0.0
594054836,-0.27908948,0.086246006,-0.009668338,0.0,0.0,0.0
594074791,-0.27939957,0.08628794,-0.009683878,0.0,0.0,0.0
594094710,-0.27944875,0.08662437,-0.00972336,0.0,0.0,0.0
594114552,-0.27924815,0.08727448,-0.0097892415,0.0,0.0,0.0
594134476,-0.27888206,0.08804572,-0.009862693,0.0,0.0,0.0
594154356,-0.27926043,0.08817445,-0.009890626,0.0,0.0,0.0
594174284,-0.2794513,0.08845507,-0.009928944,0.0,0.0,0.0
594194215,-0.2796506,0.08872347,-0.009966233,0.0,0.0,0.0
594214077,-0.27965692,0.089172676,-0.010016919,0.0,0.0,0.0
594233990,-0.27985874,0.0893594,-0.0100452,0.0,0.0,0.0
594253902,-0.27996272,0.089562945,-0.010071852,0.0,0.0,0.0
594273813,-0.27994847,0.08994658,-0.010114476,0.0,0.0,0.0
594293753,-0.2801477,0.09004026,-0.0101322755,0.0,0.0,0.0
594313720,-0.28003594,0.09029031,-0.010156326,0.0,0.0,0.0
594333534,-0.27984,0.0906019,-0.010184185,0.0,0.0,0.0
594353451,-0.27989116,0.090693034,-0.01019631,0.0,0.0,0.0
594373355,-0.28026786,0.09065585,-0.010205961,0.0,0.0,0.0
594393315,-0.28024018,0.09088618,-0.010230873,0.0,0.0,0.0
594413169,-0.280104,0.091136694,-0.010254045,0.0,0.0,0.0
594433087,-0.27938864,0.091953546,-0.010319306,0.0,0.0,0.0
594453018,-0.27898353,0.09238291,-0.010352332,0.0,0.0,0.0
594477770,-0.2789262,0.092698306,-0.010385524,0.0,0.0,0.0
594492808,-0.2786568,0.092930496,-0.010401398,0.0,0.0,0.0
594512726,-0.27812588,0.09355484,-0.010451161,0.0,0.0,0.0
594537494,-0.2770721,0.09437248,-0.0105022285,0.0,0.0,0.0
594552598,-0.27697018,0.094647,-0.010528871,0.0,0.0,0.0
594572657,-0.2768636,0.09496,-0.010559591,0.0,0.0,0.0
594592644,-0.27688783,0.095224224,-0.010589907,0.0,0.0,0.0
594617213,-0.27703896,0.09553713,-0.0106305545,0.0,0.0,0.0
594632506,-0.27728584,0.095586695,-0.010645624,0.0,0.0,0.0
594652421,-0.27732298,0.09586401,-0.010677952,0.0,0.0,0.0
594676863,-0.27743265,0.09622489,-0.010722423,0.0,0.0,0.0
594691996,-0.27754432,0.0963453,-0.010740196,0.0,0.0,0.0
594711830,-0.27774668,0.096554704,-0.010771453,0.0,0.0,0.0
594736592,-0.27802554,0.09686608,-0.010817129,0.0,0.0,0.0
594751649,-0.27814642,0.09700184,-0.010837039,0.0,0.0,0.0
594771567,-0.27815238,0.09730556,-0.010871204,0.0,0.0,0.0
594796336,-0.2782648,0.097530484,-0.010900774,0.0,0.0,0.0
594816266,-0.27840105,0.09758872,-0.010912668,0.0,0.0,0.0
594831296,-0.27849463,0.09758357,-0.010915792,0.0,0.0,0.0
594856076,-0.2785477,0.097667985,-0.010927333,0.0,0.0,0.0
594875980,-0.278493,0.097793095,-0.010939163,0.0,0.0,0.0
594891053,-0.2785102,0.09775914,-0.010936047,0.0,0.0,0.0
594910973,-0.2786283,0.09760355,-0.010923309,0.0,0.0,0.0
594935708,-0.27852234,0.09769615,-0.01092948,0.0,0.0,0.0
594955621,-0.27860793,0.097546875,-0.010916162,0.0,0.0,0.0
594970643,-0.27869463,0.09738265,-0.010901203,0.0,0.0,0.0
594995431,-0.27851483,0.097315535,-0.010886605,0.0,0.0,0.0
595015320,-0.2785284,0.09711891,-0.010865141,0.0,0.0,0.0
595035303,-0.2784525,0.09690489,-0.01083822,0.0,0.0,0.0
595055131,-0.27839592,0.096575424,-0.010799157,0.0,0.0,0.0
595075047,-0.27834833,0.09615434,-0.010750218,0.0,0.0,0.0
595094950,-0.27826062,0.09566843,-0.010692494,0.0,0.0,0.0
595114858,-0.278035,0.09536427,-0.010649786,0.0,0.0,0.0
595134796,-0.27790087,0.09494032,-0.010597284,0.0,0.0,0.0
595154710,-0.27785614,0.094442435,-0.010539999,0.0,0.0,0.0
595174622,-0.27780995,0.093862616,-0.0104735335,0.0,0.0,0.0
595194534,-0.2776844,0.09343618,-0.0104212,0.0,0.0,0.0
595214431,-0.2775636,0.09308365,-0.010377327,0.0,0.0,0.0
595234333,-0.27755427,0.092595294,-0.0103225345,0.0,0.0,0.0
595254228,-0.2774827,0.09229388,-0.010286257,0.0,0.0,0.0
595274153,-0.27733383,0.09190087,-0.010236914,0.0,0.0,0.0
595294044,-0.27728754,0.091448866,-0.010184852,0.0,0.0,0.0
595313974,-0.2773529,0.09095091,-0.0101318,0.0,0.0,0.0
595333864,-0.27750593,0.09025056,-0.010059377,0.0,0.0,0.0
595353778,-0.27755094,0.089700095,-0.009999656,0.0,0.0,0.0
595373684,-0.27720687,0.089506395,-0.00996559,0.0,0.0,0.0
595393624,-0.27695885,0.089273214,-0.009930664,0.0,0.0,0.0
595413503,-0.27689835,0.08885949,-0.009882463,0.0,0.0,0.0
595433415,-0.27708054,0.08820464,-0.009816141,0.0,0.0,0.0
595453313,-0.2774157,0.08739698,-0.00973812,0.0,0.0,0.0
595473225,-0.27758378,0.086763985,-0.009673496,0.0,0.0,0.0
595493135,-0.2778164,0.08608208,-0.009605579,0.0,0.0,0.0
595513043,-0.27757233,0.085872814,-0.00957374,0.0,0.0,0.0
595532961,-0.27709445,0.08612193,-0.009584846,0.0,0.0,0.0
595552868,-0.27669078,0.08634726,-0.009595809,0.0,0.0,0.0
595572776,-0.27658463,0.086195886,-0.009575282,0.0,0.0,0.0
595597766,-0.27639428,0.08610371,-0.009558405,0.0,0.0,0.0
595612594,-0.27628586,0.08594182,-0.009536661,0.0,0.0,0.0
595632508,-0.2763344,0.08564312,-0.009505198,0.0,0.0,0.0
595657514,-0.27640852,0.08519789,-0.009458341,0.0,0.0,0.0
595672362,-0.27638298,0.0849229,-0.009426936,0.0,0.0,0.0
595692354,-0.2765283,0.0844828,-0.009383052,0.0,0.0,0.0
595717311,-0.27648297,0.08408017,-0.00933679,0.0,0.0,0.0
595732352,-0.27642336,0.08379355,-0.00930294,0.0,0.0,0.0
595752309,-0.27635947,0.0834303,-0.009260453,0.0,0.0,0.0
595771889,-0.27629635,0.083096735,-0.009221304,0.0,0.0,0.0
595796884,-0.2761105,0.08269983,-0.009171036,0.0,0.0,0.0
595811688,-0.275933,0.08247373,-0.009140035,0.0,0.0,0.0
595831592,-0.27575207,0.082215235,-0.009105365,0.0,0.0,0.0
595856622,-0.27574277,0.08189756,-0.009069873,0.0,0.0,0.0
595871414,-0.27575687,0.08171037,-0.00904961,0.0,0.0,0.0
595891326,-0.27567533,0.08150136,-0.00902377,0.0,0.0,0.0
595916529,-0.27547792,0.08122548,-0.008986733,0.0,0.0,0.0
595936252,-0.27538365,0.080977544,-0.008956211,0.0,0.0,0.0
595951047,-0.27534673,0.08081364,-0.008936874,0.0,0.0,0.0
595976050,-0.275264,0.0805636,-0.008906524,0.0,0.0,0.0
595995948,-0.27513623,0.08049736,-0.008895038,0.0,0.0,0.0
596015893,-0.27510804,0.08039428,-0.00888273,0.0,0.0,0.0
596030742,-0.2749402,0.080382645,-0.008875981,0.0,0.0,0.0
596055706,-0.27495772,0.080210224,-0.008857511,0.0,0.0,0.0
596075679,-0.27498096,0.080110684,-0.008847273,0.0,0.0,0.0
596090441,-0.27495456,0.08013378,-0.008848968,0.0,0.0,0.0
596115488,-0.27482983,0.08008055,-0.008839045,0.0,0.0,0.0
596135383,-0.27462718,0.08018002,-0.008843446,0.0,0.0,0.0
596155252,-0.27452683,0.08011279,-0.008832776,0.0,0.0,0.0
596175161,-0.274457,0.07994958,-0.008812522,0.0,0.0,0.0
596195084,-0.2744008,0.079811275,-0.008795461,0.0,0.0,0.0
596215035,-0.27425385,0.07973122,-0.008781895,0.0,0.0,0.0
596234939,-0.27422255,0.07955784,-0.008761791,0.0,0.0,0.0
596254836,-0.27420902,0.07935414,-0.008738921,0.0,0.0,0.0
596274707,-0.274069,0.079266295,-0.008724755,0.0,0.0,0.0
596294663,-0.27398834,0.07906162,-0.008699643,0.0,0.0,0.0
596314666,-0.27394196,0.07870039,-0.008658418,0.0,0.0,0.0
596334531,-0.27384073,0.078299925,-0.008611151,0.0,0.0,0.0
596354402,-0.27376655,0.07789923,-0.008564744,0.0,0.0,0.0
596374223,-0.27352145,0.07771755,-0.008537057,0.0,0.0,0.0
596394134,-0.27331218,0.077217735,-0.008475613,0.0,0.0,0.0
596414093,-0.27313903,0.0767554,-0.008419485,0.0,0.0,0.0
596433952,-0.27292594,0.076361395,-0.00836968,0.0,0.0,0.0
596453896,-0.27274236,0.07589646,-0.008313078,0.0,0.0,0.0
596473793,-0.27264786,0.07545884,-0.00826226,0.0,0.0,0.0
596493684,-0.27251592,0.07501964,-0.008210164,0.0,0.0,0.0
596513599,-0.27234927,0.07455187,-0.008153942,0.0,0.0,0.0
596533503,-0.2722031,0.07407972,-0.008097918,0.0,0.0,0.0
596553426,-0.27205187,0.073569044,-0.00803759,0.0,0.0,0.0
596578187,-0.27189833,0.07300773,-0.007971729,0.0,0.0,0.0
596593233,-0.27172592,0.072753884,-0.007938934,0.0,0.0,0.0
596613171,-0.27148974,0.072494045,-0.0079036495,0.0,0.0,0.0
596633118,-0.27117443,0.072371,-0.007880998,0.0,0.0,0.0
596652958,-0.2708373,0.07236221,-0.0078701675,0.0,0.0,0.0
596672886,-0.2705763,0.07231655,-0.007857563,0.0,0.0,0.0
596692781,-0.2703176,0.07232053,-0.007850423,0.0,0.0,0.0
596717550,-0.27007112,0.07246806,-0.007859209,0.0,0.0,0.0
596732603,-0.26989383,0.07258251,-0.007866413,0.0,0.0,0.0
596752519,-0.26973364,0.07269019,-0.00787337,0.0,0.0,0.0
596777275,-0.26956838,0.07279849,-0.007880233,0.0,0.0,0.0
596792411,-0.26948866,0.07285789,-0.0078843115,0.0,0.0,0.0
596812352,-0.26936314,0.07290727,-0.0078859525,0.0,0.0,0.0
596837091,-0.2691479,0.07298918,-0.007888454,0.0,0.0,0.0
596857010,-0.2689828,0.072987676,-0.007883416,0.0,0.0,0.0
596872295,-0.26889583,0.07295509,-0.007877329,0.0,0.0,0.0
596892169,-0.268848,0.07284882,-0.007864444,0.0,0.0,0.0
596916668,-0.2688509,0.07268698,-0.007847057,0.0,0.0,0.0
596931756,-0.2687935,0.072667845,-0.0078433035,0.0,0.0,0.0
596951592,-0.26875094,0.07277495,-0.00785361,0.0,0.0,0.0
596976382,-0.26875305,0.07301262,-0.007879322,0.0,0.0,0.0
596996280,-0.2687305,0.073269494,-0.007906374,0.0,0.0,0.0
597011370,-0.26867655,0.073548675,-0.007934894,0.0,0.0,0.0
597036097,-0.2686225,0.074208945,-0.008004505,0.0,0.0,0.0
597056008,-0.26861155,0.074802995,-0.0080682505,0.0,0.0,0.0
597071045,-0.26850972,0.07530082,-0.008118844,0.0,0.0,0.0
597095834,-0.26841408,0.07611693,-0.00820389,0.0,0.0,0.0
597115751,-0.2683489,0.07675981,-0.008271155,0.0,0.0,0.0
597135655,-0.26822564,0.07743887,-0.008340464,0.0,0.0,0.0
597155574,-0.26807722,0.07817494,-0.008415047,0.0,0.0,0.0
597175491,-0.26797494,0.07879409,-0.008478433,0.0,0.0,0.0
597195372,-0.2678561,0.07943846,-0.008543949,0.0,0.0,0.0
597210439,-0.26757398,0.07999147,-0.008594296,0.0,0.0,0.0
597235188,-0.2673228,0.08069502,-0.008661685,0.0,0.0,0.0
597255098,-0.26719794,0.08120776,-0.00871262,0.0,0.0,0.0
597275007,-0.26720428,0.08162614,-0.008757716,0.0,0.0,0.0
597294923,-0.26710755,0.08204991,-0.008799971,0.0,0.0,0.0
597314826,-0.26695684,0.08243831,-0.008836601,0.0,0.0,0.0
597334739,-0.26671267,0.0829586,-0.008884176,0.0,0.0,0.0
597354647,-0.26656076,0.08334394,-0.008920319,0.0,0.0,0.0
597374554,-0.26652113,0.083599396,-0.008946321,0.0,0.0,0.0
597394558,-0.26647186,0.08387192,-0.008973813,0.0,0.0,0.0
597414438,-0.26638305,0.0841619,-0.009001815,0.0,0.0,0.0
597434350,-0.26634002,0.08435713,-0.009021227,0.0,0.0,0.0
597454253,-0.26632217,0.08452381,-0.009038442,0.0,0.0,0.0
597474133,-0.26630488,0.084696285,-0.009056293,0.0,0.0,0.0
597494047,-0.2662997,0.08481864,-0.009069199,0.0,0.0,0.0
597514003,-0.2662391,0.0849469,-0.00908083,0.0,0.0,0.0
597533864,-0.26613876,0.085100144,-0.009093758,0.0,0.0,0.0
597553776,-0.26594016,0.085244015,-0.009102283,0.0,0.0,0.0
597573658,-0.26565453,0.0854265,-0.009111897,0.0,0.0,0.0
597593557,-0.26543537,0.0856825,-0.009131606,0.0,0.0,0.0
597613469,-0.26516527,0.08602948,-0.009159186,0.0,0.0,0.0
597633373,-0.2649538,0.08631825,-0.0091825435,0.0,0.0,0.0
597653283,-0.2648828,0.08646842,-0.0091960365,0.0,0.0,0.0
597673196,-0.26479065,0.08667922,-0.0092152245,0.0,0.0,0.0
597698214,-0.26476425,0.08700817,-0.009249267,0.0,0.0,0.0
597713014,-0.26481014,0.08723492,-0.00927499,0.0,0.0,0.0
597732927,-0.26489854,0.08751221,-0.009307603,0.0,0.0,0.0
597752829,-0.26488853,0.08787674,-0.009346017,0.0,0.0,0.0
597772765,-0.2649226,0.08815801,-0.009377146,0.0,0.0,0.0
597792657,-0.2649521,0.088542484,-0.0094190985,0.0,0.0,0.0
597812557,-0.26503196,0.08891956,-0.009462084,0.0,0.0,0.0
597832465,-0.2650528,0.08936551,-0.009510292,0.0,0.0,0.0
597852375,-0.26502517,0.08981889,-0.009557537,0.0,0.0,0.0
597872298,-0.26504812,0.09012924,-0.009591398,0.0,0.0,0.0
597897272,-0.26514703,0.09056714,-0.009641622,0.0,0.0,0.0
597912491,-0.26520327,0.09086206,-0.009675086,0.0,0.0,0.0
597932180,-0.26528224,0.09132398,-0.009727189,0.0,0.0,0.0
597957073,-0.2653742,0.09177443,-0.009778582,0.0,0.0,0.0
597977064,-0.26539773,0.092089504,-0.009813029,0.0,0.0,0.0
597992056,-0.26540434,0.09234401,-0.009840397,0.0,0.0,0.0
598016860,-0.26540092,0.092619814,-0.009869657,0.0,0.0,0.0
598036679,-0.26534912,0.09287435,-0.009894836,0.0,0.0,0.0
598051552,-0.26525325,0.093061395,-0.009911154,0.0,0.0,0.0
598071402,-0.26512793,0.093223,-0.009923641,0.0,0.0,0.0
598096370,-0.26490444,0.09329475,-0.0099228425,0.0,0.0,0.0
598116278,-0.26461822,0.09333244,-0.009916045,0.0,0.0,0.0
598131101,-0.2643745,0.09329702,-0.0099030845,0.0,0.0,0.0
598156097,-0.26377642,0.09337793,-0.009889082,0.0,0.0,0.0
598176037,-0.26330417,0.093454435,-0.009879334,0.0,0.0,0.0
598190851,-0.2629949,0.093468904,-0.009869171,0.0,0.0,0.0
598215851,-0.26245332,0.0935341,-0.009855567,0.0,0.0,0.0
598235785,-0.26204503,0.093496196,-0.0098361345,0.0,0.0,0.0
598255709,-0.26178342,0.093358666,-0.009811788,0.0,0.0,0.0
598275607,-0.261669,0.09314507,-0.009785031,0.0,0.0,0.0
598295509,-0.26151392,0.09299305,-0.009763228,0.0,0.0,0.0
598315367,-0.26138663,0.09278452,-0.0097365575,0.0,0.0,0.0
598330194,-0.26134914,0.09261568,-0.009717436,0.0,0.0,0.0
598355239,-0.26133007,0.092542924,-0.009709089,0.0,0.0,0.0
598375099,-0.2612144,0.09251736,-0.00970208,0.0,0.0,0.0
598395036,-0.26120833,0.09237648,-0.009687078,0.0,0.0,0.0
598414918,-0.26128486,0.09217238,-0.009668528,0.0,0.0,0.0
598434833,-0.26138952,0.09197605,-0.009651827,0.0,0.0,0.0
598454772,-0.26149863,0.091810085,-0.009638462,0.0,0.0,0.0
598474644,-0.26162997,0.091649115,-0.00962643,0.0,0.0,0.0
598494576,-0.26168773,0.09158444,-0.009621777,0.0,0.0,0.0
598514709,-0.26162386,0.09161124,-0.0096222265,0.0,0.0,0.0
598534405,-0.2614871,0.09163825,-0.009619995,0.0,0.0,0.0
598554390,-0.26144236,0.091570295,-0.009611204,0.0,0.0,0.0
598574280,-0.26144353,0.09142524,-0.009596023,0.0,0.0,0.0
598594141,-0.26139492,0.09139035,-0.009590564,0.0,0.0,0.0
598614060,-0.26125503,0.091480054,-0.009594802,0.0,0.0,0.0
598633926,-0.26114807,0.09149144,-0.009592039,0.0,0.0,0.0
598653918,-0.26113424,0.09139608,-0.00958153,0.0,0.0,0.0
598673783,-0.2611808,0.091303445,-0.009573538,0.0,0.0,0.0
598693694,-0.2612329,0.09117268,-0.009561748,0.0,0.0,0.0
598713744,-0.26126263,0.091070294,-0.009552104,0.0,0.0,0.0
598733521,-0.26116893,0.09107266,-0.009548903,0.0,0.0,0.0
598753432,-0.26094815,0.09110814,-0.009544489,0.0,0.0,0.0
598773360,-0.2606712,0.09118582,-0.009542414,0.0,0.0,0.0
598793235,-0.2603624,0.09133214,-0.00954632,0.0,0.0,0.0
598818002,-0.2599768,0.091521956,-0.009551891,0.0,0.0,0.0
598833102,-0.25986847,0.09159174,-0.009555161,0.0,0.0,0.0
598852942,-0.25985077,0.091535285,-0.009548617,0.0,0.0,0.0
598872897,-0.25981015,0.09157352,-0.009551101,0.0,0.0,0.0
598892780,-0.25970775,0.091732554,-0.009563891,0.0,0.0,0.0
598912795,-0.25963616,0.09181998,-0.009570348,0.0,0.0,0.0
598932555,-0.25968638,0.09167644,-0.009557248,0.0,0.0,0.0
598957338,-0.2596113,0.091640525,-0.009550722,0.0,0.0,0.0
598972406,-0.25948948,0.09179148,-0.009561934,0.0,0.0,0.0
598992342,-0.25936848,0.09200337,-0.009579505,0.0,0.0,0.0
599017081,-0.25939357,0.09179351,-0.009558584,0.0,0.0,0.0
599032130,-0.25940958,0.09174504,-0.009554132,0.0,0.0,0.0
599052110,-0.2593964,0.091713645,-0.009550373,0.0,0.0,0.0
599076869,-0.25934428,0.09168159,-0.009545104,0.0,0.0,0.0
599096792,-0.25937083,0.09158519,-0.00953605,0.0,0.0,0.0
599112465,-0.25939217,0.091532454,-0.009531349,0.0,0.0,0.0
599136632,-0.2594292,0.09141243,-0.009520219,0.0,0.0,0.0
599156424,-0.25942376,0.091390975,-0.009517784,0.0,0.0,0.0
599171552,-0.25938958,0.09138006,-0.009515384,0.0,0.0,0.0
599191384,-0.2593261,0.09138014,-0.0095130475,0.0,0.0,0.0
599216165,-0.25930053,0.09122274,-0.009495718,0.0,0.0,0.0
599236062,-0.25925136,0.09111845,-0.009483051,0.0,0.0,0.0
599251150,-0.25916916,0.09112804,-0.009481019,0.0,0.0,0.0
599275879,-0.25912568,0.09098559,-0.009464599,0.0,0.0,0.0
599295793,-0.25907463,0.0909149,-0.009455369,0.0,0.0,0.0
599311004,-0.25900945,0.09090987,-0.009452451,0.0,0.0,0.0
599335636,-0.2588744,0.09088032,-0.009444416,0.0,0.0,0.0
599355516,-0.25882652,0.090786025,-0.00943286,0.0,0.0,0.0
599370581,-0.25885928,0.09064883,-0.009419804,0.0,0.0,0.0
599395348,-0.25886554,0.090507984,-0.009405397,0.0,0.0,0.0
599415243,-0.25883767,0.09041183,-0.009394386,0.0,0.0,0.0
599435152,-0.258755,0.09031314,-0.009381113,0.0,0.0,0.0
599455078,-0.25869048,0.09018935,-0.009365902,0.0,0.0,0.0
599474973,-0.25854325,0.0901417,-0.009355587,0.0,0.0,0.0
599494881,-0.25844422,0.089991815,-0.009336429,0.0,0.0,0.0
599514789,-0.2584375,0.08986281,-0.009322801,0.0,0.0,0.0
599534718,-0.25831637,0.08991887,-0.009324213,0.0,0.0,0.0
599554606,-0.25828502,0.08994103,-0.009325371,0.0,0.0,0.0
599574533,-0.25831428,0.08989072,-0.009321218,0.0,0.0,0.0
599594429,-0.2583482,0.08979625,-0.009312653,0.0,0.0,0.0
599614351,-0.2583997,0.08967824,-0.009302283,0.0,0.0,0.0
599634266,-0.2583992,0.08960969,-0.0092951525,0.0,0.0,0.0
599654186,-0.25821877,0.08982965,-0.009311417,0.0,0.0,0.0
599674090,-0.25805506,0.09001042,-0.009324198,0.0,0.0,0.0
599694014,-0.25802162,0.09004221,-0.009326273,0.0,0.0,0.0
599713906,-0.25832558,0.089672394,-0.009298988,0.0,0.0,0.0
599733801,-0.25820148,0.089673966,-0.009294652,0.0,0.0,0.0
599753703,-0.25819984,0.08962436,-0.009289452,0.0,0.0,0.0
599773620,-0.25820628,0.08949631,-0.009276412,0.0,0.0,0.0
599793523,-0.25817898,0.089380115,-0.00926338,0.0,0.0,0.0
599813456,-0.2580872,0.08936957,-0.009258973,0.0,0.0,0.0
599833340,-0.2579887,0.08928398,-0.0092465505,0.0,0.0,0.0
599853248,-0.2579701,0.08911319,-0.009228193,0.0,0.0,0.0
599873156,-0.25784674,0.089013346,-0.009213414,0.0,0.0,0.0
599893069,-0.25763103,0.08897827,-0.009202023,0.0,0.0,0.0
599912973,-0.25758836,0.08872766,-0.009174575,0.0,0.0,0.0
599937981,-0.2574026,0.088558964,-0.009150481,0.0,0.0,0.0
599952793,-0.2573521,0.08841568,-0.009133871,0.0,0.0,0.0
599972707,-0.25718448,0.088372745,-0.009123446,0.0,0.0,0.0
599997790,-0.257069,0.08819938,-0.009101431,0.0,0.0,0.0
600012555,-0.25683713,0.0883146,-0.009105043,0.0,0.0,0.0
600032470,-0.25674573,0.088181615,-0.009088074,0.0,0.0,0.0
600052370,-0.25667852,0.088061675,-0.009073321,0.0,0.0,0.0
600077365,-0.25656602,0.08804107,-0.009067194,0.0,0.0,0.0
600092195,-0.25649166,0.08801423,-0.0090617845,0.0,0.0,0.0
600112158,-0.25635228,0.088051945,-0.009060706,0.0,0.0,0.0
600137054,-0.2562836,0.088001885,-0.009053112,0.0,0.0,0.0
600151912,-0.25632268,0.08797962,-0.009052212,0.0,0.0,0.0
600171848,-0.25629276,0.08797465,-0.009050636,0.0,0.0,0.0
600196817,-0.2562791,0.08798943,-0.00905167,0.0,0.0,0.0
600216775,-0.25632274,0.088012904,-0.009055638,0.0,0.0,0.0
600231820,-0.2563862,0.088013746,-0.009057981,0.0,0.0,0.0
600256607,-0.25665376,0.087927476,-0.009058613,0.0,0.0,0.0
600276519,-0.25685087,0.087917805,-0.009064622,0.0,0.0,0.0
600291253,-0.2570098,0.08777786,-0.009055833,0.0,0.0,0.0
600311165,-0.25689,0.08794818,-0.009069146,0.0,0.0,0.0
600336252,-0.25691393,0.0879581,-0.009071019,0.0,0.0,0.0
600356062,-0.25692078,0.08793957,-0.009069352,0.0,0.0,0.0
600370881,-0.25697327,0.087891534,-0.009066263,0.0,0.0,0.0
600395961,-0.25679347,0.0878862,-0.009059325,0.0,0.0,0.0
600415868,-0.25676465,0.08775095,-0.00904436,0.0,0.0,0.0
600430650,-0.25673747,0.08772029,-0.009040237,0.0,0.0,0.0
600455685,-0.25665945,0.087571315,-0.009022121,0.0,0.0,0.0
600475546,-0.25646356,0.08757491,-0.009015556,0.0,0.0,0.0
600495451,-0.25626153,0.08756259,-0.009007138,0.0,0.0,0.0
600515360,-0.25623852,0.08750753,-0.009000661,0.0,0.0,0.0
600535267,-0.25617614,0.08746551,-0.008994133,0.0,0.0,0.0
600555222,-0.25600684,0.08748528,-0.008990179,0.0,0.0,0.0
600575063,-0.25611064,0.08724369,-0.008969014,0.0,0.0,0.0
600595020,-0.25751063,0.085560724,-0.00884442,0.0,0.0,0.0
600614906,-0.2570326,0.08578671,-0.008851201,0.0,0.0,0.0
600634811,-0.25779963,0.084960125,-0.0087922625,0.0,0.0,0.0
600654713,-0.25822818,0.08448218,-0.008757438,0.0,0.0,0.0
600674732,-0.2584525,0.084090434,-0.008724457,0.0,0.0,0.0
600694511,-0.25893256,0.083450824,-0.008674295,0.0,0.0,0.0
600714425,-0.2594263,0.082734525,-0.008616355,0.0,0.0,0.0
600734339,-0.25953925,0.0825037,-0.008596083,0.0,0.0,0.0
600754241,-0.25950336,0.08243763,-0.008588004,0.0,0.0,0.0
600774220,-0.25930038,0.0824899,-0.008586679,0.0,0.0,0.0
600794086,-0.25913548,0.082570344,-0.008589547,0.0,0.0,0.0
600814003,-0.2591242,0.08242811,-0.008574375,0.0,0.0,0.0
600833937,-0.25909832,0.08237649,-0.0085681435,0.0,0.0,0.0
600853847,-0.25919044,0.08215438,-0.0085481005,0.0,0.0,0.0
600873708,-0.25916252,0.08193359,-0.008524204,0.0,0.0,0.0
600893879,-0.2590151,0.08186055,-0.008511725,0.0,0.0,0.0
600913539,-0.25885954,0.081858225,-0.008506335,0.0,0.0,0.0
600933484,-0.25879204,0.08173815,-0.008491626,0.0,0.0,0.0
600953335,-0.25889638,0.08142218,-0.008462235,0.0,0.0,0.0
600973289,-0.25890252,0.081091955,-0.008428116,0.0,0.0,0.0
600993150,-0.2586001,0.08098812,-0.008407421,0.0,0.0,0.0
601013059,-0.25850523,0.08075484,-0.008380108,0.0,0.0,0.0
601032969,-0.2582477,0.08066014,-0.0083618825,0.0,0.0,0.0
601057751,-0.2576047,0.08078894,-0.008354232,0.0,0.0,0.0
601072789,-0.25693086,0.081117555,-0.008366118,0.0,0.0,0.0
601092707,-0.2562998,0.081439875,-0.008378583,0.0,0.0,0.0
601117521,-0.25529772,0.082113594,-0.008414635,0.0,0.0,0.0
601132519,-0.25514984,0.082196645,-0.008418234,0.0,0.0,0.0
601152464,-0.2548426,0.082257316,-0.008414233,0.0,0.0,0.0
601172343,-0.25467232,0.08235527,-0.008418584,0.0,0.0,0.0
601192292,-0.25533533,0.08167008,-0.008370428,0.0,0.0,0.0
601212168,-0.25520173,0.08176104,-0.008375335,0.0,0.0,0.0
601232076,-0.25644815,0.08024359,-0.008260321,0.0,0.0,0.0
601256840,-0.25769317,0.078135595,-0.00808265,0.0,0.0,0.0
601271935,-0.25976738,0.07450835,-0.0077699185,0.0,0.0,0.0
601291840,-0.26398888,0.06800051,-0.00720736,0.0,0.0,0.0
601316568,-0.26854426,0.058816984,-0.0063423985,0.0,0.0,0.0
601336558,-0.26987502,0.05708173,-0.0061860206,0.0,0.0,0.0
601351802,-0.2700547,0.057301562,-0.0062140115,0.0,0.0,0.0
601376382,-0.27077696,0.057610426,-0.0062643453,0.0,0.0,0.0
601396224,-0.27187374,0.057781957,-0.0063086483,0.0,0.0,0.0
601411284,-0.27139202,0.05880446,-0.0064088195,0.0,0.0,0.0
601436041,-0.27176967,0.060868878,-0.0066431146,0.0,0.0,0.0
601455933,-0.2736081,0.061464056,-0.0067538116,0.0,0.0,0.0
601475855,-0.27502313,0.06168604,-0.0068135434,0.0,0.0,0.0
601490934,-0.27577803,0.061922766,-0.0068586185,0.0,0.0,0.0
601515661,-0.2758738,0.06295182,-0.006975038,0.0,0.0,0.0
601535567,-0.27670038,0.06332957,-0.007038088,0.0,0.0,0.0
601550613,-0.27805611,0.06315694,-0.0070535783,0.0,0.0,0.0
601575386,-0.27994192,0.06325926,-0.007113323,0.0,0.0,0.0
601595296,-0.28113425,0.063557126,-0.007177515,0.0,0.0,0.0
601615204,-0.28210935,0.064635165,-0.007324791,0.0,0.0,0.0
601635117,-0.28320903,0.06602105,-0.007511261,0.0,0.0,0.0
601655020,-0.28406587,0.066699244,-0.0076115765,0.0,0.0,0.0
601674943,-0.28417107,0.065710135,-0.0075015035,0.0,0.0,0.0
601694846,-0.28312105,0.06436589,-0.0073206592,0.0,0.0,0.0
601714775,-0.2810717,0.0624877,-0.0070551606,0.0,0.0,0.0
601734711,-0.27889678,0.0608911,-0.0068212543,0.0,0.0,0.0
601754612,-0.27790195,0.059704028,-0.0066642184,0.0,0.0,0.0
601774505,-0.27739236,0.05863287,-0.0065325545,0.0,0.0,0.0
601794416,-0.27631614,0.058272783,-0.0064670397,0.0,0.0,0.0
601814329,-0.27533674,0.058625408,-0.006482925,0.0,0.0,0.0
601834232,-0.27409428,0.0594269,-0.006541662,0.0,0.0,0.0
601854173,-0.27361453,0.059938386,-0.006586324,0.0,0.0,0.0
601874077,-0.2732787,0.060297474,-0.006617585,0.0,0.0,0.0
601893960,-0.27294084,0.060694885,-0.0066528996,0.0,0.0,0.0
601913872,-0.27197915,0.061688483,-0.006737796,0.0,0.0,0.0
601933783,-0.27103838,0.06293352,-0.006849819,0.0,0.0,0.0
601953696,-0.26795062,0.06667492,-0.007173725,0.0,0.0,0.0
601973571,-0.26566508,0.07006861,-0.0074740686,0.0,0.0,0.0
601993500,-0.26470742,0.072196394,-0.007673065,0.0,0.0,0.0
602013401,-0.26425204,0.073566586,-0.0078051374,0.0,0.0,0.0
602033295,-0.26325098,0.07485149,-0.007911152,0.0,0.0,0.0
602053217,-0.26267305,0.07540792,-0.007952337,0.0,0.0,0.0
602073199,-0.2626456,0.0758565,-0.0079988,0.0,0.0,0.0
602093027,-0.26231074,0.07665362,-0.008072473,0.0,0.0,0.0
602112931,-0.26212975,0.07709306,-0.008113107,0.0,0.0,0.0
602132874,-0.26208496,0.07727299,-0.008130643,0.0,0.0,0.0
602152751,-0.26206583,0.07730678,-0.0081336005,0.0,0.0,0.0
602177773,-0.26189503,0.07749881,-0.00814845,0.0,0.0,0.0
602192570,-0.2617564,0.07769549,-0.008164774,0.0,0.0,0.0
602212482,-0.26164463,0.07794524,-0.008187496,0.0,0.0,0.0
602237526,-0.2614843,0.078208864,-0.008210117,0.0,0.0,0.0
602252300,-0.26126665,0.07844773,-0.008228287,0.0,0.0,0.0
602272207,-0.2611515,0.07859656,-0.008240238,0.0,0.0,0.0
602297199,-0.26125154,0.0788448,-0.008269454,0.0,0.0,0.0
602317176,-0.2612194,0.07905979,-0.008290975,0.0,0.0,0.0
602331936,-0.26121107,0.07921318,-0.008306795,0.0,0.0,0.0
602351843,-0.2612048,0.07937655,-0.008323724,0.0,0.0,0.0
602376833,-0.2612382,0.07954012,-0.008341951,0.0,0.0,0.0
602391733,-0.26128286,0.07964691,-0.00835459,0.0,0.0,0.0
602411584,-0.2614862,0.07970586,-0.008367328,0.0,0.0,0.0
602436579,-0.26171312,0.07985788,-0.008390616,0.0,0.0,0.0
602456547,-0.26169032,0.08008033,-0.00841325,0.0,0.0,0.0
602471665,-0.2617225,0.08012462,-0.008418946,0.0,0.0,0.0
602496569,-0.26211908,0.0800383,-0.008422713,0.0,0.0,0.0
602516296,-0.26243395,0.07994347,-0.008422913,0.0,0.0,0.0
602531026,-0.26271436,0.07978958,-0.008415748,0.0,0.0,0.0
602556084,-0.2627997,0.07965653,-0.008404464,0.0,0.0,0.0
602576029,-0.26247293,0.079490334,-0.008376424,0.0,0.0,0.0
602595841,-0.2621009,0.079391554,-0.00835407,0.0,0.0,0.0
602610663,-0.26193812,0.07937299,-0.008346891,0.0,0.0,0.0
602635657,-0.26255918,0.07844706,-0.008269223,0.0,0.0,0.0
602655563,-0.26303324,0.07787227,-0.008223565,0.0,0.0,0.0
602670405,-0.26303005,0.07777436,-0.008213126,0.0,0.0,0.0
602695381,-0.26316902,0.07756539,-0.008195417,0.0,0.0,0.0
602715323,-0.2630269,0.07767406,-0.0082024345,0.0,0.0,0.0
602735198,-0.2629784,0.07770944,-0.0082046455,0.0,0.0,0.0
602755109,-0.262746,0.07802242,-0.008230358,0.0,0.0,0.0
602775056,-0.2625055,0.078338645,-0.008256095,0.0,0.0,0.0
602794935,-0.26225656,0.07866092,-0.00828214,0.0,0.0,0.0
602814840,-0.26197365,0.07908555,-0.0083178,0.0,0.0,0.0
602834853,-0.26187226,0.079278946,-0.008334889,0.0,0.0,0.0
602854659,-0.26193655,0.079339154,-0.008343283,0.0,0.0,0.0
602874587,-0.26191443,0.0795286,-0.0083624935,0.0,0.0,0.0
602894474,-0.2619639,0.07965268,-0.008377134,0.0,0.0,0.0
602914430,-0.26202363,0.079787984,-0.00839329,0.0,0.0,0.0
602934319,-0.26214287,0.07977949,-0.008396245,0.0,0.0,0.0
602954197,-0.26226503,0.07976231,-0.008398377,0.0,0.0,0.0
602974166,-0.2621961,0.080057636,-0.008427241,0.0,0.0,0.0
602994058,-0.26190633,0.080478184,-0.008462079,0.0,0.0,0.0
603014023,-0.2616553,0.0810026,-0.008508997,0.0,0.0,0.0
603033906,-0.26193506,0.08101833,-0.008519814,0.0,0.0,0.0
603053812,-0.26223323,0.08111367,-0.008539622,0.0,0.0,0.0
603073737,-0.26255053,0.08168864,-0.008610639,0.0,0.0,0.0
603093678,-0.26303548,0.08245841,-0.008707951,0.0,0.0,0.0
603113565,-0.26376364,0.08284369,-0.008773037,0.0,0.0,0.0
603133473,-0.26364237,0.08233593,-0.008715227,0.0,0.0,0.0
603153374,-0.2636847,0.08168696,-0.008647934,0.0,0.0,0.0
603173218,-0.26360452,0.08144698,-0.008619887,0.0,0.0,0.0
603193115,-0.26371485,0.081077516,-0.0085844025,0.0,0.0,0.0
603213083,-0.2639167,0.08068475,-0.008549405,0.0,0.0,0.0
603232927,-0.2636464,0.0807672,-0.00854931,0.0,0.0,0.0
603252841,-0.26325142,0.08093185,-0.0085538095,0.0,0.0,0.0
603272749,-0.2625428,0.0813706,-0.00857686,0.0,0.0,0.0
603292663,-0.26220325,0.081520565,-0.008581472,0.0,0.0,0.0
603312732,-0.2616197,0.08206611,-0.008619531,0.0,0.0,0.0
603332490,-0.26175556,0.08174087,-0.008589863,0.0,0.0,0.0
603357251,-0.2623805,0.08094757,-0.008526957,0.0,0.0,0.0
603372314,-0.26201287,0.08118126,-0.0085395025,0.0,0.0,0.0
603392203,-0.2621915,0.08095046,-0.0085210735,0.0,0.0,0.0
603416985,-0.26184553,0.081303485,-0.008546858,0.0,0.0,0.0
603436885,-0.26150554,0.08155952,-0.008562559,0.0,0.0,0.0
603451953,-0.26137382,0.08156241,-0.008558517,0.0,0.0,0.0
603471864,-0.26128203,0.08151066,-0.008550062,0.0,0.0,0.0
603496640,-0.261325,0.08132438,-0.008531936,0.0,0.0,0.0
603511714,-0.261379,0.081209324,-0.008521638,0.0,0.0,0.0
603531699,-0.26181653,0.08075188,-0.008487924,0.0,0.0,0.0
603556355,-0.26211843,0.0804349,-0.008464428,0.0,0.0,0.0
603576298,-0.26181838,0.08062752,-0.008474914,0.0,0.0,0.0
603591587,-0.26231003,0.080078065,-0.008433081,0.0,0.0,0.0
603616159,-0.26388583,0.0779119,-0.008254618,0.0,0.0,0.0
603636089,-0.26404035,0.077778295,-0.008245325,0.0,0.0,0.0
603651321,-0.26416728,0.07759293,-0.008229658,0.0,0.0,0.0
603675796,-0.26541966,0.07584353,-0.008082536,0.0,0.0,0.0
603695708,-0.26776633,0.07258479,-0.007804171,0.0,0.0,0.0
603715638,-0.26960787,0.06880673,-0.0074492358,0.0,0.0,0.0
603735527,-0.26997855,0.06762029,-0.0073309317,0.0,0.0,0.0
603755440,-0.26847962,0.0691939,-0.0074595595,0.0,0.0,0.0
603775343,-0.2679516,0.069513276,-0.007479139,0.0,0.0,0.0
603790408,-0.26770428,0.069717735,-0.0074941604,0.0,0.0,0.0
603815161,-0.26697096,0.07027291,-0.0075329863,0.0,0.0,0.0
603835074,-0.266437,0.07118658,-0.00761555,0.0,0.0,0.0
603854981,-0.26667166,0.07048169,-0.0075468323,0.0,0.0,0.0
603874893,-0.26793876,0.06956719,-0.007484578,0.0,0.0,0.0
603894820,-0.2679474,0.070731215,-0.0076100603,0.0,0.0,0.0
603914763,-0.26905,0.0720308,-0.007782022,0.0,0.0,0.0
603934620,-0.2734415,0.07420411,-0.008148713,0.0,0.0,0.0
603954526,-0.28081146,0.07681135,-0.008664272,0.0,0.0,0.0
603974440,-0.29438934,0.08014996,-0.009481986,0.0,0.0,0.0
603994342,-0.29670492,0.08149006,-0.009717067,0.0,0.0,0.0
604014252,-0.2958708,0.08133072,-0.009670545,0.0,0.0,0.0
604034162,-0.2943179,0.08080306,-0.009556908,0.0,0.0,0.0
604054077,-0.29350314,0.08025627,-0.009465716,0.0,0.0,0.0
604073981,-0.29301423,0.07989525,-0.009407294,0.0,0.0,0.0
604093896,-0.2926235,0.07959753,-0.009359627,0.0,0.0,0.0
604113805,-0.29177916,0.07937441,-0.009306214,0.0,0.0,0.0
604133744,-0.28960747,0.07844413,-0.00912807,0.0,0.0,0.0
604153651,-0.2865585,0.07839027,-0.009024919,0.0,0.0,0.0
604173561,-0.283786,0.07631392,-0.0087001305,0.0,0.0,0.0
604193478,-0.27851176,0.074165806,-0.008296772,0.0,0.0,0.0
604213345,-0.27762806,0.074221164,-0.008276401,0.0,0.0,0.0
604233261,-0.2766141,0.07457152,-0.00828485,0.0,0.0,0.0
604253176,-0.27454406,0.07427246,-0.008189373,0.0,0.0,0.0
604273076,-0.27329487,0.07348337,-0.008065204,0.0,0.0,0.0
604293006,-0.27100956,0.074329555,-0.00808932,0.0,0.0,0.0
604312891,-0.2705218,0.073767744,-0.008013615,0.0,0.0,0.0
604332836,-0.27022535,0.07282015,-0.007901939,0.0,0.0,0.0
604352761,-0.27065945,0.07077523,-0.0076924725,0.0,0.0,0.0
604372650,-0.27128604,0.06818021,-0.0074277134,0.0,0.0,0.0
604392560,-0.2724639,0.066010535,-0.0072228145,0.0,0.0,0.0
604417547,-0.27449667,0.062949,-0.0069396268,0.0,0.0,0.0
604432376,-0.27460128,0.062606156,-0.006904482,0.0,0.0,0.0
604452312,-0.2748265,0.062463492,-0.0068944446,0.0,0.0,0.0
604477327,-0.27337074,0.06345853,-0.006966873,0.0,0.0,0.0
604492072,-0.27215385,0.06563004,-0.007172945,0.0,0.0,0.0
604511980,-0.27280545,0.06490369,-0.0071106786,0.0,0.0,0.0
604536974,-0.27509317,0.0635584,-0.0070221573,0.0,0.0,0.0
604556976,-0.27666545,0.06273201,-0.006970793,0.0,0.0,0.0
604571711,-0.276555,0.0626397,-0.0069577335,0.0,0.0,0.0
604596706,-0.2748518,0.062119637,-0.0068571274,0.0,0.0,0.0
604616610,-0.27379727,0.061947413,-0.0068116696,0.0,0.0,0.0
604631442,-0.27458924,0.062961705,-0.006943387,0.0,0.0,0.0
604651351,-0.2779695,0.06630162,-0.007402462,0.0,0.0,0.0
604676343,-0.2829215,0.06871171,-0.007809375,0.0,0.0,0.0
604696435,-0.2859477,0.06864364,-0.007885816,0.0,0.0,0.0
604711425,-0.2869674,0.06834698,-0.007879982,0.0,0.0,0.0
604736153,-0.2892405,0.06871815,-0.007986094,0.0,0.0,0.0
604756064,-0.29020533,0.06876243,-0.008018137,0.0,0.0,0.0
604770830,-0.2903444,0.06865515,-0.008009498,0.0,0.0,0.0
604795816,-0.3016098,0.07734571,-0.009376828,0.0,0.0,0.0
604815707,-0.30603963,0.07993022,-0.009833898,0.0,0.0,0.0
604835613,-0.30870837,0.0808981,-0.010040654,0.0,0.0,0.0
604855572,-0.30810744,0.08003721,-0.00991427,0.0,0.0,0.0
604875485,-0.3085293,0.08017859,-0.009945521,0.0,0.0,0.0
604895339,-0.30839077,0.079949066,-0.009912551,0.0,0.0,0.0
604910166,-0.30911744,0.07977216,-0.009914163,0.0,0.0,0.0
604935186,-0.3103142,0.079715066,-0.00994582,0.0,0.0,0.0
604955080,-0.31055582,0.079541765,-0.009932003,0.0,0.0,0.0
604974977,-0.3099792,0.07841007,-0.009772327,0.0,0.0,0.0
604994966,-0.30627578,0.0747624,-0.009205264,0.0,0.0,0.0
605014797,-0.30493036,0.07331851,-0.00898743,0.0,0.0,0.0
605034723,-0.30384472,0.072547846,-0.008860985,0.0,0.0,0.0
605054615,-0.30282542,0.0719621,-0.008759666,0.0,0.0,0.0
605074571,-0.3002492,0.068671614,-0.008287323,0.0,0.0,0.0
605094459,-0.2992603,0.06673099,-0.008026348,0.0,0.0,0.0
605114343,-0.2983758,0.065089755,-0.0078055807,0.0,0.0,0.0
605134246,-0.29760525,0.063514434,-0.007596811,0.0,0.0,0.0
605154209,-0.29635563,0.061188854,-0.007287633,0.0,0.0,0.0
605174067,-0.29477814,0.060445633,-0.007160435,0.0,0.0,0.0
605193976,-0.2935799,0.05948348,-0.0070175496,0.0,0.0,0.0
605213888,-0.29292932,0.059234247,-0.006972518,0.0,0.0,0.0
605233815,-0.29296425,0.0585585,-0.0068938043,0.0,0.0,0.0
605253749,-0.29293263,0.05739522,-0.006756121,0.0,0.0,0.0
605273654,-0.29214418,0.056037094,-0.0065783355,0.0,0.0,0.0
605293549,-0.2915249,0.05512596,-0.006457532,0.0,0.0,0.0
605313466,-0.29126474,0.054448172,-0.0063723917,0.0,0.0,0.0
605333381,-0.2911528,0.053163607,-0.006219638,0.0,0.0,0.0
605353274,-0.29092842,0.051984306,-0.0060769417,0.0,0.0,0.0
605373205,-0.29055244,0.05159043,-0.006023033,0.0,0.0,0.0
605393064,-0.29062614,0.051484007,-0.0060121464,0.0,0.0,0.0
605412978,-0.29073662,0.051955946,-0.0060695857,0.0,0.0,0.0
605432887,-0.2911416,0.052246287,-0.006112083,0.0,0.0,0.0
605452846,-0.2914578,0.052547053,-0.006154006,0.0,0.0,0.0
605472742,-0.29171214,0.05245061,-0.0061481195,0.0,0.0,0.0
605492622,-0.29246786,0.05246452,-0.0061658286,0.0,0.0,0.0
605512538,-0.2928344,0.053031906,-0.006240393,0.0,0.0,0.0
605537300,-0.29380178,0.0532515,-0.0062871254,0.0,0.0,0.0
605552347,-0.2930104,0.054365978,-0.006401257,0.0,0.0,0.0
605572283,-0.29148948,0.055640917,-0.006517056,0.0,0.0,0.0
605597024,-0.29119074,0.055824712,-0.006531821,0.0,0.0,0.0
605612115,-0.29163486,0.05375912,-0.0062998156,0.0,0.0,0.0
605632044,-0.29173565,0.05244996,-0.006148544,0.0,0.0,0.0
605656795,-0.29107875,0.052826222,-0.006178581,0.0,0.0,0.0
605676708,-0.28611898,0.053829946,-0.0061877477,0.0,0.0,0.0
605691762,-0.2846932,0.054553814,-0.006239435,0.0,0.0,0.0
605716559,-0.28430837,0.053788453,-0.006143511,0.0,0.0,0.0
605736419,-0.28467792,0.054225713,-0.0062015736,0.0,0.0,0.0
605751519,-0.28469217,0.05393305,-0.0061684134,0.0,0.0,0.0
605771377,-0.28452566,0.054181963,-0.0061932267,0.0,0.0,0.0
605796114,-0.28419998,0.054370057,-0.006207551,0.0,0.0,0.0
605816040,-0.2842693,0.054429457,-0.006215862,0.0,0.0,0.0
605831460,-0.28430405,0.054425687,-0.0062161977,0.0,0.0,0.0
605855927,-0.28466293,0.053363588,-0.006102651,0.0,0.0,0.0
605875859,-0.2842052,0.053669576,-0.0061276886,0.0,0.0,0.0
605891128,-0.28345963,0.05434906,-0.00618885,0.0,0.0,0.0
605915569,-0.28240198,0.05516247,-0.006257836,0.0,0.0,0.0
605935501,-0.2815603,0.05615407,-0.0063511785,0.0,0.0,0.0
605955406,-0.28072345,0.056240685,-0.006341909,0.0,0.0,0.0
605975299,-0.27945653,0.05690955,-0.0063881283,0.0,0.0,0.0
605995225,-0.2789506,0.057382498,-0.0064294576,0.0,0.0,0.0
606015118,-0.2784439,0.057995796,-0.0064862734,0.0,0.0,0.0
606035030,-0.2778676,0.058362372,-0.006513649,0.0,0.0,0.0
606054939,-0.27712303,0.058917418,-0.0065578315,0.0,0.0,0.0
606074862,-0.27694574,0.059034035,-0.006566573,0.0,0.0,0.0
606089897,-0.27673057,0.059109308,-0.0065697962,0.0,0.0,0.0
606114664,-0.2754666,0.060050253,-0.0066436445,0.0,0.0,0.0
606134572,-0.27376932,0.061331972,-0.0067433016,0.0,0.0,0.0
606154481,-0.27290997,0.06187007,-0.0067809406,0.0,0.0,0.0
606174389,-0.27309057,0.061437834,-0.006738059,0.0,0.0,0.0
606194312,-0.2725725,0.061788246,-0.0067635323,0.0,0.0,0.0
606214208,-0.2724074,0.061685808,-0.0067481967,0.0,0.0,0.0
606234121,-0.27154964,0.062202517,-0.006783126,0.0,0.0,0.0
606254029,-0.27129582,0.062289838,-0.0067862486,0.0,0.0,0.0
606273948,-0.2710671,0.062686995,-0.006823715,0.0,0.0,0.0
606293845,-0.2708835,0.06288806,-0.0068409285,0.0,0.0,0.0
606313789,-0.2707958,0.062892854,-0.0068392176,0.0,0.0,0.0
606333668,-0.2706808,0.06307464,-0.00685605,0.0,0.0,0.0
606353586,-0.27063066,0.0630681,-0.0068540582,0.0,0.0,0.0
606373485,-0.2708464,0.062967636,-0.0068486393,0.0,0.0,0.0
606393417,-0.27082223,0.0629478,-0.006845866,0.0,0.0,0.0
606413332,-0.27060547,0.06327732,-0.0068761506,0.0,0.0,0.0
606433240,-0.27030063,0.06374937,-0.0069195824,0.0,0.0,0.0
606453139,-0.27018148,0.064034656,-0.00694746,0.0,0.0,0.0
606473029,-0.27015638,0.06408709,-0.006952498,0.0,0.0,0.0
606492937,-0.27027628,0.064118184,-0.0069589834,0.0,0.0,0.0
606517938,-0.27036175,0.064293124,-0.006980194,0.0,0.0,0.0
606532760,-0.27026847,0.064200304,-0.006967693,0.0,0.0,0.0
606552673,-0.2702725,0.06422335,-0.0069702985,0.0,0.0,0.0
606577728,-0.27035978,0.06370679,-0.0069164857,0.0,0.0,0.0
606592511,-0.27042925,0.063705705,-0.00691816,0.0,0.0,0.0
606612390,-0.2701056,0.06394287,-0.006935539,0.0,0.0,0.0
606632305,-0.26991656,0.06417528,-0.0069558364,0.0,0.0,0.0
606657322,-0.26949745,0.06423497,-0.006951412,0.0,0.0,0.0
606672124,-0.26940084,0.064158134,-0.0069405884,0.0,0.0,0.0
606692034,-0.26882848,0.064885736,-0.0070042717,0.0,0.0,0.0
606717048,-0.26855353,0.0651756,-0.0070283096,0.0,0.0,0.0
606731846,-0.26834697,0.06549351,-0.0070571178,0.0,0.0,0.0
606751780,-0.2681243,0.06557068,-0.007059526,0.0,0.0,0.0
606776792,-0.26807186,0.0653811,-0.007037727,0.0,0.0,0.0
606796707,-0.26798123,0.0654141,-0.0070388806,0.0,0.0,0.0
606811484,-0.2679584,0.065490045,-0.0070464476,0.0,0.0,0.0
606836475,-0.26769626,0.06559814,-0.00705112,0.0,0.0,0.0
606856385,-0.26750788,0.06584182,-0.0070722955,0.0,0.0,0.0
606871209,-0.26741287,0.065909475,-0.007077029,0.0,0.0,0.0
606896247,-0.26716244,0.06627577,-0.007109643,0.0,0.0,0.0
606916144,-0.2668479,0.06647617,-0.0071226824,0.0,0.0,0.0
606936081,-0.26677278,0.06643148,-0.0071158735,0.0,0.0,0.0
606951137,-0.26678175,0.06641806,-0.0071146777,0.0,0.0,0.0
606975955,-0.26661083,0.06630477,-0.0070979577,0.0,0.0,0.0
606995863,-0.26644772,0.06628955,-0.007091954,0.0,0.0,0.0
607010631,-0.26637536,0.06623445,-0.007084119,0.0,0.0,0.0
607035718,-0.26612848,0.06613522,-0.0070669004,0.0,0.0,0.0
607055547,-0.26598743,0.06624729,-0.007075095,0.0,0.0,0.0
607075388,-0.26569742,0.06646913,-0.007090989,0.0,0.0,0.0
607095373,-0.2656745,0.066424645,-0.0070856274,0.0,0.0,0.0
607115221,-0.26557094,0.06633648,-0.007073444,0.0,0.0,0.0
607135111,-0.26550537,0.06623498,-0.0070608645,0.0,0.0,0.0
607155062,-0.26567003,0.06604531,-0.007045043,0.0,0.0,0.0
607175012,-0.26574662,0.065910995,-0.0070327586,0.0,0.0,0.0
607194885,-0.265804,0.06583005,-0.00702565,0.0,0.0,0.0
607214777,-0.26589555,0.06564938,-0.0070088,0.0,0.0,0.0
607234688,-0.2660844,0.065446235,-0.006992112,0.0,0.0,0.0
607254625,-0.26621014,0.065272346,-0.0069768545,0.0,0.0,0.0
607274539,-0.2663733,0.065017514,-0.0069539067,0.0,0.0,0.0
607294399,-0.26613373,0.06500151,-0.006945895,0.0,0.0,0.0
607314292,-0.26597217,0.06487119,-0.00692773,0.0,0.0,0.0
607334201,-0.2661158,0.06470878,-0.0069141462,0.0,0.0,0.0
607354108,-0.26630974,0.0644948,-0.006896342,0.0,0.0,0.0
607374025,-0.26635176,0.06445459,-0.006893139,0.0,0.0,0.0
607393988,-0.26630282,0.06427836,-0.0068730186,0.0,0.0,0.0
607413911,-0.26634407,0.063913085,-0.006835028,0.0,0.0,0.0
607433752,-0.26628283,0.06374269,-0.006815226,0.0,0.0,0.0
607453660,-0.26615745,0.06357565,-0.006794142,0.0,0.0,0.0
607473636,-0.2659792,0.06347055,-0.006778333,0.0,0.0,0.0
607493479,-0.2658407,0.063417375,-0.006769101,0.0,0.0,0.0
607513459,-0.26573426,0.063529745,-0.0067783594,0.0,0.0,0.0
607533322,-0.26578552,0.063430615,-0.0067690983,0.0,0.0,0.0
607553232,-0.265662,0.06345539,-0.0067685707,0.0,0.0,0.0
607573148,-0.26558763,0.063493766,-0.006770754,0.0,0.0,0.0
607593078,-0.26559055,0.06357098,-0.006779063,0.0,0.0,0.0
607612927,-0.26559764,0.06364318,-0.0067869453,0.0,0.0,0.0
607637724,-0.2655188,0.06385213,-0.0068071918,0.0,0.0,0.0
607652779,-0.26547104,0.064043656,-0.006826372,0.0,0.0,0.0
607672686,-0.26526877,0.06433484,-0.0068521444,0.0,0.0,0.0
607697433,-0.2651397,0.06479619,-0.006897898,0.0,0.0,0.0
607712475,-0.2651583,0.064974144,-0.0069173323,0.0,0.0,0.0
607732383,-0.26531595,0.065176785,-0.006943062,0.0,0.0,0.0
607752292,-0.26546267,0.065394394,-0.0069701253,0.0,0.0,0.0
607772275,-0.26558024,0.065610774,-0.0069963085,0.0,0.0,0.0
607792141,-0.2657475,0.065876074,-0.007029056,0.0,0.0,0.0
607812022,-0.26588368,0.06609967,-0.0070565557,0.0,0.0,0.0
607836796,-0.26602757,0.06634585,-0.007086699,0.0,0.0,0.0
607851874,-0.2660039,0.06648222,-0.007100629,0.0,0.0,0.0
607871769,-0.2659478,0.0668068,-0.007133779,0.0,0.0,0.0
607896538,-0.26591462,0.06691294,-0.0071442146,0.0,0.0,0.0
607916438,-0.26599813,0.06692831,-0.0071481173,0.0,0.0,0.0
607931476,-0.26615164,0.06674554,-0.007132742,0.0,0.0,0.0
607956248,-0.26610127,0.06654034,-0.0071094576,0.0,0.0,0.0
607976181,-0.26598278,0.06636134,-0.00708715,0.0,0.0,0.0
607991260,-0.26586694,0.06624091,-0.0070711845,0.0,0.0,0.0
608015982,-0.26562518,0.066213876,-0.0070618237,0.0,0.0,0.0
608035887,-0.26547098,0.06616343,-0.007052315,0.0,0.0,0.0
608055795,-0.26515484,0.066144474,-0.0070418366,0.0,0.0,0.0
608071155,-0.26511556,0.0659618,-0.00702134,0.0,0.0,0.0
608095701,-0.2649942,0.065813646,-0.0070023383,0.0,0.0,0.0
608115612,-0.26495805,0.06569592,-0.006988852,0.0,0.0,0.0
608130934,-0.2649433,0.0656543,-0.006984032,0.0,0.0,0.0
608155339,-0.26474717,0.06544527,-0.006956605,0.0,0.0,0.0
608175253,-0.26454356,0.06540221,-0.0069466406,0.0,0.0,0.0
608195162,-0.2645781,0.065271184,-0.0069336356,0.0,0.0,0.0
608215070,-0.26453924,0.065022714,-0.0069062198,0.0,0.0,0.0
608235028,-0.26440775,0.06495192,-0.006895245,0.0,0.0,0.0
608254918,-0.26418298,0.06494559,-0.0068886694,0.0,0.0,0.0
608274834,-0.26406735,0.06504027,-0.0068956683,0.0,0.0,0.0
608294747,-0.26391658,0.065040514,-0.0068917284,0.0,0.0,0.0
608314654,-0.26377636,0.064934164,-0.006876776,0.0,0.0,0.0
608334533,-0.26367423,0.06500444,-0.0068815337,0.0,0.0,0.0
608354439,-0.26347345,0.065087125,-0.006885001,0.0,0.0,0.0
608374349,-0.26326758,0.065204196,-0.0068919556,0.0,0.0,0.0
608394260,-0.26298833,0.06541968,-0.006907343,0.0,0.0,0.0
608414166,-0.26287606,0.06556395,-0.0069195977,0.0,0.0,0.0
608434073,-0.26275685,0.065765105,-0.0069376584,0.0,0.0,0.0
608453984,-0.26279092,0.06590828,-0.00695367,0.0,0.0,0.0
608473935,-0.26291525,0.066017345,-0.0069684964,0.0,0.0,0.0
608493848,-0.26297456,0.06627139,-0.0069969012,0.0,0.0,0.0
608513760,-0.26302546,0.06649618,-0.0070220036,0.0,0.0,0.0
608533653,-0.26317728,0.06654149,-0.007030875,0.0,0.0,0.0
608553557,-0.26337472,0.06673172,-0.007056304,0.0,0.0,0.0
608573466,-0.2635391,0.06688378,-0.0070768297,0.0,0.0,0.0
608593369,-0.26375374,0.066798255,-0.00707358,0.0,0.0,0.0
608613279,-0.26393837,0.06674647,-0.0070730816,0.0,0.0,0.0
608633270,-0.26405033,0.06676141,-0.0070776884,0.0,0.0,0.0
608653104,-0.26419607,0.06676838,-0.0070823617,0.0,0.0,0.0
608673008,-0.26439124,0.06661337,-0.0070711784,0.0,0.0,0.0
608692925,-0.26459798,0.066299655,-0.0070434213,0.0,0.0,0.0
608712797,-0.26469877,0.06599385,-0.0070136245,0.0,0.0,0.0
608732734,-0.26475367,0.06565058,-0.006978601,0.0,0.0,0.0
608757733,-0.26482648,0.06516983,-0.0069294185,0.0,0.0,0.0
608772526,-0.26485378,0.06479759,-0.0068905526,0.0,0.0,0.0
608792456,-0.26486626,0.06417409,-0.0068245754,0.0,0.0,0.0
608817527,-0.26474938,0.06346391,-0.0067460504,0.0,0.0,0.0
608832271,-0.26468983,0.06301168,-0.0066964617,0.0,0.0,0.0
608852164,-0.2646742,0.062444426,-0.0066357814,0.0,0.0,0.0
608877185,-0.26426226,0.061851047,-0.006562419,0.0,0.0,0.0
608897090,-0.2641115,0.06139397,-0.0065101786,0.0,0.0,0.0
608911908,-0.26401505,0.06098222,-0.006464138,0.0,0.0,0.0
608931797,-0.26391482,0.060481485,-0.0064086085,0.0,0.0,0.0
608956794,-0.26364237,0.06001768,-0.006352849,0.0,0.0,0.0
608971621,-0.26348615,0.05979166,-0.006325147,0.0,0.0,0.0
608991538,-0.26343334,0.059538793,-0.0062971255,0.0,0.0,0.0
609016516,-0.2636174,0.059108876,-0.006256056,0.0,0.0,0.0
609036502,-0.2633869,0.05901763,-0.006240896,0.0,0.0,0.0
609051252,-0.263326,0.058928795,-0.0062300507,0.0,0.0,0.0
609076238,-0.26324233,0.058856316,-0.0062203966,0.0,0.0,0.0
609096194,-0.26291505,0.058922518,-0.0062195933,0.0,0.0,0.0
609111274,-0.26271188,0.058921084,-0.0062146,0.0,0.0,0.0
609135973,-0.26213887,0.059405126,-0.0062518865,0.0,0.0,0.0
609155895,-0.26197752,0.05946954,-0.0062547848,0.0,0.0,0.0
609175805,-0.2610675,0.059979305,-0.006286327,0.0,0.0,0.0
609190880,-0.2609422,0.060120516,-0.0062980796,0.0,0.0,0.0
609215710,-0.26056796,0.06040299,-0.006318531,0.0,0.0,0.0
609235598,-0.26044795,0.060613304,-0.006337589,0.0,0.0,0.0
609250704,-0.2602075,0.060873896,-0.0063589173,0.0,0.0,0.0
609275426,-0.26031345,0.060833424,-0.006357296,0.0,0.0,0.0
609295269,-0.2603409,0.060770888,-0.006351435,0.0,0.0,0.0
609315159,-0.2602452,0.060775463,-0.0063495617,0.0,0.0,0.0
609335115,-0.26011106,0.060778044,-0.006346534,0.0,0.0,0.0
609354972,-0.26005003,0.06081674,-0.0063490737,0.0,0.0,0.0
609374885,-0.26003516,0.060854886,-0.0063526905,0.0,0.0,0.0
609394790,-0.25984195,0.060885366,-0.006351116,0.0,0.0,0.0
609414784,-0.25970772,0.06095502,-0.006355074,0.0,0.0,0.0
609434609,-0.25983712,0.06095443,-0.0063582,0.0,0.0,0.0
609454537,-0.25988942,0.06092163,-0.0063560675,0.0,0.0,0.0
609474439,-0.26002058,0.060923796,-0.006359525,0.0,0.0,0.0
609494356,-0.259969,0.060851343,-0.006350693,0.0,0.0,0.0
609514246,-0.25994608,0.060666125,-0.0063308002,0.0,0.0,0.0
609534155,-0.26012737,0.060548957,-0.0063230116,0.0,0.0,0.0
609554064,-0.26035425,0.060399223,-0.0063129165,0.0,0.0,0.0
609574047,-0.26054236,0.06001435,-0.0062772552,0.0,0.0,0.0
609593881,-0.26057383,0.059831012,-0.00625884,0.0,0.0,0.0
609613873,-0.26045933,0.05977549,-0.006250264,0.0,0.0,0.0
609633756,-0.26050237,0.059692293,-0.006242604,0.0,0.0,0.0
609653612,-0.2606475,0.059508774,-0.006226904,0.0,0.0,0.0
609673516,-0.26057085,0.059364453,-0.0062099625,0.0,0.0,0.0
609693424,-0.26037535,0.0593265,-0.0062013017,0.0,0.0,0.0
609713389,-0.26031142,0.059235323,-0.0061902404,0.0,0.0,0.0
609738110,-0.26021224,0.05908311,-0.0061719636,0.0,0.0,0.0
609753177,-0.26013905,0.05901584,-0.0061631897,0.0,0.0,0.0
609773093,-0.2599155,0.059001513,-0.0061563607,0.0,0.0,0.0
609793092,-0.25967687,0.059042916,-0.006154983,0.0,0.0,0.0
609812986,-0.25948375,0.059060704,-0.006152226,0.0,0.0,0.0
609832880,-0.25949162,0.058956698,-0.0061415797,0.0,0.0,0.0
609852785,-0.25964206,0.05886513,-0.0061356216,0.0,0.0,0.0
609877562,-0.25960416,0.058913577,-0.006139768,0.0,0.0,0.0
609892548,-0.25932115,0.05912613,-0.006155154,0.0,0.0,0.0
609912451,-0.259225,0.059397817,-0.0061811283,0.0,0.0,0.0
609937231,-0.25926718,0.059706774,-0.006214298,0.0,0.0,0.0
609952288,-0.2594009,0.059939288,-0.0062417383,0.0,0.0,0.0
609972179,-0.2593408,0.06033185,-0.0062811514,0.0,0.0,0.0
609996967,-0.25929913,0.06089944,-0.0063392175,0.0,0.0,0.0
610016894,-0.25966838,0.06097801,-0.0063565,0.0,0.0,0.0
610031881,-0.25986108,0.060992043,-0.0063627153,0.0,0.0,0.0
610051791,-0.25985,0.06140168,-0.006405174,0.0,0.0,0.0
610076565,-0.26000184,0.061721586,-0.0064423345,0.0,0.0,0.0
610091628,-0.2601365,0.061868764,-0.006461065,0.0,0.0,0.0
610111555,-0.26020458,0.06231964,-0.006509867,0.0,0.0,0.0
610136296,-0.26010156,0.06257592,-0.0065340307,0.0,0.0,0.0
610156206,-0.26015678,0.06268114,-0.0065464173,0.0,0.0,0.0
610171270,-0.26035053,0.062681414,-0.0065513565,0.0,0.0,0.0
610196018,-0.26133722,0.062109455,-0.006516358,0.0,0.0,0.0
610215927,-0.26297805,0.060613334,-0.0063996124,0.0,0.0,0.0
610231039,-0.26360485,0.060222927,-0.006373661,0.0,0.0,0.0
610255746,-0.2649188,0.058940277,-0.006269239,0.0,0.0,0.0
610275669,-0.26554033,0.058064014,-0.006190633,0.0,0.0,0.0
610295573,-0.26667082,0.056751,-0.006076599,0.0,0.0,0.0
610315499,-0.26656538,0.057017405,-0.0061026914,0.0,0.0,0.0
610335462,-0.2661498,0.05739579,-0.00613354,0.0,0.0,0.0
610355374,-0.26584217,0.057710174,-0.006159955,0.0,0.0,0.0
610370650,-0.26557526,0.057795208,-0.00616279,0.0,0.0,0.0
610395113,-0.26495016,0.058441777,-0.006216957,0.0,0.0,0.0
610415034,-0.26487845,0.058390927,-0.0062098536,0.0,0.0,0.0
610434931,-0.2649453,0.058227655,-0.0061940635,0.0,0.0,0.0
610454848,-0.26485676,0.058217447,-0.0061908937,0.0,0.0,0.0
610474755,-0.26509947,0.05799859,-0.006173314,0.0,0.0,0.0
610494690,-0.26551205,0.057950433,-0.006177861,0.0,0.0,0.0
610514564,-0.2658971,0.057295695,-0.0061169867,0.0,0.0,0.0
610534493,-0.26608527,0.05686142,-0.0060749515,0.0,0.0,0.0
610554386,-0.2656676,0.05700531,-0.0060806917,0.0,0.0,0.0
610574307,-0.26534516,0.05695306,-0.0060676895,0.0,0.0,0.0
610594201,-0.26483208,0.057290167,-0.006091713,0.0,0.0,0.0
610614113,-0.2642356,0.057748046,-0.0061264657,0.0,0.0,0.0
610634025,-0.2636759,0.058176797,-0.0061587812,0.0,0.0,0.0
610653973,-0.2633397,0.05836306,-0.006170564,0.0,0.0,0.0
610673841,-0.26334628,0.058179293,-0.00615129,0.0,0.0,0.0
610693764,-0.26342806,0.05803831,-0.0061383024,0.0,0.0,0.0
610713658,-0.26354286,0.05800175,-0.006137129,0.0,0.0,0.0
610733575,-0.2635816,0.058015507,-0.0061394945,0.0,0.0,0.0
610753478,-0.2636276,0.05811075,-0.006150654,0.0,0.0,0.0
610773387,-0.2637507,0.05829033,-0.0061725634,0.0,0.0,0.0
610793288,-0.263886,0.058410935,-0.006188533,0.0,0.0,0.0
610813201,-0.26400405,0.0584841,-0.0061990763,0.0,0.0,0.0
610833147,-0.26422685,0.058682863,-0.006225433,0.0,0.0,0.0
610858102,-0.26431787,0.058859378,-0.0062463256,0.0,0.0,0.0
610872939,-0.264479,0.058912676,-0.0062558223,0.0,0.0,0.0
610892877,-0.26473224,0.05886248,-0.0062565217,0.0,0.0,0.0
610912779,-0.26497027,0.058780074,-0.0062534222,0.0,0.0,0.0
610932694,-0.2651491,0.058763724,-0.006255933,0.0,0.0,0.0
610952592,-0.2654009,0.058676846,-0.0062526613,0.0,0.0,0.0
610972474,-0.2655922,0.058651473,-0.0062544974,0.0,0.0,0.0
610997466,-0.2658519,0.058621213,-0.0062574297,0.0,0.0,0.0
611012303,-0.2658936,0.058746547,-0.0062717986,0.0,0.0,0.0
611032233,-0.26589608,0.058951084,-0.006293694,0.0,0.0,0.0
611057244,-0.26612967,0.058903676,-0.0062941997,0.0,0.0,0.0
611072020,-0.26638204,0.05882553,-0.0062918556,0.0,0.0,0.0
611091931,-0.26681638,0.058584362,-0.0062763556,0.0,0.0,0.0
611116925,-0.26712304,0.05853477,-0.0062783062,0.0,0.0,0.0
611136896,-0.26712996,0.058678158,-0.0062938486,0.0,0.0,0.0
611151667,-0.26715434,0.05871249,-0.006298111,0.0,0.0,0.0
611176701,-0.26741397,0.058695123,-0.006302413,0.0,0.0,0.0
611196627,-0.2675041,0.058782525,-0.0063139424,0.0,0.0,0.0
611211420,-0.26746964,0.058917042,-0.006327569,0.0,0.0,0.0
611231321,-0.26775196,0.05869722,-0.0063106664,0.0,0.0,0.0
611256338,-0.26818073,0.05833324,-0.006281654,0.0,0.0,0.0
611276279,-0.26849708,0.057938013,-0.0062465104,0.0,0.0,0.0
611291071,-0.26866943,0.057715792,-0.0062265773,0.0,0.0,0.0
611316060,-0.26842836,0.057913687,-0.006242277,0.0,0.0,0.0
611335924,-0.26835454,0.05794315,-0.0062437225,0.0,0.0,0.0
611350749,-0.26845232,0.057795297,-0.0062300772,0.0,0.0,0.0
611375761,-0.2685405,0.057611167,-0.006212284,0.0,0.0,0.0
611395646,-0.26847997,0.05771149,-0.0062216884,0.0,0.0,0.0
611415592,-0.2686989,0.05742045,-0.0061953994,0.0,0.0,0.0
611435479,-0.2694711,0.056521248,-0.0061160414,0.0,0.0,0.0
611455454,-0.270332,0.05555208,-0.0060305246,0.0,0.0,0.0
611475377,-0.27100182,0.054731827,-0.005956319,0.0,0.0,0.0
611495454,-0.27191952,0.05387528,-0.005883114,0.0,0.0,0.0
611515228,-0.2739647,0.05172748,-0.005691403,0.0,0.0,0.0
611535033,-0.2760259,0.049583606,-0.0054968987,0.0,0.0,0.0
611554923,-0.27702138,0.048331384,-0.005377558,0.0,0.0,0.0
611574909,-0.27833578,0.04591117,-0.0051327134,0.0,0.0,0.0
611594748,-0.278575,0.045084815,-0.005044698,0.0,0.0,0.0
611614666,-0.2798249,0.043943662,-0.0049392567,0.0,0.0,0.0
611634574,-0.2794427,0.04444078,-0.0049882527,0.0,0.0,0.0
611654519,-0.2782329,0.045862712,-0.005125385,0.0,0.0,0.0
611674373,-0.27662638,0.04802026,-0.00533526,0.0,0.0,0.0
611694283,-0.27574834,0.04883054,-0.005407925,0.0,0.0,0.0
611714193,-0.2761087,0.048622686,-0.005392,0.0,0.0,0.0
611734201,-0.2764491,0.048523407,-0.0053876787,0.0,0.0,0.0
611754029,-0.27661884,0.048756536,-0.005416915,0.0,0.0,0.0
611773923,-0.27703354,0.048798874,-0.005429813,0.0,0.0,0.0
611793833,-0.27687773,0.04935674,-0.0054887733,0.0,0.0,0.0
611813766,-0.27641702,0.050191615,-0.005572252,0.0,0.0,0.0
611833652,-0.27607664,0.050383363,-0.0055865957,0.0,0.0,0.0
611853576,-0.27614042,0.04977719,-0.0055206674,0.0,0.0,0.0
611873514,-0.27599573,0.049633387,-0.005501812,0.0,0.0,0.0
611893391,-0.27613968,0.04933464,-0.0054715713,0.0,0.0,0.0
611913423,-0.27585608,0.049474586,-0.0054814103,0.0,0.0,0.0
611933197,-0.27584314,0.049432207,-0.005476456,0.0,0.0,0.0
611953176,-0.2757194,0.049398337,-0.005470229,0.0,0.0,0.0
611977874,-0.27509984,0.05016794,-0.0055428674,0.0,0.0,0.0
611992925,-0.2751049,0.050405513,-0.0055692196,0.0,0.0,0.0
612012877,-0.27592748,0.050522383,-0.0055989595,0.0,0.0,0.0
612037645,-0.280454,0.051578186,-0.0058105187,0.0,0.0,0.0
612052678,-0.2812362,0.051459283,-0.005813429,0.0,0.0,0.0
612072600,-0.2815102,0.05163655,-0.0058391867,0.0,0.0,0.0
612092508,-0.28309324,0.05232136,-0.005950184,0.0,0.0,0.0
612112373,-0.2882964,0.05358417,-0.006206787,0.0,0.0,0.0
612132286,-0.29108033,0.054885764,-0.0064195013,0.0,0.0,0.0
612152188,-0.29166704,0.054898307,-0.0064340285,0.0,0.0,0.0
612176988,-0.29149726,0.054722536,-0.006409662,0.0,0.0,0.0
612192009,-0.29016945,0.053361855,-0.0062215556,0.0,0.0,0.0
612211921,-0.28841814,0.05204751,-0.00603136,0.0,0.0,0.0
612236696,-0.28543836,0.05241438,-0.0060105706,0.0,0.0,0.0
612256605,-0.2827086,0.052452777,-0.0059569543,0.0,0.0,0.0
612271676,-0.2816469,0.052350707,-0.0059228446,0.0,0.0,0.0
612296423,-0.2805687,0.05192734,-0.005852265,0.0,0.0,0.0
612316331,-0.2807876,0.05060797,-0.005708058,0.0,0.0,0.0
612331423,-0.28117582,0.049827207,-0.005627833,0.0,0.0,0.0
612351284,-0.28136498,0.049062625,-0.005545235,0.0,0.0,0.0
612376057,-0.2816555,0.048613388,-0.0055001816,0.0,0.0,0.0
612395968,-0.28175598,0.047090083,-0.0053297505,0.0,0.0,0.0
612411017,-0.28146422,0.04793009,-0.0054191593,0.0,0.0,0.0
612435790,-0.2815043,0.047856577,-0.005411624,0.0,0.0,0.0
612455697,-0.2809035,0.047565434,-0.005367124,0.0,0.0,0.0
612470812,-0.28034484,0.046319537,-0.0052160597,0.0,0.0,0.0
612495517,-0.2805171,0.04458776,-0.0050241547,0.0,0.0,0.0
612515425,-0.27991948,0.04408888,-0.004957268,0.0,0.0,0.0
612535328,-0.27942467,0.04414243,-0.004954442,0.0,0.0,0.0
612555235,-0.2788289,0.044339895,-0.004965905,0.0,0.0,0.0
612575225,-0.27923226,0.0434188,-0.00486984,0.0,0.0,0.0
612595139,-0.27979806,0.04180159,-0.0046980334,0.0,0.0,0.0
612615059,-0.27831665,0.043185595,-0.004827669,0.0,0.0,0.0
612634897,-0.2763998,0.045225587,-0.005020611,0.0,0.0,0.0
612654788,-0.27538118,0.046785343,-0.0051744664,0.0,0.0,0.0
