timestamp,accel_device_id,gyro_device_id,accel_clipping[0],accel_clipping[1],accel_clipping[2],accel_error_count,gyro_error_count,accel_rate_hz,gyro_rate_hz,accel_raw_rate_hz,gyro_raw_rate_hz,accel_vibration_metric,gyro_vibration_metric,delta_angle_coning_metric,mean_accel[0],mean_accel[1],mean_accel[2],mean_gyro[0],mean_gyro[1],mean_gyro[2],var_accel[0],var_accel[1],var_accel[2],var_gyro[0],var_gyro[1],var_gyro[2],temperature_accel,temperature_gyro
540098185,4259850,4325386,0,0,0,0,0,402.54053,400.1761,2012.7051,2000.8804,0.12333692,0.009798074,4.8169156e-11,-0.4668849,-0.4480798,-9.661973,0.001101878,-0.00654941,0.00081621,0.0014781514,0.0099212425,0.013399636,7.394245e-05,0.00011448701,9.520575e-05,40.0,nan
541033077,4259850,4325386,0,0,0,0,0,402.54053,400.1761,2012.7051,2000.8804,0.073765576,0.009265692,6.0805125e-11,-0.48719975,-0.42795235,-9.699841,0.00585886,-0.0010534481,0.0003967074,0.0006845428,0.0022855531,0.002959525,4.9564977e-05,0.00013284992,0.0001412167,40.0,nan
542082962,4259850,4325386,0,0,0,0,0,402.54053,400.1761,2012.7051,2000.8804,0.064074785,0.0091879405,6.827803e-11,-0.49281797,-0.45430547,-9.687545,0.0054144054,-0.008631751,0.00060667703,0.00070765585,0.0013943741,0.005079625,4.1994797e-05,7.313706e-05,6.71818e-05,40.0,nan
543017851,4259850,4325386,0,0,0,0,0,402.54053,400.1761,2012.7051,2000.8804,0.051609617,0.008326864,4.6042004e-11,-0.52825856,-0.43097684,-9.728319,0.0009525625,-0.0061982893,6.668027e-05,0.00056542055,0.001659876,0.0028189472,5.057467e-05,6.295141e-05,8.341287e-05,40.0,nan
544062753,4259850,4325386,0,0,0,0,0,402.54053,400.1761,2012.7051,2000.8804,0.07326991,0.0096522635,6.827012e-11,-0.479387,-0.4180306,-9.721043,0.005033101,-0.0065158536,-0.00046323077,0.001971055,0.008200556,0.012834347,4.3266115e-05,0.00010184541,0.00010453279,40.0,nan
545102770,4259850,4325386,0,0,0,0,0,402.54053,400.1761,2012.7051,2000.8804,0.113047026,0.010280378,1.2338616e-10,-0.5182376,-0.40901417,-9.715004,0.008181457,-0.008157298,0.001554525,0.004059508,0.022405127,0.05948767,0.00015709011,0.00012754707,0.00010865208,40.0,nan
546047501,4259850,4325386,0,0,0,0,0,402.54053,400.1761,2012.7051,2000.8804,0.10164758,0.009675998,8.712845e-11,-0.4845856,-0.4084086,-9.709563,-0.0014600205,-0.010904653,0.0003258402,0.0014684435,0.0068724016,0.005204321,0.00010162365,8.893625e-05,0.00010238154,40.0,nan
547087399,4259850,4325386,0,0,0,0,0,402.54053,400.1761,2012.7051,2000.8804,0.11413887,0.009853658,4.134739e-11,-0.50254595,-0.40120515,-9.713938,0.0007075064,-0.008492465,-3.838069e-05,0.00021791522,0.0058306362,0.00801701,6.682295e-05,6.2549625e-05,7.5222735e-05,40.0,nan
548022274,4259850,4325386,0,0,0,0,0,402.54053,400.1761,2012.7051,2000.8804,0.13983239,0.010712248,6.4057974e-11,-0.5312556,-0.39535046,-9.753973,0.0068320534,-0.0043411558,0.00025101352,0.00036455665,0.01625668,0.037726115,0.00012085234,0.00010984577,9.8738295e-05,40.0,nan
549057218,4259850,4325386,0,0,0,0,0,402.54053,400.1761,2012.7051,2000.8804,0.09726858,0.009869327,5.3963823e-11,-0.5301451,-0.42241448,-9.7520685,-0.00042183077,-0.007991634,0.0005587365,0.0003569428,0.003075993,0.004581085,6.0412338e-05,8.714794e-05,8.00823e-05,40.0,nan
550102041,4259850,4325386,0,0,0,0,0,402.54053,400.1761,2012.7051,2000.8804,0.062017825,0.008837337,4.0761637e-11,-0.529634,-0.42723948,-9.767352,0.0042080083,-0.005637268,0.0006528139,0.0008072348,0.0012326604,0.0044087674,5.1398012e-05,6.894119e-05,7.8672165e-05,40.0,nan
551041950,4259850,4325386,0,0,0,0,0,402.54053,400.1761,2012.7051,2000.8804,0.085570246,0.009663032,5.0740065e-11,-0.54305965,-0.41380435,-9.746031,0.005061223,-0.009363198,0.0004008844,0.000394712,0.0008771804,0.0016482844,3.618044e-05,5.3183878e-05,6.446038e-05,40.0,nan
552086819,4259850,4325386,0,0,0,0,0,402.54053,400.1761,2012.7051,2000.8804,0.060291506,0.009493915,6.409187e-11,-0.50979733,-0.42347577,-9.741515,0.0022043535,-0.007919464,0.0011637413,0.0007241426,0.0010629544,0.0034789492,1.849885e-05,7.89831e-05,0.00013726838,40.0,nan
553026748,4259850,4325386,0,0,0,0,0,402.54053,400.1761,2012.7051,2000.8804,0.06190932,0.009444403,5.7712495e-11,-0.49800634,-0.415747,-9.670511,0.000788437,-0.008575475,0.00024036231,0.00090320973,0.0015549865,0.0019344038,4.338483e-05,9.578391e-05,5.986456e-05,40.0,nan
554071601,4259850,4325386,0,0,0,0,0,402.54053,400.1761,2012.7051,2000.8804,0.047964733,0.009623649,4.795558e-11,-0.49324477,-0.4339938,-9.713641,0.0023574887,-0.0055611674,-5.7550962e-05,0.00033358007,0.0011089848,0.0017483011,3.4975998e-05,8.9494424e-05,9.8141274e-05,40.0,nan
555011483,4259850,4325386,0,0,0,0,0,402.54053,400.1761,2012.7051,2000.8804,0.04761759,0.009333698,7.590401e-11,-0.5310231,-0.42449787,-9.72254,0.0026529056,-0.011935822,0.0002875752,0.0008950075,0.0010799015,0.0009843691,4.4180735e-05,6.581881e-05,9.484899e-05,40.0,nan
556056364,4259850,4325386,0,0,0,0,0,402.54053,400.1761,2012.7051,2000.8804,0.049246162,0.009115814,4.987734e-11,-0.5167196,-0.44798797,-9.7776165,0.004549237,-0.0060742586,0.00032485256,0.0005777654,0.0011516785,0.0015266634,6.0940853e-05,8.368823e-05,6.37911e-05,40.0,nan
557101248,4259850,4325386,0,0,0,0,0,402.54053,400.1761,2012.7051,2000.8804,0.067273006,0.009751937,7.134469e-11,-0.5166099,-0.43388158,-9.689852,0.004632486,-0.006862908,0.0006919744,0.0017176197,0.005468982,0.017867811,4.7393583e-05,9.132971e-05,7.382467e-05,40.0,nan
558036324,4259850,4325386,0,0,0,0,0,402.54053,400.1761,2012.7051,2000.8804,0.057741918,0.009256578,7.391607e-11,-0.49885374,-0.42063385,-9.720526,0.0073003704,-0.011637988,0.00019195721,0.00079416414,0.0025822364,0.0024531425,4.8559326e-05,7.6144344e-05,7.550349e-05,40.0,nan
559076027,4259850,4325386,0,0,0,0,0,402.54053,400.1761,2012.7051,2000.8804,0.06430679,0.00969647,5.1522085e-11,-0.54276294,-0.4373222,-9.702997,-0.00064442656,-0.0006595272,0.0003421425,0.0003379189,0.0017928059,0.003885691,5.8189104e-05,8.9112895e-05,8.186503e-05,40.0,nan
560110947,4259850,4325386,0,0,0,0,0,402.54053,400.1761,2012.7051,2000.8804,0.068897925,0.010173232,8.329538e-11,-0.51547,-0.42313376,-9.746031,-0.0016341526,-0.010565451,-1.8684988e-05,0.00045001906,0.0007571473,0.0017023138,8.0504884e-05,8.240557e-05,9.4256546e-05,40.0,nan
561050809,4259850,4325386,0,0,0,0,0,402.54053,400.1761,2012.7051,2000.8804,0.048073974,0.009627361,5.965893e-11,-0.5243759,-0.40562448,-9.71674,-0.00012616366,-0.007996918,0.00053501636,0.0006748586,0.0013063453,0.0014987221,5.3148124e-05,9.1957365e-05,0.000101361,40.0,nan
562080698,4259850,4325386,0,0,0,0,0,402.54053,400.1761,2012.7051,2000.8804,0.080547236,0.009279826,8.2500534e-11,-0.51512474,-0.41934624,-9.740429,0.004403172,-0.011397558,0.0001387333,0.00048373322,0.0010985897,0.00477463,6.879252e-05,6.50188e-05,7.9455735e-05,40.0,nan
563110687,4259850,4325386,0,0,0,0,0,402.54053,400.1761,2012.7051,2000.8804,0.5020489,0.027202949,6.584907e-11,-0.52567905,-0.4279884,-9.720466,-0.0011641561,-0.0054547996,-0.00031081235,-9.3062605e-05,0.009141031,0.026756909,6.44147e-05,9.39031e-05,0.00010748106,40.0,nan
564045477,4259850,4325386,0,0,0,0,0,402.54053,400.1761,2012.7051,2000.8804,0.2485034,0.014859867,7.21232e-11,-0.49350524,-0.41830868,-9.714454,0.0012018305,-0.0013394769,-0.00021925042,-0.0011964405,0.007905261,0.03783387,7.9527475e-05,0.000102298225,8.976412e-05,40.0,nan
565085370,4259850,4325386,0,0,0,0,0,402.54053,400.1761,2012.7051,2000.8804,0.103286475,0.0101155,8.7297294e-11,-0.42696252,-0.4166747,-9.642297,0.010369545,-0.0091131525,0.0006327886,0.00077326695,0.004012672,0.0063461675,4.5841436e-05,0.00012468615,8.838713e-05,40.0,nan
566025252,4259850,4325386,0,0,0,0,0,402.54053,400.1761,2012.7051,2000.8804,0.074788034,0.009029262,5.746701e-11,-0.5538413,-0.4159434,-9.732879,0.0035758757,-0.008827084,-0.00016044959,0.0004980321,0.004373894,0.003811352,6.912148e-05,8.0663995e-05,5.906645e-05,40.0,nan
567075137,4259850,4325386,0,0,0,0,0,402.54053,400.1761,2012.7051,2000.8804,0.08969887,0.009831935,9.7057355e-11,-0.47594175,-0.434294,-9.7009535,0.0072312136,-0.014804713,0.00024609588,0.0013737408,0.0059160655,0.010931735,7.3789924e-05,8.817928e-05,8.3042316e-05,40.0,nan
568010034,4259850,4325386,0,0,0,0,0,402.54053,400.1761,2012.7051,2000.8804,0.08311542,0.010219693,5.3836005e-11,-0.5045521,-0.41874903,-9.689275,0.0055713053,-0.0028690377,-0.00064567395,0.0011244416,0.0034135527,0.002690975,6.70497e-05,0.00010013432,8.280499e-05,40.0,nan
569044917,4259850,4325386,0,0,0,0,0,402.54053,400.1761,2012.7051,2000.8804,0.15172729,0.01092453,7.2127644e-11,-0.5194142,-0.4164192,-9.734937,0.007530647,-0.008025012,-0.00053804985,0.0011239493,0.015457084,0.026576547,9.4079e-05,7.9074394e-05,0.000108609886,40.0,nan
570094803,4259850,4325386,0,0,0,0,0,402.54053,400.1761,2012.7051,2000.8804,0.091513254,0.009941619,5.6919493e-11,-0.50256664,-0.4405572,-9.734463,0.00053393317,-0.006247419,-0.00040016207,0.00042734673,0.0016211552,0.0021466417,5.4348842e-05,9.451902e-05,8.219884e-05,40.5,nan
571034711,4259850,4325386,0,0,0,0,0,402.54053,400.1761,2012.7051,2000.8804,0.074219316,0.00887122,3.7826825e-11,-0.5193078,-0.4518965,-9.7252,0.0026778942,-0.003431582,0.00029219806,0.0004862288,0.0014459399,0.0016910719,5.3432555e-05,7.331857e-05,6.4389e-05,40.5,nan
572074606,4259850,4325386,0,0,0,0,0,402.54053,400.1761,2012.7051,2000.8804,0.08391896,0.009220381,7.360029e-11,-0.51279277,-0.47104782,-9.734458,0.010549241,-0.0045847986,0.00016835616,0.00027956592,0.0015365977,0.004313031,4.8025304e-05,6.971404e-05,7.5581745e-05,40.0,nan
573014492,4259850,4325386,0,0,0,0,0,402.54053,400.1761,2012.7051,2000.8804,0.16063945,0.011060723,1.9169576e-10,-0.5068211,-0.48860028,-9.746358,0.019826256,-0.007835175,0.000335744,0.019814786,0.08321547,0.049097713,0.00047909698,0.00016413374,0.00019657018,40.0,nan
574059364,4259850,4325386,0,0,0,0,0,402.54053,400.1761,2012.7051,2000.8804,0.21545899,0.01296853,9.687677e-10,-0.48958328,-0.75945026,-9.69301,0.12590826,-0.0065108826,-0.004615975,0.004459228,0.026485426,0.07558888,0.00031731417,0.00015369813,0.00015665063,40.0,nan
575094249,4259850,4325386,0,0,0,0,0,402.54053,400.1761,2012.7051,2000.8804,0.17398866,0.011632201,1.1547904e-10,-0.49201435,-1.048085,-9.683564,0.016438039,-0.010865582,-0.00012467288,0.0076209693,0.017148938,0.03910132,0.00018313876,9.585615e-05,7.3010604e-05,40.0,nan
576034302,4259850,4325386,0,0,0,0,0,402.54053,400.1761,2012.7051,2000.8804,0.31144595,0.015792936,1.2095291e-10,-0.47800213,-1.059119,-9.666519,0.005790236,-0.0076499106,-0.0006728757,-0.0025046943,0.024926893,0.100542046,0.00020354544,0.00013099963,8.761656e-05,40.0,nan
577079027,4259850,4325386,0,0,0,0,0,402.54053,400.1761,2012.7051,2000.8804,0.39395052,0.021395884,1.8548846e-10,-0.4751103,-1.0497684,-9.683556,0.008516213,-0.0070467875,-0.00057501544,0.023883097,0.04837257,0.1459872,0.00040423,0.00023500179,0.00010799993,40.0,nan
578008928,4259850,4325386,0,0,0,0,0,402.54053,400.1761,2012.7051,2000.8804,0.16549481,0.012790296,5.0881913e-11,-0.47741994,-1.0869805,-9.664501,0.009536309,-0.006493966,0.0005786834,0.00029984675,0.00031291926,0.001889213,5.329854e-05,5.4446748e-05,0.000101961705,40.0,nan
579048811,4259850,4325386,0,0,0,0,0,402.54053,400.1761,2012.7051,2000.8804,0.057488434,0.010314781,6.549292e-11,-0.4557073,-1.0900363,-9.676878,0.0043649855,-0.006727178,0.00049595494,0.00077359576,0.00028211,0.0019451557,6.332776e-05,7.583442e-05,0.0001022657,40.0,nan
580088698,4259850,4325386,0,0,0,0,0,402.54053,400.1761,2012.7051,2000.8804,0.082313135,0.009818242,6.804237e-11,-0.4198553,-1.0891833,-9.69221,0.0004829587,-0.009249137,0.0007792669,0.00034067183,0.0009731101,0.007804309,4.6565325e-05,7.174111e-05,0.00019020369,40.0,nan
581033589,4259850,4325386,0,0,0,0,0,402.54053,400.1761,2012.7051,2000.8804,0.079697914,0.009886353,1.0057972e-10,-0.44524562,-1.0917165,-9.719228,0.0053562657,-0.018243048,0.0021403371,0.0018644204,0.0005854652,0.004192785,7.334094e-05,8.817639e-05,6.026757e-05,40.0,nan
582073473,4259850,4325386,0,0,0,0,0,402.54053,400.1761,2012.7051,2000.8804,0.35099328,0.022205632,4.3131204e-10,-0.4420514,-1.0663633,-9.753161,-3.0001878e-05,-0.008575765,0.0013436647,0.050969187,0.032635476,0.22750954,0.0003973553,0.000716663,1.3482553e-05,40.0,nan
583008372,4259850,4325386,0,0,0,0,0,402.54053,400.1761,2012.7051,2000.8804,0.11579596,0.011953247,4.2355456e-11,-0.43900087,-1.0890204,-9.708593,-4.6540146e-05,-0.006545305,-0.00024839948,0.0005141618,0.00043384454,0.0025137179,6.6952576e-05,6.9980444e-05,9.8386525e-05,40.0,nan
584043254,4259850,4325386,0,0,0,0,0,402.54053,400.1761,2012.7051,2000.8804,0.057287317,0.010327806,1.155295e-10,-0.44064087,-1.086053,-9.710222,-0.0053250906,-0.02251264,0.0011859555,0.00045446187,0.0005557905,0.0028724128,5.4154254e-05,0.00013419116,6.610075e-05,40.0,nan
585088136,4259850,4325386,0,0,0,0,0,402.54053,400.1761,2012.7051,2000.8804,0.07253694,0.01051114,7.653846e-11,-0.5239386,-1.0636344,-9.569979,0.0044987435,-0.010929434,0.0005728199,0.00066016277,0.00096455525,0.006902434,6.414925e-05,0.000104506085,5.4427866e-05,40.0,nan
586028033,4259850,4325386,0,0,0,0,0,402.54053,400.1761,2012.7051,2000.8804,0.04955721,0.009688599,1.12335835e-10,-0.5697277,-1.0886035,-9.704896,0.0076776994,-0.010384131,0.00090471026,0.0007783351,0.00027672746,0.0013559798,8.504918e-05,0.00011401871,0.00010041763,40.0,nan
587067918,4259850,4325386,0,0,0,0,0,402.54053,400.1761,2012.7051,2000.8804,0.05116774,0.009669008,7.9021394e-11,-0.572231,-1.0693438,-9.755498,0.011346672,-0.0017199279,1.8299503e-05,0.00047500743,0.0005076514,0.0009551211,5.6640372e-05,0.0001097948,8.1654274e-05,40.0,nan
588107796,4259850,4325386,0,0,0,0,0,402.54053,400.1761,2012.7051,2000.8804,0.04976179,0.009689757,1.1400373e-10,-0.5181066,-1.0839592,-9.693615,0.005652883,-0.014270367,-5.3964104e-05,0.0010680777,0.0005370394,0.0036677734,7.207886e-05,9.428857e-05,0.00013904418,40.0,nan
589047714,4259850,4325386,0,0,0,0,0,402.54053,400.1761,2012.7051,2000.8804,0.046926755,0.008981988,4.2590598e-11,-0.5457939,-1.0802629,-9.661314,-0.00079099566,-0.003688684,0.000623926,0.00053771614,0.0002567941,0.0013990254,8.3789986e-05,8.9741145e-05,4.955575e-05,40.0,nan
590092754,4259850,4325386,0,0,0,0,0,402.54053,400.1761,2012.7051,2000.8804,0.08065814,0.01092887,7.372067e-11,-0.57341594,-1.0618539,-9.65154,0.007491709,-0.006046725,0.00091517426,0.001316275,0.0022164402,0.012655872,8.506402e-05,0.00013339648,8.8314766e-05,40.0,nan
591032467,4259850,4325386,0,0,0,0,0,402.54053,400.1761,2012.7051,2000.8804,0.10357023,0.012182836,7.9198446e-11,-0.55426216,-1.0689266,-9.67483,0.003571494,-0.009787969,-0.000756681,0.0011825647,0.0005819673,0.0025739698,6.4668515e-05,9.885717e-05,8.859129e-05,40.0,nan
592062348,4259850,4325386,0,0,0,0,0,402.54053,400.1761,2012.7051,2000.8804,0.14360467,0.014352164,2.428651e-10,-0.5709109,-1.0724446,-9.687556,0.01427833,0.010216629,0.0013787394,0.002525282,0.0030712152,0.021100195,0.00033415688,0.00061950955,0.00014362125,40.0,nan
593107222,4259850,4325386,0,0,0,0,0,402.54053,400.1761,2012.7051,2000.8804,0.23972593,0.044493757,2.5272033e-09,-0.7489078,-1.4772832,-9.615332,0.105209105,-0.031968825,-0.01651908,0.005488004,0.02501946,0.017519398,0.029330442,0.0037756113,0.007631196,40.0,nan
594042229,4259850,4325386,0,0,0,0,0,402.54053,400.1761,2012.7051,2000.8804,0.11452313,0.021354495,1.1084432e-10,-0.6640176,-1.0961794,-9.616981,-6.468363e-05,-0.0097016245,0.0015518152,0.001954506,0.0005559625,0.0036165395,0.0001579773,0.00022641812,8.099646e-05,40.0,nan
595077034,4259850,4325386,0,0,0,0,0,402.54053,400.1761,2012.7051,2000.8804,0.0834635,0.012343131,5.3347476e-11,-0.7297807,-1.1006281,-9.679958,0.0025893315,-0.0027443974,-0.0005138011,0.00093647937,0.0008441878,0.0049566324,9.4238756e-05,6.0938815e-05,0.00010545062,40.0,nan
596016899,4259850,4325386,0,0,0,0,0,402.54053,400.1761,2012.7051,2000.8804,0.11597194,0.011484587,6.440747e-11,-0.63301396,-1.0977458,-9.708815,0.0014559067,-0.004426602,4.537418e-05,0.00049605395,0.0021966444,0.020281592,5.2132447e-05,0.00010714862,0.000104925675,40.0,nan
597061807,4259850,4325386,0,0,0,0,0,402.54053,400.1761,2012.7051,2000.8804,0.0631643,0.0098918695,9.788628e-11,-0.60285765,-1.0938882,-9.675638,0.0036438382,-0.015638541,0.0017661903,0.00070566067,0.00029009653,0.002619589,5.399222e-05,7.362391e-05,8.509492e-05,40.0,nan
598106660,4259850,4325386,0,0,0,0,0,402.54053,400.1761,2012.7051,2000.8804,0.064770944,0.009345371,5.3806928e-11,-0.7179879,-1.0923222,-9.674794,0.0010662155,-0.008875892,0.00018295589,0.00044717957,0.0004076482,0.003592907,5.857624e-05,7.718619e-05,8.682947e-05,40.0,nan
599046547,4259850,4325386,0,0,0,0,0,402.54053,400.1761,2012.7051,2000.8804,0.09490687,0.01127604,1.0732571e-10,-0.68650115,-1.0880387,-9.637431,0.0030686217,-0.0056634475,-0.0010343776,0.0025286595,0.004354928,0.041010536,9.7598706e-05,0.00024898365,9.2320224e-05,40.0,nan
600086430,4259850,4325386,0,0,0,0,0,402.54053,400.1761,2012.7051,2000.8804,0.06803477,0.010208867,6.8079216e-11,-0.67531717,-1.0899473,-9.6645155,0.0019450288,-0.004603782,-0.0003645002,0.00043345554,0.0002834293,0.0026096078,5.9453534e-05,9.27384e-05,0.00010851675,40.0,nan
601031334,4259850,4325386,0,0,0,0,0,402.54053,400.1761,2012.7051,2000.8804,0.09630102,0.012223896,5.2126435e-11,-0.6399049,-1.0934286,-9.679253,0.002016249,-0.0017572475,0.00060777087,0.00038754725,0.0012911259,0.012143586,0.0001093765,0.000106354106,6.448405e-05,40.0,nan
602071195,4259850,4325386,0,0,0,0,0,402.54053,400.1761,2012.7051,2000.8804,0.112816334,0.016298339,2.6285693e-10,-0.5803135,-1.1068308,-9.684264,-0.010364914,-0.031144587,0.0011987408,0.004263482,0.0025180322,0.011058577,0.00029069697,0.00045713654,8.86815e-05,40.0,nan
603106073,4259850,4325386,0,0,0,0,0,402.54053,400.1761,2012.7051,2000.8804,0.08965889,0.011540641,1.2777429e-10,-0.6129114,-1.0978053,-9.666622,0.008812261,-0.014145742,-0.0006145329,0.0031624178,0.0011605185,0.0080529535,0.0001358542,0.0001318873,6.826616e-05,40.0,nan
604040964,4259850,4325386,0,0,0,0,0,402.54053,400.1761,2012.7051,2000.8804,0.17163555,0.023650363,2.5267202e-09,-0.620249,-1.1696728,-9.627663,0.07615633,-0.032131277,-0.013403957,0.012091082,0.022091394,0.03823241,0.013474708,0.0019529833,0.00298261,40.0,nan
605090838,4259850,4325386,0,0,0,0,0,402.54053,400.1761,2012.7051,2000.8804,0.21282497,0.035144493,7.646647e-10,-0.59985846,-1.1998596,-9.715088,-0.028153067,0.03375948,0.0123360865,0.009841563,0.034144565,0.05411401,0.0012636649,0.0010795338,0.00039575557,40.0,nan
606030731,4259850,4325386,0,0,0,0,0,402.54053,400.1761,2012.7051,2000.8804,0.25045168,0.022839053,1.9320179e-10,-0.5221095,-1.1175586,-9.688441,-0.010272386,-0.01901509,0.0015314523,0.0063452683,0.0086000925,0.02475454,0.0002251315,0.00017826303,0.000114513474,40.0,nan
607070610,4259850,4325386,0,0,0,0,0,402.54053,400.1761,2012.7051,2000.8804,0.20925565,0.015066735,7.535735e-11,-0.581868,-1.1027663,-9.684342,-0.0013319595,-0.008139657,-0.00014051277,0.001572701,0.0033421488,0.016575107,6.52179e-05,0.000117600925,0.00010327577,39.5,nan
608015492,4259850,4325386,0,0,0,0,0,402.54053,400.1761,2012.7051,2000.8804,0.14500539,0.012240537,6.9127926e-11,-0.5981485,-1.1063843,-9.709945,0.0014493521,-0.007018103,0.00081615144,0.001956514,0.0034987815,0.018563582,0.00010165477,0.000120501005,5.9165122e-05,39.5,nan
609055366,4259850,4325386,0,0,0,0,0,402.54053,400.1761,2012.7051,2000.8804,0.12321261,0.011623561,8.266349e-11,-0.560302,-1.0922076,-9.644598,0.0022204753,-0.004062321,-0.00027619943,0.0020085908,0.0014165618,0.0071479813,0.00010878273,0.00010414733,9.512891e-05,39.5,nan
610095244,4259850,4325386,0,0,0,0,0,402.54053,400.1761,2012.7051,2000.8804,0.18365689,0.0128830755,1.09634433e-10,-0.56409526,-1.0858974,-9.605826,0.004572964,-0.011515634,0.0016468142,0.0036349325,0.0062866644,0.054380774,8.260943e-05,0.00021188067,7.5448224e-05,39.5,nan
611040130,4259850,4325386,0,0,0,0,0,402.54053,400.1761,2012.7051,2000.8804,0.16750103,0.014036965,9.226684e-11,-0.5530391,-1.0962014,-9.688235,0.0054629315,-0.0076914444,0.00029063094,0.00086521247,0.00049557374,0.004643399,5.6612065e-05,0.00012009232,0.00011387748,39.5,nan
612075004,4259850,4325386,0,0,0,0,0,402.54053,400.1761,2012.7051,2000.8804,0.20547785,0.016890906,3.3820705e-10,-0.542475,-1.1117064,-9.684146,0.027057776,-0.0153345885,-0.0048171016,0.004341985,0.002365119,0.01163433,0.0010379491,0.00025337547,0.00033500092,39.5,nan
613014892,4259850,4325386,0,0,0,0,0,402.54053,400.1761,2012.7051,2000.8804,0.3575755,0.04386059,1.2419802e-09,-0.6542087,-1.2611058,-9.632491,0.04694082,-0.055068247,-0.0049498337,0.00961459,0.07085029,0.09153122,0.0037166749,0.0025293133,0.0009096416,39.5,nan
614064764,4259850,4325386,0,0,0,0,0,402.54053,400.1761,2012.7051,2000.8804,0.18880203,0.026191954,1.562293e-10,-0.59394157,-1.1224514,-9.69311,-0.0057120584,-0.0050270334,0.0025658356,0.0014577163,0.00667622,0.019246401,0.0002898945,0.00016737428,0.00014096616,39.5,nan
615104663,4259850,4325386,0,0,0,0,0,402.54053,400.1761,2012.7051,2000.8804,0.16537964,0.020346807,1.7213215e-09,-0.48606265,-1.1337588,-9.78308,0.11320692,0.15385288,0.0036820488,0.008088321,0.0039379965,0.02880151,0.005905381,0.017061729,-0.0009441786,39.5,nan
616044522,4259850,4325386,0,0,0,0,0,402.54053,400.1761,2012.7051,2000.8804,0.20646438,0.021931488,9.041551e-11,-0.37992835,-1.1198276,-9.67717,0.0015735484,0.0023286121,0.00021304963,0.005353848,0.000502094,0.0031262417,0.00013174715,0.00023901578,0.000101881116,39.5,nan
617089514,4259850,4325386,0,0,0,0,0,402.54053,400.1761,2012.7051,2000.8804,0.1937909,0.014073652,9.458319e-11,-0.24901953,-1.1021188,-9.600967,0.002369602,0.00066018215,0.00050229183,0.003391579,0.002582829,0.017433709,0.00016647097,0.0002422449,5.8442463e-05,39.5,nan
618024277,4259850,4325386,0,0,0,0,0,402.54053,400.1761,2012.7051,2000.8804,0.17743802,0.014694243,6.6175704e-11,-0.3202862,-1.0963366,-9.629854,-0.004991061,-0.00909919,-0.00034737567,0.0012426883,0.0008494081,0.0070317583,0.00015851,0.00015430602,5.4713302e-05,39.5,nan
619069148,4259850,4325386,0,0,0,0,0,402.54053,400.1761,2012.7051,2000.8804,0.16818178,0.02257725,6.1482563e-10,-0.500803,-1.1327767,-9.670179,0.03344559,-0.0227714,-0.0035989534,0.0068947254,0.0053294487,0.02583293,0.0015462353,0.00090249977,0.00039964818,39.5,nan
620009034,4259850,4325386,0,0,0,0,0,402.54053,400.1761,2012.7051,2000.8804,0.1599639,0.023186103,1.674683e-10,-0.45730603,-1.099309,-9.612141,-0.021065477,-0.0038405296,0.0024686134,0.0010856249,0.00076045346,0.0054813875,0.000118322016,0.00013742203,8.870449e-05,39.5,nan
621053902,4259850,4325386,0,0,0,0,0,402.54053,400.1761,2012.7051,2000.8804,0.11857489,0.015666194,1.432083e-10,-0.5057854,-1.1043986,-9.710868,0.012716123,0.0080604255,-0.00019266256,0.010743474,0.0027914955,0.019295322,0.00017985709,0.00036905665,0.000110726956,39.5,nan
622098773,4259850,4325386,0,0,0,0,0,402.54053,400.1761,2012.7051,2000.8804,0.17637916,0.017521674,2.0279252e-10,-0.36483496,-1.1221749,-9.709537,0.004923346,0.007847451,0.0012854919,0.0066554546,0.012919854,0.08813593,0.0002675487,0.00046962395,0.00011004589,39.5,nan
623033656,4259850,4325386,0,0,0,0,0,402.54053,400.1761,2012.7051,2000.8804,0.17244214,0.017263316,1.8681104e-10,-0.2427031,-1.0963331,-9.662026,-0.0025442115,0.009663808,-0.0016902725,0.0006684831,0.0013313942,0.012052193,0.00041410176,0.00022933292,0.0001255971,39.5,nan
624083536,4259850,4325386,0,0,0,0,0,402.54053,400.1761,2012.7051,2000.8804,0.12843524,0.013367655,9.288329e-11,-0.19691095,-1.1009675,-9.651731,0.01182318,-0.00683173,-0.0007933856,0.0015020244,0.0005843627,0.004491372,7.6915196e-05,0.00011029407,8.096781e-05,39.5,nan
625013458,4259850,4325386,0,0,0,0,0,402.54053,400.1761,2012.7051,2000.8804,0.09401559,0.011970143,1.4712011e-10,-0.26370725,-1.102628,-9.654888,0.0029982869,-0.016496839,0.0002731624,0.0008932465,0.0024760088,0.022197876,8.223116e-05,0.00016014726,7.3364834e-05,39.5,nan
626053337,4259850,4325386,0,0,0,0,0,402.54053,400.1761,2012.7051,2000.8804,0.16500732,0.013730707,8.934779e-11,-0.3131963,-1.1033885,-9.653777,0.0066207866,-0.005189656,-3.606485e-08,0.0053699045,0.013650259,0.04258254,0.00017075978,0.00011983452,9.9471756e-05,39.5,nan
627098140,4259850,4325386,0,0,0,0,0,402.54053,400.1761,2012.7051,2000.8804,0.15718578,0.012530219,6.981578e-11,-0.30113304,-1.0913692,-9.625664,0.0005667556,-0.008076722,0.00029868868,0.0015616715,0.0013986423,0.012186249,8.0425074e-05,0.00014356889,9.381956e-05,39.5,nan
628033022,4259850,4325386,0,0,0,0,0,402.54053,400.1761,2012.7051,2000.8804,0.13382,0.0105705885,7.0586335e-11,-0.299169,-1.0891207,-9.614579,0.0034591723,-0.008857556,-0.00012507402,-0.0012513464,0.003919879,0.035292406,6.40366e-05,9.393799e-05,8.457913e-05,39.5,nan
629072888,4259850,4325386,0,0,0,0,0,402.54053,400.1761,2012.7051,2000.8804,0.088242576,0.009649612,5.7080927e-11,-0.2836589,-1.0978652,-9.684937,0.0074077463,-0.0010081495,9.6530726e-05,0.0003130916,0.0004729484,0.0043759234,9.5571624e-05,9.124737e-05,8.8670815e-05,39.5,nan
630007869,4259850,4325386,0,0,0,0,0,402.54053,400.1761,2012.7051,2000.8804,0.103310406,0.009858892,6.903584e-11,-0.27435547,-1.0947315,-9.643444,0.00053552876,-0.007474986,0.0004951982,0.00028793712,0.0012240337,0.011161754,4.2846583e-05,0.00011314213,8.808673e-05,39.5,nan
631052639,4259850,4325386,0,0,0,0,0,402.54053,400.1761,2012.7051,2000.8804,0.1142876,0.010308129,5.7575417e-11,-0.27661148,-1.0959722,-9.67486,0.003408245,-0.0053778584,-0.00046375324,0.00034956887,0.0006718867,0.0058628637,8.1765924e-05,0.00011086269,0.00013853029,39.0,nan
632097497,4259850,4325386,0,0,0,0,0,402.54053,400.1761,2012.7051,2000.8804,0.17546508,0.0139620695,9.756226e-11,-0.2678663,-1.0985669,-9.7014265,0.0026258952,-0.0049064457,0.0017751902,0.0006511788,0.00095066155,0.0077511966,7.3885574e-05,0.00019371111,0.00012432323,39.0,nan
633037379,4259850,4325386,0,0,0,0,0,402.54053,400.1761,2012.7051,2000.8804,0.118119076,0.01150627,8.2505704e-11,-0.27063704,-1.0997995,-9.687768,0.0032031846,-0.00085800816,8.9816705e-05,0.00034802608,0.002244135,0.019906659,9.653423e-05,0.00015276199,0.00013915455,39.0,nan
634077247,4259850,4325386,0,0,0,0,0,402.54053,400.1761,2012.7051,2000.8804,0.10763278,0.010432884,9.664258e-11,-0.2692028,-1.0866259,-9.660185,4.90415e-06,-0.006779055,0.00029680954,0.005304378,0.0057726474,0.023604842,0.00020760688,0.00014909275,6.95846e-05,39.0,nan
635012135,4259850,4325386,0,0,0,0,0,402.54053,400.1761,2012.7051,2000.8804,0.11758648,0.011403365,7.8987886e-11,-0.25042114,-1.0960957,-9.67112,0.010191814,-0.0029944174,-0.0007402279,3.434382e-05,0.002882554,0.027097339,9.669691e-05,0.00012422023,4.811564e-05,39.0,nan
636056983,4259850,4325386,0,0,0,0,0,402.54053,400.1761,2012.7051,2000.8804,0.10472938,0.011715,7.622505e-11,-0.25547132,-1.0985659,-9.691608,0.001333041,-0.009311348,5.1131824e-06,0.0011910184,0.00066276453,0.006306522,8.538199e-05,0.00014760817,8.8514425e-05,39.0,nan
637101846,4259850,4325386,0,0,0,0,0,402.54053,400.1761,2012.7051,2000.8804,0.10842893,0.010657937,8.908951e-11,-0.26068008,-1.0930114,-9.650149,0.010893768,-0.009837815,-0.00062951754,0.0006721654,0.0008816105,0.007966469,9.6465206e-05,6.5283326e-05,0.000106572275,39.0,nan
638031723,4259850,4325386,0,0,0,0,0,402.54053,400.1761,2012.7051,2000.8804,0.118574895,0.010970278,1.1792332e-10,-0.23911935,-1.0878407,-9.614274,0.018464575,0.01025125,-0.0014988923,0.00032505533,0.0021864688,0.018678032,8.808611e-05,0.00013052367,6.2300205e-05,39.0,nan
639076585,4259850,4325386,0,0,0,0,0,402.54053,400.1761,2012.7051,2000.8804,0.16586618,0.010787528,1.1483705e-10,-0.21858291,-1.0993828,-9.684536,-0.012102408,-0.00655187,0.002422652,0.0007919371,0.006335842,0.04788197,0.00031593337,0.00013780736,0.00012629745,39.0,nan
640016464,4259850,4325386,0,0,0,0,0,402.54053,400.1761,2012.7051,2000.8804,0.16961472,0.014392549,1.5328668e-10,-0.23269078,-1.0416658,-9.664284,0.005420159,-0.0029302991,0.001022958,0.0031850936,0.010188316,0.019377634,0.00031292613,0.0002864664,0.00012375742,39.0,nan
641056323,4259850,4325386,0,0,0,0,0,402.54053,400.1761,2012.7051,2000.8804,0.19896358,0.013831318,1.2550362e-10,-0.21177931,-1.05291,-9.651855,0.003492209,-0.0035526315,-0.000608442,0.0058890944,0.009865999,0.057073962,0.00014679234,0.00022130278,8.31125e-05,39.0,nan
642091183,4259850,4325386,0,0,0,0,0,402.54053,400.1761,2012.7051,2000.8804,0.15906097,0.011918731,6.495626e-11,-0.22353975,-1.08037,-9.579967,0.0040628137,-0.013519116,0.0012605273,0.0010566207,0.00039127233,0.002723292,3.9275863e-05,9.330385e-05,8.9967965e-05,39.0,nan
643031062,4259850,4325386,0,0,0,0,0,402.54053,400.1761,2012.7051,2000.8804,0.10995824,0.010970381,6.594302e-11,-0.26947835,-1.0669146,-9.635169,-0.0034268708,-0.010433457,0.0008282269,0.0013497059,0.001408056,0.0054461285,7.788541e-05,0.000103638595,8.3803214e-05,39.0,nan
644075918,4259850,4325386,0,0,0,0,0,402.54053,400.1761,2012.7051,2000.8804,0.08668056,0.010326397,7.099803e-11,-0.24376221,-1.079639,-9.688156,0.008495102,-0.0061678877,6.290007e-05,0.0007486782,0.0006423696,0.0026750765,7.4832955e-05,9.41629e-05,0.00012126982,39.0,nan
645015789,4259850,4325386,0,0,0,0,0,402.54053,400.1761,2012.7051,2000.8804,0.07465373,0.010270274,5.9356985e-11,-0.24209255,-1.0890787,-9.648871,-0.000643215,-0.007984343,0.00054294034,0.0010283435,0.00081686076,0.0066804853,3.4888697e-05,7.651696e-05,9.439808e-05,39.0,nan
646050651,4259850,4325386,0,0,0,0,0,402.54053,400.1761,2012.7051,2000.8804,0.08776751,0.011018997,7.019111e-11,-0.2614645,-1.0751383,-9.687644,-0.0017845494,-0.006226586,0.00043170297,0.0008936176,0.00057721935,0.0027900834,6.4359505e-05,7.0163194e-05,9.417441e-05,39.0,nan
647095508,4259850,4325386,0,0,0,0,0,402.54053,400.1761,2012.7051,2000.8804,0.0450612,0.0088741835,6.210599e-11,-0.24803647,-1.0813894,-9.686934,0.008156398,-0.0073819393,0.00039302217,0.00028728516,0.00054729596,0.002383101,6.077344e-05,9.251532e-05,7.868486e-05,39.0,nan
648030379,4259850,4325386,0,0,0,0,0,402.54053,400.1761,2012.7051,2000.8804,0.04819741,0.0097044725,4.264437e-11,-0.2648038,-1.0915993,-9.710119,0.002015193,-0.004208112,-0.00052180956,0.0008697467,0.00032597277,0.0018893699,6.824324e-05,8.625461e-05,8.734257e-05,39.0,nan
649075420,4259850,4325386,0,0,0,0,0,402.54053,400.1761,2012.7051,2000.8804,0.049189005,0.0095857605,4.5061652e-11,-0.22788593,-1.0804806,-9.687251,0.003618545,-0.00471875,0.00024636416,0.00053515995,0.0003291081,0.00078044215,6.265099e-05,9.106977e-05,5.5969922e-05,39.0,nan
650020108,4259850,4325386,0,0,0,0,0,402.54053,400.1761,2012.7051,2000.8804,0.067239136,0.00941448,4.8039735e-11,-0.25524423,-1.0698045,-9.704096,0.0024419494,0.00069611677,-0.00016417634,0.00069509225,0.0022061432,0.008394596,7.004077e-05,7.44027e-05,5.840052e-05,39.0,nan
651064966,4259850,4325386,0,0,0,0,0,402.54053,400.1761,2012.7051,2000.8804,0.049845897,0.009066955,6.563442e-11,-0.21391901,-1.0779548,-9.696362,0.004003087,-0.012580395,0.0005307077,0.000881749,0.00059264427,0.0025514427,5.5118762e-05,6.912714e-05,7.483854e-05,38.5,nan
652109824,4259850,4325386,0,0,0,0,0,402.54053,400.1761,2012.7051,2000.8804,0.044053614,0.009249209,4.211972e-11,-0.25042027,-1.0863727,-9.683253,0.0023050427,-0.0010961485,-0.0010160846,0.0007381995,0.00026011016,0.001720309,6.097957e-05,9.372738e-05,0.000119609045,38.5,nan
653054807,4259850,4325386,0,0,0,0,0,402.54053,400.1761,2012.7051,2000.8804,0.04506637,0.009409158,4.7890896e-11,-0.23436882,-1.088392,-9.675716,0.0025431914,-0.0053303884,-0.00040925742,0.0005851937,0.00021626413,0.0011329458,4.2478983e-05,7.0628346e-05,9.435117e-05,38.5,nan
654094542,4259850,4325386,0,0,0,0,0,402.54053,400.1761,2012.7051,2000.8804,0.048719425,0.009696059,7.141547e-11,-0.24535891,-1.0756087,-9.702272,0.003783275,-0.009111069,0.00036280652,0.0008862155,0.0010336265,0.00318633,4.9861694e-05,7.2142626e-05,9.5361494e-05,38.5,nan
655029413,4259850,4325386,0,0,0,0,0,402.54053,400.1761,2012.7051,2000.8804,0.047764,0.009137262,4.2631065e-11,-0.24024065,-1.0843431,-9.685376,0.0014781918,-0.0069983574,0.0002830961,0.00077757763,0.0004506164,0.0014783773,2.7134089e-05,7.3410985e-05,8.1481856e-05,38.5,nan
656074268,4259850,4325386,0,0,0,0,0,402.54053,400.1761,2012.7051,2000.8804,0.0509076,0.009581323,6.564213e-11,-0.24475922,-1.0762582,-9.651127,0.004307617,-0.008822734,0.00021040482,0.00051772094,0.0015285249,0.007861329,5.8813846e-05,9.48746e-05,6.826731e-05,38.5,nan
657014134,4259850,4325386,0,0,0,0,0,402.54053,400.1761,2012.7051,2000.8804,0.0426962,0.009343424,5.1877568e-11,-0.25601864,-1.0841627,-9.673449,0.0032566132,-0.008632776,0.00057649886,0.00025448168,0.00040954183,0.0023793892,3.3750457e-05,7.751897e-05,6.077871e-05,38.5,nan
658059141,4259850,4325386,0,0,0,0,0,402.54053,400.1761,2012.7051,2000.8804,0.05869424,0.009934978,3.929379e-11,-0.2487539,-1.0819091,-9.655691,-0.00010125863,-0.00556205,0.0005255746,0.00047019662,0.0002646855,0.0007596225,5.399947e-05,7.3435294e-05,5.16828e-05,38.5,nan
659103873,4259850,4325386,0,0,0,0,0,402.54053,400.1761,2012.7051,2000.8804,0.043539595,0.008822305,9.82428e-11,-0.25708717,-1.0886276,-9.670697,0.011419757,-0.0072686994,-0.0005846757,0.00048907066,0.00021967184,0.001104295,6.987896e-05,7.441416e-05,6.650664e-05,38.5,nan
660038710,4259850,4325386,0,0,0,0,0,402.54053,400.1761,2012.7051,2000.8804,0.08446093,0.010230654,7.788918e-11,-0.27325255,-1.094706,-9.69196,0.0021303422,-0.0064623426,-0.00050219806,0.000385624,0.0022181615,0.017445713,7.854827e-05,7.674361e-05,0.00011499137,38.5,nan
661083575,4259850,4325386,0,0,0,0,0,402.54053,400.1761,2012.7051,2000.8804,0.097088836,0.010292181,5.3567716e-11,-0.23224534,-1.0811844,-9.619198,0.0025049194,-0.0040842663,3.2986565e-05,0.0021130678,0.0022001427,0.01889105,7.547533e-05,0.000121097335,5.269184e-05,38.5,nan
662023433,4259850,4325386,0,0,0,0,0,402.54053,400.1761,2012.7051,2000.8804,0.06394389,0.009772661,6.013527e-11,-0.27621847,-1.0890387,-9.654727,0.0043320195,-0.008987831,5.1232266e-05,0.0006894928,0.0012294543,0.0108575765,6.707361e-05,6.9113434e-05,7.769413e-05,38.5,nan
663068274,4259850,4325386,0,0,0,0,0,402.54053,400.1761,2012.7051,2000.8804,0.04624324,0.009073977,5.794825e-11,-0.25138384,-1.0885235,-9.670757,0.0036087797,-0.0072001917,-0.00030544837,0.0008445598,0.00019758193,0.000981317,8.926227e-05,9.0696776e-05,7.926559e-05,38.5,nan
664108125,4259850,4325386,0,0,0,0,0,402.54053,400.1761,2012.7051,2000.8804,0.046553165,0.009090621,4.9263607e-11,-0.26677442,-1.0896715,-9.681737,0.003047318,-0.0068957256,-0.00043702222,0.00050518225,0.00032414464,0.0012434858,4.925503e-05,7.754585e-05,8.775659e-05,38.5,nan
665017991,4259850,4325386,0,0,0,0,0,402.13605,400.1761,2010.8207,2000.8804,0.074404076,0.00931779,6.239991e-11,-0.30280307,-1.0903789,-9.684161,0.0040838975,-0.012896892,0.00053851336,0.00060616696,0.0003654721,0.0026843427,6.1536375e-05,0.00010643162,7.261513e-05,38.5,nan
666062844,4259850,4325386,0,0,0,0,0,402.13605,400.1761,2010.8207,2000.8804,0.070078366,0.009778253,5.5292295e-11,-0.2603379,-1.0909505,-9.687843,0.003735408,-0.0043428265,0.000631266,0.00047541817,0.00030521234,0.002052391,6.402796e-05,7.7438555e-05,0.00012016289,38.5,nan
667107694,4259850,4325386,0,0,0,0,0,402.13605,400.1761,2010.8207,2000.8804,0.049931664,0.008975752,5.989249e-11,-0.29970124,-1.0951564,-9.68902,9.865491e-05,-0.0077069784,-0.0012777081,0.00058787264,0.00024974858,0.002002638,4.9350558e-05,0.000103376275,9.6042255e-05,38.5,nan
668052552,4259850,4325386,0,0,0,0,0,402.13605,400.1761,2010.8207,2000.8804,0.0774284,0.009080519,4.55719e-11,-0.29024935,-1.0812488,-9.639658,0.001154086,-0.0052106758,0.0012286443,0.00035345295,0.0016033605,0.013066213,7.2035415e-05,9.828672e-05,9.104151e-05,38.5,nan
669092420,4259850,4325386,0,0,0,0,0,402.13605,400.1761,2010.8207,2000.8804,0.054496508,0.009733228,5.8679554e-11,-0.27306464,-1.0961851,-9.697073,0.0026253997,-0.0069490806,-0.00045725194,0.00069821376,0.00025917433,0.0020053475,4.003991e-05,0.00013982574,0.000115393246,38.5,nan
670032299,4259850,4325386,0,0,0,0,0,402.13605,400.1761,2010.8207,2000.8804,0.046756294,0.009312463,4.7850956e-11,-0.29786134,-1.0834447,-9.640529,0.00056724064,-0.0076384516,0.0006319582,0.0004945016,0.00023526677,0.0014256334,6.713514e-05,6.258486e-05,8.3895466e-05,38.32143,nan
671077108,4259850,4325386,0,0,0,0,0,402.13605,400.1761,2010.8207,2000.8804,0.05302379,0.009760675,8.0499864e-11,-0.24868245,-1.0899072,-9.699108,0.007044927,-0.006492607,9.671663e-05,0.00069591816,0.00019746296,0.0011623604,4.4470653e-05,9.080717e-05,9.463e-05,38.38095,nan
672016971,4259850,4325386,0,0,0,0,0,402.13605,400.1761,2010.8207,2000.8804,0.06983134,0.009535079,5.7916012e-11,-0.3034093,-1.0819179,-9.685717,-0.00039069235,-0.009693263,-0.0004865446,0.00078598066,0.00097082264,0.00422767,6.7275716e-05,9.1067806e-05,0.000103121594,38.5,nan
673046816,4259850,4325386,0,0,0,0,0,402.13605,400.1761,2010.8207,2000.8804,0.05063226,0.009633522,7.783023e-11,-0.2849563,-1.0834632,-9.653008,0.0065084524,-0.009508401,0.00060216174,0.0006496617,0.00026227947,0.0013822085,5.5916353e-05,7.756044e-05,0.00010049851,38.285713,nan
674091658,4259850,4325386,0,0,0,0,0,402.13605,400.1761,2010.8207,2000.8804,0.07059546,0.008648492,4.6058823e-11,-0.32422134,-1.0825485,-9.695932,0.00029040474,-0.0036887247,-0.0004988567,0.0014964396,0.001338375,0.008892561,4.220507e-05,0.0001062139,0.000118104275,38.0,nan
675036516,4259850,4325386,0,0,0,0,0,402.13605,400.1761,2010.8207,2000.8804,0.05428585,0.008388079,3.780585e-11,-0.29972708,-1.0798413,-9.644841,0.004723937,-0.007822668,0.00035903676,0.0005807469,0.0005402711,0.0038150258,4.1266783e-05,6.547944e-05,6.20036e-05,38.0,nan
676076361,4259850,4325386,0,0,0,0,0,402.13605,400.1761,2010.8207,2000.8804,0.059393693,0.009031007,5.826735e-11,-0.27202493,-1.0946472,-9.705124,0.0027490782,-0.0055614016,0.00042159177,0.00088836194,0.00020935481,0.0015599187,3.7460526e-05,0.000118084055,8.8762165e-05,38.0,nan
677021217,4259850,4325386,0,0,0,0,0,402.13605,400.1761,2010.8207,2000.8804,0.052840438,0.009702973,6.0991996e-11,-0.31354856,-1.0923448,-9.676948,0.0020055464,-0.00799891,0.00048527567,0.00085742894,0.00026880737,0.0019141184,6.0021375e-05,0.00012796166,0.00014519216,38.0,nan
678061062,4259850,4325386,0,0,0,0,0,402.13605,400.1761,2010.8207,2000.8804,0.06387348,0.009554088,5.7283532e-11,-0.29046646,-1.0938104,-9.689695,0.0030584766,-0.0056066904,-6.533734e-05,9.8997334e-05,0.00034862274,0.0026832824,1.8423127e-05,0.00010765479,0.00012514119,38.0,nan
679100905,4259850,4325386,0,0,0,0,0,402.13605,400.1761,2010.8207,2000.8804,0.13799004,0.011342125,7.629749e-11,-0.29115903,-1.0745748,-9.595767,0.002875296,-0.009918919,0.00013908364,0.000891497,0.0006443218,0.0035428766,5.05633e-05,0.00010139716,9.333308e-05,38.0,nan
680040781,4259850,4325386,0,0,0,0,0,402.13605,400.1761,2010.8207,2000.8804,0.062450234,0.009306544,6.013134e-11,-0.26057336,-1.0923084,-9.714211,0.0014551533,0.00010923021,5.158909e-05,0.00080829894,0.0002909098,0.0013796668,5.6157216e-05,9.3206654e-05,0.0001247671,38.0,nan
681085638,4259850,4325386,0,0,0,0,0,402.13605,400.1761,2010.8207,2000.8804,0.054215137,0.010316005,8.613738e-11,-0.21354379,-1.0879284,-9.739254,0.00013580521,-0.011126644,0.0002075344,0.00064596935,0.00045309885,0.0019558768,0.000116355055,7.145658e-05,0.00011006055,38.0,nan
682025456,4259850,4325386,0,0,0,0,0,402.13605,400.1761,2010.8207,2000.8804,0.052702814,0.0101456065,6.8412644e-11,-0.29447874,-1.0814979,-9.666957,0.0019491696,-0.007980836,0.0006974685,0.00045262137,0.0004079037,0.0021760855,8.4186504e-05,6.895377e-05,0.00011268991,38.0,nan
683070293,4259850,4325386,0,0,0,0,0,402.13605,400.1761,2010.8207,2000.8804,0.03929759,0.009702288,6.5852636e-11,-0.25798872,-1.0876806,-9.68371,0.0038318434,-0.0059561417,4.2529223e-06,0.00045292877,0.00027239052,0.0013540701,6.513819e-05,0.00011079217,0.00011297446,38.0,nan
684110135,4259850,4325386,0,0,0,0,0,402.13605,400.1761,2010.8207,2000.8804,0.043897126,0.009029932,5.990571e-11,-0.27187982,-1.0839319,-9.659321,0.0017242519,-0.009484694,0.00048738098,0.0008655748,0.00040223735,0.0018809618,5.8445887e-05,8.582641e-05,7.534983e-05,38.0,nan
685044991,4259850,4325386,0,0,0,0,0,402.13605,400.1761,2010.8207,2000.8804,0.118361115,0.010075013,1.2913275e-10,-0.32516655,-1.0957177,-9.756355,0.0034834312,-0.016670946,0.0014876077,0.0057743997,0.0059946077,0.054380916,6.133531e-05,0.00017451524,0.00010703574,38.0,nan
686084984,4259850,4325386,0,0,0,0,0,402.13605,400.1761,2010.8207,2000.8804,0.09340979,0.010661232,6.8816924e-11,-0.34937787,-1.073041,-9.6405115,0.0012909652,-0.0048194784,-0.0006911714,-0.00036095708,0.004235821,0.03184297,5.981252e-05,0.0001335801,7.064162e-05,38.0,nan
687029681,4259850,4325386,0,0,0,0,0,402.13605,400.1761,2010.8207,2000.8804,0.05484115,0.010160486,6.615555e-11,-0.34705052,-1.0825626,-9.672827,0.0022583997,-0.0035188375,-0.0002939858,0.00050318387,0.00039814546,0.0022879182,6.281332e-05,9.246213e-05,9.159746e-05,38.0,nan
688074518,4259850,4325386,0,0,0,0,0,402.13605,400.1761,2010.8207,2000.8804,0.09333287,0.009991361,1.0620997e-10,-0.33522293,-1.0867171,-9.67945,0.008195666,-0.012441923,0.0011421866,0.001351383,0.0012111439,0.009785437,7.168945e-05,7.48936e-05,9.7785625e-05,38.0,nan
689014371,4259850,4325386,0,0,0,0,0,402.13605,400.1761,2010.8207,2000.8804,0.085144,0.01003841,5.4628888e-11,-0.37943995,-1.0938305,-9.687121,0.00086892856,-0.0036034137,4.0007108e-05,0.0004920453,0.0002728215,0.0022149058,5.834526e-05,8.61184e-05,9.135793e-05,38.0,nan
690059263,4259850,4325386,0,0,0,0,0,402.13605,400.1761,2010.8207,2000.8804,0.1291473,0.010505126,3.922876e-11,-0.32051238,-1.0794266,-9.655536,0.0050239707,-0.00890374,-0.00041529798,0.0010117296,0.0011444162,0.007332442,5.4803524e-05,7.1242845e-05,6.187415e-05,37.780487,nan
691094072,4259850,4325386,0,0,0,0,0,402.13605,400.1761,2010.8207,2000.8804,0.1504922,0.01087014,5.1656842e-11,-0.35182896,-1.0989256,-9.738823,0.00367611,-0.0018316042,-0.00036138133,-0.0012021478,0.002735734,0.024888942,4.6636753e-05,9.5633935e-05,0.00015440765,37.5,nan
692033896,4259850,4325386,0,0,0,0,0,402.13605,400.1761,2010.8207,2000.8804,0.067153,0.009922596,5.0658533e-11,-0.28421685,-1.0829253,-9.665173,-0.00029119907,-0.004512294,-0.00092799374,0.0009851451,0.00044041677,0.0018830944,6.948285e-05,6.619984e-05,0.00013193076,37.5,nan
693073730,4259850,4325386,0,0,0,0,0,402.13605,400.1761,2010.8207,2000.8804,0.060285125,0.010185332,5.538246e-11,-0.33507162,-1.096824,-9.712534,0.005046014,-0.006429107,-0.00031681696,0.00076503656,0.00024010151,0.0017710244,5.939698e-05,6.44751e-05,8.669164e-05,37.5,nan
694008581,4259850,4325386,0,0,0,0,0,402.13605,400.1761,2010.8207,2000.8804,0.059278917,0.009511974,6.019836e-11,-0.34770092,-1.0901947,-9.68262,0.0019308252,-0.007578734,-3.6522095e-05,0.0008688965,0.0006612901,0.005217525,6.134488e-05,0.000108041604,0.00010889859,37.5,nan
695053542,4259850,4325386,0,0,0,0,0,402.13605,400.1761,2010.8207,2000.8804,0.047449194,0.00975062,6.592991e-11,-0.31564686,-1.0862296,-9.648199,0.0043120175,-0.004195723,-0.00025169394,0.00057384593,0.0003556955,0.002482646,7.636291e-05,0.0001242547,9.386057e-05,37.5,nan
696098247,4259850,4325386,0,0,0,0,0,402.13605,400.1761,2010.8207,2000.8804,0.06961349,0.009262754,5.8851896e-11,-0.36399984,-1.0936327,-9.69975,0.0037339665,-0.007083512,-0.00020002776,0.0011593106,0.00038193015,0.0031477592,3.472637e-05,8.0339276e-05,7.390726e-05,37.5,nan
697038096,4259850,4325386,0,0,0,0,0,402.13605,400.1761,2010.8207,2000.8804,0.03983179,0.009151852,5.3604895e-11,-0.33490658,-1.0937155,-9.686605,0.0030900054,-0.0042872056,-0.00036762987,0.00032232056,0.00014978628,0.0009701128,6.169313e-05,5.3585045e-05,6.935613e-05,37.5,nan
698077947,4259850,4325386,0,0,0,0,0,402.13605,400.1761,2010.8207,2000.8804,0.044659503,0.009467353,4.6519934e-11,-0.32211214,-1.09265,-9.7027235,0.0008128989,-0.005560558,0.0006287624,0.00054729223,0.00028986734,0.0016684659,6.0199945e-05,8.27625e-05,9.8837554e-05,37.5,nan
699017828,4259850,4325386,0,0,0,0,0,402.13605,400.1761,2010.8207,2000.8804,0.064388074,0.009337718,6.576957e-11,-0.31906813,-1.0803068,-9.658174,0.0046844063,-0.0075509283,0.00048282847,0.002013964,0.001822529,0.013372987,4.695517e-05,8.7537825e-05,0.0001449602,37.5,nan
700057624,4259850,4325386,0,0,0,0,0,402.13605,400.1761,2010.8207,2000.8804,0.055874,0.009948364,4.0710914e-11,-0.34995446,-1.0933332,-9.688284,0.0026625767,-0.006835303,3.9149952e-05,0.0006258989,0.00014188458,0.00088163436,3.8523634e-05,9.702174e-05,7.614999e-05,37.5,nan
701102438,4259850,4325386,0,0,0,0,0,402.13605,400.1761,2010.8207,2000.8804,0.12950736,0.01073852,6.053785e-11,-0.33115685,-1.0899774,-9.675096,0.0041665505,-0.0044685584,-0.00064933224,9.290931e-05,0.00080149417,0.0064016483,7.316116e-05,8.994876e-05,0.000109697605,37.5,nan
702037281,4259850,4325386,0,0,0,0,0,402.13605,400.1761,2010.8207,2000.8804,0.076400414,0.009947319,6.596454e-11,-0.3260101,-1.0921837,-9.68371,0.0024529842,-0.006501542,-0.0005924916,0.0005163678,0.00039506285,0.0031075757,4.4273613e-05,9.380813e-05,9.479356e-05,37.5,nan
703082124,4259850,4325386,0,0,0,0,0,402.13605,400.1761,2010.8207,2000.8804,0.044723608,0.0092806835,4.1743622e-11,-0.31869698,-1.0919863,-9.683901,0.0019231944,-0.004241406,0.0004058684,0.00041978486,0.00023784048,0.0015531671,9.085562e-05,5.2410913e-05,9.2354385e-05,37.5,nan
704017060,4259850,4325386,0,0,0,0,0,402.13605,400.1761,2010.8207,2000.8804,0.044614,0.0094916625,4.5042626e-11,-0.25694457,-1.0835595,-9.623133,0.0029675444,-0.001453984,8.413635e-05,0.00044670192,0.00027306142,0.0015803213,7.0830516e-05,7.503629e-05,9.665513e-05,37.5,nan
705066784,4259850,4325386,0,0,0,0,0,402.13605,400.1761,2010.8207,2000.8804,0.038738314,0.009382877,6.0827156e-11,-0.35124484,-1.0953757,-9.709475,0.0039503723,-0.008733094,0.0002910882,0.0008277766,0.000248416,0.0016494311,4.5575824e-05,8.828601e-05,6.914522e-05,37.5,nan
706006635,4259850,4325386,0,0,0,0,0,402.13605,400.1761,2010.8207,2000.8804,0.04398297,0.008407169,6.2521405e-11,-0.327758,-1.1031665,-9.757716,0.0022098818,-0.008615574,0.00061222457,0.00027748983,0.00025014588,0.0019915428,4.875482e-05,9.119758e-05,0.000104887265,37.5,nan
707046481,4259850,4325386,0,0,0,0,0,402.13605,400.1761,2010.8207,2000.8804,0.04771538,0.009367379,5.790972e-11,-0.39227676,-1.0926465,-9.693857,0.0017913891,-0.008082667,0.0007766374,0.0003687966,0.0002260961,0.0014729993,5.4724915e-05,6.778937e-05,8.673929e-05,37.5,nan
708081291,4259850,4325386,0,0,0,0,0,402.13605,400.1761,2010.8207,2000.8804,0.04451695,0.009181864,6.766505e-11,-0.39058515,-1.0890117,-9.659302,0.0012724468,-0.008928552,-0.00067539886,0.00040816507,0.00019531377,0.0012665606,6.621863e-05,7.8026904e-05,9.868244e-05,37.22619,nan
709021139,4259850,4325386,0,0,0,0,0,402.13605,400.1761,2010.8207,2000.8804,0.043781526,0.009077056,8.140278e-11,-0.3838575,-1.0909848,-9.663264,0.0131243905,-0.008200013,-0.0006943116,0.000711364,0.00024623942,0.0018490889,4.9425595e-05,8.097777e-05,8.9149e-05,37.0,nan
710070953,4259850,4325386,0,0,0,0,0,402.13605,400.1761,2010.8207,2000.8804,0.21188419,0.012220566,5.4957434e-11,-0.3504393,-1.0873352,-9.628191,0.006100839,-0.007813619,-0.00088306906,0.001819527,0.0009908796,0.008170454,6.842169e-05,0.000104019135,4.9682756e-05,37.0,nan
711010799,4259850,4325386,0,0,0,0,0,402.13605,400.1761,2010.8207,2000.8804,0.06454194,0.01005725,7.158626e-11,-0.34215084,-1.0947697,-9.690511,0.0045637675,-0.006970957,0.0002892849,0.00038349986,0.00021191408,0.0014874944,3.3546374e-05,0.0001373793,7.738877e-05,37.0,nan
712050636,4259850,4325386,0,0,0,0,0,402.13605,400.1761,2010.8207,2000.8804,0.051054627,0.009604582,6.4439475e-11,-0.36023796,-1.0897462,-9.662566,0.00026327462,-0.009702256,0.00023088994,0.00089553033,0.00058830256,0.005066082,6.487393e-05,7.618153e-05,9.638677e-05,37.0,nan
713095447,4259850,4325386,0,0,0,0,0,402.13605,400.1761,2010.8207,2000.8804,0.11555145,0.010709725,5.2598044e-11,-0.33461165,-1.0879701,-9.673881,-0.002923221,0.0009038732,-0.00092411996,0.0001757206,0.0003994158,0.0025524436,3.244661e-05,8.573295e-05,0.00013082373,37.0,nan
714035288,4259850,4325386,0,0,0,0,0,402.13605,400.1761,2010.8207,2000.8804,0.0551563,0.009169918,4.4333846e-11,-0.34514955,-1.0900264,-9.670319,0.005172297,-0.00054242887,3.2519612e-05,0.00027024985,0.00023151966,0.0013491272,5.73936e-05,8.72381e-05,8.959547e-05,37.0,nan
715077645,4259850,4325386,0,0,0,0,0,402.13605,400.1761,2010.8207,2000.8804,0.04021131,0.0089277495,5.056037e-11,-0.34092525,-1.0932319,-9.676591,0.0028170126,-0.005175224,0.00013091002,0.00026513776,0.00030269136,0.0025375884,6.222368e-05,9.328229e-05,8.0786784e-05,37.0,nan
716024955,4259850,4325386,0,0,0,0,0,402.13605,400.1761,2010.8207,2000.8804,0.040250387,0.00910082,4.7381783e-11,-0.28784806,-1.0960331,-9.6715975,0.0002994197,-0.006492332,0.00010130873,0.0004729266,0.00031995043,0.0029797694,5.468257e-05,6.9765505e-05,4.9950915e-05,37.0,nan
717064779,4259850,4325386,0,0,0,0,0,402.13605,400.1761,2010.8207,2000.8804,0.039619274,0.008798148,4.2114107e-11,-0.32566452,-1.0845298,-9.626414,0.0023017912,-0.0072042174,0.0003176636,0.00074165466,0.00024874168,0.0015690173,4.88115e-05,5.3470445e-05,8.561103e-05,37.0,nan
718104613,4259850,4325386,0,0,0,0,0,402.13605,400.1761,2010.8207,2000.8804,0.047795802,0.009236269,7.106745e-11,-0.3450447,-1.0988053,-9.714726,0.006713273,-0.008268576,0.00072511,0.000737943,0.00019211051,0.0017016046,3.7420592e-05,0.00011460765,6.179586e-05,37.0,nan
719044439,4259850,4325386,0,0,0,0,0,402.13605,400.1761,2010.8207,2000.8804,0.040192902,0.009221496,5.6354303e-11,-0.31796733,-1.091053,-9.648988,0.0004409614,-0.005869198,0.00070417987,0.00025721616,0.00027046938,0.0022696985,6.812596e-05,0.000115226794,6.2861865e-05,37.0,nan
720089258,4259850,4325386,0,0,0,0,0,402.13605,400.1761,2010.8207,2000.8804,0.053216264,0.009514245,4.1126862e-11,-0.30841565,-1.0913768,-9.683829,0.0023120067,-0.0076150196,0.00048633997,0.0006139114,0.0001894209,0.001229167,4.6736182e-05,7.1046736e-05,7.8286896e-05,37.0,nan
721029100,4259850,4325386,0,0,0,0,0,402.13605,400.1761,2010.8207,2000.8804,0.05301555,0.009796655,5.7152214e-11,-0.33336887,-1.0959953,-9.699295,0.005105773,-0.0069278954,0.0010029767,0.00044302264,0.00022635356,0.0019255916,5.2961914e-05,8.026367e-05,5.296664e-05,37.0,nan
722073922,4259850,4325386,0,0,0,0,0,402.13605,400.1761,2010.8207,2000.8804,0.038403448,0.009536399,4.148247e-11,-0.33091754,-1.0930102,-9.672522,0.0035624248,-0.00567203,-0.00042889707,0.0002925156,0.00020333988,0.001501696,5.655925e-05,8.3938314e-05,8.2711995e-05,37.0,nan
723008769,4259850,4325386,0,0,0,0,0,402.13605,400.1761,2010.8207,2000.8804,0.042730972,0.009254876,4.6223435e-11,-0.32118174,-1.0901513,-9.6755295,0.00027977495,-0.0059201764,0.0006849783,0.00060128776,0.000210286,0.001407426,2.9116753e-05,8.0178936e-05,9.184609e-05,37.0,nan
724058579,4259850,4325386,0,0,0,0,0,402.13605,400.1761,2010.8207,2000.8804,0.039825078,0.00908902,5.939578e-11,-0.3263174,-1.091423,-9.684702,0.0045099296,-0.007787282,0.0001854136,0.00051082205,0.00026198203,0.0018938625,3.518195e-05,6.3485866e-05,0.00010138661,37.0,nan
725090936,4259850,4325386,0,0,0,0,0,402.13605,400.1761,2010.8207,2000.8804,0.05816431,0.009087528,3.7457724e-11,-0.3248018,-1.0918849,-9.680909,0.004757136,-0.0045568473,0.0005910318,0.0003313838,0.00019942794,0.0012219312,6.0905004e-05,8.031891e-05,7.998698e-05,37.0,nan
726028268,4259850,4325386,0,0,0,0,0,402.13605,400.1761,2010.8207,2000.8804,0.044691607,0.009720781,4.8402934e-11,-0.31188723,-1.0894712,-9.65064,0.0032369301,-0.007285129,0.000485942,0.0005725291,0.0002952885,0.001931479,5.1046834e-05,7.708916e-05,4.8808986e-05,37.0,nan
727023130,4259850,4325386,0,0,0,0,0,401.7073,400.1761,2008.5403,2000.8804,0.05267254,0.008794623,4.2184443e-11,-0.32422164,-1.0860866,-9.638552,0.0016472483,-0.0058566164,-0.0006368766,0.00034210406,0.00033676237,0.0024464382,7.687652e-05,7.211723e-05,6.0754606e-05,37.0,nan
728068048,4259850,4325386,0,0,0,0,0,401.7073,400.1761,2008.5403,2000.8804,0.07812899,0.009941646,5.138897e-11,-0.33587685,-1.090808,-9.686637,0.004812931,-0.006147622,0.00039629368,0.0006946161,0.00050792046,0.0041366937,6.907005e-05,6.176438e-05,6.274834e-05,37.0,nan
729012719,4259850,4325386,0,0,0,0,0,401.7073,400.1761,2008.5403,2000.8804,0.049328748,0.009570843,5.862816e-11,-0.30285582,-1.0952735,-9.67664,0.0032676025,-0.007897023,-0.00023087085,0.0004802022,0.0002587565,0.0023226524,4.371932e-05,0.00010644471,0.00010809739,37.0,nan
730052539,4259850,4325386,0,0,0,0,0,401.7073,400.1761,2008.5403,2000.8804,0.04231744,0.009378224,5.652346e-11,-0.3142813,-1.0893221,-9.662018,-0.0014888087,-0.003938632,5.7448862e-05,0.00041679066,0.00014870062,0.000948319,6.7613524e-05,0.00011112597,0.00013105315,37.0,nan
731092356,4259850,4325386,0,0,0,0,0,401.7073,400.1761,2008.5403,2000.8804,0.046336483,0.010313592,7.035271e-11,-0.35481602,-1.0854021,-9.669398,0.005234736,-0.0060959,0.0011194097,0.001241914,0.00048075628,0.0032947755,2.5128924e-05,0.000121132536,0.000119394615,36.75,nan
732037191,4259850,4325386,0,0,0,0,0,401.7073,400.1761,2008.5403,2000.8804,0.03691514,0.008822786,5.9721825e-11,-0.30758476,-1.0940386,-9.696749,0.006377019,-0.006633891,-0.00021058814,0.0005334542,0.0001754778,0.0010942892,3.4655804e-05,8.153081e-05,9.9042365e-05,36.5,nan
733082019,4259850,4325386,0,0,0,0,0,401.7073,400.1761,2008.5403,2000.8804,0.054088455,0.009218873,7.729594e-11,-0.32990152,-1.0812111,-9.651607,0.00070774945,-0.0071934853,-0.00040084543,0.0033606046,0.0024783008,0.011588487,9.800967e-05,0.000100661055,0.00011839258,37.0,nan
734021842,4259850,4325386,0,0,0,0,0,401.7073,400.1761,2008.5403,2000.8804,0.0379587,0.008643533,3.790093e-11,-0.33564937,-1.0801725,-9.647125,0.0025294172,-0.0052830954,-0.0005907228,0.00077925145,0.00025525672,0.0012831622,5.540537e-05,0.00010621711,3.1430256e-05,37.0,nan
735066656,4259850,4325386,0,0,0,0,0,401.7073,400.1761,2008.5403,2000.8804,0.042168874,0.0093485685,6.517471e-11,-0.33298317,-1.0937918,-9.700962,0.0069871917,-0.006475891,0.00048874714,0.0012534211,0.0003979553,0.0027894366,4.722638e-05,9.788431e-05,9.8870594e-05,36.5,nan
736111470,4259850,4325386,0,0,0,0,0,401.7073,400.1761,2008.5403,2000.8804,0.12658152,0.010021423,5.3406134e-11,-0.32718632,-1.0803694,-9.663643,0.0027690006,-0.0046116994,0.0003837015,-0.00033603646,0.005143028,0.040753957,7.424983e-05,0.00012606173,0.000104474624,36.5,nan
737056308,4259850,4325386,0,0,0,0,0,401.7073,400.1761,2008.5403,2000.8804,0.100586586,0.010235151,4.327227e-11,-0.303008,-1.080856,-9.625357,0.00073121494,-0.005835651,-4.223153e-06,0.00043274803,0.0010677297,0.0058643953,9.997857e-05,9.000145e-05,7.819586e-05,36.5,nan
738101120,4259850,4325386,0,0,0,0,0,401.7073,400.1761,2008.5403,2000.8804,0.055254795,0.010112973,5.6394014e-11,-0.27764118,-1.0881342,-9.67546,0.0014639808,-0.0021795663,2.0915279e-05,0.00031295946,0.00049666903,0.0035830308,7.420475e-05,0.00010588286,0.00010794923,36.5,nan
739045955,4259850,4325386,0,0,0,0,0,401.7073,400.1761,2008.5403,2000.8804,0.04957949,0.009713372,5.3664215e-11,-0.25410023,-1.0955604,-9.715049,0.000978284,-0.006944259,0.00078196015,0.00037809167,0.00037961372,0.0026706618,6.552414e-05,8.8160305e-05,0.00010485798,36.5,nan
740085769,4259850,4325386,0,0,0,0,0,401.7073,400.1761,2008.5403,2000.8804,0.05436752,0.010121128,1.2472506e-10,-0.34083897,-1.0804791,-9.655853,-0.0025867957,-0.016391112,0.0009376564,0.0007846996,0.0004489192,0.00231232,5.7555484e-05,7.61978e-05,0.00013969181,36.5,nan
741025666,4259850,4325386,0,0,0,0,0,401.7073,400.1761,2008.5403,2000.8804,0.05616797,0.009189119,5.460004e-11,-0.3835736,-1.0890449,-9.715211,0.0068059107,-0.003905359,-0.00050295633,0.00059606537,0.0003901824,0.0018057523,6.195185e-05,9.678884e-05,0.00010278881,36.5,nan
742070473,4259850,4325386,0,0,0,0,0,401.7073,400.1761,2008.5403,2000.8804,0.06349392,0.00954267,5.1654594e-11,-0.36632097,-1.0942564,-9.69015,0.0031335019,-0.008455451,0.0010610386,0.0009393643,0.00023144283,0.0016051459,6.920583e-05,6.828146e-05,9.6045296e-05,36.5,nan
743110227,4259850,4325386,0,0,0,0,0,401.7073,400.1761,2008.5403,2000.8804,0.05037686,0.008945445,5.9565776e-11,-0.34280515,-1.0913694,-9.689662,0.0023292936,-0.005598068,0.0005545055,0.00060792675,0.0003369628,0.002233468,4.925352e-05,6.732576e-05,0.00011663675,36.5,nan
744045080,4259850,4325386,0,0,0,0,0,401.7073,400.1761,2008.5403,2000.8804,0.046771187,0.009427021,6.9341026e-11,-0.3503128,-1.0825162,-9.664636,0.0038723268,-0.0078910235,0.00041012635,0.0005003261,0.00037390194,0.0006500585,5.7222365e-05,9.206028e-05,0.00012934604,36.5,nan
745094883,4259850,4325386,0,0,0,0,0,401.7073,400.1761,2008.5403,2000.8804,0.036921695,0.008773794,7.171594e-11,-0.36007556,-1.0918152,-9.682098,0.0034127869,-0.009454206,0.0012694435,0.000829545,0.000163914,0.00096776476,5.767302e-05,6.97802e-05,8.464485e-05,36.5,nan
746029726,4259850,4325386,0,0,0,0,0,401.7073,400.1761,2008.5403,2000.8804,0.042522978,0.008738902,4.977675e-11,-0.3541418,-1.0900902,-9.68402,0.0035550962,-0.0036398985,-0.0012664256,0.000731888,0.00029366283,0.0018736566,8.467921e-05,6.9847745e-05,8.8276516e-05,36.5,nan
747074702,4259850,4325386,0,0,0,0,0,401.7073,400.1761,2008.5403,2000.8804,0.041369814,0.008543296,3.573758e-11,-0.3334465,-1.0887015,-9.670076,0.0028904073,-0.0035435779,-0.00038610527,0.0003115761,0.00032590973,0.0021707662,3.3208235e-05,7.513019e-05,9.793614e-05,36.5,nan
748019362,4259850,4325386,0,0,0,0,0,401.7073,400.1761,2008.5403,2000.8804,0.09794017,0.009991308,3.219568e-11,-0.35324,-1.0788172,-9.657295,0.003835952,-0.0037871273,-0.00039643142,0.00048524677,0.0006553172,0.0037077584,3.647283e-05,7.467487e-05,6.124574e-05,36.5,nan
749059159,4259850,4325386,0,0,0,0,0,401.7073,400.1761,2008.5403,2000.8804,0.060316153,0.00992339,3.839618e-11,-0.32005882,-1.0937827,-9.692374,0.0027855786,-0.004184399,-0.00097569026,0.00035385936,0.0003070763,0.0023882794,4.4442197e-05,7.757186e-05,0.000101600286,36.5,nan
750103972,4259850,4325386,0,0,0,0,0,401.7073,400.1761,2008.5403,2000.8804,0.051727664,0.009696233,4.7157986e-11,-0.34094885,-1.0550674,-9.63069,-0.0036678256,-0.007639753,-0.00047216433,0.00086521445,0.002532471,0.0023659589,4.5805595e-05,8.6725144e-05,8.603427e-05,36.5,nan
751048799,4259850,4325386,0,0,0,0,0,401.7073,400.1761,2008.5403,2000.8804,0.061301958,0.009754999,7.0183755e-11,-0.37004703,-1.0854295,-9.6923065,0.008169756,-0.00787098,0.00017549632,0.00061492965,0.00044810516,0.002636981,8.235625e-05,7.126177e-05,6.814376e-05,36.5,nan
752093620,4259850,4325386,0,0,0,0,0,401.7073,400.1761,2008.5403,2000.8804,0.03702596,0.008762157,5.302346e-11,-0.37151182,-1.0979804,-9.710542,0.004350894,-0.0028649992,6.4146676e-05,0.00030781163,0.0001498604,0.0012195215,6.0919596e-05,0.00011613038,6.7604946e-05,36.5,nan
753033445,4259850,4325386,0,0,0,0,0,401.7073,400.1761,2008.5403,2000.8804,0.036214672,0.009413801,6.1971275e-11,-0.31359223,-1.0832357,-9.657797,-0.0023398863,-0.0066615343,0.00054470234,0.00033752344,0.00020826569,0.00078079745,5.16976e-05,8.3534775e-05,0.00012002521,36.5,nan
754073247,4259850,4325386,0,0,0,0,0,401.7073,400.1761,2008.5403,2000.8804,0.039266437,0.009215623,7.383651e-11,-0.33239335,-1.0855578,-9.654282,0.008635936,-0.005378964,0.00054510956,0.0005978807,0.00034658544,0.001977848,5.0904764e-05,8.3132516e-05,7.8425284e-05,36.5,nan
755108055,4259850,4325386,0,0,0,0,0,401.7073,400.1761,2008.5403,2000.8804,0.034543093,0.009802983,4.680887e-11,-0.33062166,-1.0879768,-9.64919,0.0021163225,-0.0077195577,-9.141632e-05,0.00037623587,0.00018511746,0.0010297139,5.0713643e-05,0.00011469297,0.000101182435,36.5,nan
756047943,4259850,4325386,0,0,0,0,0,401.7073,400.1761,2008.5403,2000.8804,0.034599047,0.008991079,6.394177e-11,-0.3236069,-1.0870465,-9.660524,0.0032400044,-0.008908729,0.00089060096,0.00048793823,0.0002803638,0.0014270018,6.374707e-05,8.453514e-05,8.439424e-05,36.5,nan
757097697,4259850,4325386,0,0,0,0,0,401.7073,400.1761,2008.5403,2000.8804,0.12582225,0.012557546,1.13448154e-10,-0.33593565,-1.0654235,-9.693277,0.0033123386,-0.0030590517,-0.00064212875,0.003246172,0.00985286,0.037606966,0.00019380201,0.00013071187,9.8928154e-05,36.5,nan
