timestamp,timestamp_sample,device_id,magnetometer_ga[0],magnetometer_ga[1],magnetometer_ga[2],calibration_count
539559896,539546733,396321,-0.19526446,-0.053324755,0.30844688,3
540008240,540000352,396321,-0.19130097,-0.054269448,0.30334428,3
540456376,540453963,396321,-0.18535665,-0.052731097,0.30360454,3
541075754,541058886,396321,-0.19424705,-0.054194085,0.30321273,3
541523735,541512487,396321,-0.1990334,-0.052630916,0.31665856,3
541971950,541966099,396321,-0.18287806,-0.054007065,0.3106987,3
542591126,542570897,396321,-0.18802562,-0.05534094,0.302053,3
543039184,543024461,396321,-0.20099193,-0.057472624,0.3114329,3
543487253,543478048,396321,-0.1914992,-0.055730157,0.30877286,3
544085354,544082874,396321,-0.19006571,-0.05636882,0.3050272,3
544554695,544536463,396321,-0.20147403,-0.058491364,0.3098746,3
545002811,544990076,396321,-0.18930474,-0.056509025,0.30890417,3
545579593,545519278,396321,-0.18454109,-0.056947604,0.30753803,3
546070102,546048587,396321,-0.20031455,-0.05809383,0.30763066,3
546518475,546502136,396321,-0.1902698,-0.05997324,0.30214393,3
547094666,547031304,396321,-0.18470928,-0.056102045,0.30767035,3
547564219,547560509,396321,-0.18878828,-0.055215575,0.30205476,3
548033982,548014139,396321,-0.19529665,-0.055387598,0.30478925,3
548481974,548467717,396321,-0.18182805,-0.0569729,0.2971204,3
549080241,549072516,396321,-0.19185604,-0.05452698,0.31025082,3
549528354,549526090,396321,-0.19687694,-0.05634165,0.31313843,3
549998470,549979725,396321,-0.18462127,-0.054997813,0.30376083,3
550596489,550584471,396321,-0.18688518,-0.057184067,0.2999136,3
551044553,551038108,396321,-0.20184715,-0.055586703,0.3074594,3
551493040,551491745,396321,-0.1876087,-0.0549647,0.30357617,3
552090746,552020892,396321,-0.18627256,-0.054108463,0.306406,3
552559979,552550076,396321,-0.20207947,-0.0531033,0.31268153,3
553008500,553003792,396321,-0.19188704,-0.055947267,0.30645716,3
553478291,553457332,396321,-0.18697186,-0.056538835,0.30827612,3
554075566,554062056,396321,-0.20130415,-0.051649913,0.31648153,3
554524552,554515739,396321,-0.19083321,-0.053977497,0.30869707,3
554972595,554969252,396321,-0.18334357,-0.05849086,0.2970567,3
555591557,555574067,396321,-0.1946522,-0.051589582,0.3130008,3
556040075,556027690,396321,-0.19528253,-0.056328945,0.3085966,3
556488191,556481254,396321,-0.185951,-0.056077316,0.3067764,3
557085891,557010469,396321,-0.19188294,-0.05676145,0.30904692,3
557555654,557539686,396321,-0.19634129,-0.058311902,0.30635482,3
558003719,557993300,396321,-0.18937063,-0.057239227,0.30897892,3
558580126,558522478,396321,-0.19182226,-0.056831583,0.31008482,3
559070703,559051744,396321,-0.20228237,-0.056789506,0.30980223,3
559519036,559505319,396321,-0.18786809,-0.057239886,0.30903646,3
560095546,560034482,396321,-0.18801902,-0.057639472,0.30981433,3
560564867,560563689,396321,-0.1973832,-0.059614886,0.30785853,3
561034969,561017265,396321,-0.18922079,-0.05735877,0.3081622,3
561483034,561470899,396321,-0.18595639,-0.059255578,0.30688992,3
562080391,562075725,396321,-0.19931827,-0.05686052,0.30990472,3
562550508,562529257,396321,-0.21285406,-0.045184273,0.30174705,3
562998542,562982929,396321,-0.20527565,-0.04887829,0.29987502,3
563596297,563587789,396321,-0.21509084,-0.051781535,0.3002721,3
564044909,564041257,396321,-0.21665697,-0.052531146,0.30016375,3
564514289,564494900,396321,-0.20930234,-0.049287274,0.29657763,3
565090740,565024072,396321,-0.21204579,-0.050699703,0.29736888,3
565560521,565553251,396321,-0.21584252,-0.052373692,0.2916968,3
566008739,566006882,396321,-0.20758554,-0.050560948,0.30353516,3
566478298,566460473,396321,-0.21030709,-0.049954034,0.3018378,3
567075720,567065301,396321,-0.22258754,-0.052234903,0.2913143,3
567524165,567518886,396321,-0.20844333,-0.050337262,0.29967892,3
567993807,567972476,396321,-0.20405717,-0.05008543,0.2922207,3
568591235,568577319,396321,-0.22004043,-0.04976236,0.3013217,3
569040087,569030906,396321,-0.21194248,-0.049946472,0.30636668,3
569488312,569484479,396321,-0.22149521,-0.050585173,0.30130798,3
570085587,570013668,396321,-0.20791218,-0.04893584,0.3048842,3
570555750,570542881,396321,-0.21407494,-0.049699847,0.29780865,3
571003826,570996462,396321,-0.21609935,-0.047896896,0.30833054,3
571451980,571450105,396321,-0.20886144,-0.049196653,0.30190104,3
572071348,572054878,396321,-0.21464254,-0.047024272,0.30455872,3
572519392,572508463,396321,-0.22026725,-0.047377683,0.30658618,3
573095809,573037701,396321,-0.20637584,-0.04579998,0.30312663,3
573586907,573566879,396321,-0.20843124,-0.04554172,0.2994123,3
574034914,574020476,396321,-0.22192845,-0.036440697,0.29915938,3
574483295,574474067,396321,-0.20938364,-0.016392618,0.30759144,3
575080695,575078891,396321,-0.21060434,-0.018994322,0.30610293,3
575550909,575532475,396321,-0.22025391,-0.020422718,0.30566657,3
575999080,575986076,396321,-0.20795552,-0.018588707,0.30398417,3
576596412,576590928,396321,-0.2052373,-0.017743453,0.30943567,3
577066546,577044464,396321,-0.21574418,-0.02071799,0.3052233,3
577514647,577498121,396321,-0.21098617,-0.023365881,0.30405074,3
578091430,578027295,396321,-0.20383136,-0.01917418,0.2990114,3
578561646,578556468,396321,-0.20943034,-0.013682175,0.29527807,3
579031035,579010081,396321,-0.22037382,-0.019524481,0.30186123,3
579479501,579463771,396321,-0.2075796,-0.013610442,0.30532217,3
580077254,580068552,396321,-0.20774664,-0.011734764,0.30222723,3
580525234,580522132,396321,-0.2126106,-0.005694831,0.3003042,3
580995355,580975708,396321,-0.19914092,-0.0033669695,0.31628615,3
581592648,581580461,396321,-0.20786934,-0.015447237,0.2957424,3
582040558,582034051,396321,-0.22408392,-0.018723682,0.29800847,3
582489497,582487731,396321,-0.21269055,-0.018166393,0.29704583,3
583086778,583016893,396321,-0.21535441,-0.01688203,0.30114704,3
583556646,583546123,396321,-0.21855026,-0.017498428,0.30048537,3
584005131,583999770,396321,-0.21006677,-0.017104182,0.2993948,3
584474468,584453256,396321,-0.2182853,-0.024086613,0.29924536,3
585072058,585058127,396321,-0.2069416,-0.01595307,0.30640805,3
585520645,585511689,396321,-0.19725463,-0.015584016,0.29081148,3
586096659,586040890,396321,-0.214182,-0.015816968,0.29896817,3
586587696,586570100,396321,-0.20078221,-0.009976555,0.30948085,3
587035717,587023741,396321,-0.19967937,-0.01321107,0.29973942,3
587484144,587477399,396321,-0.20843177,-0.011796932,0.30228359,3
588081979,588006474,396321,-0.20792866,-0.0103144925,0.30172634,3
588551286,588535732,396321,-0.19500476,-0.0055546053,0.2988941,3
589000299,588989340,396321,-0.20166598,-0.0095807165,0.3025652,3
589597475,589594067,396321,-0.20948835,-0.013515675,0.29238075,3
590067307,590047704,396321,-0.20492397,-0.023578424,0.30460536,3
590515811,590501280,396321,-0.21023107,-0.02269704,0.30426794,3
591091784,591030479,396321,-0.22117737,-0.024348145,0.29510212,3
591561521,591559688,396321,-0.2087034,-0.018542165,0.29956,3
592031174,592013319,396321,-0.20862417,-0.01805256,0.30261743,3
592479354,592466880,396321,-0.1993206,-0.008264842,0.30207515,3
593077074,593071713,396321,-0.21253553,0.007877039,0.2986285,3
593546973,593525300,396321,-0.20392661,-0.004822395,0.30469,3
593995042,593978914,396321,-0.2015572,-0.007136137,0.3011217,3
594592809,594583700,396321,-0.20880033,-0.0072031533,0.30076614,3
595040896,595037256,396321,-0.19859198,-0.006236395,0.29818243,3
595510991,595490876,396321,-0.20060591,-0.001075834,0.30472147,3
596087034,596020084,396321,-0.20929836,-0.0052408315,0.30269974,3
596556350,596549321,396321,-0.19862017,-0.0014828667,0.30256516,3
597005313,597002879,396321,-0.19865891,-0.0054461546,0.3027416,3
597474647,597456463,396321,-0.19686387,-0.0058723716,0.3051613,3
598072247,598061248,396321,-0.20876491,-0.00811002,0.30461544,3
598520820,598514905,396321,-0.19335845,-0.013442512,0.29879758,3
598969762,598968462,396321,-0.19239141,-0.0028131995,0.30525053,3
599589180,599573266,396321,-0.20365244,-0.0051014787,0.30936623,3
600037347,600026900,396321,-0.2056593,-0.010699813,0.30414575,3
600485394,600480515,396321,-0.20035398,-0.01230756,0.29989862,3
601083660,601009717,396321,-0.20885454,-0.014569173,0.3030102,3
601552932,601538898,396321,-0.212096,-0.013153283,0.29966447,3
602000973,601992463,396321,-0.20174499,-0.009842682,0.30155182,3
602577815,602521688,396321,-0.2077171,-0.010490445,0.29892638,3
603068711,603050875,396321,-0.20781556,-0.012139465,0.305059,3
603517817,603504477,396321,-0.21674453,-0.014676008,0.2893665,3
604094369,604033676,396321,-0.20638373,-0.0058961855,0.29826424,3
604585773,604573690,396321,-0.20420593,-0.005850813,0.30007794,3
605055052,605027314,396321,-0.21259153,-0.0023352345,0.299026,3
605503147,605480897,396321,-0.20583057,-0.0008957451,0.30025473,3
606057952,606010082,396321,-0.1994474,-0.0010421266,0.29705593,3
606570466,606539310,396321,-0.21137103,-0.005295115,0.29748064,3
607018538,606992875,396321,-0.20541272,-0.0045892624,0.30007243,3
607573648,607522092,396321,-0.1992157,-0.00069784134,0.302977,3
608064722,608051278,396321,-0.20639145,-0.0035702,0.29920864,3
608534420,608504913,396321,-0.20930392,-0.0017941874,0.30472782,3
609089198,609034074,396321,-0.19679189,-0.001323957,0.30527306,3
609580202,609563266,396321,-0.20255947,-0.0012481054,0.3088666,3
610049919,610016958,396321,-0.21328172,-0.0038491134,0.30383435,3
610498008,610470517,396321,-0.20087585,-0.00017137732,0.30352718,3
611053186,610999743,396321,-0.2003326,-0.001483129,0.3032554,3
611544145,611528880,396321,-0.20711488,0.00042307377,0.29653677,3
612013608,611982469,396321,-0.20133054,0.0003172215,0.29493043,3
612568422,612511692,396321,-0.20144962,-0.004440766,0.2969803,3
613059719,613040905,396321,-0.20879486,0.0033497699,0.29908982,3
613507836,613494522,396321,-0.2058657,-0.007576398,0.29562977,3
614084265,614023677,396321,-0.20078897,-0.005004282,0.299294,3
614575303,614552956,396321,-0.20933855,-0.009922475,0.2938236,3
615023306,615006507,396321,-0.20553374,-0.0055137454,0.30458826,3
615471851,615460046,396321,-0.2151247,0.0006666407,0.30625626,3
616090648,616064870,396321,-0.20860288,-0.00448431,0.29476655,3
616539095,616518467,396321,-0.2151823,-0.0010539172,0.29496998,3
617093905,617047691,396321,-0.20895763,0.0012082976,0.29311448,3
617563647,617501305,396321,-0.21821141,-0.00027431268,0.29874703,3
618055413,618030520,396321,-0.21260425,-0.0015026322,0.29502857,3
618503919,618484096,396321,-0.20632139,-0.0008888738,0.29956418,3
619058534,619013296,396321,-0.2017303,0.0014514003,0.29914004,3
619570898,619542500,396321,-0.2072438,0.0015848177,0.2946052,3
620019395,619996104,396321,-0.21441327,-0.006487311,0.29734796,3
620574147,620525292,396321,-0.20526376,-0.009772357,0.2980825,3
621086365,621054490,396321,-0.21559128,-0.011065431,0.29399657,3
621534908,621508045,396321,-0.2209372,-0.006040015,0.2917029,3
622090042,622037283,396321,-0.21328226,-0.009292028,0.29420656,3
622580583,622566536,396321,-0.22743715,-0.010774735,0.29076034,3
623050870,623020058,396321,-0.21996717,-0.01125968,0.29267472,3
623498946,623473748,396321,-0.21462688,-0.009969992,0.29449034,3
624096249,624078508,396321,-0.22653192,-0.011316102,0.28967446,3
624545220,624532079,396321,-0.22085677,-0.008010029,0.289064,3
625014479,624985702,396321,-0.21308029,-0.008401649,0.29988736,3
625569495,625514873,396321,-0.21704209,-0.010841363,0.29089794,3
626060460,626044067,396321,-0.2217533,-0.010483445,0.2940747,3
626530166,626497688,396321,-0.2119718,-0.008614238,0.28940496,3
627084901,627026861,396321,-0.21830939,-0.009072701,0.29229736,3
627576059,627556044,396321,-0.22513339,-0.00883621,0.2936956,3
628024482,628009686,396321,-0.21243697,-0.008704532,0.29590058,3
628494366,628463262,396321,-0.21526772,-0.00918951,0.29499596,3
629091550,629068046,396321,-0.22823858,-0.008324375,0.29618567,3
629540193,629521698,396321,-0.21303225,-0.009347148,0.2851423,3
630095341,630050883,396321,-0.2158658,-0.010704035,0.2954311,3
630564646,630504471,396321,-0.22358237,-0.010903888,0.28952348,3
631056044,631033682,396321,-0.21578819,-0.008208722,0.29415986,3
631504155,631487256,396321,-0.21175277,-0.007420656,0.29709613,3
632080161,632016461,396321,-0.2235099,-0.011386831,0.2929029,3
632571600,632545717,396321,-0.21642566,-0.010935421,0.29024717,3
633019646,632999337,396321,-0.21180624,-0.004287703,0.29749876,3
633574471,633528480,396321,-0.21805656,-0.010347943,0.28768596,3
634086708,634057687,396321,-0.2213909,-0.012673877,0.28702953,3
634535170,634511320,396321,-0.21008939,-0.010719614,0.2905969,3
635089935,635040472,396321,-0.21668248,-0.009818668,0.28759763,3
635538514,635494077,396321,-0.22875075,-0.010233152,0.289697,3
636050655,636023258,396321,-0.21431178,-0.010531673,0.28961414,3
636499121,636476896,396321,-0.21515746,-0.009941325,0.2879759,3
637096391,637081671,396321,-0.22798833,-0.01213202,0.29084182,3
637566745,637535266,396321,-0.21393776,-0.0110107325,0.28797668,3
638014814,637988908,396321,-0.21247861,-0.010597311,0.28809512,3
638569655,638518088,396321,-0.22411378,-0.012246015,0.28829294,3
639061070,639047319,396321,-0.21952522,-0.011322486,0.2877135,3
639530349,639500939,396321,-0.21314144,-0.010081843,0.29373202,3
640085195,640030065,396321,-0.22209285,-0.016439447,0.28995088,3
640576679,640559255,396321,-0.21642292,-0.018311482,0.2917629,3
641024794,641012877,396321,-0.21728496,-0.014187379,0.2903303,3
641494014,641466486,396321,-0.21812025,-0.017054787,0.28468686,3
642091721,642071259,396321,-0.22395903,-0.011641478,0.2876101,3
642540172,642524911,396321,-0.21220729,-0.0145972,0.29302523,3
643009692,642978534,396321,-0.21561584,-0.013288127,0.29315007,3
643564480,643507698,396321,-0.22619016,-0.015270642,0.2889423,3
644055469,644036909,396321,-0.21554357,-0.011352833,0.29040515,3
644504055,644490491,396321,-0.21704294,-0.0108092055,0.2864905,3
645080057,645019692,396321,-0.22818978,-0.011357032,0.2922031,3
645571552,645548872,396321,-0.21659286,-0.013317583,0.2881167,3
646019587,646002478,396321,-0.21315071,-0.012785289,0.29172814,3
646595724,646531670,396321,-0.22775736,-0.016273657,0.28859943,3
647087199,647060878,396321,-0.22214802,-0.015618096,0.2879406,3
647535204,647514500,396321,-0.21301657,-0.012289353,0.29709107,3
648089979,648043744,396321,-0.22539099,-0.014374501,0.2887948,3
648560207,648497322,396321,-0.2236394,-0.01491259,0.2915175,3
649050813,649026497,396321,-0.21692094,-0.01125878,0.2979875,3
649498820,649480057,396321,-0.21952343,-0.014469782,0.28803745,3
650053978,650009350,396321,-0.22691894,-0.0129082175,0.29063877,3
650566146,650538490,396321,-0.21599978,-0.011385927,0.2972453,3
651014654,650992050,396321,-0.22137088,-0.01429704,0.2959374,3
651569654,651521270,396321,-0.2277081,-0.013869956,0.29242995,3
652082342,652050500,396321,-0.21940255,-0.013835359,0.28950974,3
652530352,652504127,396321,-0.21661618,-0.011767473,0.2926251,3
653085143,653033392,396321,-0.2310543,-0.013952677,0.28967923,3
653576558,653562495,396321,-0.21802302,-0.014337198,0.28426293,3
654045898,654016066,396321,-0.21745035,-0.012411978,0.2910987,3
654493930,654469710,396321,-0.2268813,-0.012167999,0.29135635,3
655092059,655074479,396321,-0.22279385,-0.014197196,0.29167452,3
655540142,655528047,396321,-0.21730508,-0.010967191,0.29027334,3
656009558,655981705,396321,-0.22323954,-0.012879856,0.2900333,3
656565103,656510879,396321,-0.2244765,-0.0121535035,0.2890088,3
657055791,657040078,396321,-0.21780199,-0.010851165,0.29099238,3
657525459,657493683,396321,-0.22578153,-0.014043283,0.2876595,3
658080239,658022870,396321,-0.2289577,-0.013785771,0.28731078,3
658571241,658552049,396321,-0.21451959,-0.011062602,0.28542057,3
659019761,659005747,396321,-0.2222562,-0.0087846555,0.2883471,3
659595755,659534900,396321,-0.23005775,-0.009690221,0.2887511,3
660087127,660064064,396321,-0.21927637,-0.010805191,0.28861246,3
660535084,660517758,396321,-0.21487081,-0.010633217,0.28309587,3
660983113,660971272,396321,-0.23160058,-0.011439125,0.29030573,3
661559577,661500473,396321,-0.22134367,-0.013088989,0.2857519,3
662050701,662029676,396321,-0.2189162,-0.008041282,0.28855622,3
662498670,662483296,396321,-0.22731696,-0.010042512,0.28743774,3
663075581,663012479,396321,-0.22543286,-0.010050502,0.2881521,3
663566262,663541679,396321,-0.21576273,-0.010825047,0.29383612,3
664014389,663995301,396321,-0.22429842,-0.009278523,0.2852686,3
664570103,664524507,396321,-0.22702365,-0.007801175,0.28612033,3
665081978,665053668,396321,-0.21853504,-0.0050304,0.292272,3
665530406,665507290,396321,-0.22104356,-0.006480342,0.28569382,3
666085148,666036492,396321,-0.2289145,-0.010774094,0.2890812,3
666597797,666565756,396321,-0.21605314,-0.007882488,0.29714003,3
667045910,667019285,396321,-0.22057435,-0.009892129,0.2893273,3
667494026,667472882,396321,-0.22860236,-0.009914111,0.2881235,3
668092163,668077678,396321,-0.21786794,-0.009733072,0.2928999,3
668561435,668531272,396321,-0.21749288,-0.009370381,0.2929033,3
669009398,668984885,396321,-0.22478908,-0.01144594,0.28188723,3
669564680,669514168,396321,-0.21913682,-0.01016835,0.29215288,3
670055664,670043267,396321,-0.21868466,-0.013962571,0.29151356,3
670525173,670496911,396321,-0.22384602,-0.01538945,0.2870763,3
671080825,671026149,396321,-0.22171037,-0.011915818,0.28994164,3
671571395,671555322,396321,-0.21285051,-0.008494628,0.29615158,3
672041145,672008879,396321,-0.2235192,-0.011422535,0.28920332,3
672596421,672538072,396321,-0.22320385,-0.013532524,0.2923916,3
673086968,673067279,396321,-0.21642025,-0.012674628,0.28734004,3
673535472,673520865,396321,-0.21982008,-0.011464939,0.2894069,3
674004797,673974532,396321,-0.23064126,-0.010161352,0.29104468,3
674560145,674503708,396321,-0.2177095,-0.011774577,0.28934872,3
675051050,675032914,396321,-0.22075549,-0.012148701,0.29241884,3
675499063,675486560,396321,-0.23337634,-0.012078855,0.2936766,3
676075581,676015708,396321,-0.21813951,-0.010077662,0.29477188,3
676566649,676544708,396321,-0.21610215,-0.0135357855,0.28967315,3
677014761,676998302,396321,-0.22694767,-0.012077285,0.28749153,3
677591635,677527512,396321,-0.21917854,-0.009471451,0.29070115,3
678082187,678056705,396321,-0.2160095,-0.009715345,0.2910334,3
678530289,678510302,396321,-0.22546238,-0.011375381,0.28946847,3
679085910,679039478,396321,-0.22138818,-0.0101874145,0.2889283,3
679597788,679568688,396321,-0.2130431,-0.010227947,0.2931227,3
680046254,680022289,396321,-0.22292522,-0.009658046,0.28570107,3
680494334,680475893,396321,-0.22909732,-0.012898186,0.28477556,3
681049567,681005091,396321,-0.21732233,-0.012016537,0.29188263,3
681561817,681534317,396321,-0.22158834,-0.014312198,0.2867744,3
682009804,681987880,396321,-0.22961684,-0.015136427,0.28561884,3
682565052,682517082,396321,-0.2161094,-0.012337547,0.2902741,3
683077200,683046298,396321,-0.22013903,-0.01126157,0.29093164,3
683525304,683499839,396321,-0.23117186,-0.013547868,0.28775606,3
684080676,684029074,396321,-0.21864322,-0.01182343,0.29009104,3
684571727,684558300,396321,-0.21513517,-0.015318485,0.28638232,3
685041029,685011948,396321,-0.22622228,-0.012617879,0.29137698,3
685596571,685541109,396321,-0.2193433,-0.013482774,0.28839564,3
686087067,686070344,396321,-0.21457559,-0.010164913,0.29532003,3
686556895,686523923,396321,-0.22377828,-0.01232652,0.28843418,3
687005431,686977531,396321,-0.22126395,-0.009290334,0.2949317,3
687560195,687506782,396321,-0.21484566,-0.011007231,0.28979918,3
688051152,688035927,396321,-0.22005665,-0.010919834,0.29051307,3
688520477,688489518,396321,-0.2258148,-0.010325208,0.29323798,3
689075795,689018677,396321,-0.2133142,-0.011654707,0.29067546,3
689566829,689547905,396321,-0.21755628,-0.013089674,0.28731012,3
690014686,690001474,396321,-0.22983852,-0.013599474,0.28285027,3
690591293,690541459,396321,-0.215991,-0.009379493,0.29203856,3
691039664,690995144,396321,-0.21640131,-0.0069998624,0.29306266,3
691551547,691524280,396321,-0.23126173,-0.011213584,0.28908813,3
692021648,691977942,396321,-0.22038397,-0.010782037,0.28836572,3
692555148,692507101,396321,-0.21522525,-0.0103717,0.28984675,3
693067368,693036317,396321,-0.2294871,-0.010546645,0.29016328,3
693515998,693489941,396321,-0.2219351,-0.010970915,0.28852496,3
694070814,694019158,396321,-0.21574438,-0.009868296,0.29150105,3
694583062,694548348,396321,-0.22212258,-0.011841385,0.28958607,3
695031659,695001870,396321,-0.22152865,-0.013468722,0.2879067,3
695565063,695531083,396321,-0.21452342,-0.010607486,0.2931291,3
696034469,695984706,396321,-0.21616584,-0.010846365,0.2878753,3
696546775,696513857,396321,-0.22549467,-0.012723109,0.291756,3
697080712,697043097,396321,-0.21509743,-0.010280679,0.29020488,3
697550307,697496677,396321,-0.21934617,-0.012434942,0.29104322,3
698062271,698025890,396321,-0.22925548,-0.013617411,0.2905729,3
698511127,698479520,396321,-0.21930104,-0.011134397,0.29072648,3
699045879,699008717,396321,-0.21693602,-0.010342741,0.28706133,3
699579404,699548759,396321,-0.22624323,-0.012751663,0.28571427,3
700027425,700002316,396321,-0.22010696,-0.011605915,0.29097334,3
700582636,700531503,396321,-0.2160034,-0.011201422,0.28934956,3
701073664,701060723,396321,-0.23162484,-0.0118842,0.2926947,3
701542996,701514300,396321,-0.22363299,-0.008932177,0.2899057,3
701990926,701967914,396321,-0.2173272,-0.009017152,0.2902467,3
702589043,702572720,396321,-0.22437176,-0.010189672,0.29183996,3
703058324,703026296,396321,-0.22873685,-0.011473856,0.29321557,3
703506394,703479973,396321,-0.21592467,-0.015631193,0.28910583,3
704062121,704009264,396321,-0.22204292,-0.013797042,0.2864146,3
704552697,704538495,396321,-0.22757363,-0.012015342,0.28295305,3
705022554,704992071,396321,-0.21750274,-0.009134056,0.28719038,3
705577800,705521271,396321,-0.2214051,-0.01056629,0.28766486,3
706068395,706050522,396321,-0.23339328,-0.011055298,0.2879752,3
706516851,706504076,396321,-0.22095609,-0.0115703605,0.29369307,3
707093189,707033290,396321,-0.21606274,-0.012379884,0.28807923,3
707584094,707562542,396321,-0.22954127,-0.019156275,0.2878322,3
708032294,708016064,396321,-0.2187281,-0.01040568,0.2937451,3
708502321,708469707,396321,-0.21519132,-0.012869001,0.28907058,3
709057411,708998939,396321,-0.22458093,-0.011840096,0.29112864,3
709548787,709528104,396321,-0.22198516,-0.009527439,0.2851072,3
709996833,709981663,396321,-0.21414775,-0.010096389,0.28743052,3
710573314,710510868,396321,-0.22459543,-0.012027356,0.28972673,3
711064376,711040052,396321,-0.22378194,-0.013526687,0.2870679,3
711512403,711493651,396321,-0.21551517,-0.012588756,0.28899235,3
712067647,712022874,396321,-0.22053425,-0.009410525,0.28962907,3
712579899,712552112,396321,-0.22447917,-0.01050733,0.29076773,3
713028387,713005778,396321,-0.21338014,-0.012504861,0.28761286,3
713583186,713534906,396321,-0.21716204,-0.011330605,0.2902565,3
714095946,714064090,396321,-0.23200384,-0.011003967,0.28694078,3
714543996,714517666,396321,-0.21808583,-0.0098081995,0.28876525,3
714992039,714971345,396321,-0.21451886,-0.009332443,0.28968847,3
715589907,715576106,396321,-0.22636974,-0.012664022,0.28500596,3
716059674,716029707,396321,-0.22041538,-0.010436116,0.28713077,3
716507788,716483259,396321,-0.21463037,-0.01070348,0.2863085,3
717062646,717012471,396321,-0.2251515,-0.01112965,0.2904496,3
717553959,717541659,396321,-0.2255379,-0.00837733,0.29634976,3
718023354,717995402,396321,-0.21471904,-0.011281362,0.2947696,3
718578473,718524527,396321,-0.22255158,-0.010045398,0.29254743,3
719069648,719053655,396321,-0.22524256,-0.009982067,0.28688967,3
719539424,719507270,396321,-0.21614087,-0.010372199,0.2904598,3
720094142,720036479,396321,-0.21985035,-0.0107966345,0.290273,3
720585231,720565729,396321,-0.22719505,-0.009972764,0.29137725,3
721033792,721019302,396321,-0.21594307,-0.011668379,0.28745443,3
721503108,721472992,396321,-0.21914393,-0.014932271,0.2866705,3
722057898,722002102,396321,-0.22950724,-0.008964739,0.29044417,3
722549217,722531271,396321,-0.21777315,-0.009441307,0.29107943,3
722997228,722984926,396321,-0.21701619,-0.009932331,0.29306635,3
723573316,723514180,396321,-0.22966604,-0.012759489,0.29075128,3
724064676,724043330,396321,-0.21727425,-0.012517945,0.28473973,3
724512711,724496931,396321,-0.21411684,-0.010136544,0.28977764,3
725089182,725026067,396321,-0.22186998,-0.011738078,0.28929704,3
725580163,725555279,396321,-0.2200009,-0.011952788,0.28533906,3
726028238,726008898,396321,-0.22621027,-0.011292932,0.2884202,3
726583329,726538084,396321,-0.21570373,-0.0118669225,0.28920743,3
727095717,727067289,396321,-0.21505421,-0.0134356,0.29130277,3
727544113,727520970,396321,-0.21473977,-0.020507291,0.29204017,3
727992199,727974583,396321,-0.20394298,-0.017821016,0.3024426,3
728568661,728503689,396321,-0.20350304,-0.017365798,0.29532692,3
729059659,729032912,396321,-0.21716738,-0.019856136,0.29301578,3
729507746,729486534,396321,-0.2058386,-0.01754358,0.29657593,3
730062647,730015705,396321,-0.19875512,-0.018464645,0.29408127,3
730575354,730544917,396321,-0.21242577,-0.020151448,0.29173034,3
731024650,730998496,396321,-0.2055518,-0.018967208,0.29510707,3
731579481,731527678,396321,-0.19917656,-0.019225646,0.2978985,3
732070455,732056865,396321,-0.21181102,-0.017746303,0.29430926,3
732540226,732510471,396321,-0.20897079,-0.02408015,0.29743856,3
733095353,733039677,396321,-0.1994435,-0.017278733,0.29609662,3
733585905,733568965,396321,-0.2055273,-0.017458094,0.29692698,3
734056165,734033488,396321,-0.2117235,-0.025250247,0.2909565,3
734525396,734487161,396321,-0.19975358,-0.020574719,0.2936655,3
735059062,735016386,396321,-0.20131066,-0.021172952,0.2946271,3
735571251,735545596,396321,-0.2111728,-0.01854948,0.29448885,3
736040950,735999174,396321,-0.20277339,-0.020034404,0.2965322,3
736574471,736528470,396321,-0.19888756,-0.017989125,0.29383397,3
737086724,737057681,396321,-0.21301046,-0.018043585,0.2925724,3
737535158,737511309,396321,-0.20441453,-0.019277131,0.2879725,3
738090076,738040471,396321,-0.20194378,-0.018430673,0.2931151,3
738538607,738494061,396321,-0.21119246,-0.017884878,0.29145423,3
739050919,739023295,396321,-0.20507261,-0.018072538,0.2952816,3
739500247,739476958,396321,-0.19672394,-0.016730983,0.301309,3
740055352,740006102,396321,-0.20023198,-0.020755738,0.29505825,3
740567647,740535354,396321,-0.2002598,-0.0180079,0.29782546,3
741015735,740988916,396321,-0.1910095,-0.017329415,0.2952308,3
741570900,741518092,396321,-0.19881362,-0.018662546,0.29462293,3
742083046,742047259,396321,-0.20447084,-0.019204909,0.295117,3
742531059,742500929,396321,-0.19310638,-0.017008655,0.29713953,3
743064983,743030121,396321,-0.19827428,-0.019617278,0.29277343,3
743598497,743559302,396321,-0.20801365,-0.019804522,0.29264295,3
744046646,744012882,396321,-0.19568154,-0.019941302,0.29356262,3
744580667,744542057,396321,-0.19273275,-0.019303227,0.2942003,3
745050358,744995664,396321,-0.20768367,-0.019472051,0.29590154,3
745562186,745524881,396321,-0.19508335,-0.019980438,0.2917937,3
746096145,746054093,396321,-0.1930582,-0.018976439,0.29492256,3
746544665,746507682,396321,-0.20327948,-0.020220062,0.2944497,3
747078087,747036914,396321,-0.20445868,-0.017673159,0.29630184,3
747526160,747490509,396321,-0.19443738,-0.017836355,0.2935242,3
748060040,748019686,396321,-0.20231934,-0.019162493,0.29234278,3
748572198,748548893,396321,-0.20572886,-0.018038845,0.29370797,3
749041547,749002474,396321,-0.19962838,-0.015681842,0.29442397,3
749575398,749531678,396321,-0.20197132,-0.017066803,0.29531187,3
750087645,750060857,396321,-0.21114884,-0.017806392,0.29595122,3
750556992,750514522,396321,-0.20175901,-0.01894911,0.29523104,3
751090949,751043710,396321,-0.20250744,-0.018462032,0.29516712,3
751538969,751497282,396321,-0.2115053,-0.018923292,0.2851346,3
752051149,752026465,396321,-0.20166436,-0.018150501,0.28395873,3
752521353,752480084,396321,-0.20002763,-0.01814901,0.29528344,3
753054915,753009286,396321,-0.21334548,-0.021477632,0.29110074,3
753566830,753538482,396321,-0.20481126,-0.020462986,0.29822004,3
754015795,753992067,396321,-0.20059393,-0.018033415,0.29424465,3
754570437,754521289,396321,-0.20814452,-0.017020904,0.29213738,3
755082718,755050483,396321,-0.20695226,-0.018720128,0.29088637,3
755530744,755504074,396321,-0.19841556,-0.017440125,0.29332262,3
756085895,756033270,396321,-0.20811349,-0.019394,0.29110488,3
756598197,756562481,396321,-0.20657735,-0.018649971,0.29293507,3
757046229,757016121,396321,-0.20051531,-0.0165565,0.29368362,3
757580103,757545324,396321,-0.20425265,-0.019482836,0.29226547,3
758049507,757998925,396321,-0.21542041,-0.01897966,0.29375547,3
758561895,758528080,396321,-0.19959186,-0.018098596,0.29253376,3
759095896,759057292,396321,-0.20328954,-0.01757096,0.2940181,3
759565580,759510922,396321,-0.21502231,-0.018566243,0.29365414,3
760077363,760040069,396321,-0.20399702,-0.01980715,0.2921719,3
760526294,760493701,396321,-0.20152059,-0.012250858,0.30267715,3
761059856,761022867,396321,-0.2129214,-0.018901078,0.2886193,3
761593394,761552083,396321,-0.20080718,-0.017066829,0.28994665,3
762041963,762005694,396321,-0.19741619,-0.014186589,0.2917846,3
762575439,762535095,396321,-0.20698997,-0.015800286,0.28993,3
763087647,763064283,396321,-0.20845518,-0.015277679,0.2932831,3
763556979,763517870,396321,-0.19771902,-0.016463077,0.29084337,3
764090849,764047073,396321,-0.20510684,-0.014722571,0.2907354,3
764539045,764500674,396321,-0.21393892,-0.009361735,0.29767886,3
765072477,765029889,396321,-0.20145544,-0.009413459,0.2987405,3
765520909,765483471,396321,-0.20458695,-0.011327403,0.2933216,3
766054571,766012717,396321,-0.21579075,-0.010955448,0.29253262,3
766566906,766541890,396321,-0.20001845,-0.010574113,0.29580486,3
767036989,767006313,396321,-0.20254293,-0.0092297755,0.29790223,3
767591837,767535493,396321,-0.2106195,-0.011862527,0.29590985,3
768082506,768064718,396321,-0.20480779,-0.011670662,0.30211264,3
768531445,768518356,396321,-0.19930099,-0.015002139,0.294885,3
769000826,768971891,396321,-0.20948814,-0.021400405,0.2934759,3
769555579,769501076,396321,-0.20669094,-0.020746598,0.29205242,3
770046996,770030342,396321,-0.200674,-0.021379078,0.29239452,3
770516294,770483929,396321,-0.210256,-0.020223578,0.2933668,3
771071022,771013093,396321,-0.20918818,-0.018127078,0.2931727,3
771562088,771542340,396321,-0.19914678,-0.020607421,0.29013437,3
772010544,771995899,396321,-0.20534486,-0.022570275,0.28722018,3
772587053,772525087,396321,-0.21294427,-0.020817991,0.295705,3
773077579,773054274,396321,-0.20104186,-0.019491188,0.29419327,3
773526119,773507887,396321,-0.20490411,-0.020892207,0.29481626,3
774082547,774037082,396321,-0.21689121,-0.022865657,0.28958613,3
774594401,774566278,396321,-0.19902295,-0.022551784,0.29747373,3
775042919,775019878,396321,-0.2045101,-0.015495569,0.29838523,3
775491106,775473336,396321,-0.21671088,-0.02167061,0.29571462,3
776067562,776002486,396321,-0.20616817,-0.021049015,0.29310474,3
776558565,776531716,396321,-0.19945544,-0.020888891,0.29775155,3
777006646,776985327,396321,-0.21186051,-0.020128801,0.29590577,3
777561769,777514528,396321,-0.207073,-0.022563692,0.29251787,3
778074066,778043710,396321,-0.2047833,-0.01793,0.29810163,3
778522053,778497310,396321,-0.21093437,-0.020183451,0.2909757,3
779077305,779026477,396321,-0.21197735,-0.021109676,0.2929648,3
779568246,779555679,396321,-0.20089598,-0.021459538,0.2873832,3
780037648,780009281,396321,-0.20872083,-0.021910846,0.293131,3
780593231,780538365,396321,-0.21213484,-0.022428913,0.29288965,3
781083897,781067658,396321,-0.20143539,-0.01988902,0.29418063,3
781553682,781521282,396321,-0.20391294,-0.022679858,0.29150102,3
782002251,781974891,396321,-0.21054257,-0.02178036,0.28880805,3
782556997,782504070,396321,-0.20283334,-0.021221748,0.29364377,3
783048054,783033284,396321,-0.20193629,-0.025916617,0.2890878,3
783518142,783487007,396321,-0.21724144,-0.024464179,0.2886026,3
784073168,784016081,396321,-0.20447503,-0.01999515,0.29596996,3
784564921,784545409,396321,-0.19770023,-0.020627491,0.29022127,3
785013646,784998917,396321,-0.21063377,-0.021311536,0.28919113,3
785590136,785528103,396321,-0.20656835,-0.019257724,0.2943035,3
786081143,786057354,396321,-0.19959223,-0.019097533,0.29427755,3
786529205,786510921,396321,-0.20843063,-0.021420889,0.29353285,3
787084438,787040087,396321,-0.21021941,-0.021925531,0.29224253,3
787596665,787569281,396321,-0.19718906,-0.016720664,0.28740367,3
788044647,788022908,396321,-0.20639655,-0.020325918,0.28861785,3
788493545,788476464,396321,-0.21592885,-0.020585787,0.2954235,3
789069657,789005675,396321,-0.20150366,-0.021386987,0.2929823,3
789560548,789534870,396321,-0.19993035,-0.021331124,0.2882226,3
790009015,789988463,396321,-0.21788195,-0.020854726,0.29376042,3
790563819,790517662,396321,-0.20361315,-0.021195013,0.29112566,3
791076097,791057650,396321,-0.20390677,-0.02128998,0.29524916,3
791524513,791511292,396321,-0.21254191,-0.02292204,0.28952,3
791972566,791964855,396321,-0.20409356,-0.020909443,0.28835666,3
792591491,792569635,396321,-0.20178248,-0.018243369,0.299852,3
793039468,793023300,396321,-0.21124943,-0.021070002,0.28645214,3
793487939,793476910,396321,-0.2128439,-0.019491293,0.29089436,3
794085723,794081649,396321,-0.20374502,-0.020682475,0.2944954,3
794555012,794535295,396321,-0.21042316,-0.019803356,0.2941023,3
795003817,794988858,396321,-0.21204604,-0.018868627,0.29472923,3
795579901,795518091,396321,-0.20092154,-0.02025669,0.29345813,3
796049298,796047292,396321,-0.21218932,-0.019683342,0.2993485,3
796519361,796500886,396321,-0.21776615,-0.02283424,0.28923762,3
797095328,797030166,396321,-0.20288911,-0.019582938,0.2938403,3
797565172,797559302,396321,-0.20408602,-0.02009432,0.28831077,3
798034952,798012897,396321,-0.21205239,-0.019632107,0.29477644,3
798483041,798466463,396321,-0.20741624,-0.020772774,0.29814184,3
799080700,799071312,396321,-0.20452717,-0.021937035,0.28685132,3
799529113,799524874,396321,-0.21649992,-0.021964148,0.29464644,3
799998439,799978462,396321,-0.2067024,-0.020610176,0.29433456,3
800596005,800583292,396321,-0.19842908,-0.027028171,0.29048377,3
801044117,801036868,396321,-0.21413742,-0.021306826,0.29398963,3
801492486,801490463,396321,-0.21502158,-0.025128229,0.2948812,3
802090273,802019676,396321,-0.20171836,-0.020301359,0.29446477,3
802559608,802548981,396321,-0.20688963,-0.023490323,0.2914116,3
803008441,803002463,396321,-0.21352951,-0.019625515,0.29471925,3
803477734,803456115,396321,-0.2048388,-0.020090576,0.28828835,3
804075648,804060846,396321,-0.20941307,-0.020839283,0.2926652,3
804524161,804514488,396321,-0.2149677,-0.02256029,0.2863261,3
804972109,804968100,396321,-0.20388731,-0.021331988,0.2953048,3
805591052,805572882,396321,-0.20408648,-0.024061298,0.28852862,3
806039622,806026547,396321,-0.22180758,-0.022718871,0.29902965,3
806487712,806480129,396321,-0.20666979,-0.019189052,0.2981112,3
807085324,807009278,396321,-0.20481287,-0.019910421,0.29417634,3
807555230,807538497,396321,-0.21613738,-0.021360632,0.2939493,3
808003257,807992112,396321,-0.21247718,-0.017316446,0.29473376,3
808579648,808521276,396321,-0.20149028,-0.019525163,0.29490668,3
809070228,809050531,396321,-0.21130255,-0.020090317,0.2926129,3
809519079,809504111,396321,-0.2112628,-0.022626575,0.29656222,3
810095193,810033311,396321,-0.20102553,-0.020982355,0.29252842,3
810564524,810562472,396321,-0.20930049,-0.017008167,0.30174673,3
811034692,811016111,396321,-0.21651931,-0.020821871,0.29234797,3
811482797,811469675,396321,-0.20301545,-0.021757005,0.28849757,3
812080412,812074463,396321,-0.20856175,-0.02004285,0.29809457,3
812550240,812528124,396321,-0.21945816,-0.019209826,0.29210985,3
812998355,812981635,396321,-0.20374504,-0.022561455,0.28850478,3
813596058,813586463,396321,-0.20279886,-0.019058459,0.29529303,3
814044668,814040102,396321,-0.21890457,-0.020529006,0.2891493,3
814513971,814493697,396321,-0.20907128,-0.017776564,0.29260868,3
815090386,815022912,396321,-0.20233873,-0.019808646,0.29076162,3
815560143,815552133,396321,-0.21205546,-0.020883765,0.2925916,3
816008222,816005691,396321,-0.2079485,-0.019589217,0.28661978,3
816477965,816459292,396321,-0.20361638,-0.01809238,0.29137582,3
817075212,817064243,396321,-0.21386705,-0.01744761,0.29385906,3
817524073,817517675,396321,-0.2122658,-0.018229244,0.2893772,3
817993329,817971293,396321,-0.19948633,-0.01906665,0.28167665,3
818591281,818576115,396321,-0.20703024,-0.019126374,0.2896908,3
819039755,819029692,396321,-0.21415776,-0.019292358,0.28779852,3
819487735,819483319,396321,-0.20415568,-0.020132089,0.29832402,3
820085573,820012511,396321,-0.20715055,-0.019068375,0.29606393,3
820555239,820541638,396321,-0.21859825,-0.021225004,0.29912555,3
821003337,820995314,396321,-0.20792924,-0.017509544,0.29416117,3
821579736,821524480,396321,-0.2054959,-0.017533062,0.2926419,3
822070766,822053667,396321,-0.22217333,-0.019565083,0.2942981,3
822518750,822507293,396321,-0.20979096,-0.01788565,0.29641855,3
823095074,823036488,396321,-0.20303796,-0.017215963,0.2949716,3
823586160,823565646,396321,-0.21763779,-0.018842664,0.29458636,3
824034699,824019294,396321,-0.2075746,-0.017760344,0.29277587,3
824482772,824472851,396321,-0.20233388,-0.014816077,0.29674602,3
825080020,825077656,396321,-0.21054298,-0.01850864,0.29265267,3
825550151,825531316,396321,-0.21152258,-0.016838156,0.29788208,3
825998229,825984916,396321,-0.20234594,-0.016273629,0.29297,3
826596147,826589690,396321,-0.20890969,-0.016194422,0.28805375,3
827044551,827043296,396321,-0.21820548,-0.016152006,0.30132622,3
827513965,827496939,396321,-0.20155747,-0.019369068,0.28853408,3
828090351,828026136,396321,-0.20619392,-0.018076349,0.2918188,3
828560173,828555292,396321,-0.21528861,-0.01744817,0.29379347,3
829029522,829008847,396321,-0.2057624,-0.01570631,0.2911515,3
829477926,829462523,396321,-0.20246747,-0.015244469,0.28978413,3
830075660,830067330,396321,-0.22120641,-0.015781192,0.2932745,3
830523668,830520887,396321,-0.20821895,-0.019188365,0.2841214,3
830993484,830974466,396321,-0.20433655,-0.012857895,0.3031857,3
831591254,831579291,396321,-0.21450375,-0.017606534,0.29751593,3
832039699,832032912,396321,-0.21124384,-0.02174359,0.29247922,3
832487817,832486462,396321,-0.20377402,-0.015521793,0.29257184,3
833085082,833015681,396321,-0.2083863,-0.017531909,0.29175958,3
833555341,833544859,396321,-0.20900957,-0.015446542,0.29224598,3
834003353,833998464,396321,-0.20221312,-0.017093161,0.28804302,3
834472671,834452133,396321,-0.20719573,-0.015070719,0.2945693,3
835070656,835056875,396321,-0.21465035,-0.01896592,0.2943352,3
835518920,835510463,396321,-0.20458363,-0.01650324,0.2962655,3
836095297,836039661,396321,-0.20489149,-0.015394406,0.29293498,3
836586252,836568858,396321,-0.22058102,-0.021229448,0.2880722,3
837034517,837022464,396321,-0.23481886,-0.042380925,0.28582418,3
837483745,837476114,396321,-0.22775616,-0.051318914,0.28131664,3
838060258,838005277,396321,-0.22437045,-0.034312107,0.29146552,3
838551241,838534464,396321,-0.21737821,-0.038262576,0.2870721,3
838999648,838988214,396321,-0.22535813,-0.055705603,0.27518082,3
839596969,839592890,396321,-0.22893402,-0.046683963,0.290475,3
840066726,840046463,396321,-0.22979763,-0.048251547,0.27798972,3
840515338,840500111,396321,-0.22467178,-0.046231695,0.2750181,3
841091448,841029348,396321,-0.23364034,-0.052290604,0.27774185,3
841561047,841558514,396321,-0.23796219,-0.050646707,0.27624357,3
842030816,842012105,396321,-0.21889856,-0.042490665,0.28373644,3
842478899,842465755,396321,-0.22695266,-0.042565152,0.28369218,3
843076695,843070478,396321,-0.23910937,-0.047001168,0.28420597,3
843546375,843524219,396321,-0.21515752,-0.04099641,0.27414483,3
843994915,843977637,396321,-0.212397,-0.042501252,0.27511245,3
844592194,844582559,396321,-0.2271432,-0.044798173,0.27367723,3
845040262,845036202,396321,-0.21624005,-0.043255974,0.27955478,3
845510556,845489665,396321,-0.2172848,-0.045367315,0.28111392,3
846086648,846018940,396321,-0.22932284,-0.046571683,0.28334257,3
846556435,846548158,396321,-0.21746732,-0.054551188,0.27849117,3
847004906,847001689,396321,-0.21197698,-0.047718357,0.27692828,3
847474302,847455292,396321,-0.22200432,-0.045150578,0.28623194,3
848072006,848060116,396321,-0.22027618,-0.043678198,0.280895,3
848520665,848513646,396321,-0.21299227,-0.043638725,0.28204137,3
848968653,848967293,396321,-0.21851212,-0.043159924,0.27942678,3
849587588,849572102,396321,-0.21961132,-0.041597433,0.293074,3
850036057,850025640,396321,-0.20902964,-0.046197385,0.2855025,3
850484070,850479314,396321,-0.23066355,-0.054102123,0.2811546,3
851081834,851008488,396321,-0.23100066,-0.042804033,0.28318244,3
851551647,851537633,396321,-0.21458703,-0.042278744,0.28623468,3
852000139,851991293,396321,-0.21284784,-0.04242012,0.2809716,3
852576236,852520485,396321,-0.22758858,-0.046950623,0.28280878,3
853067577,853049673,396321,-0.2125205,-0.051554378,0.28374815,3
853515650,853503301,396321,-0.21021563,-0.042381614,0.28101283,3
854091821,854032478,396321,-0.22454488,-0.0181125,0.28610224,3
854582714,854561787,396321,-0.22169892,-0.010389766,0.27232617,3
855031240,855015340,396321,-0.21251845,-0.010689781,0.28100166,3
855479332,855468895,396321,-0.21341874,-0.016218243,0.28405243,3
856077045,856073664,396321,-0.21214357,-0.022457562,0.27430767,3
856546847,856527293,396321,-0.20639433,-0.019575303,0.28748405,3
856994811,856980937,396321,-0.20633492,-0.019390188,0.2790441,3
857592525,857585656,396321,-0.21269071,-0.02129056,0.28107372,3
858040961,858039292,396321,-0.20656739,-0.020828763,0.2844373,3
858510646,858492864,396321,-0.20328715,-0.023502406,0.283221,3
859086648,859022118,396321,-0.21543342,-0.021961387,0.28504005,3
859556449,859551330,396321,-0.20359412,-0.017640559,0.28439963,3
860026183,860004890,396321,-0.21027398,-0.019165866,0.2841099,3
860474232,860458463,396321,-0.21947764,-0.021169731,0.28525805,3
861072396,861063326,396321,-0.2078766,-0.022665583,0.2875132,3
861520301,861516848,396321,-0.19747566,-0.023738008,0.2681989,3
861989707,861970477,396321,-0.2120811,-0.020547522,0.28568402,3
862587400,862575293,396321,-0.20893711,-0.020738207,0.28960973,3
863035796,863028991,396321,-0.20442495,-0.022240745,0.28148237,3
863483862,863482680,396321,-0.21461554,-0.02255245,0.28784132,3
864081646,864011952,396321,-0.21201009,-0.023538461,0.28458482,3
864551412,864541049,396321,-0.20306323,-0.021485658,0.28611594,3
864999513,864994673,396321,-0.20897597,-0.021399451,0.28582048,3
865597094,865523873,396321,-0.21783917,-0.02176008,0.28565097,3
866066970,866053188,396321,-0.20295861,-0.022082418,0.27778763,3
866515383,866506847,396321,-0.20627588,-0.024128838,0.27923656,3
867091429,867036205,396321,-0.20416492,-0.021267254,0.28312573,3
867582880,867565463,396321,-0.2130769,-0.022802364,0.2874232,3
868030958,868019113,396321,-0.20579822,-0.023514938,0.28471714,3
868479022,868472698,396321,-0.20293975,-0.026849099,0.27936345,3
869098402,869077508,396321,-0.22135884,-0.027625728,0.28400958,3
869546333,869531115,396321,-0.20580834,-0.02300027,0.27752244,3
869994473,869984695,396321,-0.2118335,-0.010008427,0.2866279,3
870592255,870589514,396321,-0.20930284,-0.0016952772,0.26545775,3
871061948,871043104,396321,-0.20527023,-0.021122491,0.28579983,3
871510043,871496729,396321,-0.20931682,-0.029443633,0.2687741,3
872086395,872025897,396321,-0.22243474,-0.037984498,0.2813996,3
872556274,872555114,396321,-0.21198478,-0.033136737,0.28510836,3
873026048,873008708,396321,-0.21677582,-0.04188267,0.2782404,3
873474121,873462258,396321,-0.22898926,-0.046445347,0.27736464,3
874071952,874067328,396321,-0.22386612,-0.05309634,0.27453667,3
874541679,874521053,396321,-0.23277736,-0.054195046,0.2711055,3
874989729,874974476,396321,-0.22824326,-0.042059153,0.27727643,3
875587833,875579327,396321,-0.21346724,-0.031159915,0.28222817,3
876035895,876032899,396321,-0.21210763,-0.0440049,0.26754662,3
876505218,876486462,396321,-0.22529382,-0.039116558,0.28581366,3
877082034,877015683,396321,-0.21787064,-0.039457522,0.27498737,3
877551292,877544927,396321,-0.21108279,-0.0397008,0.27440676,3
878020587,877998464,396321,-0.22025825,-0.03867688,0.27921224,3
878597063,878527669,396321,-0.2202138,-0.037010487,0.2802852,3
879066907,879056893,396321,-0.21060249,-0.041922458,0.2798844,3
879514965,879510462,396321,-0.21847567,-0.04050867,0.2778542,3
879985423,879964095,396321,-0.22650672,-0.038131364,0.27652997,3
880583077,880568942,396321,-0.20715807,-0.033787623,0.28119662,3
881032074,881022465,396321,-0.21283223,-0.033169955,0.279329,3
881480048,881476087,396321,-0.22222821,-0.040299788,0.27369756,3
882077525,882005316,396321,-0.2091665,-0.034961503,0.28575373,3
882547183,882534551,396321,-0.20542257,-0.03443299,0.2812338,3
882995727,882988252,396321,-0.2174216,-0.035882577,0.2852254,3
883593378,883517470,396321,-0.20339315,-0.03538406,0.28517887,3
884062647,884046757,396321,-0.19947839,-0.037672464,0.28164798,3
884511158,884500468,396321,-0.2077199,-0.036608834,0.27734464,3
885087477,885029663,396321,-0.20613515,-0.035905153,0.280209,3
885578065,885558873,396321,-0.19850132,-0.03462144,0.2762099,3
886026668,886012493,396321,-0.21335496,-0.03772999,0.27943784,3
886475169,886466050,396321,-0.2173411,-0.036573976,0.28072405,3
887072474,887070848,396321,-0.20574643,-0.03489141,0.28279287,3
887542706,887524483,396321,-0.21020189,-0.038800247,0.28272164,3
887990810,887978113,396321,-0.2154239,-0.03491005,0.28606462,3
888588165,888582840,396321,-0.20105986,-0.035849907,0.2776202,3
889058286,889036465,396321,-0.20849475,-0.044488832,0.27767935,3
889506284,889490054,396321,-0.21345878,-0.035512168,0.28774393,3
890082472,890019323,396321,-0.20605257,-0.03956049,0.27718574,3
890552247,890548480,396321,-0.20552844,-0.037419885,0.27748066,3
891022082,891002140,396321,-0.22089443,-0.03702387,0.28737062,3
891470074,891455687,396321,-0.20996413,-0.03513878,0.28094763,3
892067661,892060464,396321,-0.20570913,-0.038142636,0.28285944,3
892516195,892514052,396321,-0.21593833,-0.03667312,0.28523165,3
892985983,892967721,396321,-0.21030691,-0.03852763,0.279491,3
893583225,893572508,396321,-0.20494863,-0.038853526,0.2828899,3
894031904,894026128,396321,-0.21277423,-0.034871124,0.2906044,3
894501555,894479663,396321,-0.21461275,-0.036524445,0.28060853,3
895077547,895008891,396321,-0.2015829,-0.037042193,0.27928954,3
895547813,895538105,396321,-0.213856,-0.036534548,0.28069234,3
895995960,895991652,396321,-0.2195106,-0.03906545,0.27897644,3
896593250,896520877,396321,-0.2055901,-0.036303416,0.2781968,3
897063430,897050058,396321,-0.20964287,-0.037850607,0.28249738,3
897511428,897503710,396321,-0.22182354,-0.046223197,0.28374502,3
897959502,897957435,396321,-0.20796593,-0.039871532,0.28573126,3
898578429,898562185,396321,-0.20501047,-0.037634946,0.27813014,3
899026896,899015778,396321,-0.22441378,-0.036642224,0.2816662,3
899475144,899469339,396321,-0.2139999,-0.03678049,0.28221136,3
900094063,900074147,396321,-0.2052627,-0.03819258,0.27972203,3
900542646,900527780,396321,-0.21650375,-0.0380949,0.28368038,3
900991065,900981283,396321,-0.20934635,-0.03634246,0.28554672,3
901588327,901586120,396321,-0.20130762,-0.041366123,0.27091557,3
902058670,902039633,396321,-0.214469,-0.037231453,0.28921622,3
902506645,902493250,396321,-0.21167475,-0.039355367,0.28643554,3
903082588,903022527,396321,-0.20359167,-0.038278893,0.27865064,3
903552863,903551635,396321,-0.21079507,-0.035504736,0.285551,3
904022186,904005273,396321,-0.21931116,-0.036407772,0.27901018,3
904598237,904534478,396321,-0.20378426,-0.036488827,0.2789509,3
905068463,905063666,396321,-0.20844452,-0.038657557,0.281244,3
905537742,905517343,396321,-0.21513447,-0.038562514,0.28089288,3
905985814,905970917,396321,-0.2103762,-0.034926586,0.2794725,3
906583589,906575650,396321,-0.20469163,-0.034740463,0.28128833,3
907032004,907029272,396321,-0.21977676,-0.034447175,0.285817,3
907501820,907482894,396321,-0.20665371,-0.039563842,0.27600265,3
908077807,908012063,396321,-0.20396666,-0.038020607,0.27822328,3
908547648,908541286,396321,-0.21631822,-0.04653825,0.27583992,3
908996051,908994843,396321,-0.21477169,-0.038797148,0.27941173,3
909593364,909524059,396321,-0.20430957,-0.03901881,0.28038007,3
910063548,910053279,396321,-0.21299168,-0.037517145,0.2779311,3
910511647,910506840,396321,-0.21488452,-0.036475398,0.28389654,3
910980911,910960517,396321,-0.20241643,-0.035582945,0.28144315,3
911578978,911565272,396321,-0.20939597,-0.045537695,0.28309223,3
912026973,912018879,396321,-0.22079414,-0.038166545,0.2875018,3
912475013,912472530,396321,-0.20614366,-0.037774786,0.27756846,3
913094354,913023312,396321,-0.2057932,-0.036835283,0.28088546,3
913563646,913552482,396321,-0.21665354,-0.038617253,0.28548437,3
914011995,914006094,396321,-0.2077787,-0.03921508,0.2782904,3
914481507,914459657,396321,-0.2083476,-0.037739784,0.27742335,3
915079662,915064503,396321,-0.22333232,-0.03980144,0.27748877,3
915527803,915518122,396321,-0.20665818,-0.039003365,0.28452355,3
915975790,915971659,396321,-0.20153776,-0.039367672,0.27331775,3
916595104,916576520,396321,-0.21629436,-0.031934917,0.2875456,3
917043228,917030065,396321,-0.20440814,-0.03508771,0.2845105,3
917491241,917483698,396321,-0.20669296,-0.03797001,0.2785819,3
918089518,918088527,396321,-0.21570912,-0.038092036,0.28388345,3
918558736,918542092,396321,-0.20211965,-0.03528848,0.282884,3
919006805,918995670,396321,-0.20496774,-0.040798727,0.27841157,3
919583648,919524903,396321,-0.21719937,-0.03841258,0.2808746,3
920074245,920054165,396321,-0.20499903,-0.036036745,0.27822742,3
920522663,920507970,396321,-0.20683669,-0.03586477,0.284246,3
920970801,920961543,396321,-0.21796882,-0.03655437,0.28365132,3
921568497,921566328,396321,-0.20148951,-0.0375784,0.2800267,3
922038397,922019880,396321,-0.2004111,-0.0386727,0.2786153,3
922486387,922473579,396321,-0.21084198,-0.046482872,0.27841693,3
923084489,923078254,396321,-0.20248905,-0.036560927,0.2814993,3
923553947,923531892,396321,-0.1999526,-0.03448134,0.28001162,3
924002059,923985517,396321,-0.20870009,-0.036245644,0.2826948,3
924578956,924514699,396321,-0.20892696,-0.035685267,0.2812494,3
925048297,925043898,396321,-0.2014211,-0.038437933,0.28011307,3
925517665,925497553,396321,-0.20977795,-0.033793118,0.29247987,3
926094552,926026742,396321,-0.21333784,-0.03751617,0.28491405,3
926563906,926555929,396321,-0.19900645,-0.03637541,0.28319147,3
927011894,927009565,396321,-0.20689583,-0.03572513,0.28121635,3
927482035,927463050,396321,-0.2101189,-0.03716857,0.28649762,3
928079395,928067918,396321,-0.20242055,-0.038183235,0.28163582,3
928528000,928521500,396321,-0.21488243,-0.036083527,0.2877735,3
928976105,928975080,396321,-0.20864551,-0.037219755,0.28660527,3
929595484,929580063,396321,-0.2088728,-0.037494212,0.2796849,3
930043487,930033807,396321,-0.20868576,-0.034595698,0.28260344,3
930491549,930487484,396321,-0.19920392,-0.034440994,0.28002557,3
931089649,931016694,396321,-0.2026646,-0.03613264,0.28310537,3
931559047,931545923,396321,-0.20750384,-0.034534708,0.28799552,3
932007143,931999485,396321,-0.19515324,-0.033938978,0.27790847,3
932583884,932528736,396321,-0.20014012,-0.03644003,0.2805906,3
933075783,933057913,396321,-0.21491873,-0.038009427,0.2794082,3
933523810,933511477,396321,-0.20181046,-0.035554618,0.2815456,3
933972208,933965145,396321,-0.19485281,-0.03652344,0.27659842,3
934590894,934569941,396321,-0.21171375,-0.03612469,0.28642175,3
935039821,935023526,396321,-0.20034799,-0.03703135,0.27782547,3
935489164,935477265,396321,-0.1985798,-0.038115066,0.27639917,3
936086498,936082174,396321,-0.20999306,-0.04057231,0.27982205,3
936556127,936535710,396321,-0.2059954,-0.036896214,0.27836457,3
937004660,936989438,396321,-0.19746664,-0.033554558,0.28484023,3
937580647,937518850,396321,-0.20433009,-0.034048654,0.27940342,3
938050326,938048099,396321,-0.20531832,-0.038088188,0.27088255,3
938519749,938501729,396321,-0.20036736,-0.035879105,0.2848146,3
939096719,939030860,396321,-0.2030018,-0.036729317,0.27794203,3
939565996,939560078,396321,-0.20951413,-0.037073247,0.2812823,3
940035280,940013669,396321,-0.19758165,-0.03538748,0.2733664,3
940484040,940467292,396321,-0.20333685,-0.03653747,0.2800048,3
941081342,941072053,396321,-0.21783803,-0.041675817,0.2855805,3
941529314,941525679,396321,-0.20250805,-0.039493073,0.2717779,3
941999584,941979288,396321,-0.19490792,-0.034986377,0.2712154,3
942596804,942584060,396321,-0.20903158,-0.046094727,0.27487302,3
943045298,943037697,396321,-0.20468934,-0.040002435,0.28321743,3
943493833,943491359,396321,-0.19963622,-0.034250475,0.2801451,3
944091062,944020534,396321,-0.20715171,-0.033443585,0.2806677,3
944560805,944549693,396321,-0.20469385,-0.03283956,0.28281254,3
945009441,945003283,396321,-0.19739999,-0.032684818,0.2801268,3
945478738,945456884,396321,-0.20564453,-0.030225823,0.28420413,3
946076424,946061756,396321,-0.2070116,-0.032558553,0.2796666,3
946524406,946515337,396321,-0.19663517,-0.034897525,0.27648628,3
946972829,946968876,396321,-0.20328759,-0.034189355,0.27993307,3
947591896,947573684,396321,-0.20932662,-0.033318013,0.2841955,3
948039965,948027296,396321,-0.19561775,-0.024374714,0.28680915,3
948488798,948480889,396321,-0.19982187,-0.029975474,0.281475,3
949086111,949010124,396321,-0.21321312,-0.034337815,0.28300744,3
949555869,949539305,396321,-0.20002167,-0.032856807,0.27851537,3
950004495,949992839,396321,-0.19788337,-0.033725873,0.2832867,3
950580464,950522056,396321,-0.20880598,-0.03455843,0.28006303,3
951071559,951051335,396321,-0.20258461,-0.0331991,0.2761141,3
951520066,951504877,396321,-0.19597614,-0.031249806,0.2886473,3
952096045,952034099,396321,-0.20687221,-0.03492592,0.2804652,3
952565799,952563256,396321,-0.20508325,-0.03688457,0.27771735,3
953035568,953016892,396321,-0.19764966,-0.036977224,0.27812588,3
953483587,953470504,396321,-0.20254755,-0.031024314,0.27989733,3
954081252,954075299,396321,-0.21006514,-0.032578297,0.28420654,3
954550590,954528914,396321,-0.2022846,-0.035298266,0.2785669,3
954999471,954982498,396321,-0.2023325,-0.03896932,0.27106112,3
955596802,955587277,396321,-0.20985253,-0.034446232,0.2827055,3
956044861,956040841,396321,-0.19934061,-0.03376816,0.27861536,3
956514973,956494498,396321,-0.201845,-0.03507287,0.28007773,3
957090997,957023673,396321,-0.21392587,-0.034431066,0.2856583,3
957560709,957552892,396321,-0.20369524,-0.033276223,0.28605342,3
958009316,958006522,396321,-0.1975491,-0.035519358,0.27344805,3
958478646,958460091,396321,-0.20907782,-0.03527522,0.28280592,3
959076256,959064840,396321,-0.20631017,-0.034094803,0.27602574,3
959524676,959518496,396321,-0.19891454,-0.040059272,0.28899014,3
959993998,959972065,396321,-0.20134121,-0.036275905,0.27792615,3
960591646,960576856,396321,-0.2045482,-0.032341126,0.28673092,3
961040258,961030672,396321,-0.19813001,-0.03421087,0.2764168,3
961488357,961484297,396321,-0.20340426,-0.033533975,0.2845369,3
962086007,962013515,396321,-0.21204016,-0.033468194,0.28825864,3
962555201,962542725,396321,-0.19743079,-0.032153424,0.28863066,3
963004076,962996284,396321,-0.19958921,-0.032722298,0.28012377,3
963452221,963449883,396321,-0.21975046,-0.034847625,0.28379667,3
964071164,964054714,396321,-0.20029736,-0.035836235,0.28031862,3
964519646,964508272,396321,-0.19816221,-0.035898253,0.28504395,3
965095746,965037490,396321,-0.21149103,-0.035578456,0.28282526,3
965586719,965566782,396321,-0.20290636,-0.043486662,0.2866803,3
966035148,966020499,396321,-0.198328,-0.034003176,0.28188354,3
966483229,966474286,396321,-0.20577489,-0.031865925,0.29361868,3
967081814,967079099,396321,-0.19973628,-0.036960296,0.27343637,3
967551648,967532663,396321,-0.1993188,-0.033112485,0.2870728,3
967999751,967986281,396321,-0.20627868,-0.03721896,0.27616864,3
968576515,968515459,396321,-0.20575932,-0.033102795,0.280087,3
969045795,969044635,396321,-0.19875905,-0.03586908,0.28034666,3
969515559,969498316,396321,-0.20182016,-0.036448866,0.27637815,3
970092005,970027678,396321,-0.21219602,-0.034883745,0.28435105,3
970561278,970556900,396321,-0.19693555,-0.03244575,0.28649953,3
971030958,971010485,396321,-0.19806604,-0.03407777,0.2765469,3
971479503,971464083,396321,-0.21523257,-0.033245765,0.2840591,3
972077209,972068839,396321,-0.1987967,-0.036477022,0.2766414,3
972525423,972522461,396321,-0.20175095,-0.03341575,0.2801655,3
972995145,972976094,396321,-0.21105629,-0.033061147,0.2857799,3
973592896,973580869,396321,-0.19905384,-0.034009118,0.28185612,3
974041747,974034463,396321,-0.19805661,-0.034914114,0.27659076,3
974489672,974488080,396321,-0.2083376,-0.033827998,0.29133254,3
975087957,975017261,396321,-0.20480339,-0.03570597,0.2790695,3
975557786,975546462,396321,-0.19814143,-0.031959567,0.2848555,3
976005929,976000103,396321,-0.20739034,-0.033670645,0.27829966,3
976475798,976453685,396321,-0.21252164,-0.033128865,0.2856452,3
977073401,977058463,396321,-0.19731827,-0.034981687,0.27655452,3
977521919,977512094,396321,-0.20590442,-0.034483463,0.27838767,3
978097945,978041338,396321,-0.21374452,-0.03600825,0.2809598,3
978589296,978570563,396321,-0.1977977,-0.03162485,0.28712058,3
979037395,979024146,396321,-0.20225613,-0.03458053,0.2832164,3
979485450,979477863,396321,-0.21953823,-0.034870572,0.27927154,3
980083536,980007070,396321,-0.20338945,-0.03338518,0.28316063,3
980552938,980536373,396321,-0.19629636,-0.028456852,0.28715515,3
981002180,980990049,396321,-0.21442215,-0.034159783,0.28421053,3
981578646,981519286,396321,-0.20448998,-0.03404393,0.28063014,3
982069149,982048532,396321,-0.19974646,-0.03405337,0.2819113,3
982517649,982502084,396321,-0.20652947,-0.031802252,0.2898094,3
983094084,983031302,396321,-0.20482825,-0.034511704,0.28490132,3
983563568,983560463,396321,-0.1954616,-0.03707564,0.27911133,3
984033785,984014052,396321,-0.20748684,-0.03378366,0.28288144,3
984481793,984467717,396321,-0.2067613,-0.029036991,0.28264543,3
985079137,985072461,396321,-0.19847271,-0.035468537,0.27877545,3
985527645,985526116,396321,-0.20510808,-0.03331715,0.28600615,3
985997319,985979826,396321,-0.21016021,-0.034047462,0.28117442,3
986595126,986584686,396321,-0.19472353,-0.03475381,0.27899128,3
987043139,987038287,396321,-0.2007328,-0.036290552,0.28336123,3
987512895,987492110,396321,-0.2147826,-0.035294972,0.27802044,3
988089217,988021275,396321,-0.19901292,-0.03423468,0.27872398,3
988558508,988550672,396321,-0.1982742,-0.03408823,0.2781371,3
989007057,989004311,396321,-0.20881867,-0.036202356,0.27847275,3
989476805,989457942,396321,-0.20920898,-0.03438647,0.28448948,3
990074165,990062688,396321,-0.19689697,-0.033168826,0.2789717,3
990522675,990516329,396321,-0.2053574,-0.03437458,0.28010756,3
990971167,990969884,396321,-0.20617624,-0.03597866,0.2847414,3
991589766,991574712,396321,-0.19822107,-0.03405238,0.27815646,3
992038670,992028342,396321,-0.2002472,-0.03446467,0.28496072,3
992486646,992481908,396321,-0.20505548,-0.034628954,0.27856332,3
993084068,993011085,396321,-0.19951785,-0.03265258,0.28234524,3
993553775,993540323,396321,-0.19958448,-0.03560864,0.27353507,3
994002353,993993938,396321,-0.21450861,-0.03559134,0.2811836,3
994450301,994447641,396321,-0.20180255,-0.035578795,0.27340513,3
995069326,995052557,396321,-0.20097426,-0.033681896,0.2848515,3
995517897,995506049,396321,-0.21166813,-0.0340746,0.285837,3
996094303,996035286,396321,-0.20009112,-0.03380185,0.28016475,3
996584729,996564576,396321,-0.20012921,-0.031266503,0.28016418,3
997033390,997018085,396321,-0.2124253,-0.03483629,0.28577417,3
997481798,997471717,396321,-0.20342182,-0.034776352,0.27781716,3
998079157,998076812,396321,-0.20069484,-0.03171403,0.2869942,3
998549386,998530507,396321,-0.20487641,-0.031768937,0.2814111,3
998997410,998984100,396321,-0.20513487,-0.021368405,0.28625843,3
999594678,999588926,396321,-0.19538149,-0.036186084,0.27518025,3
1000086117,1000064133,396321,-0.21185431,-0.03537924,0.28272527,3
1000534270,1000517734,396321,-0.21064547,-0.033698797,0.28807688,3
1000982233,1000971265,396321,-0.1930078,-0.03251014,0.27826017,3
1001579970,1001576070,396321,-0.20411134,-0.035707697,0.2816883,3
1002049765,1002029717,396321,-0.21465217,-0.042734362,0.28607094,3
1002498367,1002483251,396321,-0.19993578,-0.03392116,0.28344822,3
1003095769,1003088116,396321,-0.20058146,-0.03530463,0.2750875,3
1003544172,1003541669,396321,-0.21453725,-0.044120602,0.27787024,3
1004013992,1003995252,396321,-0.20305635,-0.03435702,0.28035516,3
1004590144,1004524485,396321,-0.1941104,-0.037770778,0.27553555,3
