timestamp,timestamp_sample,output_tracking_error[0],output_tracking_error[1],output_tracking_error[2],control_mode_flags,filter_fault_flags,pos_horiz_accuracy,pos_vert_accuracy,mag_test_ratio,vel_test_ratio,pos_test_ratio,hgt_test_ratio,tas_test_ratio,hagl_test_ratio,beta_test_ratio,time_slip,accel_device_id,gyro_device_id,baro_device_id,mag_device_id,gps_check_fail_flags,innovation_check_flags,solution_status_flags,reset_count_vel_ne,reset_count_vel_d,reset_count_pos_ne,reset_count_pod_d,reset_count_quat,pre_flt_fail_innov_heading,pre_flt_fail_innov_vel_horiz,pre_flt_fail_innov_vel_vert,pre_flt_fail_innov_height,pre_flt_fail_mag_field_disturbed,health_flags,timeout_flags
539374058,539274037,0.00074248546,0.0055536735,0.016661918,67240471,0,0.620214,0.45723888,0.09768096,0.023713805,0.024036618,0.0095928935,0.0,0.0,0.0,0.0,2490378,2490378,4028193,396809,0,0,895,16,100,16,85,4,0,0,0,0,0,0,0
539383955,539283992,0.0007006862,0.005396309,0.015998889,67240471,0,0.6214621,0.45815244,0.09768096,0.023713805,0.024036618,0.0095928935,0.0,0.0,0.0,0.0,2490378,2490378,4028193,396809,0,0,895,16,100,16,85,4,0,0,0,0,0,0,0
539573061,539473129,0.0009086348,0.008797121,0.017387968,67240471,0,0.6208202,0.46049458,0.10926669,0.056809492,0.025402347,0.00062801683,0.0,0.0,0.0,0.0,2490378,2490378,4028193,396809,0,0,895,16,100,16,85,4,0,0,0,0,0,0,0
539772192,539672221,0.0010916085,0.009070407,0.014549111,67240471,0,0.62273026,0.46022812,0.12201147,0.04902589,0.025461793,0.015794571,0.0,0.0,0.0,0.0,2490378,2490378,4028193,396809,0,0,895,16,100,16,85,4,0,0,0,0,0,0,0
539971262,539871313,0.00087390846,0.005729541,0.016369198,67240471,0,0.62114257,0.4587769,0.12101452,0.017487809,0.028416574,0.011210504,0.0,0.0,0.0,0.0,2490378,2490378,4028193,396809,0,0,895,16,100,16,85,4,0,0,0,0,0,0,0
540170330,540070405,0.0010605587,0.0071054683,0.021785256,67240471,0,0.6115303,0.45827338,0.12843794,0.031900156,0.03090833,0.012059498,0.0,0.0,0.0,0.0,2490378,2490378,4028193,396809,0,0,895,16,100,16,85,4,0,0,0,0,0,0,0
540369502,540269497,0.0011398069,0.0031016793,0.015040081,67240471,0,0.60405964,0.4543386,0.11681777,0.009386363,0.032536723,0.0007604251,0.0,0.0,0.0,0.0,2490378,2490378,4028193,396809,0,0,895,16,100,16,85,4,0,0,0,0,0,0,0
540568734,540468590,0.0009070552,0.008851552,0.02425874,67240471,0,0.595523,0.4497313,0.11695201,0.030830322,0.03528033,0.011840373,0.0,0.0,0.0,0.0,2490378,2490378,4028193,396809,0,0,895,16,100,16,85,4,0,0,0,0,0,0,0
540777587,540677636,0.0010689002,0.0123545835,0.030001288,67240471,0,0.59121984,0.4473296,0.13349047,0.03662168,0.034678724,0.002269615,0.0,0.0,0.0,0.0,2490378,2490378,4028193,396809,0,0,895,16,100,16,85,4,0,0,0,0,0,0,0
540976698,540876728,0.0012289587,0.016547859,0.036632527,67240471,0,0.58594686,0.44768405,0.13178724,0.06338415,0.033450194,0.012730115,0.0,0.0,0.0,0.0,2490378,2490378,4028193,396809,0,0,895,16,100,16,85,4,0,0,0,0,0,0,0
541175767,541075820,0.00087606034,0.010384375,0.026884994,67240471,0,0.58437026,0.44617042,0.10773896,0.02519884,0.032117017,0.007054319,0.0,0.0,0.0,0.0,2490378,2490378,4028193,396809,0,0,895,16,100,16,85,4,0,0,0,0,0,0,0
541374883,541274912,0.00091421837,0.012156313,0.029153802,67240471,0,0.5817997,0.44417486,0.10810694,0.0516462,0.031137627,0.0038673151,0.0,0.0,0.0,0.0,2490378,2490378,4028193,396809,0,0,895,16,100,16,85,4,0,0,0,0,0,0,0
541573969,541474005,0.0008226315,0.004034816,0.006606219,67240471,0,0.5793029,0.4458528,0.07917755,0.03949359,0.027923161,0.0023331584,0.0,0.0,0.0,0.0,2490378,2490378,4028193,396809,0,0,895,16,100,16,85,4,0,0,0,0,0,0,0
541773151,541673097,0.0005413876,0.0019748241,0.0053464696,67240471,0,0.5808077,0.44592363,0.07151005,0.009935414,0.026829218,0.0021903056,0.0,0.0,0.0,0.0,2490378,2490378,4028193,396809,0,0,895,16,100,16,85,4,0,0,0,0,0,0,0
541972174,541872189,0.00058219425,0.0043005287,0.0075713973,67240471,0,0.58127296,0.4454093,0.07052839,0.0334215,0.025605245,0.008375558,0.0,0.0,0.0,0.0,2490378,2490378,4028193,396809,0,0,895,16,100,16,85,4,0,0,0,0,0,0,0
542171273,542071281,0.00068429444,0.0037346175,0.008833394,67240471,0,0.5824674,0.44885984,0.06980443,0.040888254,0.026197175,0.0032128817,0.0,0.0,0.0,0.0,2490378,2490378,4028193,396809,0,0,895,16,100,16,85,4,0,0,0,0,0,0,0
542370293,542270373,0.00066423503,0.012398279,0.025535537,67240471,0,0.5835628,0.44857857,0.06762017,0.08059652,0.028060665,0.015723703,0.0,0.0,0.0,0.0,2490378,2490378,4028193,396809,0,0,895,16,100,16,85,4,0,0,0,0,0,0,0
542569409,542469465,0.00067774777,0.0077546383,0.018694805,67240471,0,0.5844371,0.44813943,0.082616314,0.02240641,0.025618548,0.011861398,0.0,0.0,0.0,0.0,2490378,2490378,4028193,396809,0,0,895,16,100,16,85,4,0,0,0,0,0,0,0
542768533,542668558,0.00077067444,0.0071456553,0.013129762,67240471,0,0.581177,0.44954622,0.08300646,0.043315496,0.022668727,0.0018463884,0.0,0.0,0.0,0.0,2490378,2490378,4028193,396809,0,0,895,16,100,16,85,4,0,0,0,0,0,0,0
542977538,542877604,0.0005581208,0.009324317,0.018738769,67240471,0,0.58062005,0.4488705,0.07915226,0.024454903,0.022325113,0.0033145007,0.0,0.0,0.0,0.0,2490378,2490378,4028193,396809,0,0,895,16,100,16,85,4,0,0,0,0,0,0,0
543176614,543076696,0.00070752646,0.008046203,0.015725069,67240471,0,0.5803659,0.44793826,0.082227364,0.07770432,0.021878349,0.0060355472,0.0,0.0,0.0,0.0,2490378,2490378,4028193,396809,0,0,895,16,100,16,85,4,0,0,0,0,0,0,0
543375730,543275789,0.0006796872,0.008687117,0.018649425,67240471,0,0.5801963,0.4470234,0.066316344,0.032643113,0.019023554,0.0056773447,0.0,0.0,0.0,0.0,2490378,2490378,4028193,396809,0,0,895,16,100,16,85,4,0,0,0,0,0,0,0
543574804,543474881,0.0005690593,0.015672885,0.032561872,67240471,0,0.5801652,0.44984618,0.071382865,0.07568883,0.015630959,0.020246929,0.0,0.0,0.0,0.0,2490378,2490378,4028193,396809,0,0,895,16,100,16,85,4,0,0,0,0,0,0,0
543773887,543673973,0.0006147356,0.0132350065,0.029183839,67240471,0,0.57659036,0.44738734,0.080946706,0.028627714,0.015830401,0.007149799,0.0,0.0,0.0,0.0,2490378,2490378,4028193,396809,0,0,895,16,100,16,85,4,0,0,0,0,0,0,0
543973067,543873065,0.0006513605,0.012466558,0.024563761,67240471,0,0.5762143,0.44635293,0.067920074,0.05135274,0.016280953,0.0036344845,0.0,0.0,0.0,0.0,2490378,2490378,4028193,396809,0,0,895,16,100,16,85,4,0,0,0,0,0,0,0
544172093,544072157,0.00050409976,0.013312238,0.028246816,67240471,0,0.57629037,0.44918713,0.0663316,0.06685671,0.011845465,0.006283426,0.0,0.0,0.0,0.0,2490378,2490378,4028193,396809,0,0,895,16,100,16,85,4,0,0,0,0,0,0,0
544371162,544271250,0.0005343941,0.010300462,0.024941906,67240471,0,0.57533604,0.44793186,0.06365011,0.033544324,0.010361747,0.010871942,0.0,0.0,0.0,0.0,2490378,2490378,4028193,396809,0,0,895,16,100,16,85,4,0,0,0,0,0,0,0
544570281,544470342,0.0005896056,0.011301462,0.02276564,67240471,0,0.57462656,0.44676575,0.06293013,0.048187613,0.009643742,0.009816202,0.0,0.0,0.0,0.0,2490378,2490378,4028193,396809,0,0,895,16,100,16,85,4,0,0,0,0,0,0,0
544769349,544669434,0.00051086687,0.0110942265,0.020402601,67240471,0,0.57595867,0.45012888,0.069700144,0.043787256,0.009546241,0.006675832,0.0,0.0,0.0,0.0,2490378,2490378,4028193,396809,0,0,895,16,100,16,85,4,0,0,0,0,0,0,0
544968472,544868526,0.00051247183,0.004760585,0.00672922,67240471,0,0.5799744,0.45087,0.06277275,0.016390072,0.010210328,0.006503356,0.0,0.0,0.0,0.0,2490378,2490378,4028193,396809,0,0,895,16,100,16,85,4,0,0,0,0,0,0,0
545167566,545067620,0.00056275306,0.008272189,0.012538636,67240471,0,0.58116007,0.4503788,0.058108576,0.042208746,0.0103664845,0.012621741,0.0,0.0,0.0,0.0,2490378,2490378,4028193,396809,0,0,895,16,100,16,85,4,0,0,0,0,0,0,0
545376718,545276665,0.0005840379,0.0077510565,0.020659517,67240471,0,0.5807386,0.4495791,0.052621387,0.05402285,0.011531833,0.0049776896,0.0,0.0,0.0,0.0,2490378,2490378,4028193,396809,0,0,895,16,100,16,85,4,0,0,0,0,0,0,0
545575672,545475758,0.00042473135,0.0075271465,0.021803247,67240471,0,0.5835583,0.4534088,0.057830386,0.02354397,0.010230436,0.012842494,0.0,0.0,0.0,0.0,2490378,2490378,4028193,396809,0,0,895,16,100,16,85,4,0,0,0,0,0,0,0
545774781,545674850,0.0004936001,0.005371729,0.015899846,67240471,0,0.5875076,0.45391244,0.062519826,0.016482197,0.011261302,0.0056842347,0.0,0.0,0.0,0.0,2490378,2490378,4028193,396809,0,0,895,16,100,16,85,4,0,0,0,0,0,0,0
545973906,545873942,0.0006140058,0.0033846335,0.004583241,67240471,0,0.5887964,0.45331964,0.07172125,0.032148097,0.009615117,0.009416527,0.0,0.0,0.0,0.0,2490378,2490378,4028193,396809,0,0,895,16,100,16,85,4,0,0,0,0,0,0,0
546172949,546073035,0.00055824633,0.0026888105,0.0065577803,67240471,0,0.5884474,0.45590022,0.079210006,0.015001765,0.009883468,0.017036151,0.0,0.0,0.0,0.0,2490378,2490378,4028193,396809,0,0,895,16,100,16,85,4,0,0,0,0,0,0,0
546372045,546272127,0.00069810974,0.0036585578,0.010228446,67240471,0,0.591704,0.45599097,0.07729874,0.029052557,0.007899259,0.0040142788,0.0,0.0,0.0,0.0,2490378,2490378,4028193,396809,0,0,895,16,100,16,85,4,0,0,0,0,0,0,0
546571217,546471219,0.0007334015,0.007727683,0.017881535,67240471,0,0.59411,0.45576924,0.08090099,0.050371062,0.0065073506,0.0041421326,0.0,0.0,0.0,0.0,2490378,2490378,4028193,396809,0,0,895,16,100,16,85,4,0,0,0,0,0,0,0
546770290,546670311,0.0005051657,0.009101667,0.02108215,67240471,0,0.5957087,0.45523438,0.05411744,0.037512448,0.0044993693,0.004342936,0.0,0.0,0.0,0.0,2490378,2490378,4028193,396809,0,0,895,16,100,16,85,4,0,0,0,0,0,0,0
546969318,546869404,0.00059505296,0.011523105,0.026913544,67240471,0,0.59699434,0.45842713,0.061262358,0.043234326,0.004488591,0.0013287499,0.0,0.0,0.0,0.0,2490378,2490378,4028193,396809,0,0,895,16,100,16,85,4,0,0,0,0,0,0,0
547178367,547078451,0.0005616708,0.008704169,0.022492267,67240471,0,0.60092205,0.45912158,0.05693961,0.047225274,0.005101692,0.0061603305,0.0,0.0,0.0,0.0,2490378,2490378,4028193,396809,0,0,895,16,100,16,85,4,0,0,0,0,0,0,0
547377747,547277543,0.00043809458,0.0021497647,0.0049332194,67240471,0,0.60082656,0.4579011,0.066686764,0.016687457,0.0052755326,0.009765878,0.0,0.0,0.0,0.0,2490378,2490378,4028193,396809,0,0,895,16,100,16,85,4,0,0,0,0,0,0,0
547576546,547476635,0.0005618605,0.010144879,0.022257738,67240471,0,0.6035556,0.46162397,0.05691792,0.07255305,0.0064248536,0.0020240743,0.0,0.0,0.0,0.0,2490378,2490378,4028193,396809,0,0,895,16,100,16,85,4,0,0,0,0,0,0,0
547775689,547675728,0.0006268544,0.0070921625,0.01688517,67240471,0,0.6055068,0.46111286,0.06271664,0.062594704,0.008233305,0.003831549,0.0,0.0,0.0,0.0,2490378,2490378,4028193,396809,0,0,895,16,100,16,85,4,0,0,0,0,0,0,0
547974785,547874820,0.0006098928,0.012539756,0.02154759,67240471,0,0.6034442,0.4591712,0.07551812,0.061876904,0.0066080545,0.0136497,0.0,0.0,0.0,0.0,2490378,2490378,4028193,396809,0,0,895,16,100,16,85,4,0,0,0,0,0,0,0
548173833,548073912,0.0005328101,0.006078904,0.016097635,67240471,0,0.6038236,0.46204156,0.058315124,0.04205788,0.009426129,0.0012085023,0.0,0.0,0.0,0.0,2490378,2490378,4028193,396809,0,0,895,16,100,16,85,4,0,0,0,0,0,0,0
548372933,548273005,0.0006840613,0.014711259,0.033176135,67240471,0,0.60513926,0.46121702,0.05724407,0.07460029,0.010720528,0.011023921,0.0,0.0,0.0,0.0,2490378,2490378,4028193,396809,0,0,895,16,100,16,85,4,0,0,0,0,0,0,0
548572017,548472097,0.00046633458,0.011272926,0.026218375,67240471,0,0.6088162,0.46120712,0.05020895,0.067102395,0.00929745,0.004476235,0.0,0.0,0.0,0.0,2490378,2490378,4028193,396809,0,0,895,16,100,16,85,4,0,0,0,0,0,0,0
548771160,548671190,0.00044456203,0.002270226,0.0037588892,67240471,0,0.61095196,0.46062875,0.05797498,0.035015598,0.008183585,0.0047119856,0.0,0.0,0.0,0.0,2490378,2490378,4028193,396809,0,0,895,16,100,16,85,4,0,0,0,0,0,0,0
548970244,548870282,0.0005187392,0.0058030295,0.010442078,67240471,0,0.613908,0.46432102,0.044655178,0.032955255,0.008703552,0.0002506607,0.0,0.0,0.0,0.0,2490378,2490378,4028193,396809,0,0,895,16,100,16,85,4,0,0,0,0,0,0,0
549169328,549069379,0.0005154955,0.014206402,0.028007267,67240471,0,0.61542237,0.46347588,0.06497712,0.05995555,0.007523909,0.00063440634,0.0,0.0,0.0,0.0,2490378,2490378,4028193,396809,0,0,895,16,100,16,85,4,0,0,0,0,0,0,0
549368380,549268467,0.0005740215,0.0061196806,0.012728632,67240471,0,0.614668,0.46192795,0.06725722,0.03381891,0.012178814,0.005834256,0.0,0.0,0.0,0.0,2490378,2490378,4028193,396809,0,0,895,16,100,16,85,4,0,0,0,0,0,0,0
549567683,549467559,0.0008181937,0.01552825,0.03190155,67240471,0,0.6122122,0.46381888,0.086955875,0.05998645,0.011331844,0.0034833823,0.0,0.0,0.0,0.0,2490378,2490378,4028193,396809,0,0,895,16,100,16,85,4,0,0,0,0,0,0,0
549766580,549666652,0.00067271234,0.014123419,0.031447448,67240471,0,0.60896766,0.46135026,0.08593818,0.03884798,0.013723735,0.014328445,0.0,0.0,0.0,0.0,2490378,2490378,4028193,396809,0,0,895,16,100,16,85,4,0,0,0,0,0,0,0
549975611,549875699,0.0006642918,0.0129850395,0.029998038,67240471,0,0.6084041,0.46029085,0.076677345,0.029967146,0.012735699,0.007020368,0.0,0.0,0.0,0.0,2490378,2490378,4028193,396809,0,0,895,16,100,16,85,4,0,0,0,0,0,0,0
550174763,550074791,0.00072479,0.011247711,0.027272472,67240471,0,0.6064024,0.45825714,0.089425385,0.033019435,0.011895275,0.015652573,0.0,0.0,0.0,0.0,2490378,2490378,4028193,396809,0,0,895,16,100,16,85,4,0,0,0,0,0,0,0
550373832,550273883,0.0006089097,0.005018341,0.009257567,67240471,0,0.60671586,0.4610938,0.08276123,0.05843891,0.008478695,0.008071961,0.0,0.0,0.0,0.0,2490378,2490378,4028193,396809,0,0,895,16,100,16,85,4,0,0,0,0,0,0,0
550572901,550472976,0.0006821434,0.009822642,0.019402083,67240471,0,0.60499877,0.45919904,0.07647235,0.043482114,0.008070296,0.004745415,0.0,0.0,0.0,0.0,2490378,2490378,4028193,396809,0,0,895,16,100,16,85,4,0,0,0,0,0,0,0
550772103,550672068,0.00074594194,0.0100455005,0.02302874,67240471,0,0.5988048,0.45554432,0.08224232,0.030381417,0.009917016,0.02068263,0.0,0.0,0.0,0.0,2490378,2490378,4028193,396809,0,0,895,16,100,16,85,4,0,0,0,0,0,0,0
550971085,550871161,0.00063619134,0.0084245,0.021557312,67240471,0,0.59386605,0.45620307,0.10079915,0.025619438,0.010386134,0.007853221,0.0,0.0,0.0,0.0,2490378,2490378,4028193,396809,0,0,895,16,100,16,85,4,0,0,0,0,0,0,0
551170169,551070254,0.0006923066,0.0052092453,0.014541409,67240471,0,0.593917,0.4550812,0.08167921,0.02260476,0.012415134,0.006860923,0.0,0.0,0.0,0.0,2490378,2490378,4028193,396809,0,0,895,16,100,16,85,4,0,0,0,0,0,0,0
551379214,551279301,0.00072072376,0.0052564326,0.015171918,67240471,0,0.59463286,0.45466247,0.08376704,0.021580268,0.013933718,0.017237525,0.0,0.0,0.0,0.0,2490378,2490378,4028193,396809,0,0,895,16,100,16,85,4,0,0,0,0,0,0,0
551578496,551478393,0.00065426866,0.0050144806,0.017041987,67240471,0,0.591886,0.4523813,0.06568157,0.014284555,0.01562803,0.010912761,0.0,0.0,0.0,0.0,2490378,2490378,4028193,396809,0,0,895,16,100,16,85,4,0,0,0,0,0,0,0
551777402,551677485,0.00046408633,0.002277595,0.008278188,67240471,0,0.5896805,0.45416367,0.060961287,0.020857539,0.016806738,0.0034803033,0.0,0.0,0.0,0.0,2490378,2490378,4028193,396809,0,0,895,16,100,16,85,4,0,0,0,0,0,0,0
551976492,551876578,0.00044972697,0.005864397,0.0153768305,67240471,0,0.5889301,0.45271465,0.04495538,0.026907733,0.018160444,0.01453065,0.0,0.0,0.0,0.0,2490378,2490378,4028193,396809,0,0,895,16,100,16,85,4,0,0,0,0,0,0,0
552175643,552075671,0.00047904075,0.0084838215,0.022183957,67240471,0,0.58881134,0.4515751,0.052802917,0.026808128,0.020293592,0.017377296,0.0,0.0,0.0,0.0,2490378,2490378,4028193,396809,0,0,895,16,100,16,85,4,0,0,0,0,0,0,0
552374680,552274763,0.00052004657,0.0077024335,0.011321477,67240471,0,0.5881597,0.4540384,0.060656834,0.074592896,0.021281209,0.023322467,0.0,0.0,0.0,0.0,2490378,2490378,4028193,396809,0,0,895,16,100,16,85,4,0,0,0,0,0,0,0
552573775,552473856,0.00051977596,0.0010325192,0.0061775097,67240471,0,0.58577895,0.45194855,0.062583596,0.030200697,0.02219143,0.009834516,0.0,0.0,0.0,0.0,2490378,2490378,4028193,396809,0,0,895,16,100,16,85,4,0,0,0,0,0,0,0
552772969,552672948,0.00075937924,0.011541865,0.025564361,67240471,0,0.58015823,0.44837224,0.07267643,0.056656867,0.024644136,0.011138367,0.0,0.0,0.0,0.0,2490378,2490378,4028193,396809,0,0,895,16,100,16,85,4,0,0,0,0,0,0,0
552972033,552872041,0.0004933193,0.005725874,0.0161023,67240471,0,0.5755908,0.44896522,0.06520872,0.040294565,0.024049735,0.009747129,0.0,0.0,0.0,0.0,2490378,2490378,4028193,396809,0,0,895,16,100,16,85,4,0,0,0,0,0,0,0
553171047,553071133,0.00055509066,0.005541275,0.0075479364,67240471,0,0.5739489,0.44725102,0.05772787,0.0321466,0.022484683,0.009624764,0.0,0.0,0.0,0.0,2490378,2490378,4028193,396809,0,0,895,16,100,16,85,4,0,0,0,0,0,0,0
553370234,553270226,0.0006174582,0.0109065315,0.025268521,67240471,0,0.57015187,0.44449493,0.05554851,0.049938153,0.023086265,0.009010656,0.0,0.0,0.0,0.0,2490378,2490378,4028193,396809,0,0,895,16,100,16,85,4,0,0,0,0,0,0,0
553569257,553469318,0.00047179573,0.009344003,0.024471942,67240471,0,0.56463295,0.44442496,0.05419646,0.029565992,0.021869559,0.001629233,0.0,0.0,0.0,0.0,2490378,2490378,4028193,396809,0,0,895,16,100,16,85,4,0,0,0,0,0,0,0
553768325,553668411,0.00052448205,0.007974769,0.01853704,67240471,0,0.5654833,0.44409937,0.05377971,0.03758498,0.021396717,0.015817994,0.0,0.0,0.0,0.0,2490378,2490378,4028193,396809,0,0,895,16,100,16,85,4,0,0,0,0,0,0,0
553967535,553867504,0.000585466,0.001369238,0.0042264964,67240471,0,0.56457007,0.44284183,0.06593752,0.024519783,0.018256655,0.012036206,0.0,0.0,0.0,0.0,2490378,2490378,4028193,396809,0,0,895,16,100,16,85,4,0,0,0,0,0,0,0
554176528,554076551,0.0006418794,0.014118733,0.030387113,67240471,0,0.56315875,0.44163993,0.06781673,0.092530295,0.01813043,0.0049276855,0.0,0.0,0.0,0.0,2490378,2490378,4028193,396809,0,0,895,16,100,16,85,4,0,0,0,0,0,0,0
554375562,554275643,0.00053773436,0.0055191056,0.015564989,67240471,0,0.5622135,0.4439317,0.07152934,0.010990428,0.016447533,0.012092106,0.0,0.0,0.0,0.0,2490378,2490378,4028193,396809,0,0,895,16,100,16,85,4,0,0,0,0,0,0,0
554574702,554474736,0.0005670625,0.006110306,0.016469087,67240471,0,0.56328523,0.44367558,0.05904572,0.01986711,0.014827771,0.0070941006,0.0,0.0,0.0,0.0,2490378,2490378,4028193,396809,0,0,895,16,100,16,85,4,0,0,0,0,0,0,0
554773749,554673829,0.00042645063,0.010167818,0.024158027,67240471,0,0.5616187,0.4420461,0.05237333,0.04236543,0.012692901,0.008091408,0.0,0.0,0.0,0.0,2490378,2490378,4028193,396809,0,0,895,16,100,16,85,4,0,0,0,0,0,0,0
554972843,554872921,0.0012725038,0.042619474,0.08743263,67240471,0,0.56205124,0.44503382,0.05460522,0.22007756,0.01838805,0.017310536,0.0,0.0,0.0,0.0,2490378,2490378,4028193,396809,0,0,895,16,100,16,85,4,0,0,0,0,0,0,0
555171977,555072014,0.0006083181,0.008572558,0.02234199,67240471,0,0.5603547,0.44346833,0.06028124,0.086732164,0.0145474225,0.0056150355,0.0,0.0,0.0,0.0,2490378,2490378,4028193,396809,0,0,895,16,100,16,85,4,0,0,0,0,0,0,0
555371018,555271112,0.0004885409,0.0035471118,0.0089335255,67240471,0,0.5576836,0.44140324,0.052021284,0.03164691,0.013700118,0.011119081,0.0,0.0,0.0,0.0,2490378,2490378,4028193,396809,0,0,895,16,100,16,85,4,0,0,0,0,0,0,0
555570143,555470199,0.0004196507,0.0042529227,0.013032299,67240471,0,0.55651337,0.4435999,0.0450768,0.032515157,0.01121981,0.008684213,0.0,0.0,0.0,0.0,2490378,2490378,4028193,396809,0,0,895,16,100,16,85,4,0,0,0,0,0,0,0
555769293,555669292,0.0005233472,0.0037749398,0.0066543804,67240471,0,0.5493368,0.4391995,0.0625677,0.014878529,0.008077821,0.0099804,0.0,0.0,0.0,0.0,2490378,2490378,4028193,396809,0,0,895,16,100,16,85,4,0,0,0,0,0,0,0
555968305,555868385,0.00054941606,0.009317411,0.019000165,67240471,0,0.5494846,0.438627,0.058417287,0.08186412,0.0063824765,0.006745911,0.0,0.0,0.0,0.0,2490378,2490378,4028193,396809,0,0,895,16,100,16,85,4,0,0,0,0,0,0,0
556177409,556077432,0.00042978898,0.0068167085,0.012721512,67240471,0,0.55160576,0.43938652,0.0442821,0.04603488,0.010112577,0.0027897304,0.0,0.0,0.0,0.0,2490378,2490378,4028193,396809,0,0,895,16,100,16,85,4,0,0,0,0,0,0,0
556376731,556276525,0.00046921006,0.011898622,0.02288785,67240471,0,0.55072176,0.44175142,0.047771417,0.03427127,0.010565956,0.009021302,0.0,0.0,0.0,0.0,2490378,2490378,4028193,396809,0,0,895,16,100,16,85,4,0,0,0,0,0,0,0
556575530,556475619,0.00039749,0.013326892,0.028120214,67240471,0,0.5491676,0.44026417,0.04656458,0.04502479,0.009571346,0.009904333,0.0,0.0,0.0,0.0,2490378,2490378,4028193,396809,0,0,895,16,100,16,85,4,0,0,0,0,0,0,0
556774637,556674710,0.0003505231,0.010775898,0.025152473,67240471,0,0.54859734,0.43922818,0.036845826,0.022252318,0.00997057,0.004083533,0.0,0.0,0.0,0.0,2490378,2490378,4028193,396809,0,0,895,16,100,16,85,4,0,0,0,0,0,0,0
556973756,556873803,0.00044905386,0.011702891,0.026480803,67240471,0,0.55121356,0.44320273,0.04429306,0.057626035,0.012241052,0.011905602,0.0,0.0,0.0,0.0,2490378,2490378,4028193,396809,0,0,895,16,100,16,85,4,0,0,0,0,0,0,0
557172823,557072896,0.00033814833,0.004209873,0.011761861,67240471,0,0.5547229,0.44400167,0.047071293,0.07021384,0.010427155,0.01149801,0.0,0.0,0.0,0.0,2490378,2490378,4028193,396809,0,0,895,16,100,16,85,4,0,0,0,0,0,0,0
557371939,557271988,0.0003891976,0.003462767,0.010057615,67240471,0,0.55587065,0.4436557,0.048360523,0.025234224,0.010953728,0.01102078,0.0,0.0,0.0,0.0,2490378,2490378,4028193,396809,0,0,895,16,100,16,85,4,0,0,0,0,0,0,0
557571044,557471081,0.00042204311,0.003444748,0.009240493,67240471,0,0.5564915,0.44301093,0.05096759,0.014583489,0.012901457,0.009061745,0.0,0.0,0.0,0.0,2490378,2490378,4028193,396809,0,0,895,16,100,16,85,4,0,0,0,0,0,0,0
557770087,557670174,0.0003558172,0.0072728344,0.017767282,67240471,0,0.5602185,0.44729072,0.044991355,0.029193621,0.014751032,0.0041742683,0.0,0.0,0.0,0.0,2490378,2490378,4028193,396809,0,0,895,16,100,16,85,4,0,0,0,0,0,0,0
557969174,557869267,0.00034164978,0.0012699891,0.0064714476,67240471,0,0.5632163,0.44760153,0.040275674,0.02036281,0.014361144,0.0026070217,0.0,0.0,0.0,0.0,2490378,2490378,4028193,396809,0,0,895,16,100,16,85,4,0,0,0,0,0,0,0
558168299,558068359,0.0003816832,0.0077921017,0.021002648,67240471,0,0.5626523,0.4464483,0.038662467,0.036740366,0.016698979,0.003127579,0.0,0.0,0.0,0.0,2490378,2490378,4028193,396809,0,0,895,16,100,16,85,4,0,0,0,0,0,0,0
558377375,558277407,0.00035021652,0.008126883,0.023922538,67240471,0,0.5628521,0.44971085,0.031552017,0.020835228,0.015061554,0.0031790624,0.0,0.0,0.0,0.0,2490378,2490378,4028193,396809,0,0,895,16,100,16,85,4,0,0,0,0,0,0,0
558576649,558476500,0.0002569166,0.007858104,0.022194708,67240471,0,0.56263864,0.44871047,0.034978207,0.024544798,0.013588524,0.00010291354,0.0,0.0,0.0,0.0,2490378,2490378,4028193,396809,0,0,895,16,100,16,85,4,0,0,0,0,0,0,0
558775501,558675592,0.0004000627,0.008893979,0.015218104,67240471,0,0.56370515,0.4482489,0.03317708,0.06794517,0.0070090415,0.0046931533,0.0,0.0,0.0,0.0,2490378,2490378,4028193,396809,0,0,895,16,100,16,85,4,0,0,0,0,0,0,0
558974653,558874685,0.0005082414,0.012420584,0.02413727,67240471,0,0.56403315,0.4511718,0.04692061,0.046406973,0.008062896,0.0067631486,0.0,0.0,0.0,0.0,2490378,2490378,4028193,396809,0,0,895,16,100,16,85,4,0,0,0,0,0,0,0
559173726,559073778,0.0005056233,0.015460219,0.030281316,67240471,0,0.5628884,0.449753,0.049661927,0.05713455,0.007800194,0.00251134,0.0,0.0,0.0,0.0,2490378,2490378,4028193,396809,0,0,895,16,100,16,85,4,0,0,0,0,0,0,0
559372801,559272871,0.0004529557,0.0026171138,0.006736317,67240471,0,0.56184256,0.44835508,0.045442235,0.024819046,0.0048949835,2.1187676e-05,0.0,0.0,0.0,0.0,2490378,2490378,4028193,396809,0,0,895,16,100,16,85,4,0,0,0,0,0,0,0
559571972,559471964,0.00048801937,0.0052245436,0.014193536,67240471,0,0.5625008,0.44767874,0.04855881,0.02751157,0.0038864876,0.00030093952,0.0,0.0,0.0,0.0,2490378,2490378,4028193,396809,0,0,895,16,100,16,85,4,0,0,0,0,0,0,0
559771083,559671056,0.00036199956,0.007679613,0.020246752,67240471,0,0.5629568,0.45058906,0.046146046,0.027177202,0.002123469,0.0013758775,0.0,0.0,0.0,0.0,2490378,2490378,4028193,396809,0,0,895,16,100,16,85,4,0,0,0,0,0,0,0
559970061,559870149,0.0003976765,0.01140067,0.029396472,67240471,0,0.56187195,0.44911394,0.035976972,0.04271291,0.004223022,0.00391961,0.0,0.0,0.0,0.0,2490378,2490378,4028193,396809,0,0,895,16,100,16,85,4,0,0,0,0,0,0,0
560169206,560069242,0.00039874247,0.0041758483,0.0060784644,67240471,0,0.5639313,0.44896618,0.04060239,0.048163496,0.0062470385,0.012040856,0.0,0.0,0.0,0.0,2490378,2490378,4028193,396809,0,0,895,16,100,16,85,4,0,0,0,0,0,0,0
560368248,560268335,0.00032762473,0.0038268394,0.0048105307,67240471,0,0.5648371,0.45203656,0.041556027,0.02160859,0.0065270723,0.00924366,0.0,0.0,0.0,0.0,2490378,2490378,4028193,396809,0,0,895,16,100,16,85,4,0,0,0,0,0,0,0
560567347,560467428,0.00040849627,0.002833664,0.0054534115,67240471,0,0.5659373,0.4513926,0.044597812,0.024717914,0.0065253517,0.008235461,0.0,0.0,0.0,0.0,2490378,2490378,4028193,396809,0,0,895,16,100,16,85,4,0,0,0,0,0,0,0
560776391,560676475,0.0005147248,0.008329397,0.015035585,67240471,0,0.5679385,0.45152757,0.056106735,0.05266086,0.0064393748,0.009549336,0.0,0.0,0.0,0.0,2490378,2490378,4028193,396809,0,0,895,16,100,16,85,4,0,0,0,0,0,0,0
560975563,560875568,0.00038183408,0.007416359,0.017140122,67240471,0,0.56880397,0.4507711,0.048241537,0.027524712,0.010106254,0.0039044132,0.0,0.0,0.0,0.0,2490378,2490378,4028193,396809,0,0,895,16,100,16,85,4,0,0,0,0,0,0,0
561174571,561074661,0.00044331347,0.008728621,0.018351112,67240471,0,0.5699514,0.45388672,0.03820517,0.061587688,0.015764885,0.011053313,0.0,0.0,0.0,0.0,2490378,2490378,4028193,396809,0,0,895,16,100,16,85,4,0,0,0,0,0,0,0
561373709,561273754,0.00042928182,0.009538748,0.025208049,67240471,0,0.57289577,0.4539042,0.042826317,0.032119084,0.017573629,0.004713506,0.0,0.0,0.0,0.0,2490378,2490378,4028193,396809,0,0,895,16,100,16,85,4,0,0,0,0,0,0,0
561572791,561472847,0.00034158723,0.008626237,0.02103247,67240471,0,0.57359606,0.45303935,0.038517576,0.05004182,0.017336642,0.003079689,0.0,0.0,0.0,0.0,2490378,2490378,4028193,396809,0,0,895,16,100,16,85,4,0,0,0,0,0,0,0
561771851,561671940,0.00035421035,0.008546634,0.025356898,67240471,0,0.57132334,0.45486102,0.037929695,0.04073286,0.014553336,0.0049925004,0.0,0.0,0.0,0.0,2490378,2490378,4028193,396809,0,0,895,16,100,16,85,4,0,0,0,0,0,0,0
561971042,561871033,0.0004483578,0.011784944,0.030681614,67240471,0,0.5693357,0.4528728,0.041045345,0.03871569,0.015174554,0.008425231,0.0,0.0,0.0,0.0,2490378,2490378,4028193,396809,0,0,895,16,100,16,85,4,0,0,0,0,0,0,0
562170054,562070126,0.00034230686,0.007821737,0.022980092,67240471,0,0.5649965,0.4498947,0.04771189,0.017033547,0.017086467,0.013968345,0.0,0.0,0.0,0.0,2490378,2490378,4028193,396809,0,0,895,16,100,16,85,4,0,0,0,0,0,0,0
562369138,562269219,0.00043992233,0.010823593,0.029082758,67240471,0,0.56872165,0.45404142,0.051009063,0.057648957,0.016922373,0.0032953944,0.0,0.0,0.0,0.0,2490378,2490378,4028193,396809,0,0,895,16,100,16,85,4,0,0,0,0,0,0,0
562578213,562478266,0.00048008285,0.008335684,0.016652118,67240471,0,0.57113135,0.45421442,0.044320177,0.07069707,0.017165918,0.016779399,0.0,0.0,0.0,0.0,2490378,2490378,4028193,396809,0,0,895,16,100,16,85,4,0,0,0,0,0,0,0
562777281,562677359,0.00027012115,0.0018776286,0.009484347,131607,0,0.5702211,0.45258915,0.03622985,0.014974814,0.020873073,0.016523361,0.0,0.0,0.0,0.0,2490378,2490378,4028193,396809,0,0,895,16,100,16,85,4,0,0,0,0,0,0,0
562976387,562876452,0.00038642948,0.0050263624,0.019969163,131607,0,0.5713661,0.4518705,0.04223752,0.021174045,0.025249368,0.006635849,0.0,0.0,0.0,0.0,2490378,2490378,4028193,396809,0,0,895,16,100,16,85,4,0,0,0,0,0,0,0
563175513,563075545,0.00047197533,0.009403191,0.020158201,131607,0,0.57215565,0.45477468,0.045099925,0.06313779,0.02852319,0.0037357383,0.0,0.0,0.0,0.0,2490378,2490378,4028193,396809,0,0,895,16,100,16,85,4,0,0,0,0,0,0,0
563374550,563274638,0.00035943772,0.0051940754,0.016459461,131607,0,0.57130027,0.4532542,0.043469656,0.047597867,0.03356391,0.0075254454,0.0,0.0,0.0,0.0,2490378,2490378,4028193,396809,0,0,895,16,100,16,85,4,0,0,0,0,0,0,0
563573648,563473731,0.0003651864,0.0043901647,0.013829113,131607,0,0.5715294,0.45216438,0.04028053,0.048480604,0.04030404,0.0026415135,0.0,0.0,0.0,0.0,2490378,2490378,4028193,396809,0,0,895,16,100,16,85,4,0,0,0,0,0,0,0
563772739,563672824,0.00042064977,0.004481619,0.011989766,131607,0,0.5745027,0.45602354,0.04940287,0.031851236,0.041948266,0.013479769,0.0,0.0,0.0,0.0,2490378,2490378,4028193,396809,0,0,895,16,100,16,85,4,0,0,0,0,0,0,0
563971832,563871917,0.00037181764,0.0080328025,0.029941048,131607,0,0.5732452,0.45430908,0.042127673,0.029214911,0.045639165,0.007915522,0.0,0.0,0.0,0.0,2490378,2490378,4028193,396809,0,0,895,16,100,16,85,4,0,0,0,0,0,0,0
564170943,564071010,0.00044377046,0.0036415579,0.010437317,67240471,0,0.5712888,0.45228797,0.054854106,0.048635196,0.044651058,0.0069288607,0.0,0.0,0.0,0.0,2490378,2490378,4028193,396809,0,0,895,16,100,16,85,4,0,0,0,0,0,0,0
564370124,564270103,0.00056746654,0.00900471,0.014385767,67240471,0,0.5747649,0.45631352,0.054089583,0.07665597,0.0483559,0.0016116768,0.0,0.0,0.0,0.0,2490378,2490378,4028193,396809,0,0,895,16,100,16,85,4,0,0,0,0,0,0,0
564569107,564469196,0.00034731158,0.005938664,0.007271067,67240471,0,0.57532024,0.45529225,0.04420212,0.034820057,0.050323054,0.0049174638,0.0,0.0,0.0,0.0,2490378,2490378,4028193,396809,0,0,895,16,100,16,85,4,0,0,0,0,0,0,0
564768258,564668289,0.00047760017,0.013662587,0.02046824,67240471,0,0.5783265,0.45522246,0.04758135,0.08880352,0.04956409,0.00020706057,0.0,0.0,0.0,0.0,2490378,2490378,4028193,396809,0,0,895,16,100,16,85,4,0,0,0,0,0,0,0
564967325,564867382,0.00050709804,0.009764546,0.03059543,67240471,0,0.5809084,0.45491517,0.048814703,0.058564864,0.05512056,0.01429594,0.0,0.0,0.0,0.0,2490378,2490378,4028193,396809,0,0,895,16,100,16,85,4,0,0,0,0,0,0,0
565166399,565066476,0.00043949243,0.011994838,0.03491403,67240471,0,0.583955,0.45870098,0.054469086,0.03447439,0.05494877,0.0027682213,0.0,0.0,0.0,0.0,2490378,2490378,4028193,396809,0,0,895,16,100,16,85,4,0,0,0,0,0,0,0
565375846,565275523,0.00047780576,0.0097045805,0.031017698,67240471,0,0.58782804,0.4592773,0.05853991,0.044982128,0.055454977,0.0044831983,0.0,0.0,0.0,0.0,2490378,2490378,4028193,396809,0,0,895,16,100,16,85,4,0,0,0,0,0,0,0
565574560,565474616,0.00056522654,0.002313159,0.014741589,67240471,0,0.5888651,0.45832148,0.068908736,0.044051357,0.055126242,0.0063118013,0.0,0.0,0.0,0.0,2490378,2490378,4028193,396809,0,0,895,16,100,16,85,4,0,0,0,0,0,0,0
565773713,565673709,0.00059159205,0.009507654,0.02984797,67240471,0,0.58384234,0.45514998,0.055686023,0.031467054,0.057536278,0.0051348563,0.0,0.0,0.0,0.0,2490378,2490378,4028193,396809,0,0,895,16,100,16,85,4,0,0,0,0,0,0,0
565972756,565872802,0.0003655833,0.0032101623,0.015381165,67240471,0,0.5865717,0.4587248,0.0473916,0.040387206,0.05497543,0.006900426,0.0,0.0,0.0,0.0,2490378,2490378,4028193,396809,0,0,895,16,100,16,85,4,0,0,0,0,0,0,0
566171808,566071895,0.00039290596,0.008929803,0.027219059,67240471,0,0.582017,0.45559832,0.03665023,0.03578662,0.05331664,0.0088407975,0.0,0.0,0.0,0.0,2490378,2490378,4028193,396809,0,0,895,16,100,16,85,4,0,0,0,0,0,0,0
566370953,566270988,0.00043128108,0.010461438,0.028831108,67240471,0,0.5854645,0.45944634,0.040023968,0.041607536,0.049946636,0.007642473,0.0,0.0,0.0,0.0,2490378,2490378,4028193,396809,0,0,895,16,100,16,85,4,0,0,0,0,0,0,0
566569993,566470081,0.000329311,0.009314615,0.026706725,67240471,0,0.5868488,0.45856678,0.03827411,0.014796752,0.048054002,0.009357816,0.0,0.0,0.0,0.0,2490378,2490378,4028193,396809,0,0,895,16,100,16,85,4,0,0,0,0,0,0,0
566779115,566679129,0.0006126599,0.020912964,0.045648284,67240471,0,0.59088886,0.45911893,0.046670705,0.10652016,0.04321894,0.0058661983,0.0,0.0,0.0,0.0,2490378,2490378,4028193,396809,0,0,895,16,100,16,85,4,0,0,0,0,0,0,0
566978177,566878222,0.0005240583,0.014690688,0.034124482,67240471,0,0.5931744,0.45851532,0.049134742,0.039590463,0.04093844,0.0034969961,0.0,0.0,0.0,0.0,2490378,2490378,4028193,396809,0,0,895,16,100,16,85,4,0,0,0,0,0,0,0
567177226,567077315,0.00039020763,0.011211056,0.028039118,67240471,0,0.5943489,0.46144864,0.05383824,0.027641838,0.03974529,0.009508729,0.0,0.0,0.0,0.0,2490378,2490378,4028193,396809,0,0,895,16,100,16,85,4,0,0,0,0,0,0,0
567376325,567276408,0.00046125738,0.0111694755,0.027909268,67240471,0,0.5971008,0.4609838,0.052600868,0.03806881,0.039347623,0.008060764,0.0,0.0,0.0,0.0,2490378,2490378,4028193,396809,0,0,895,16,100,16,85,4,0,0,0,0,0,0,0
567575559,567475505,0.00047191183,0.01492311,0.035373412,67240471,0,0.5999092,0.46049047,0.035665803,0.07481398,0.03817893,0.00070447085,0.0,0.0,0.0,0.0,2490378,2490378,4028193,396809,0,0,895,16,100,16,85,4,0,0,0,0,0,0,0
567774538,567674594,0.00085401523,0.03254057,0.07224479,67240471,0,0.6039351,0.4644377,0.034149934,0.16743168,0.041929413,0.00242327,0.0,0.0,0.0,0.0,2490378,2490378,4028193,396809,0,0,895,16,100,16,85,4,0,0,0,0,0,0,0
567973634,567873687,0.0003375526,0.013429303,0.03528766,67240471,0,0.60738,0.46412444,0.026399123,0.013592468,0.040593326,0.023411442,0.0,0.0,0.0,0.0,2490378,2490378,4028193,396809,0,0,895,16,100,16,85,4,0,0,0,0,0,0,0
568172723,568072780,0.00045799048,0.009995686,0.018029075,67240471,0,0.6075366,0.46266675,0.0313415,0.0489108,0.039542377,0.0048817936,0.0,0.0,0.0,0.0,2490378,2490378,4028193,396809,0,0,895,16,100,16,85,4,0,0,0,0,0,0,0
568371825,568271873,0.000305077,0.011618152,0.022139665,67240471,0,0.60937583,0.4617296,0.036478497,0.018638302,0.039747205,0.011591695,0.0,0.0,0.0,0.0,2490378,2490378,4028193,396809,0,0,895,16,100,16,85,4,0,0,0,0,0,0,0
568570880,568470966,0.00037842404,0.011791578,0.024346333,67240471,0,0.61394215,0.4657732,0.050321724,0.022680394,0.039891493,0.009469697,0.0,0.0,0.0,0.0,2490378,2490378,4028193,396809,0,0,895,16,100,16,85,4,0,0,0,0,0,0,0
568770136,568670059,0.001330402,0.04967284,0.10132453,67240471,0,0.6181415,0.46557078,0.04897331,0.31940877,0.036509365,0.0060773683,0.0,0.0,0.0,0.0,2490378,2490378,4028193,396809,0,0,895,16,100,16,85,4,0,1,0,0,0,0,0
568969093,568869152,0.00039359584,0.020964889,0.04688456,67240471,0,0.6226122,0.46544775,0.03337198,0.050047804,0.037254408,0.016135655,0.0,0.0,0.0,0.0,2490378,2490378,4028193,396809,0,0,895,16,100,16,85,4,0,0,0,0,0,0,0
569168247,569068245,0.000374771,0.008015458,0.016863875,67240471,0,0.6219003,0.4678401,0.040683493,0.056890696,0.037522055,0.024534652,0.0,0.0,0.0,0.0,2490378,2490378,4028193,396809,0,0,895,16,100,16,85,4,0,0,0,0,0,0,0
569367325,569267339,0.000543895,0.015285064,0.030752333,67240471,0,0.62428147,0.46707642,0.046670675,0.06625445,0.03592053,0.008979847,0.0,0.0,0.0,0.0,2490378,2490378,4028193,396809,0,0,895,16,100,16,85,4,0,0,0,0,0,0,0
569576297,569476386,0.0005773089,0.02153261,0.046000503,67240471,0,0.6300874,0.46789083,0.047331754,0.10582678,0.0335453,0.015525935,0.0,0.0,0.0,0.0,2490378,2490378,4028193,396809,0,0,895,16,100,16,85,4,0,0,0,0,0,0,0
569775409,569675479,0.00041757766,0.011881626,0.026009137,67240471,0,0.62744296,0.46972784,0.04061943,0.03528602,0.033193104,0.0069429846,0.0,0.0,0.0,0.0,2490378,2490378,4028193,396809,0,0,895,16,100,16,85,4,0,0,0,0,0,0,0
569974492,569874572,0.0004084119,0.0047357175,0.011753737,67240471,0,0.6294132,0.4687642,0.041247234,0.035390574,0.034084935,0.010335903,0.0,0.0,0.0,0.0,2490378,2490378,4028193,396809,0,0,895,16,100,16,85,4,0,0,0,0,0,0,0
570173579,570073665,0.00041639965,0.01401829,0.03197324,67240471,0,0.6341095,0.46868804,0.03197875,0.062543884,0.034172352,0.024792207,0.0,0.0,0.0,0.0,2490378,2490378,4028193,396809,0,0,895,16,100,16,85,4,0,0,0,0,0,0,0
570372743,570272758,0.00043391576,0.0073386985,0.017353233,67240471,0,0.6378879,0.4682742,0.032832947,0.105337106,0.030134305,0.022756284,0.0,0.0,0.0,0.0,2490378,2490378,4028193,396809,0,0,895,16,100,16,85,4,0,0,0,0,0,0,0
570571767,570471852,0.00037079115,0.0053894995,0.017084988,67240471,0,0.6445006,0.47290927,0.04171032,0.037699588,0.028493447,0.019513598,0.0,0.0,0.0,0.0,2490378,2490378,4028193,396809,0,0,895,16,100,16,85,4,0,0,0,0,0,0,0
570770862,570670948,0.0003264772,0.0064047505,0.020138066,67240471,0,0.6516469,0.4733682,0.044329304,0.04268556,0.02599043,0.011100478,0.0,0.0,0.0,0.0,2490378,2490378,4028193,396809,0,0,895,16,100,16,85,4,0,0,0,0,0,0,0
570970030,570870038,0.00055399165,0.017424937,0.041258033,67240471,0,0.6569574,0.4732543,0.049632277,0.09910432,0.02606077,0.01572184,0.0,0.0,0.0,0.0,2490378,2490378,4028193,396809,0,0,895,16,100,16,85,4,0,0,0,0,0,0,0
571169090,571069134,0.00043327702,0.011665818,0.029071122,67240471,0,0.66053885,0.47701913,0.03948609,0.038804185,0.023300264,0.013351569,0.0,0.0,0.0,0.0,2490378,2490378,4028193,396809,0,0,895,16,100,16,85,4,0,0,0,0,0,0,0
571378147,571278178,0.00047880987,0.014222652,0.03615776,67240471,0,0.66828024,0.47805983,0.036900077,0.088995226,0.01819485,0.021926055,0.0,0.0,0.0,0.0,2490378,2490378,4028193,396809,0,0,895,16,100,16,85,4,0,0,0,0,0,0,0
571577266,571477271,0.00037951668,0.012785013,0.034004785,67240471,0,0.67433566,0.47807038,0.031874433,0.05584139,0.01841847,0.004733767,0.0,0.0,0.0,0.0,2490378,2490378,4028193,396809,0,0,895,16,100,16,85,4,0,0,0,0,0,0,0
571776303,571676365,0.0002515721,0.0052182204,0.018093731,67240471,0,0.67733806,0.47731182,0.028226752,0.017046362,0.016534235,0.0075563877,0.0,0.0,0.0,0.0,2490378,2490378,4028193,396809,0,0,895,16,100,16,85,4,0,0,0,0,0,0,0
571975420,571875458,0.00030820013,0.0039257463,0.013736043,67240471,0,0.6807876,0.48113227,0.03516883,0.023277098,0.016620701,0.018147072,0.0,0.0,0.0,0.0,2490378,2490378,4028193,396809,0,0,895,16,100,16,85,4,0,0,0,0,0,0,0
572174468,572074551,0.00047594486,0.016865233,0.03287072,67240471,0,0.6808735,0.47958562,0.04230217,0.06381515,0.020868167,0.010021942,0.0,0.0,0.0,0.0,2490378,2490378,4028193,396809,0,0,895,16,100,16,85,4,0,0,0,0,0,0,0
572373585,572273644,0.00034636652,0.0055899476,0.013511086,67240471,0,0.6851742,0.47910792,0.040863767,0.04047011,0.018203706,0.030658707,0.0,0.0,0.0,0.0,2490378,2490378,4028193,396809,0,0,895,16,100,16,85,4,0,0,0,0,0,0,0
572572775,572472737,0.00042648867,0.0034224365,0.008688849,67240471,0,0.68544316,0.48214176,0.045996208,0.017568927,0.019228728,0.013591611,0.0,0.0,0.0,0.0,2490378,2490378,4028193,396809,0,0,895,16,100,16,85,4,0,0,0,0,0,0,0
572771745,572671830,0.0004977506,0.016892433,0.03744955,67240471,0,0.68218637,0.4796622,0.0384553,0.062707834,0.021026056,0.01775957,0.0,0.0,0.0,0.0,2490378,2490378,4028193,396809,0,0,895,16,100,16,85,4,0,0,0,0,0,0,0
572970850,572870923,0.00045354484,0.017746624,0.04080881,67240471,0,0.6858888,0.4790022,0.03177039,0.04121401,0.02416963,0.013428882,0.0,0.0,0.0,0.0,2490378,2490378,4028193,396809,0,0,895,16,100,16,85,4,0,0,0,0,0,0,0
573169987,573070016,0.00023366122,0.008076699,0.02081267,67240471,0,0.6900331,0.48299065,0.018410379,0.044686534,0.022481438,0.011189999,0.0,0.0,0.0,0.0,2490378,2490378,4028193,396809,0,0,895,16,100,16,85,4,0,0,0,0,0,0,0
573369022,573269109,0.00039233116,0.017359266,0.04146372,67240471,0,0.67838573,0.47823286,0.027931461,0.047521856,0.023805035,0.011924188,0.0,0.0,0.0,0.0,2490378,2490378,4028193,396809,0,0,895,16,100,16,85,4,0,0,0,0,0,0,0
573568132,573468202,0.00023913635,0.008130998,0.020247595,67240471,0,0.6771192,0.47624072,0.023956755,0.029720906,0.027111944,0.024391357,0.0,0.0,0.0,0.0,2490378,2490378,4028193,396809,0,0,895,16,100,16,85,4,0,0,0,0,0,0,0
573777224,573677250,0.00021294827,0.0024794019,0.011541384,67240471,0,0.6811047,0.47638565,0.021675186,0.017567987,0.030818308,0.0220869,0.0,0.0,0.0,0.0,2490378,2490378,4028193,396809,0,0,895,16,100,16,85,4,0,0,0,0,0,0,0
573976260,573876343,0.00030519252,0.00894301,0.019913042,131607,0,0.68222237,0.47959876,0.037571214,0.056513704,0.03399577,0.013819263,0.0,0.0,0.0,0.0,2490378,2490378,4028193,396809,0,0,895,16,100,16,85,4,0,0,0,0,0,0,0
574175357,574075436,0.00034730678,0.005791059,0.009745555,131607,0,0.68053895,0.47756156,0.026127597,0.05817969,0.038503718,0.028047657,0.0,0.0,0.0,0.0,2490378,2490378,4028193,396809,0,0,895,16,100,16,85,4,0,0,0,0,0,0,0
574374738,574274529,0.00019904561,0.007801692,0.02732147,131607,0,0.6787003,0.47549558,0.0002782194,0.025524372,0.0407823,0.036212966,0.0,0.0,0.0,0.0,2490378,2490378,4028193,396809,0,0,895,16,100,16,85,4,0,0,0,0,0,0,0
574573540,574473622,0.00019220187,0.006024614,0.0149400765,131607,0,0.67803913,0.47821343,0.01704033,0.047218736,0.039098788,0.00836543,0.0,0.0,0.0,0.0,2490378,2490378,4028193,396809,0,0,895,16,100,16,85,4,0,0,0,0,0,0,0
574772629,574672715,0.00020926041,0.005158855,0.019774886,131607,0,0.6775553,0.4765512,0.023554984,0.020996286,0.03863891,0.015418892,0.0,0.0,0.0,0.0,2490378,2490378,4028193,396809,0,0,895,16,100,16,85,4,0,0,0,0,0,0,0
574971811,574871808,0.00032686463,0.010079793,0.023890067,131607,0,0.676578,0.47473532,0.020195313,0.055205874,0.037471227,0.009839016,0.0,0.0,0.0,0.0,2490378,2490378,4028193,396809,0,0,895,16,100,16,85,4,0,0,0,0,0,0,0
575170815,575070901,0.00018003499,0.0048857457,0.01689664,131607,0,0.674403,0.4769997,0.019585796,0.023573108,0.038303833,0.0045733578,0.0,0.0,0.0,0.0,2490378,2490378,4028193,396809,0,0,895,16,100,16,85,4,0,0,0,0,0,0,0
575369909,575269997,0.00027265528,0.012664436,0.03474316,131607,0,0.669321,0.47390398,0.010948785,0.03848635,0.03822222,0.0012977233,0.0,0.0,0.0,0.0,2490378,2490378,4028193,396809,0,0,895,16,100,16,85,4,0,0,0,0,0,0,0
575569049,575469088,0.00013531683,0.005714333,0.018549757,67240471,0,0.6652017,0.47109303,0.004433508,0.022552969,0.036129717,0.014367057,0.0,0.0,0.0,0.0,2490378,2490378,4028193,396809,0,0,895,16,100,16,85,4,0,0,0,0,0,0,0
575768126,575668181,0.00035900268,0.018044736,0.046391185,67240471,0,0.66498107,0.46959576,0.008898438,0.0816284,0.039300732,0.007734085,0.0,0.0,0.0,0.0,2490378,2490378,4028193,396809,0,0,895,16,100,16,85,4,0,0,0,0,0,0,0
575977145,575877228,0.0001942188,0.011424941,0.03098725,67240471,0,0.66639084,0.47342435,0.00764432,0.021236492,0.036389045,0.020541662,0.0,0.0,0.0,0.0,2490378,2490378,4028193,396809,0,0,895,16,100,16,85,4,0,0,0,0,0,0,0
576176275,576076321,0.0002671765,0.007972522,0.02543855,67240471,0,0.6670294,0.47217882,0.033595882,0.029252011,0.034610238,0.015894283,0.0,0.0,0.0,0.0,2490378,2490378,4028193,396809,0,0,895,16,100,16,85,4,0,0,0,0,0,0,0
576375326,576275414,0.00030632212,0.007327211,0.026584147,67240471,0,0.6677602,0.47096997,0.024573283,0.04552217,0.036540113,0.0068098702,0.0,0.0,0.0,0.0,2490378,2490378,4028193,396809,0,0,895,16,100,16,85,4,0,0,0,0,0,0,0
576574673,576474508,0.0003085269,0.0047266837,0.013898255,67240471,0,0.66872007,0.46987367,0.026334131,0.041732337,0.035333876,0.00990576,0.0,0.0,0.0,0.0,2490378,2490378,4028193,396809,0,0,895,16,100,16,85,4,0,0,0,0,0,0,0
576773516,576673601,0.00031646283,0.01042361,0.023379713,67240471,0,0.67073745,0.47336474,0.01447106,0.05168106,0.034086052,0.004937846,0.0,0.0,0.0,0.0,2490378,2490378,4028193,396809,0,0,895,16,100,16,85,4,0,0,0,0,0,0,0
576972610,576872694,0.00022762954,0.010560231,0.024112077,67240471,0,0.67287064,0.47256115,0.0077614617,0.03810137,0.031713862,0.013661232,0.0,0.0,0.0,0.0,2490378,2490378,4028193,396809,0,0,895,16,100,16,85,4,0,0,0,0,0,0,0
577171756,577071786,5.310881e-05,0.006293931,0.017421102,67240471,0,0.6730116,0.47111523,0.0045787217,0.032210596,0.030882832,0.0054099094,0.0,0.0,0.0,0.0,2490378,2490378,4028193,396809,0,0,895,16,100,16,85,4,0,0,0,0,0,0,0
577370833,577270881,9.1754664e-05,0.0038699422,0.008591436,67240471,0,0.675427,0.47471866,0.0025149554,0.025281757,0.032018512,0.007262532,0.0,0.0,0.0,0.0,2490378,2490378,4028193,396809,0,0,895,16,100,16,85,4,0,0,0,0,0,0,0
577569905,577469973,0.00020886214,0.009773939,0.023178069,67240471,0,0.6785227,0.47413537,0.010191305,0.051211484,0.030603787,0.009132126,0.0,0.0,0.0,0.0,2490378,2490378,4028193,396809,0,0,895,16,100,16,85,4,0,0,0,0,0,0,0
577769102,577669066,0.00016599569,0.0041066417,0.010983046,67240471,0,0.6813606,0.4734651,0.0073905075,0.037087742,0.030844826,0.019610893,0.0,0.0,0.0,0.0,2490378,2490378,4028193,396809,0,0,895,16,100,16,85,4,0,0,0,0,0,0,0
577978043,577878113,0.00085317984,0.03234565,0.07063052,67240471,0,0.68232346,0.47716668,0.0061775655,0.15337732,0.03161557,0.015478574,0.0,0.0,0.0,0.0,2490378,2490378,4028193,396809,0,0,895,16,100,16,85,4,0,0,0,0,0,0,0
578177197,578077206,0.0001755342,0.01075078,0.028435396,67240471,0,0.68480086,0.4763638,0.016319765,0.042994928,0.026642902,0.009213656,0.0,0.0,0.0,0.0,2490378,2490378,4028193,396809,0,0,895,16,100,16,85,4,0,0,0,0,0,0,0
578376217,578276299,0.0002764552,0.008525047,0.023707794,67240471,0,0.68646264,0.47531378,0.018118735,0.038820226,0.026150882,0.006390595,0.0,0.0,0.0,0.0,2490378,2490378,4028193,396809,0,0,895,16,100,16,85,4,0,0,0,0,0,0,0
578575363,578475392,0.00018886506,0.0031676986,0.0152246,67240471,0,0.68892986,0.47447363,0.013318223,0.026168453,0.026488265,0.013527092,0.0,0.0,0.0,0.0,2490378,2490378,4028193,396809,0,0,895,16,100,16,85,4,0,0,0,0,0,0,0
578774457,578674485,0.00026073202,0.009073785,0.020780388,67240471,0,0.688174,0.47717458,0.010474413,0.03337087,0.023578163,0.0069437614,0.0,0.0,0.0,0.0,2490378,2490378,4028193,396809,0,0,895,16,100,16,85,4,0,0,0,0,0,0,0
578973496,578873578,0.00020213252,0.007863692,0.014436077,67240471,0,0.6904835,0.47631764,0.008235845,0.031224117,0.024042103,0.009984344,0.0,0.0,0.0,0.0,2490378,2490378,4028193,396809,0,0,895,16,100,16,85,4,0,0,0,0,0,0,0
579172621,579072671,0.00015578722,0.007009562,0.015561352,67240471,0,0.68550986,0.47339353,0.011154093,0.013320402,0.023464663,0.0064297128,0.0,0.0,0.0,0.0,2490378,2490378,4028193,396809,0,0,895,16,100,16,85,4,0,0,0,0,0,0,0
579371729,579271764,0.00022617182,0.0069531244,0.015789216,67240471,0,0.6883165,0.47704905,0.018105315,0.025757855,0.022207338,0.009983512,0.0,0.0,0.0,0.0,2490378,2490378,4028193,396809,0,0,895,16,100,16,85,4,0,0,0,0,0,0,0
579570778,579470857,0.00020139322,0.004704175,0.012032041,67240471,0,0.6928176,0.47673777,0.022732241,0.01115084,0.022153527,0.009509483,0.0,0.0,0.0,0.0,2490378,2490378,4028193,396809,0,0,895,16,100,16,85,4,0,0,0,0,0,0,0
579769918,579669950,0.00040660304,0.0138032455,0.03277538,67240471,0,0.6957045,0.4759259,0.027457686,0.0810259,0.021299569,0.005300474,0.0,0.0,0.0,0.0,2490378,2490378,4028193,396809,0,0,895,16,100,16,85,4,0,0,0,0,0,0,0
579969085,579869043,0.0005247508,0.016829552,0.038773134,67240471,0,0.6982687,0.47946024,0.044070333,0.062337395,0.024226045,0.011339246,0.0,0.0,0.0,0.0,2490378,2490378,4028193,396809,0,0,895,16,100,16,85,4,0,0,0,0,0,0,0
580168049,580068136,0.00035286628,0.0055719544,0.01782774,67240471,0,0.70330614,0.47915035,0.03429879,0.034027543,0.026630804,0.001233058,0.0,0.0,0.0,0.0,2490378,2490378,4028193,396809,0,0,895,16,100,16,85,4,0,0,0,0,0,0,0
580367171,580267229,0.00029425052,0.006680519,0.020924557,131607,0,0.7049804,0.47794494,0.017489078,0.016149713,0.025392113,0.00068323646,0.0,0.0,0.0,0.0,2490378,2490378,4028193,396809,0,0,895,16,100,16,85,4,0,0,0,0,0,0,0
580576236,580476276,0.00025240492,0.00788886,0.02232602,131607,0,0.71096,0.48292992,0.02537289,0.04901557,0.02186934,0.001049037,0.0,0.0,0.0,0.0,2490378,2490378,4028193,396809,0,0,895,16,100,16,85,4,0,0,0,0,0,0,0
580775284,580675369,0.00020909216,0.005933619,0.018059792,131607,0,0.70797133,0.48047698,0.02815356,0.005185489,0.02224362,0.0012469093,0.0,0.0,0.0,0.0,2490378,2490378,4028193,396809,0,0,895,16,100,16,85,4,0,0,0,0,0,0,0
580974394,580874462,0.0005586113,0.021490458,0.05028425,131607,0,0.711423,0.47969964,0.05319146,0.10255385,0.028565573,0.0019655079,0.0,0.0,0.0,0.0,2490378,2490378,4028193,396809,0,0,895,16,100,16,85,4,0,0,0,0,0,0,0
581173978,581073557,0.0006572903,0.021694843,0.053062882,131607,0,0.71569556,0.47908613,0.057324763,0.078277454,0.030789861,0.008173849,0.0,0.0,0.0,0.0,2490378,2490378,4028193,396809,0,0,895,16,100,16,85,4,0,0,0,0,0,0,0
581372590,581272648,0.00069350284,0.015934635,0.036427252,67240471,0,0.72112876,0.48324782,0.04328018,0.13647635,0.032957174,0.013112508,0.0,0.0,0.0,0.0,2490378,2490378,4028193,396809,0,0,895,16,100,16,85,4,0,0,0,0,0,0,0
581571669,581471741,0.00091522984,0.034255087,0.0773165,131607,0,0.72616786,0.4828027,0.007254754,0.16929068,0.038891368,0.0037151964,0.0,0.0,0.0,0.0,2490378,2490378,4028193,396809,0,0,895,16,100,16,85,4,0,0,0,0,0,0,0
581770800,581670834,0.00047540132,0.027614977,0.06743135,131607,0,0.7221811,0.4802183,0.0049109366,0.05408914,0.037070125,0.014893961,0.0,0.0,0.0,0.0,2490378,2490378,4028193,396809,0,0,895,16,100,16,85,4,0,0,0,0,0,0,0
581969848,581869927,0.00044232697,0.01335146,0.033862665,131607,0,0.7200228,0.48256984,0.012212974,0.08372804,0.03075538,0.0029298014,0.0,0.0,0.0,0.0,2490378,2490378,4028193,396809,0,0,895,16,100,16,85,4,0,0,0,0,0,0,0
582178887,582078974,0.00013442062,0.004214152,0.0121239945,131607,0,0.7182122,0.4810424,0.015342644,0.02394583,0.025679907,0.007147864,0.0,0.0,0.0,0.0,2490378,2490378,4028193,396809,0,0,895,16,100,16,85,4,0,0,0,0,0,0,0
582378018,582278067,0.00022981766,0.013917066,0.030768014,131607,0,0.70875895,0.47680765,0.0017733435,0.058330603,0.018508475,0.012000846,0.0,0.0,0.0,0.0,2490378,2490378,4028193,396809,0,0,895,16,100,16,85,4,0,0,0,0,0,0,0
582577129,582477160,0.00068457937,0.027578864,0.06679825,67240471,0,0.7157248,0.4770168,0.006318203,0.20102668,0.021947471,0.0024294227,0.0,0.0,0.0,0.0,2490378,2490378,4028193,396809,0,0,895,16,100,16,85,4,0,1,0,0,0,0,0
582776198,582676253,0.00015023953,0.015208765,0.044593483,67240471,0,0.71870196,0.48060662,0.003912462,0.007754563,0.022624213,0.0032909692,0.0,0.0,0.0,0.0,2490378,2490378,4028193,396809,0,0,895,16,100,16,85,4,0,0,0,0,0,0,0
582975260,582875347,0.00029504305,0.017849427,0.04645001,67240471,0,0.7226695,0.48008734,0.0013547943,0.07791594,0.020376695,0.0003290911,0.0,0.0,0.0,0.0,2490378,2490378,4028193,396809,0,0,895,16,100,16,85,4,0,0,0,0,0,0,0
583174382,583074438,0.00033718738,0.018774522,0.052258484,67240471,0,0.7226713,0.47848427,0.0014478392,0.06044271,0.019412793,0.0033526237,0.0,0.0,0.0,0.0,2490378,2490378,4028193,396809,0,0,895,16,100,16,85,4,0,0,0,0,0,0,0
583373787,583273531,0.00018403566,0.014550186,0.04215933,67240471,0,0.72043526,0.48083115,0.010302057,0.023935787,0.01925243,0.006445652,0.0,0.0,0.0,0.0,2490378,2490378,4028193,396809,0,0,895,16,100,16,85,4,0,0,0,0,0,0,0
583572564,583472624,0.00016893956,0.010869259,0.035790578,67240471,0,0.7211346,0.47943574,0.010241039,0.024116436,0.020211011,0.0018394158,0.0,0.0,0.0,0.0,2490378,2490378,4028193,396809,0,0,895,16,100,16,85,4,0,0,0,0,0,0,0
583771662,583671717,0.00019821161,0.006124713,0.014656626,67240471,0,0.7183891,0.47716272,0.007185506,0.04211715,0.018924443,0.013244561,0.0,0.0,0.0,0.0,2490378,2490378,4028193,396809,0,0,895,16,100,16,85,4,0,0,0,0,0,0,0
583970758,583870811,0.00018999173,0.0076613715,0.024975926,67240471,0,0.7187447,0.48019502,0.017278904,0.04683227,0.018102316,0.003223459,0.0,0.0,0.0,0.0,2490378,2490378,4028193,396809,0,0,895,16,100,16,85,4,0,0,0,0,0,0,0
584169816,584069902,0.0005661821,0.01922122,0.04934075,67240471,0,0.7206482,0.4791755,0.013974124,0.112452105,0.017827617,0.007494502,0.0,0.0,0.0,0.0,2490378,2490378,4028193,396809,0,0,895,16,100,16,85,4,0,0,0,0,0,0,0
584368907,584268995,0.00023047169,0.010691454,0.033752866,67240471,0,0.71898615,0.47721916,0.011883512,0.044808824,0.011874903,0.002230817,0.0,0.0,0.0,0.0,2490378,2490378,4028193,396809,0,0,895,16,100,16,85,4,0,0,0,0,0,0,0
584568031,584468088,0.0003545587,0.013040625,0.03131428,67240471,0,0.7078874,0.4725148,0.009234636,0.042402763,0.008456826,0.0016311344,0.0,0.0,0.0,0.0,2490378,2490378,4028193,396809,0,0,895,16,100,16,85,4,0,0,0,0,0,0,0
584767126,584667180,0.00022246974,0.0035422125,0.011823746,67240471,0,0.71070164,0.47622967,0.011074175,0.067105085,0.011569642,0.010186466,0.0,0.0,0.0,0.0,2490378,2490378,4028193,396809,0,0,895,16,100,16,85,4,0,0,0,0,0,0,0
584976220,584876228,0.00033187735,0.004406488,0.018308772,67240471,0,0.7130896,0.47598186,0.041426055,0.027240224,0.014546974,0.0035294432,0.0,0.0,0.0,0.0,2490378,2490378,4028193,396809,0,0,895,16,100,16,85,4,0,0,0,0,0,0,0
585175235,585075320,0.0004761005,0.013133622,0.03267981,67240471,0,0.71627474,0.4754612,0.030534612,0.0856613,0.01371805,0.0002626197,0.0,0.0,0.0,0.0,2490378,2490378,4028193,396809,0,0,895,16,100,16,85,4,0,0,0,0,0,0,0
585374334,585274413,0.00039019948,0.005690207,0.012561243,67240471,0,0.7164157,0.4784987,0.04074757,0.020274546,0.009683695,0.0035116517,0.0,0.0,0.0,0.0,2490378,2490378,4028193,396809,0,0,895,16,100,16,85,4,0,0,0,0,0,0,0
585573666,585473506,0.00055036275,0.015897172,0.03273759,67240471,0,0.71894854,0.47780952,0.03105322,0.09418724,0.010313372,0.0065413783,0.0,0.0,0.0,0.0,2490378,2490378,4028193,396809,0,0,895,16,100,16,85,4,0,0,0,0,0,0,0
585772509,585672599,0.00032729612,0.009027411,0.019873768,67240471,0,0.7224041,0.47735652,0.034094114,0.013436716,0.009427139,0.015852321,0.0,0.0,0.0,0.0,2490378,2490378,4028193,396809,0,0,895,16,100,16,85,4,0,0,0,0,0,0,0
585971637,585871691,0.00028810397,0.0048722657,0.0092729,67240471,0,0.72372043,0.4808349,0.03269507,0.011738609,0.007349457,0.013625186,0.0,0.0,0.0,0.0,2490378,2490378,4028193,396809,0,0,895,16,100,16,85,4,0,0,0,0,0,0,0
586170807,586070784,0.0002528121,0.007477197,0.016111635,67240471,0,0.7265356,0.48018137,0.022516271,0.029612612,0.0072288625,0.010046264,0.0,0.0,0.0,0.0,2490378,2490378,4028193,396809,0,0,895,16,100,16,85,4,0,0,0,0,0,0,0
586369790,586269876,0.00015007498,0.0043275934,0.015437673,67240471,0,0.7258782,0.47860092,0.015392078,0.012962033,0.006073946,0.0025593613,0.0,0.0,0.0,0.0,2490378,2490378,4028193,396809,0,0,895,16,100,16,85,4,0,0,0,0,0,0,0
586568910,586468969,0.0006199163,0.025256677,0.05859584,67240471,0,0.7260648,0.47726417,0.033845775,0.11769789,0.0036518183,0.0018066089,0.0,0.0,0.0,0.0,2490378,2490378,4028193,396809,0,0,895,16,100,16,85,4,0,0,0,0,0,0,0
586778040,586678016,0.0006634472,0.028451543,0.06860828,67240471,0,0.7240465,0.48043182,0.043702163,0.09603418,0.0022858283,0.01058251,0.0,0.0,0.0,0.0,2490378,2490378,4028193,396809,0,0,895,16,100,16,85,4,0,0,0,0,0,0,0
586977021,586877109,0.00040703747,0.018623425,0.048420623,67240471,0,0.72620136,0.47961327,0.03760451,0.071320534,0.0052228714,0.0017954194,0.0,0.0,0.0,0.0,2490378,2490378,4028193,396809,0,0,895,16,100,16,85,4,0,0,0,0,0,0,0
587176165,587076201,0.0004968829,0.019599473,0.051269356,67240471,0,0.7285453,0.4787945,0.049276296,0.08087987,0.0076858304,0.00049666606,0.0,0.0,0.0,0.0,2490378,2490378,4028193,396809,0,0,895,16,100,16,85,4,0,0,0,0,0,0,0
587375265,587275294,0.0005880126,0.018303877,0.04791217,67240471,0,0.72812605,0.4772815,0.058130857,0.056243416,0.008873505,0.006910285,0.0,0.0,0.0,0.0,2490378,2490378,4028193,396809,0,0,895,16,100,16,85,4,0,0,0,0,0,0,0
587574306,587474388,0.0004513384,0.017633233,0.04650035,67240471,0,0.71801686,0.47753218,0.04317776,0.05040901,0.0072239377,0.0025829868,0.0,0.0,0.0,0.0,2490378,2490378,4028193,396809,0,0,895,16,100,16,85,4,0,0,0,0,0,0,0
587773417,587673481,0.00044795393,0.017904056,0.046858873,67240471,0,0.7090737,0.47339472,0.03523018,0.047986038,0.0065239137,0.0010566113,0.0,0.0,0.0,0.0,2490378,2490378,4028193,396809,0,0,895,16,100,16,85,4,0,0,0,0,0,0,0
587972516,587872572,0.0003524047,0.008964453,0.025241707,67240471,0,0.70614254,0.47100544,0.035920255,0.033189856,0.004593906,0.0057684924,0.0,0.0,0.0,0.0,2490378,2490378,4028193,396809,0,0,895,16,100,16,85,4,0,0,0,0,0,0,0
588171576,588071664,0.0003154037,0.007807833,0.017835533,67240471,0,0.70323277,0.47296044,0.035429403,0.037939433,0.0070322463,0.010730796,0.0,0.0,0.0,0.0,2490378,2490378,4028193,396809,0,0,895,16,100,16,85,4,0,0,0,0,0,0,0
588370703,588270757,0.00040112005,0.0027146235,0.007668444,67240471,0,0.7060538,0.4724207,0.044905026,0.05441049,0.009468043,0.009248077,0.0,0.0,0.0,0.0,2490378,2490378,4028193,396809,0,0,895,16,100,16,85,4,0,0,0,0,0,0,0
588569884,588469849,0.00050683494,0.0023490654,0.0057423357,67240471,0,0.6996748,0.4689174,0.055839468,0.021945164,0.010675039,0.011140454,0.0,0.0,0.0,0.0,2490378,2490378,4028193,396809,0,0,895,16,100,16,85,4,0,0,0,0,0,0,0
588768852,588668942,0.0005029136,0.009287833,0.022213178,67240471,0,0.7031911,0.47289994,0.05789896,0.06959751,0.014080216,0.0040407837,0.0,0.0,0.0,0.0,2490378,2490378,4028193,396809,0,0,895,16,100,16,85,4,0,0,0,0,0,0,0
588968029,588868034,0.00051576423,0.006544452,0.018624727,67240471,0,0.6989957,0.47006935,0.05459666,0.045224577,0.015557828,0.0008999533,0.0,0.0,0.0,0.0,2490378,2490378,4028193,396809,0,0,895,16,100,16,85,4,0,0,0,0,0,0,0
589176992,589077081,0.0005262861,0.009485749,0.015450539,67240471,0,0.7010086,0.46978006,0.040345505,0.07639399,0.014782235,0.007934342,0.0,0.0,0.0,0.0,2490378,2490378,4028193,396809,0,0,895,16,100,16,85,4,0,0,0,0,0,0,0
589376142,589276174,0.00029584445,0.004943084,0.009488301,67240471,0,0.70240366,0.46879217,0.019366466,0.054942206,0.016681513,0.0051537706,0.0,0.0,0.0,0.0,2490378,2490378,4028193,396809,0,0,895,16,100,16,85,4,0,0,0,0,0,0,0
589575265,589475266,0.0002623454,0.00622447,0.0119762,67240471,0,0.7009996,0.47117215,0.016040957,0.044328645,0.015989954,0.009309585,0.0,0.0,0.0,0.0,2490378,2490378,4028193,396809,0,0,895,16,100,16,85,4,0,0,0,0,0,0,0
589774331,589674359,0.00031363397,0.008667648,0.022387605,67240471,0,0.7032029,0.47042567,0.02549523,0.043369688,0.017255522,0.009639266,0.0,0.0,0.0,0.0,2490378,2490378,4028193,396809,0,0,895,16,100,16,85,4,0,0,0,0,0,0,0
589973397,589873451,0.00026478892,0.0055331015,0.020594843,67240471,0,0.70711637,0.47016677,0.03202119,0.04420639,0.017244428,0.01316908,0.0,0.0,0.0,0.0,2490378,2490378,4028193,396809,0,0,895,16,100,16,85,4,0,0,0,0,0,0,0
590172460,590072543,0.0003485742,0.010530273,0.029058767,67240471,0,0.7070493,0.47301596,0.026156625,0.053609464,0.018058632,0.0074741044,0.0,0.0,0.0,0.0,2490378,2490378,4028193,396809,0,0,895,16,100,16,85,4,0,0,0,0,0,0,0
590371592,590271636,0.0002468749,0.0053388835,0.0153068835,67240471,0,0.7109053,0.4727374,0.0005109845,0.068437554,0.01760553,0.0015742166,0.0,0.0,0.0,0.0,2490378,2490378,4028193,396809,0,0,895,16,100,16,85,4,0,0,0,0,0,0,0
590570675,590470728,0.0003180366,0.0107480185,0.026750118,67240471,0,0.7173632,0.47310764,0.017459504,0.0827038,0.018889816,0.010825884,0.0,0.0,0.0,0.0,2490378,2490378,4028193,396809,0,0,895,16,100,16,85,4,0,0,0,0,0,0,0
590769736,590669820,0.00020199429,0.007440793,0.019600563,67240471,0,0.7233431,0.47764936,0.010687057,0.042708922,0.019338619,0.0008384196,0.0,0.0,0.0,0.0,2490378,2490378,4028193,396809,0,0,895,16,100,16,85,4,0,0,0,0,0,0,0
590968830,590868913,0.00031462667,0.010913046,0.023098968,67240471,0,0.7293034,0.47777987,0.01352172,0.08948678,0.02139769,0.00572809,0.0,0.0,0.0,0.0,2490378,2490378,4028193,396809,0,0,895,16,100,16,85,4,0,0,0,0,0,0,0
591167990,591068005,0.00014513433,0.0036777798,0.015144909,67240471,0,0.731833,0.4770082,0.020639507,0.027859272,0.025165157,0.007981034,0.0,0.0,0.0,0.0,2490378,2490378,4028193,396809,0,0,895,16,100,16,85,4,0,0,0,0,0,0,0
591376997,591277052,0.00017784353,0.004664796,0.017183328,67240471,0,0.7338908,0.47673494,0.017800577,0.026097242,0.02427477,0.0050286376,0.0,0.0,0.0,0.0,2490378,2490378,4028193,396809,0,0,895,16,100,16,85,4,0,0,0,0,0,0,0
591576053,591476144,0.00012205794,0.005444538,0.018480001,67240471,0,0.73034763,0.47892582,0.0058355974,0.022178292,0.029516807,0.010545596,0.0,0.0,0.0,0.0,2490378,2490378,4028193,396809,0,0,895,16,100,16,85,4,0,0,0,0,0,0,0
591775258,591675236,5.637933e-05,0.0045954334,0.018662529,67240471,0,0.73154026,0.47786722,0.004328576,0.014412245,0.030336687,0.012480645,0.0,0.0,0.0,0.0,2490378,2490378,4028193,396809,0,0,895,16,100,16,85,4,0,0,0,0,0,0,0
591974283,591874329,0.0002984591,0.0152120115,0.036113024,67240471,0,0.7374297,0.47797576,0.0026504102,0.090818085,0.02704268,0.010269265,0.0,0.0,0.0,0.0,2490378,2490378,4028193,396809,0,0,895,16,100,16,85,4,0,0,0,0,0,0,0
592173334,592073421,0.00043594305,0.023347612,0.056400802,131607,0,0.74134594,0.48206675,0.009465266,0.06626833,0.02884857,0.023294646,0.0,0.0,0.0,0.0,2490378,2490378,4028193,396809,0,0,895,16,100,16,85,4,0,0,0,0,0,0,0
592372947,592272513,0.0001711125,0.013988122,0.039384,131607,0,0.7341258,0.47888982,0.040592633,0.02164049,0.026205817,0.014603917,0.0,0.0,0.0,0.0,2490378,2490378,4028193,396809,0,0,895,16,100,16,85,4,0,0,0,0,0,0,0
592571525,592471605,0.00052870647,0.017653558,0.044155687,131607,0,0.7377967,0.47839782,0.06802992,0.070472,0.025979908,0.00985142,0.0,0.0,0.0,0.0,2490378,2490378,4028193,396809,0,0,895,16,100,16,85,4,0,0,0,0,0,0,0
