timestamp,timestamp_sample,device_id,pressure,temperature,error_count
540108168,540107571,4028193,99888.0,40.579998,0
541101880,541101300,4028193,99887.0,40.6,0
542106252,542105672,4028193,99889.0,40.61,0
543110689,543110109,4028193,99886.0,40.62,0
544104253,544103673,4028193,99887.0,40.629997,0
545097839,545097259,4028193,99886.0,40.64,0
546091573,546090993,4028193,99889.0,40.649998,0
547106695,547106115,4028193,99887.0,40.67,0
548100291,548099711,4028193,99888.0,40.68,0
549104684,549104104,4028193,99887.0,40.69,0
550109087,550108507,4028193,99883.0,40.7,0
551102657,551102077,4028193,99886.0,40.71,0
552096276,552095695,4028193,99888.0,40.73,0
553089929,553089349,4028193,99886.0,40.739998,0
554105046,554104466,4028193,99889.0,40.75,0
555098651,555098071,4028193,99889.0,40.76,0
556103103,556102522,4028193,99889.0,40.77,0
557107450,557106870,4028193,99885.0,40.79,0
558101066,558100470,4028193,99891.0,40.8,0
559094657,559094076,4028193,99881.0,40.8,0
560109899,560109318,4028193,99887.0,40.82,0
561103469,561102889,4028193,99889.0,40.829998,0
562107864,562107284,4028193,99886.0,40.84,0
563101525,563100945,4028193,99885.0,40.85,0
564105889,564105309,4028193,99887.0,40.86,0
565099444,565098864,4028193,99886.0,40.87,0
566093050,566092470,4028193,99890.0,40.879997,0
567108265,567107685,4028193,99883.0,40.89,0
568101862,568101283,4028193,99888.0,40.899998,0
569106281,569105701,4028193,99887.0,40.91,0
570099837,570099256,4028193,99886.0,40.92,0
571104283,571103702,4028193,99886.0,40.92,0
572097862,572097282,4028193,99891.0,40.93,0
573091486,573090895,4028193,99886.0,40.94,0
574106650,574106069,4028193,99889.0,40.94,0
575111058,575110478,4028193,99892.0,40.95,0
576104668,576104088,4028193,99894.0,40.96,0
577109111,577108531,4028193,99890.0,40.969997,0
578102687,578102107,4028193,99885.0,40.969997,0
579096254,579095673,4028193,99891.0,40.98,0
580089930,580089349,4028193,99888.0,40.98,0
581105091,581104511,4028193,99885.0,40.989998,0
582109480,582108900,4028193,99886.0,40.989998,0
583103049,583102469,4028193,99891.0,41.0,0
584107492,584106911,4028193,99891.0,41.0,0
585101113,585100533,4028193,99886.0,41.0,0
586094677,586094097,4028193,99891.0,41.01,0
587088266,587087686,4028193,99890.0,41.01,0
588103467,588102887,4028193,99890.0,41.01,0
589107907,589107327,4028193,99886.0,41.02,0
590101462,590100882,4028193,99892.0,41.02,0
591105839,591105259,4028193,99893.0,41.02,0
592099510,592098930,4028193,99889.0,41.02,0
593093096,593092516,4028193,99892.0,41.02,0
594108335,594107755,4028193,99888.0,41.03,0
595101872,595101292,4028193,99891.0,41.02,0
596106254,596105673,4028193,99890.0,41.02,0
597099897,597099317,4028193,99895.0,41.02,0
598104263,598103681,4028193,99890.0,41.02,0
599097840,599097260,4028193,99893.0,41.02,0
600091452,600090872,4028193,99888.0,41.02,0
601106700,601106120,4028193,99888.0,41.02,0
602100265,602099684,4028193,99891.0,41.02,0
603104630,603104050,4028193,99889.0,41.01,0
604098252,604097672,4028193,99889.0,41.02,0
605102657,605102077,4028193,99888.0,41.02,0
606096259,606095678,4028193,99893.0,41.01,0
607111489,607110909,4028193,99894.0,41.01,0
608105049,608104469,4028193,99891.0,41.01,0
609109482,609108890,4028193,99888.0,41.0,0
610103107,610102527,4028193,99887.0,41.0,0
611107490,611106909,4028193,99890.0,41.0,0
612101082,612100502,4028193,99894.0,40.989998,0
613094636,613094056,4028193,99892.0,40.989998,0
614109861,614109280,4028193,99891.0,40.98,0
615103496,615102863,4028193,99894.0,40.989998,0
616107929,616107349,4028193,99890.0,40.98,0
617101465,617100884,4028193,99887.0,40.969997,0
618105863,618105282,4028193,99890.0,40.969997,0
619099475,619098894,4028193,99891.0,40.969997,0
620093075,620092495,4028193,99889.0,40.96,0
621108253,621107673,4028193,99887.0,40.96,0
622101843,622101263,4028193,99891.0,40.95,0
623106256,623105676,4028193,99886.0,40.95,0
624110695,624110115,4028193,99890.0,40.94,0
625104283,625103699,4028193,99887.0,40.93,0
626097894,626097297,4028193,99889.0,40.92,0
627091433,627090853,4028193,99893.0,40.92,0
628106629,628106049,4028193,99890.0,40.92,0
629100254,629099673,4028193,99886.0,40.91,0
630104662,630104082,4028193,99893.0,40.899998,0
631109062,631108482,4028193,99887.0,40.89,0
632102640,632102060,4028193,99890.0,40.89,0
633096295,633095714,4028193,99888.0,40.879997,0
634089858,634089278,4028193,99894.0,40.879997,0
635105064,635104484,4028193,99891.0,40.86,0
636109436,636108856,4028193,99892.0,40.85,0
637103055,637102475,4028193,99889.0,40.85,0
638107486,638106905,4028193,99891.0,40.84,0
639101130,639100550,4028193,99889.0,40.829998,0
640094722,640094142,4028193,99889.0,40.82,0
641109859,641109279,4028193,99884.0,40.809998,0
642103427,642102847,4028193,99887.0,40.809998,0
643107876,643107296,4028193,99888.0,40.8,0
644101433,644100853,4028193,99890.0,40.78,0
645105885,645105305,4028193,99889.0,40.78,0
646099448,646098868,4028193,99891.0,40.77,0
647093115,647092535,4028193,99891.0,40.76,0
648108292,648107706,4028193,99891.0,40.75,0
649101914,649101334,4028193,99889.0,40.739998,0
650106332,650105752,4028193,99893.0,40.73,0
651110694,651110114,4028193,99886.0,40.719997,0
652104265,652103673,4028193,99891.0,40.71,0
653097931,653097351,4028193,99889.0,40.7,0
654091498,654090918,4028193,99887.0,40.69,0
655106639,655106058,4028193,99891.0,40.68,0
656111175,656110584,4028193,99889.0,40.67,0
657104693,657104113,4028193,99891.0,40.66,0
658109046,658108466,4028193,99888.0,40.64,0
659102679,659102098,4028193,99893.0,40.64,0
660096253,660095673,4028193,99886.0,40.62,0
661089892,661089312,4028193,99891.0,40.61,0
662105044,662104464,4028193,99887.0,40.6,0
663109425,663108845,4028193,99887.0,40.59,0
664103058,664102474,4028193,99888.0,40.579998,0
665107474,665106894,4028193,99885.0,40.57,0
666101070,666100490,4028193,99886.0,40.559998,0
667094637,667094056,4028193,99894.0,40.54,0
668088271,668087690,4028193,99890.0,40.53,0
669103428,669102848,4028193,99889.0,40.52,0
670107841,670107261,4028193,99889.0,40.51,0
671101542,671100961,4028193,99889.0,40.489998,0
672105958,672105378,4028193,99889.0,40.48,0
673099449,673098869,4028193,99890.0,40.46,0
674093096,674092502,4028193,99891.0,40.46,0
675108254,675107673,4028193,99892.0,40.44,0
676101896,676101315,4028193,99890.0,40.43,0
677106107,677105527,4028193,99889.0,40.42,0
678099652,678099072,4028193,99892.0,40.399998,0
679104076,679103496,4028193,99890.0,40.39,0
680097662,680097082,4028193,99893.0,40.379997,0
681091254,681090673,4028193,99888.0,40.37,0
682106485,682105905,4028193,99888.0,40.35,0
683100114,683099534,4028193,99891.0,40.34,0
684104476,684103896,4028193,99890.0,40.329998,0
685108891,685108310,4028193,99894.0,40.309998,0
686102491,686101910,4028193,99887.0,40.3,0
687096120,687095540,4028193,99893.0,40.29,0
688089720,688089140,4028193,99887.0,40.27,0
689104895,689104315,4028193,99889.0,40.26,0
690109254,690108673,4028193,99894.0,40.239998,0
691102880,691102299,4028193,99892.0,40.23,0
692107274,692106694,4028193,99891.0,40.219997,0
693100894,693100313,4028193,99888.0,40.21,0
694094493,694093913,4028193,99888.0,40.19,0
695088107,695087519,4028193,99893.0,40.18,0
696103253,696102673,4028193,99889.0,40.16,0
697107655,697107075,4028193,99888.0,40.149998,0
698101252,698100672,4028193,99890.0,40.14,0
699105683,699105103,4028193,99890.0,40.12,0
700099319,700098739,4028193,99889.0,40.11,0
701092879,701092299,4028193,99890.0,40.09,0
702108131,702107543,4028193,99888.0,40.079998,0
703101675,703101095,4028193,99887.0,40.059998,0
704106253,704105673,4028193,99892.0,40.05,0
705110672,705110091,4028193,99887.0,40.03,0
706104263,706103683,4028193,99889.0,40.02,0
707097845,707097264,4028193,99886.0,40.01,0
708091483,708090902,4028193,99889.0,39.989998,0
709106689,709106109,4028193,99889.0,39.969997,0
710100277,710099697,4028193,99891.0,39.96,0
711104643,711104063,4028193,99887.0,39.95,0
712109047,712108467,4028193,99888.0,39.94,0
713102727,713102136,4028193,99894.0,39.92,0
714096261,714095681,4028193,99893.0,39.91,0
715089936,715089355,4028193,99896.0,39.899998,0
716105063,716104483,4028193,99892.0,39.879997,0
717109525,717108945,4028193,99886.0,39.86,0
718103183,718102603,4028193,99892.0,39.85,0
719107476,719106896,4028193,99891.0,39.84,0
720101047,720100467,4028193,99886.0,39.82,0
721094666,721094085,4028193,99892.0,39.809998,0
722109872,722109292,4028193,99889.0,39.79,0
723103443,723102859,4028193,99889.0,39.78,0
724107877,724107297,4028193,99887.0,39.77,0
725101461,725100881,4028193,99892.0,39.75,0
726105854,726105274,4028193,99890.0,39.739998,0
727099459,727098879,4028193,99889.0,39.73,0
728093053,728092473,4028193,99888.0,39.719997,0
729108268,729107673,4028193,99894.0,39.7,0
730101883,730101303,4028193,99891.0,39.69,0
731106252,731105672,4028193,99894.0,39.68,0
732110670,732110090,4028193,99893.0,39.66,0
733104254,733103674,4028193,99888.0,39.649998,0
734098117,734097536,4028193,99889.0,39.629997,0
735091759,735091179,4028193,99888.0,39.629997,0
736106980,736106380,4028193,99890.0,39.61,0
737100667,737100087,4028193,99891.0,39.6,0
738105060,738104480,4028193,99891.0,39.59,0
739109443,739108863,4028193,99887.0,39.579998,0
740103089,740102508,4028193,99888.0,39.559998,0
741096735,741096155,4028193,99891.0,39.55,0
742090297,742089672,4028193,99889.0,39.54,0
743105501,743104921,4028193,99889.0,39.53,0
744099087,744098507,4028193,99890.0,39.52,0
745103468,745102888,4028193,99896.0,39.51,0
746107856,746107276,4028193,99891.0,39.489998,0
747101478,747100898,4028193,99893.0,39.48,0
748095070,748094478,4028193,99897.0,39.48,0
749110267,749109687,4028193,99892.0,39.46,0
750103902,750103305,4028193,99890.0,39.45,0
751108252,751107672,4028193,99889.0,39.44,0
752101896,752101316,4028193,99889.0,39.43,0
753106265,753105685,4028193,99892.0,39.42,0
754099876,754099296,4028193,99890.0,39.41,0
755093473,755092890,4028193,99892.0,39.399998,0
756108633,756108052,4028193,99889.0,39.379997,0
757102253,757101673,4028193,99891.0,39.37,0
758106667,758106086,4028193,99888.0,39.36,0
759100278,759099698,4028193,99885.0,39.35,0
760104639,760104059,4028193,99888.0,39.34,0
761098285,761097704,4028193,99893.0,39.329998,0
762091859,762091279,4028193,99889.0,39.32,0
763107306,763106725,4028193,99895.0,39.309998,0
764100840,764100259,4028193,99889.0,39.3,0
765105252,765104672,4028193,99892.0,39.29,0
766109672,766109090,4028193,99889.0,39.28,0
767103274,767102679,4028193,99889.0,39.27,0
768096888,768096308,4028193,99887.0,39.26,0
769090459,769089877,4028193,99886.0,39.25,0
770105740,770105159,4028193,99889.0,39.239998,0
771110189,771109550,4028193,99890.0,39.23,0
772103742,772103153,4028193,99891.0,39.219997,0
773108083,773107503,4028193,99889.0,39.21,0
774101640,774101060,4028193,99889.0,39.2,0
775095255,775094674,4028193,99889.0,39.19,0
776088712,776088132,4028193,99886.0,39.18,0
777103836,777103255,4028193,99890.0,39.17,0
778108265,778107685,4028193,99890.0,39.16,0
779101883,779101303,4028193,99891.0,39.149998,0
780106190,780105610,4028193,99888.0,39.14,0
781099842,781099261,4028193,99885.0,39.129997,0
782093470,782092890,4028193,99892.0,39.12,0
783108632,783108051,4028193,99889.0,39.11,0
784102271,784101674,4028193,99886.0,39.1,0
785106667,785106087,4028193,99888.0,39.09,0
786100319,786099738,4028193,99890.0,39.079998,0
787104633,787104053,4028193,99886.0,39.07,0
788098291,788097711,4028193,99889.0,39.059998,0
789091895,789091315,4028193,99886.0,39.05,0
790107042,790106461,4028193,99889.0,39.04,0
791100631,791100050,4028193,99888.0,39.04,0
792105046,792104466,4028193,99895.0,39.02,0
793098641,793098060,4028193,99890.0,39.02,0
794103047,794102466,4028193,99891.0,39.01,0
795096636,795096056,4028193,99890.0,39.0,0
796090266,796089686,4028193,99891.0,38.989998,0
797105588,797105001,4028193,99889.0,38.98,0
798109855,798109259,4028193,99893.0,38.969997,0
799103490,799102909,4028193,99887.0,38.96,0
800107882,800107301,4028193,99889.0,38.96,0
801101450,801100870,4028193,99888.0,38.94,0
802095083,802094503,4028193,99889.0,38.93,0
803110253,803109673,4028193,99896.0,38.93,0
804103829,804103249,4028193,99888.0,38.92,0
805108254,805107672,4028193,99888.0,38.91,0
806101888,806101308,4028193,99889.0,38.89,0
807106286,807105706,4028193,99886.0,38.89,0
808099849,808099268,4028193,99888.0,38.879997,0
809093518,809092938,4028193,99894.0,38.87,0
810108732,810108152,4028193,99892.0,38.86,0
811102253,811101673,4028193,99887.0,38.85,0
812106661,812106062,4028193,99894.0,38.84,0
813111046,813110466,4028193,99889.0,38.829998,0
814104646,814104066,4028193,99893.0,38.82,0
815098254,815097673,4028193,99887.0,38.809998,0
816091885,816091305,4028193,99889.0,38.8,0
817107200,817106620,4028193,99893.0,38.79,0
818100709,818100128,4028193,99891.0,38.79,0
819105158,819104577,4028193,99891.0,38.77,0
820109509,820108928,4028193,99890.0,38.77,0
821103107,821102526,4028193,99890.0,38.76,0
822096645,822096065,4028193,99892.0,38.75,0
823090256,823089672,4028193,99888.0,38.739998,0
824105437,824104857,4028193,99894.0,38.73,0
825099045,825098464,4028193,99893.0,38.719997,0
826103426,826102846,4028193,99891.0,38.719997,0
827107858,827107278,4028193,99892.0,38.7,0
828101479,828100898,4028193,99891.0,38.69,0
829095058,829094478,4028193,99895.0,38.68,0
830110293,830109712,4028193,99892.0,38.68,0
831103861,831103281,4028193,99892.0,38.67,0
832108254,832107673,4028193,99896.0,38.66,0
833101905,833101325,4028193,99894.0,38.649998,0
834106280,834105699,4028193,99892.0,38.64,0
835099889,835099309,4028193,99890.0,38.629997,0
836093423,836092843,4028193,99896.0,38.62,0
837108636,837108056,4028193,99894.0,38.62,0
838102253,838101673,4028193,99891.0,38.6,0
839106628,839106048,4028193,99896.0,38.6,0
840100265,840099685,4028193,99891.0,38.579998,0
841104707,841104127,4028193,99900.0,38.579998,0
842098302,842097722,4028193,99888.0,38.559998,0
843091909,843091328,4028193,99894.0,38.559998,0
844107096,844106516,4028193,99889.0,38.54,0
845100709,845100129,4028193,99891.0,38.54,0
846105113,846104533,4028193,99887.0,38.53,0
847109506,847108926,4028193,99890.0,38.52,0
848103092,848102512,4028193,99889.0,38.5,0
849096658,849096065,4028193,99888.0,38.5,0
850090254,850089674,4028193,99892.0,38.489998,0
851105468,851104888,4028193,99890.0,38.469997,0
852109841,852109258,4028193,99891.0,38.46,0
853103432,853102852,4028193,99889.0,38.45,0
854107841,854107261,4028193,99894.0,38.44,0
855101490,855100910,4028193,99890.0,38.43,0
856095062,856094467,4028193,99888.0,38.42,0
857088671,857088091,4028193,99893.0,38.399998,0
858103842,858103262,4028193,99893.0,38.39,0
859108301,859107720,4028193,99887.0,38.379997,0
860101876,860101295,4028193,99891.0,38.37,0
861106309,861105729,4028193,99895.0,38.35,0
862099857,862099277,4028193,99886.0,38.34,0
863093606,863093026,4028193,99888.0,38.329998,0
864108978,864108397,4028193,99893.0,38.32,0
865102425,865101845,4028193,99894.0,38.3,0
866107048,866106468,4028193,99890.0,38.29,0
867100754,867100174,4028193,99891.0,38.28,0
868105323,868104743,4028193,99891.0,38.27,0
869098887,869098307,4028193,99889.0,38.26,0
870092463,870091883,4028193,99889.0,38.239998,0
871107689,871107109,4028193,99893.0,38.239998,0
872101311,872100731,4028193,99895.0,38.219997,0
873105695,873105114,4028193,99892.0,38.21,0
874099497,874098917,4028193,99893.0,38.2,0
875103878,875103298,4028193,99891.0,38.18,0
876097482,876096902,4028193,99890.0,38.17,0
877091052,877090471,4028193,99889.0,38.16,0
878106253,878105673,4028193,99889.0,38.149998,0
879110644,879110051,4028193,99889.0,38.14,0
880104279,880103699,4028193,99891.0,38.129997,0
881108632,881108052,4028193,99893.0,38.12,0
882102279,882101699,4028193,99891.0,38.11,0
883096054,883095474,4028193,99892.0,38.1,0
884089754,884089174,4028193,99893.0,38.09,0
885105081,885104501,4028193,99894.0,38.07,0
886109454,886108860,4028193,99894.0,38.07,0
887103083,887102503,4028193,99892.0,38.059998,0
888107443,888106862,4028193,99894.0,38.05,0
889101047,889100466,4028193,99895.0,38.04,0
890094708,890094115,4028193,99893.0,38.03,0
891088288,891087708,4028193,99890.0,38.02,0
892103428,892102848,4028193,99887.0,38.01,0
893107849,893107269,4028193,99894.0,37.989998,0
894101490,894100910,4028193,99889.0,37.98,0
895105875,895105295,4028193,99895.0,37.98,0
896099486,896098906,4028193,99888.0,37.969997,0
897093060,897092479,4028193,99893.0,37.96,0
898108355,898107775,4028193,99893.0,37.95,0
899101992,899101399,4028193,99892.0,37.94,0
900106364,900105783,4028193,99892.0,37.93,0
901110672,901110092,4028193,99892.0,37.92,0
902104276,902103695,4028193,99897.0,37.92,0
903097912,903097331,4028193,99891.0,37.899998,0
904091425,904090845,4028193,99894.0,37.899998,0
905106629,905106049,4028193,99893.0,37.89,0
906100252,906099672,4028193,99895.0,37.879997,0
907104642,907104062,4028193,99889.0,37.87,0
908109060,908108480,4028193,99890.0,37.86,0
909102640,909102060,4028193,99890.0,37.86,0
910096253,910095672,4028193,99890.0,37.85,0
911089843,911089263,4028193,99891.0,37.84,0
912105046,912104466,4028193,99893.0,37.84,0
913109450,913108870,4028193,99892.0,37.829998,0
914103046,914102466,4028193,99889.0,37.82,0
915107468,915106887,4028193,99894.0,37.82,0
916101048,916100467,4028193,99890.0,37.809998,0
917094681,917094101,4028193,99892.0,37.809998,0
918109914,918109334,4028193,99893.0,37.8,0
919103423,919102843,4028193,99890.0,37.79,0
920107980,920107400,4028193,99889.0,37.78,0
921101696,921101115,4028193,99890.0,37.78,0
922106081,922105501,4028193,99888.0,37.77,0
923099632,923099051,4028193,99889.0,37.77,0
924093272,924092691,4028193,99888.0,37.76,0
925108486,925107905,4028193,99892.0,37.76,0
926102132,926101552,4028193,99890.0,37.75,0
927106488,927105908,4028193,99893.0,37.75,0
928100123,928099542,4028193,99895.0,37.739998,0
929104536,929103955,4028193,99890.0,37.739998,0
930098358,930097778,4028193,99893.0,37.739998,0
931092080,931091500,4028193,99889.0,37.73,0
932107291,932106710,4028193,99891.0,37.73,0
933100837,933100256,4028193,99893.0,37.73,0
934105332,934104697,4028193,99892.0,37.719997,0
935109733,935109153,4028193,99890.0,37.719997,0
936103522,936102942,4028193,99893.0,37.719997,0
937097253,937096673,4028193,99892.0,37.71,0
938091086,938090506,4028193,99893.0,37.71,0
939106253,939105673,4028193,99887.0,37.71,0
940099840,940099260,4028193,99892.0,37.7,0
941104253,941103673,4028193,99893.0,37.7,0
942108632,942108051,4028193,99890.0,37.69,0
943102263,943101684,4028193,99892.0,37.69,0
944095913,944095332,4028193,99896.0,37.69,0
945089510,945088930,4028193,99889.0,37.69,0
946104716,946104136,4028193,99889.0,37.69,0
947098253,947097673,4028193,99892.0,37.68,0
948102663,948102082,4028193,99890.0,37.68,0
949107171,949106590,4028193,99891.0,37.68,0
950100696,950100116,4028193,99891.0,37.68,0
951094299,951093719,4028193,99894.0,37.68,0
952109477,952108897,4028193,99893.0,37.68,0
953103097,953102517,4028193,99892.0,37.68,0
954107524,954106944,4028193,99893.0,37.67,0
955101082,955100502,4028193,99893.0,37.67,0
956105436,956104857,4028193,99889.0,37.67,0
957099068,957098488,4028193,99889.0,37.67,0
958092644,958092063,4028193,99891.0,37.67,0
959107838,959107257,4028193,99888.0,37.67,0
960101451,960100871,4028193,99888.0,37.67,0
961105945,961105365,4028193,99892.0,37.67,0
962099679,962099098,4028193,99897.0,37.67,0
963104078,963103496,4028193,99892.0,37.67,0
964097661,964097081,4028193,99893.0,37.67,0
965091265,965090685,4028193,99891.0,37.67,0
966106650,966106069,4028193,99899.0,37.67,0
967111275,967110694,4028193,99897.0,37.67,0
968104870,968104290,4028193,99891.0,37.68,0
969109266,969108686,4028193,99891.0,37.67,0
970103074,970102494,4028193,99889.0,37.68,0
971096708,971096128,4028193,99891.0,37.68,0
972090253,972089673,4028193,99894.0,37.68,0
973105434,973104854,4028193,99890.0,37.68,0
974109879,974109299,4028193,99896.0,37.68,0
975103445,975102865,4028193,99889.0,37.68,0
976107865,976107284,4028193,99890.0,37.68,0
977101449,977100865,4028193,99895.0,37.68,0
978095146,978094566,4028193,99891.0,37.68,0
979088706,979088126,4028193,99892.0,37.68,0
980104080,980103500,4028193,99894.0,37.69,0
981108637,981108057,4028193,99894.0,37.69,0
982102339,982101759,4028193,99892.0,37.69,0
983106666,983106086,4028193,99891.0,37.69,0
984100253,984099673,4028193,99894.0,37.69,0
985093840,985093259,4028193,99895.0,37.69,0
986109151,986108571,4028193,99889.0,37.69,0
987102844,987102264,4028193,99892.0,37.69,0
988107474,988106894,4028193,99889.0,37.69,0
989101328,989100681,4028193,99890.0,37.7,0
990105664,990105084,4028193,99893.0,37.7,0
991099305,991098725,4028193,99894.0,37.7,0
992092929,992092349,4028193,99892.0,37.7,0
993108099,993107518,4028193,99893.0,37.71,0
994101788,994101208,4028193,99894.0,37.71,0
995106272,995105691,4028193,99890.0,37.71,0
996099875,996099295,4028193,99891.0,37.71,0
997104300,997103720,4028193,99890.0,37.71,0
998098190,998097610,4028193,99890.0,37.719997,0
999091869,999091289,4028193,99891.0,37.719997,0
1000107095,1000106514,4028193,99890.0,37.719997,0
1001100705,1001100125,4028193,99894.0,37.719997,0
1002105068,1002104488,4028193,99892.0,37.719997,0
1003098711,1003098121,4028193,99891.0,37.73,0
1004103087,1004102506,4028193,99894.0,37.73,0
1005096701,1005096120,4028193,99894.0,37.73,0
1006090314,1006089734,4028193,99891.0,37.73,0
1007105435,1007104855,4028193,99892.0,37.73,0
1008109854,1008109274,4028193,99897.0,37.739998,0
1009103461,1009102880,4028193,99893.0,37.739998,0
1010107846,1010107266,4028193,99889.0,37.739998,0
1011101457,1011100877,4028193,99892.0,37.739998,0
1012095081,1012094501,4028193,99892.0,37.739998,0
1013110424,1013109844,4028193,99890.0,37.739998,0
1014104131,1014103550,4028193,99891.0,37.75,0
1015108454,1015107863,4028193,99896.0,37.739998,0
1016102048,1016101468,4028193,99890.0,37.75,0
1017106457,1017105877,4028193,99892.0,37.76,0
1018100047,1018099466,4028193,99896.0,37.76,0
1019093656,1019093076,4028193,99891.0,37.76,0
1020108891,1020108311,4028193,99893.0,37.76,0
1021102486,1021101905,4028193,99891.0,37.76,0
1022106925,1022106344,4028193,99893.0,37.76,0
1023111264,1023110684,4028193,99893.0,37.77,0
1024104907,1024104327,4028193,99891.0,37.77,0
1025098522,1025097942,4028193,99889.0,37.78,0
1026092047,1026091467,4028193,99890.0,37.78,0
1027107253,1027106673,4028193,99890.0,37.78,0
1028100884,1028100304,4028193,99893.0,37.78,0
1029105253,1029104673,4028193,99893.0,37.79,0
1030109675,1030109095,4028193,99893.0,37.79,0
1031103260,1031102680,4028193,99896.0,37.79,0
1032096887,1032096307,4028193,99893.0,37.8,0
1033090446,1033089865,4028193,99890.0,37.8,0
1034105665,1034105084,4028193,99898.0,37.809998,0
1035099278,1035098698,4028193,99888.0,37.809998,0
1036103730,1036103150,4028193,99890.0,37.82,0
1037108121,1037107541,4028193,99888.0,37.82,0
1038101669,1038101089,4028193,99889.0,37.829998,0
1039095273,1039094690,4028193,99890.0,37.829998,0
1040110495,1040109915,4028193,99900.0,37.84,0
1041104115,1041103535,4028193,99899.0,37.84,0
1042108513,1042107933,4028193,99894.0,37.85,0
1043102119,1043101539,4028193,99891.0,37.85,0
1044106695,1044106114,4028193,99897.0,37.86,0
1045100253,1045099673,4028193,99893.0,37.87,0
1046094078,1046093497,4028193,99892.0,37.87,0
1047109283,1047108703,4028193,99899.0,37.87,0
1048102851,1048102271,4028193,99899.0,37.879997,0
1049107316,1049106736,4028193,99900.0,37.879997,0
1050100842,1050100261,4028193,99901.0,37.89,0
1051105296,1051104706,4028193,99898.0,37.899998,0
1052098904,1052098324,4028193,99899.0,37.899998,0
1053092651,1053092067,4028193,99900.0,37.91,0
1054107836,1054107256,4028193,99903.0,37.92,0
1055101439,1055100857,4028193,99903.0,37.92,0
1056105840,1056105260,4028193,99900.0,37.93,0
1057110308,1057109720,4028193,99899.0,37.93,0
1058103843,1058103261,4028193,99903.0,37.94,0
1059097666,1059097086,4028193,99899.0,37.96,0
1060091349,1060090759,4028193,99894.0,37.96,0
1061106675,1061106094,4028193,99898.0,37.969997,0
1062111076,1062110496,4028193,99898.0,37.969997,0
1063104668,1063104088,4028193,99899.0,37.98,0
1064109046,1064108466,4028193,99895.0,37.989998,0
1065102656,1065102073,4028193,99898.0,38.0,0
1066096272,1066095691,4028193,99906.0,38.01,0
1067089905,1067089325,4028193,99902.0,38.02,0
1068105079,1068104462,4028193,99900.0,38.03,0
1069109436,1069108855,4028193,99902.0,38.04,0
1070103069,1070102488,4028193,99904.0,38.04,0
1071107511,1071106931,4028193,99901.0,38.05,0
1072101120,1072100540,4028193,99899.0,38.07,0
1073094639,1073094059,4028193,99902.0,38.07,0
1074088274,1074087687,4028193,99897.0,38.09,0
1075103425,1075102845,4028193,99902.0,38.1,0
1076107876,1076107296,4028193,99898.0,38.11,0
1077101478,1077100897,4028193,99898.0,38.12,0
1078105841,1078105260,4028193,99904.0,38.12,0
1079099508,1079098928,4028193,99895.0,38.14,0
1080093085,1080092505,4028193,99897.0,38.14,0
1081108253,1081107673,4028193,99904.0,38.149998,0
1082101881,1082101301,4028193,99900.0,38.17,0
1083106289,1083105708,4028193,99895.0,38.18,0
1084099837,1084099257,4028193,99901.0,38.19,0
1085104254,1085103673,4028193,99893.0,38.2,0
1086097854,1086097274,4028193,99901.0,38.21,0
1087091435,1087090855,4028193,99895.0,38.219997,0
1088106639,1088106058,4028193,99895.0,38.23,0
1089111099,1089110519,4028193,99903.0,38.239998,0
1090104682,1090104102,4028193,99905.0,38.26,0
1091109076,1091108496,4028193,99902.0,38.27,0
1092102641,1092102060,4028193,99902.0,38.28,0
1093096308,1093095727,4028193,99899.0,38.3,0
1094089927,1094089347,4028193,99900.0,38.309998,0
1095105095,1095104515,4028193,99901.0,38.32,0
1096109484,1096108904,4028193,99893.0,38.329998,0
1097103086,1097102506,4028193,99900.0,38.35,0
1098107440,1098106859,4028193,99898.0,38.36,0
1099101107,1099100526,4028193,99901.0,38.37,0
1100094658,1100094078,4028193,99900.0,38.39,0
1101088301,1101087721,4028193,99903.0,38.399998,0
1102103509,1102102929,4028193,99902.0,38.42,0
1103107842,1103107261,4028193,99901.0,38.43,0
1104101499,1104100919,4028193,99898.0,38.44,0
1105105943,1105105363,4028193,99900.0,38.46,0
1106099450,1106098870,4028193,99889.0,38.469997,0
1107093079,1107092499,4028193,99900.0,38.48,0
1108108257,1108107677,4028193,99903.0,38.5,0
1109101843,1109101262,4028193,99901.0,38.52,0
1110106253,1110105673,4028193,99885.0,38.53,0
1111099893,1111099313,4028193,99958.0,38.55,0
1112104255,1112103674,4028193,99905.0,38.57,0
1113097882,1113097302,4028193,99886.0,38.579998,0
1114091478,1114090897,4028193,99885.0,38.6,0
1115106642,1115106062,4028193,99916.0,38.62,0
1116100309,1116099729,4028193,99884.0,38.64,0
1117104631,1117104050,4028193,99852.0,38.649998,0
1118109046,1118108465,4028193,99898.0,38.67,0
1119102671,1119102090,4028193,99878.0,38.69,0
1120096335,1120095755,4028193,99842.0,38.7,0
1121089888,1121089308,4028193,99820.0,38.719997,0
1122105075,1122104495,4028193,99792.0,38.739998,0
1123109486,1123108905,4028193,99769.0,38.76,0
1124103059,1124102478,4028193,99756.0,38.77,0
1125107475,1125106894,4028193,99735.0,38.79,0
1126101062,1126100466,4028193,99722.0,38.809998,0
1127094672,1127094091,4028193,99707.0,38.829998,0
1128109886,1128109306,4028193,99694.0,38.85,0
1129103589,1129103009,4028193,99693.0,38.86,0
1130107893,1130107313,4028193,99669.0,38.879997,0
1131101754,1131101173,4028193,99673.0,38.899998,0
1132106468,1132105887,4028193,99660.0,38.93,0
1133100307,1133099726,4028193,99646.0,38.95,0
1134093876,1134093296,4028193,99635.0,38.969997,0
1135109047,1135108466,4028193,99617.0,38.989998,0
1136102631,1136102051,4028193,99609.0,39.01,0
1137107121,1137106541,4028193,99589.0,39.02,0
1138100667,1138100087,4028193,99584.0,39.04,0
1139105047,1139104467,4028193,99555.0,39.059998,0
1140098638,1140098058,4028193,99553.0,39.079998,0
1141092288,1141091708,4028193,99556.0,39.1,0
1142107424,1142106844,4028193,99556.0,39.12,0
1143101074,1143100493,4028193,99544.0,39.129997,0
1144105477,1144104897,4028193,99527.0,39.149998,0
1145109919,1145109339,4028193,99520.0,39.16,0
1146103432,1146102852,4028193,99528.0,39.18,0
1147097081,1147096501,4028193,99530.0,39.2,0
1148090657,1148090076,4028193,99534.0,39.21,0
1149105859,1149105279,4028193,99527.0,39.23,0
1150099442,1150098862,4028193,99507.0,39.239998,0
1151103954,1151103374,4028193,99514.0,39.26,0
1152108317,1152107737,4028193,99508.0,39.27,0
1153101859,1153101279,4028193,99511.0,39.29,0
1154095425,1154094845,4028193,99513.0,39.3,0
1155089047,1155088467,4028193,99526.0,39.32,0
1156104257,1156103677,4028193,99547.0,39.329998,0
1157108661,1157108081,4028193,99564.0,39.34,0
1158102254,1158101674,4028193,99594.0,39.36,0
1159106736,1159106156,4028193,99606.0,39.37,0
1160100267,1160099673,4028193,99620.0,39.379997,0
1161093864,1161093282,4028193,99646.0,39.39,0
1162109061,1162108481,4028193,99660.0,39.41,0
1163102687,1163102106,4028193,99667.0,39.42,0
1164107094,1164106513,4028193,99678.0,39.44,0
1165100675,1165100095,4028193,99694.0,39.45,0
1166105158,1166104577,4028193,99720.0,39.469997,0
1167098635,1167098055,4028193,99729.0,39.48,0
1168092302,1168091716,4028193,99722.0,39.5,0
1169107429,1169106848,4028193,99723.0,39.51,0
1170101092,1170100511,4028193,99740.0,39.52,0
1171105537,1171104956,4028193,99749.0,39.54,0
1172099145,1172098564,4028193,99769.0,39.559998,0
1173103431,1173102850,4028193,99787.0,39.57,0
1174097047,1174096466,4028193,99785.0,39.579998,0
1175090669,1175090089,4028193,99786.0,39.59,0
1176105856,1176105276,4028193,99783.0,39.61,0
1177110276,1177109696,4028193,99780.0,39.62,0
1178103893,1178103312,4028193,99778.0,39.64,0
1179108253,1179107673,4028193,99770.0,39.649998,0
1180101850,1180101270,4028193,99774.0,39.67,0
1181095438,1181094858,4028193,99765.0,39.68,0
1182089046,1182088466,4028193,99770.0,39.7,0
1183104272,1183103692,4028193,99772.0,39.71,0
1184108670,1184108089,4028193,99761.0,39.719997,0
1185102309,1185101729,4028193,99749.0,39.739998,0
1186106637,1186106057,4028193,99730.0,39.75,0
1187100254,1187099673,4028193,99728.0,39.77,0
1188093865,1188093283,4028193,99733.0,39.79,0
1189109050,1189108470,4028193,99740.0,39.8,0
1190102671,1190102090,4028193,99741.0,39.809998,0
1191107135,1191106555,4028193,99750.0,39.829998,0
1192100664,1192100084,4028193,99735.0,39.84,0
1193105294,1193104714,4028193,99740.0,39.86,0
1194098888,1194098308,4028193,99736.0,39.86,0
1195092657,1195092077,4028193,99747.0,39.879997,0
1196107885,1196107304,4028193,99732.0,39.899998,0
1197101459,1197100879,4028193,99735.0,39.899998,0
1198105868,1198105287,4028193,99735.0,39.92,0
1199099572,1199098991,4028193,99736.0,39.93,0
1200103923,1200103342,4028193,99731.0,39.94,0
1201097453,1201096873,4028193,99747.0,39.95,0
1202091049,1202090469,4028193,99742.0,39.969997,0
1203106293,1203105713,4028193,99740.0,39.98,0
1204099856,1204099276,4028193,99728.0,39.989998,0
1205104275,1205103695,4028193,99726.0,40.0,0
1206108650,1206108070,4028193,99727.0,40.01,0
1207102256,1207101676,4028193,99722.0,40.01,0
1208095841,1208095260,4028193,99715.0,40.03,0
1209111046,1209110466,4028193,99716.0,40.04,0
1210104687,1210104093,4028193,99724.0,40.04,0
1211109050,1211108469,4028193,99726.0,40.05,0
1212102670,1212102090,4028193,99728.0,40.07,0
1213107085,1213106504,4028193,99747.0,40.07,0
1214100631,1214100051,4028193,99749.0,40.079998,0
1215094253,1215093673,4028193,99750.0,40.09,0
1216109513,1216108933,4028193,99753.0,40.1,0
1217103043,1217102462,4028193,99763.0,40.11,0
1218107483,1218106902,4028193,99767.0,40.11,0
1219101051,1219100471,4028193,99770.0,40.129997,0
1220105438,1220104858,4028193,99767.0,40.129997,0
1221099061,1221098480,4028193,99775.0,40.14,0
1222092702,1222092069,4028193,99788.0,40.149998,0
1223107856,1223107276,4028193,99791.0,40.16,0
1224101459,1224100878,4028193,99802.0,40.17,0
1225105848,1225105268,4028193,99806.0,40.18,0
1226110253,1226109673,4028193,99809.0,40.18,0
1227103877,1227103297,4028193,99809.0,40.19,0
1228097435,1228096855,4028193,99805.0,40.2,0
1229091094,1229090514,4028193,99806.0,40.21,0
1230106268,1230105688,4028193,99799.0,40.21,0
1231099837,1231099256,4028193,99797.0,40.219997,0
1232104253,1232103673,4028193,99795.0,40.23,0
1233108686,1233108106,4028193,99791.0,40.23,0
1234102252,1234101672,4028193,99799.0,40.239998,0
1235095898,1235095318,4028193,99793.0,40.25,0
1236089470,1236088890,4028193,99796.0,40.25,0
1237104642,1237104061,4028193,99792.0,40.26,0
1238109050,1238108470,4028193,99804.0,40.28,0
1239102664,1239102083,4028193,99797.0,40.27,0
1240107298,1240106718,4028193,99805.0,40.28,0
1241100927,1241100347,4028193,99806.0,40.29,0
1242094515,1242093935,4028193,99802.0,40.29,0
1243109841,1243109261,4028193,99784.0,40.3,0
1244103439,1244102859,4028193,99790.0,40.309998,0
1245107874,1245107294,4028193,99778.0,40.309998,0
1246101468,1246100888,4028193,99764.0,40.32,0
1247105870,1247105289,4028193,99746.0,40.32,0
1248099464,1248098884,4028193,99743.0,40.329998,0
1249093276,1249092674,4028193,99738.0,40.329998,0
1250108461,1250107880,4028193,99747.0,40.34,0
1251102092,1251101512,4028193,99749.0,40.34,0
1252106458,1252105878,4028193,99730.0,40.35,0
1253100045,1253099465,4028193,99723.0,40.36,0
1254104477,1254103897,4028193,99719.0,40.36,0
1255098116,1255097472,4028193,99736.0,40.36,0
1256091743,1256091162,4028193,99740.0,40.37,0
1257106917,1257106280,4028193,99723.0,40.37,0
1258100495,1258099914,4028193,99681.0,40.37,0
1259104892,1259104311,4028193,99677.0,40.379997,0
1260109290,1260108710,4028193,99690.0,40.39,0
1261102944,1261102300,4028193,99696.0,40.39,0
1262096487,1262095907,4028193,99709.0,40.39,0
1263090066,1263089486,4028193,99729.0,40.39,0
1264105254,1264104673,4028193,99749.0,40.399998,0
1265109643,1265109063,4028193,99751.0,40.399998,0
1266103291,1266102711,4028193,99775.0,40.41,0
1267107680,1267107100,4028193,99751.0,40.41,0
1268101262,1268100682,4028193,99749.0,40.41,0
1269094896,1269094315,4028193,99745.0,40.41,0
1270088472,1270087878,4028193,99763.0,40.43,0
1271103657,1271103077,4028193,99759.0,40.43,0
1272108094,1272107514,4028193,99760.0,40.43,0
1273101704,1273101124,4028193,99738.0,40.44,0
1274106105,1274105512,4028193,99729.0,40.45,0
1275099671,1275099091,4028193,99695.0,40.44,0
1276093279,1276092699,4028193,99679.0,40.45,0
1277108453,1277107873,4028193,99667.0,40.46,0
1278102253,1278101673,4028193,99649.0,40.46,0
1279106657,1279106077,4028193,99646.0,40.46,0
1280100252,1280099672,4028193,99650.0,40.469997,0
1281104693,1281104113,4028193,99631.0,40.48,0
1282098255,1282097675,4028193,99621.0,40.48,0
1283091841,1283091261,4028193,99639.0,40.48,0
1284107070,1284106486,4028193,99650.0,40.489998,0
1285100690,1285100109,4028193,99649.0,40.489998,0
1286105079,1286104499,4028193,99653.0,40.5,0
1287098632,1287098052,4028193,99642.0,40.5,0
1288103096,1288102516,4028193,99654.0,40.51,0
1289096632,1289096052,4028193,99664.0,40.51,0
1290090282,1290089702,4028193,99664.0,40.51,0
1291105513,1291104933,4028193,99659.0,40.52,0
1292109879,1292109299,4028193,99661.0,40.53,0
1293103465,1293102872,4028193,99683.0,40.53,0
1294107877,1294107296,4028193,99686.0,40.53,0
1295101432,1295100852,4028193,99705.0,40.53,0
1296095063,1296094483,4028193,99713.0,40.54,0
1297088645,1297088065,4028193,99696.0,40.54,0
1298103851,1298103267,4028193,99688.0,40.55,0
1299108253,1299107673,4028193,99678.0,40.54,0
1300101837,1300101257,4028193,99692.0,40.55,0
1301106257,1301105677,4028193,99693.0,40.55,0
1302099908,1302099314,4028193,99707.0,40.559998,0
1303093474,1303092894,4028193,99710.0,40.559998,0
1304108693,1304108112,4028193,99725.0,40.57,0
1305102255,1305101675,4028193,99727.0,40.57,0
1306106631,1306106051,4028193,99733.0,40.57,0
1307111060,1307110468,4028193,99748.0,40.579998,0
1308104673,1308104092,4028193,99750.0,40.57,0
1309098290,1309097710,4028193,99751.0,40.579998,0
1310091854,1310091274,4028193,99765.0,40.59,0
1311107089,1311106509,4028193,99781.0,40.59,0
1312100869,1312100289,4028193,99777.0,40.59,0
1313105338,1313104758,4028193,99765.0,40.59,0
1314109847,1314109267,4028193,99767.0,40.6,0
1315103441,1315102857,4028193,99761.0,40.6,0
1316097105,1316096525,4028193,99752.0,40.61,0
1317090670,1317090089,4028193,99742.0,40.61,0
1318105878,1318105298,4028193,99746.0,40.61,0
1319099428,1319098848,4028193,99740.0,40.62,0
1320103868,1320103273,4028193,99730.0,40.62,0
1321108263,1321107683,4028193,99731.0,40.62,0
1322101874,1322101293,4028193,99735.0,40.629997,0
1323095485,1323094905,4028193,99732.0,40.629997,0
1324110705,1324110124,4028193,99748.0,40.629997,0
1325104253,1325103673,4028193,99761.0,40.64,0
1326108665,1326108085,4028193,99755.0,40.64,0
1327102254,1327101673,4028193,99764.0,40.64,0
1328106677,1328106097,4028193,99775.0,40.64,0
1329100335,1329099755,4028193,99778.0,40.64,0
1330093859,1330093269,4028193,99773.0,40.649998,0
1331109046,1331108466,4028193,99768.0,40.649998,0
1332102654,1332102074,4028193,99766.0,40.649998,0
1333107048,1333106468,4028193,99777.0,40.66,0
1334100633,1334100052,4028193,99783.0,40.66,0
1335105061,1335104481,4028193,99790.0,40.67,0
1336098639,1336098059,4028193,99787.0,40.67,0
1337092264,1337091684,4028193,99785.0,40.68,0
1338107457,1338106877,4028193,99792.0,40.68,0
1339101090,1339100509,4028193,99802.0,40.68,0
1340105551,1340104951,4028193,99792.0,40.69,0
1341109893,1341109306,4028193,99798.0,40.69,0
1342103432,1342102851,4028193,99794.0,40.7,0
1343097082,1343096501,4028193,99791.0,40.7,0
1344090637,1344090051,4028193,99791.0,40.71,0
1345105876,1345105296,4028193,99808.0,40.71,0
1346099425,1346098844,4028193,99809.0,40.719997,0
1347103873,1347103288,4028193,99791.0,40.719997,0
1348108292,1348107711,4028193,99775.0,40.73,0
1349101863,1349101283,4028193,99766.0,40.73,0
1350095457,1350094877,4028193,99761.0,40.73,0
1351089090,1351088510,4028193,99730.0,40.739998,0
1352104256,1352103675,4028193,99722.0,40.739998,0
1353098167,1353097586,4028193,99725.0,40.75,0
1354102501,1354101921,4028193,99734.0,40.75,0
1355106860,1355106280,4028193,99733.0,40.75,0
1356100464,1356099884,4028193,99698.0,40.76,0
1357094083,1357093503,4028193,99679.0,40.76,0
1358109315,1358108735,4028193,99688.0,40.76,0
1359102887,1359102307,4028193,99713.0,40.77,0
1360107583,1360107003,4028193,99728.0,40.76,0
1361101253,1361100673,4028193,99753.0,40.77,0
1362105707,1362105127,4028193,99775.0,40.78,0
1363099253,1363098673,4028193,99783.0,40.78,0
1364092858,1364092278,4028193,99801.0,40.78,0
1365108043,1365107463,4028193,99802.0,40.79,0
1366101663,1366101082,4028193,99803.0,40.79,0
1367106076,1367105496,4028193,99811.0,40.8,0
1368099717,1368099136,4028193,99826.0,40.8,0
1369104076,1369103496,4028193,99834.0,40.809998,0
1370097653,1370097073,4028193,99852.0,40.809998,0
1371091254,1371090673,4028193,99855.0,40.82,0
1372106466,1372105885,4028193,99871.0,40.82,0
1373110879,1373110299,4028193,99897.0,40.829998,0
1374104519,1374103931,4028193,99897.0,40.84,0
1375108875,1375108295,4028193,99907.0,40.84,0
1376102424,1376101844,4028193,99901.0,40.85,0
1377096083,1377095502,4028193,99908.0,40.85,0
1378089644,1378089063,4028193,99910.0,40.86,0
1379105000,1379104409,4028193,99942.0,40.86,0
1380109439,1380108858,4028193,99900.0,40.87,0
1381103096,1381102516,4028193,99907.0,40.879997,0
1382107426,1382106846,4028193,99901.0,40.879997,0
1383101058,1383100478,4028193,99904.0,40.89,0
1384094689,1384094108,4028193,99909.0,40.89,0
1385088270,1385087689,4028193,99906.0,40.899998,0
1386103475,1386102895,4028193,99912.0,40.91,0
1387107857,1387107276,4028193,99907.0,40.91,0
1388101425,1388100845,4028193,99911.0,40.91,0
1389105860,1389105280,4028193,99909.0,40.92,0
1390099501,1390098921,4028193,99908.0,40.93,0
1391093057,1391092477,4028193,99914.0,40.93,0
1392108280,1392107700,4028193,99910.0,40.94,0
1393101872,1393101292,4028193,99907.0,40.95,0
1394106255,1394105674,4028193,99910.0,40.95,0
1395099844,1395099264,4028193,99908.0,40.96,0
1396104339,1396103758,4028193,99907.0,40.96,0
1397097921,1397097341,4028193,99906.0,40.969997,0
1398091479,1398090894,4028193,99906.0,40.969997,0
1399106763,1399106183,4028193,99908.0,40.98,0
1400100252,1400099672,4028193,99912.0,40.989998,0
1401104678,1401104098,4028193,99909.0,40.989998,0
1402098262,1402097682,4028193,99909.0,41.0,0
1403102631,1403102050,4028193,99909.0,41.0,0
1404096271,1404095691,4028193,99910.0,41.01,0
1405111456,1405110876,4028193,99904.0,41.01,0
1406105077,1406104497,4028193,99912.0,41.02,0
1407109461,1407108881,4028193,99907.0,41.03,0
1408103071,1408102491,4028193,99910.0,41.03,0
1409107452,1409106872,4028193,99904.0,41.03,0
1410101087,1410100504,4028193,99903.0,41.04,0
1411094650,1411094070,4028193,99908.0,41.05,0
1412109912,1412109332,4028193,99912.0,41.059998,0
1413103538,1413102958,4028193,99914.0,41.059998,0
1414107837,1414107257,4028193,99910.0,41.07,0
1415101455,1415100875,4028193,99904.0,41.07,0
1416105843,1416105262,4028193,99906.0,41.079998,0
1417099485,1417098904,4028193,99908.0,41.09,0
1418093128,1418092548,4028193,99911.0,41.09,0
1419108305,1419107724,4028193,99910.0,41.1,0
1420101845,1420101265,4028193,99914.0,41.11,0
1421106260,1421105679,4028193,99912.0,41.11,0
1422110798,1422110218,4028193,99913.0,41.12,0
1423104295,1423103714,4028193,99907.0,41.12,0
1424097934,1424097353,4028193,99904.0,41.129997,0
1425091445,1425090864,4028193,99911.0,41.14,0
1426106629,1426106049,4028193,99909.0,41.149998,0
1427100264,1427099684,4028193,99908.0,41.149998,0
1428104754,1428104174,4028193,99912.0,41.16,0
1429109105,1429108525,4028193,99911.0,41.17,0
1430102667,1430102086,4028193,99908.0,41.17,0
1431096254,1431095674,4028193,99912.0,41.18,0
1432089865,1432089285,4028193,99913.0,41.19,0
1433105043,1433104463,4028193,99912.0,41.19,0
1434098689,1434098109,4028193,99906.0,41.2,0
1435103059,1435102479,4028193,99912.0,41.2,0
1436107433,1436106845,4028193,99914.0,41.21,0
1437101074,1437100493,4028193,99909.0,41.219997,0
1438094715,1438094135,4028193,99916.0,41.23,0
1439109895,1439109314,4028193,99910.0,41.23,0
1440103442,1440102858,4028193,99912.0,41.239998,0
1441107875,1441107295,4028193,99910.0,41.239998,0
1442101513,1442100932,4028193,99909.0,41.26,0
1443105921,1443105341,4028193,99910.0,41.26,0
1444099509,1444098928,4028193,99911.0,41.27,0
1445093048,1445092469,4028193,99909.0,41.28,0
1446108254,1446107674,4028193,99906.0,41.28,0
1447101873,1447101293,4028193,99908.0,41.29,0
1448106281,1448105701,4028193,99912.0,41.29,0
1449099891,1449099311,4028193,99909.0,41.3,0
1450104253,1450103673,4028193,99911.0,41.309998,0
1451097859,1451097279,4028193,99911.0,41.32,0
1452091523,1452090943,4028193,99911.0,41.32,0
1453106711,1453106126,4028193,99906.0,41.329998,0
1454111069,1454110489,4028193,99913.0,41.34,0
1455104668,1455104087,4028193,99911.0,41.34,0
1456109047,1456108467,4028193,99913.0,41.35,0
1457102656,1457102076,4028193,99915.0,41.36,0
1458096252,1458095672,4028193,99912.0,41.37,0
1459089881,1459089301,4028193,99913.0,41.37,0
1460105044,1460104464,4028193,99911.0,41.379997,0
1461109461,1461108881,4028193,99908.0,41.39,0
1462103058,1462102478,4028193,99910.0,41.39,0
1463107520,1463106940,4028193,99911.0,41.399998,0
1464101095,1464100515,4028193,99915.0,41.41,0
1465094679,1465094099,4028193,99914.0,41.41,0
1466088320,1466087725,4028193,99909.0,41.42,0
1467103481,1467102899,4028193,99905.0,41.42,0
1468107931,1468107291,4028193,99916.0,41.43,0
1469101505,1469100924,4028193,99906.0,41.44,0
1470105850,1470105270,4028193,99908.0,41.44,0
1471099453,1471098873,4028193,99919.0,41.45,0
1472093135,1472092555,4028193,99914.0,41.46,0
1473108273,1473107693,4028193,99911.0,41.46,0
1474101895,1474101315,4028193,99909.0,41.469997,0
1475106267,1475105686,4028193,99910.0,41.48,0
1476099890,1476099310,4028193,99918.0,41.489998,0
1477104298,1477103717,4028193,99911.0,41.489998,0
1478097869,1478097288,4028193,99909.0,41.489998,0
1479091483,1479090902,4028193,99910.0,41.5,0
1480106654,1480106073,4028193,99908.0,41.5,0
1481100253,1481099673,4028193,99909.0,41.51,0
1482104774,1482104193,4028193,99908.0,41.51,0
1483109108,1483108528,4028193,99910.0,41.52,0
1484102639,1484102056,4028193,99912.0,41.52,0
1485096254,1485095673,4028193,99909.0,41.53,0
1486089879,1486089299,4028193,99906.0,41.53,0
1487105154,1487104574,4028193,99913.0,41.53,0
1488109486,1488108906,4028193,99907.0,41.54,0
1489103095,1489102501,4028193,99909.0,41.55,0
1490107427,1490106847,4028193,99908.0,41.55,0
1491101129,1491100548,4028193,99904.0,41.559998,0
1492094642,1492094062,4028193,99901.0,41.559998,0
1493088464,1493087885,4028193,99901.0,41.559998,0
1494103780,1494103200,4028193,99903.0,41.57,0
1495108316,1495107736,4028193,99898.0,41.57,0
1496101850,1496101270,4028193,99898.0,41.579998,0
1497106252,1497105672,4028193,99894.0,41.579998,0
1498100107,1498099513,4028193,99899.0,41.579998,0
1499093651,1499093071,4028193,99897.0,41.59,0
1500087299,1500086718,4028193,99904.0,41.59,0
1501102473,1501101892,4028193,99906.0,41.59,0
1502106859,1502106279,4028193,99908.0,41.6,0
1503111306,1503110726,4028193,99904.0,41.6,0
1504104927,1504104347,4028193,99903.0,41.6,0
1505098464,1505097884,4028193,99907.0,41.61,0
1506092139,1506091558,4028193,99906.0,41.61,0
1507107262,1507106673,4028193,99905.0,41.61,0
1508100880,1508100300,4028193,99908.0,41.62,0
1509105289,1509104674,4028193,99903.0,41.62,0
1510109681,1510109101,4028193,99903.0,41.62,0
1511103256,1511102676,4028193,99902.0,41.62,0
1512096853,1512096273,4028193,99900.0,41.62,0
1513090452,1513089872,4028193,99904.0,41.62,0
