timestamp,timestamp_sample,accel_device_id,gyro_device_id,delta_angle[0],delta_angle[1],delta_angle[2],delta_velocity[0],delta_velocity[1],delta_velocity[2],delta_angle_dt,delta_velocity_dt,delta_velocity_clipping,accel_calibration_count,gyro_calibration_count
539623249,539623147,4259850,4325386,2.5853224e-05,-2.4352263e-05,2.3548946e-05,-0.002882791,-0.0004978172,-0.04782777,4999,4965,0,2,0
540123183,540123090,4259850,4325386,-1.2454144e-05,-5.058614e-05,-1.2032413e-06,-0.0030624392,-0.00014747807,-0.048629038,5000,4965,0,2,0
540623196,540623032,4259850,4325386,-8.415599e-06,-1.7496646e-05,-1.6974362e-05,-0.0031663107,-0.0007627652,-0.04903204,5000,4965,0,2,0
541123065,541122975,4259850,4325386,3.7905766e-06,-2.3348375e-05,3.291248e-05,-0.0031169949,-0.0005703894,-0.048808984,5000,4965,0,2,0
541623008,541622917,4259850,4325386,2.7250246e-05,-6.893709e-05,-7.9093115e-06,-0.0031159483,-0.0005542328,-0.04875375,4999,4966,0,2,0
542122953,542122860,4259850,4325386,7.267173e-06,-5.8197485e-05,-2.0118725e-05,-0.0033808763,-0.00079282303,-0.048978467,5000,4964,0,2,0
542622892,542622802,4259850,4325386,4.3369862e-05,-2.6164946e-05,1.6150889e-05,-0.0029704184,-0.0004705655,-0.048916128,4999,4965,0,2,0
543122840,543122745,4259850,4325386,8.835754e-06,-3.7979902e-05,-2.6407839e-05,-0.0032357192,-0.00047197705,-0.0494046,4999,4965,0,2,0
543622777,543622687,4259850,4325386,7.801789e-06,-2.3350227e-05,-4.6438263e-06,-0.0030655824,-0.0004030317,-0.04828808,4999,4965,0,2,0
544122724,544122630,4259850,4325386,-7.98289e-06,-5.3672728e-05,2.8262679e-05,-0.003146096,-0.00051247585,-0.048789933,4999,4964,0,2,0
544622690,544622573,4259850,4325386,4.3986318e-05,-7.427622e-05,2.22093e-05,-0.003116628,-0.0004979558,-0.04937821,5000,4966,0,2,0
545122688,545122515,4259850,4325386,5.9583148e-05,-1.6063267e-06,1.7375518e-05,-0.00302749,-0.00072238845,-0.04898123,4999,4964,0,2,0
545622548,545622458,4259850,4325386,0.00010220192,5.1060924e-05,-1.1162694e-05,-0.002611198,-0.0011659855,-0.04832212,4999,4964,0,2,0
546122492,546122401,4259850,4325386,-2.012968e-05,-2.3897464e-05,2.2246018e-05,-0.0033823666,-0.000810706,-0.049690306,4999,4965,0,2,0
546622436,546622344,4259850,4325386,4.227331e-05,-0.00010117719,-1.01736505e-05,-0.003333323,-0.0004929286,-0.049196348,4997,4968,0,2,0
547122376,547122287,4259850,4325386,3.461466e-05,-3.4291494e-05,6.5313593e-06,-0.0031976548,-0.00024971325,-0.049167033,4999,4965,0,2,0
547622329,547622230,4259850,4325386,-1.904972e-05,-3.1724023e-05,-1.1042958e-05,-0.003266248,-0.00047268067,-0.048428413,5000,4964,0,2,0
548122264,548122173,4259850,4325386,6.979229e-05,-1.081625e-05,1.5285132e-05,-0.0033194104,-0.0005653845,-0.04959532,4999,4966,0,2,0
548622209,548622116,4259850,4325386,-2.7893719e-05,-4.655661e-05,-1.321751e-05,-0.0033504479,-0.00045760802,-0.04963876,4999,4965,0,2,0
549122162,549122059,4259850,4325386,1.5774215e-06,-4.7657286e-05,1.7981156e-05,-0.003323322,-0.00032705732,-0.049468815,4999,4965,0,2,0
549622147,549622005,4259850,4325386,9.632461e-06,-4.4277454e-05,-1.9725252e-05,-0.0032952395,-0.0006627562,-0.048991866,5002,4965,0,2,0
550122038,550121946,4259850,4325386,-2.0034713e-05,-9.45793e-06,-1.8409246e-05,-0.0031077447,-0.00067560683,-0.04935769,5000,4965,0,2,0
550621983,550621889,4259850,4325386,4.1772397e-05,-7.090761e-05,1.8341674e-05,-0.0033690247,-0.00070048624,-0.049091987,5000,4965,0,2,0
551126922,551126832,4259850,4325386,3.5002327e-06,-3.2397882e-05,3.088126e-05,-0.0033671057,-0.00078159705,-0.049501378,5000,4965,0,2,0
551621869,551621776,4259850,4325386,2.4839614e-05,-5.0742547e-05,1.1966162e-05,-0.0032150303,-0.0006450635,-0.049259853,5000,4965,0,2,0
552121811,552121719,4259850,4325386,-6.8796235e-06,-4.0135e-05,-2.9993748e-06,-0.003297398,-0.0007317644,-0.04928906,5000,4965,0,2,0
552621752,552621662,4259850,4325386,5.5727454e-05,-4.293173e-05,-1.9390207e-05,-0.0032895533,-0.000607307,-0.04864522,4999,4965,0,2,0
553121705,553121606,4259850,4325386,-9.062876e-07,-4.719512e-06,-1.6869346e-05,-0.0031008085,-0.00062275474,-0.048848674,5000,4964,0,2,0
553621641,553621549,4259850,4325386,-1.5804131e-05,-4.7711084e-05,1.5340476e-05,-0.0032843235,-0.0003165716,-0.04901848,4999,4966,0,2,0
554126675,554126493,4259850,4325386,-7.144938e-07,-5.20339e-05,1.4556808e-06,-0.0031337773,-0.00059097464,-0.04882779,4998,4965,0,2,0
554626526,554626436,4259850,4325386,-4.4708895e-06,-6.21444e-06,1.4742765e-06,-0.0027950506,-0.0005169075,-0.04870913,5000,4965,0,2,0
555121475,555121380,4259850,4325386,2.4336778e-05,-2.45176e-05,-6.0185876e-06,-0.0032258406,-0.00051318173,-0.049170695,5000,4965,0,2,0
555621432,555621324,4259850,4325386,2.876543e-05,-3.7852773e-05,3.0482475e-05,-0.003468669,-0.00047241163,-0.05409259,5000,5461,0,2,0
556121360,556121268,4259850,4325386,-8.338292e-06,2.7041993e-05,9.035547e-06,-0.0030402946,-0.0008025816,-0.049126655,5000,4965,0,2,0
556621303,556621211,4259850,4325386,1.202563e-05,5.549206e-06,-1.8287567e-06,-0.0032095956,-0.000639405,-0.049383424,4999,4965,0,2,0
557121310,557121155,4259850,4325386,2.5620702e-05,-6.6474945e-06,3.64568e-05,-0.0045045437,-0.0009310267,-0.07389267,4999,7446,0,2,0
557626193,557626099,4259850,4325386,-7.0460214e-07,-3.8778584e-05,-9.680758e-06,-0.0033451235,-0.0005996966,-0.049194627,5000,4964,0,2,0
558126132,558126043,4259850,4325386,1.8249495e-05,-8.49751e-05,2.4285433e-05,-0.0032805086,-0.00074198627,-0.049019296,5000,4964,0,2,0
558621247,558620987,4259850,4325386,2.4397279e-05,-2.7750333e-05,-2.6437507e-05,-0.0034697044,-0.0007501128,-0.049127266,5000,4965,0,2,0
559121026,559120931,4259850,4325386,-3.7049147e-05,7.703642e-06,2.5094255e-06,-0.0033439223,-0.0005002376,-0.049062785,4999,4965,0,2,0
559620965,559620875,4259850,4325386,-4.1499963e-05,-4.562457e-05,1.9286625e-05,-0.00310875,-0.00056221994,-0.0492555,4999,4964,0,2,0
560120922,560120819,4259850,4325386,-1.620824e-06,-6.394576e-05,-1.760126e-05,-0.0033439999,-0.0006098548,-0.049298294,4998,4965,0,2,0
560625852,560625763,4259850,4325386,1.1795498e-06,-1.1455406e-05,-2.965229e-05,-0.0035005722,-0.0005436784,-0.04958117,5000,4965,0,2,0
561125801,561125707,4259850,4325386,-6.714244e-06,-2.4008817e-05,-1.7657985e-05,-0.0033530782,-0.0005463945,-0.04914448,4999,4965,0,2,0
561625741,561625651,4259850,4325386,-2.8494185e-05,-1.0786798e-05,1.6047903e-05,-0.0033343898,-0.00059593964,-0.049708005,4999,4966,0,2,0
562120706,562120597,4259850,4325386,-5.601139e-06,-4.5858415e-05,-1.1405238e-05,-0.0033580335,-0.0006552867,-0.049009483,5000,4964,0,2,0
562620633,562620541,4259850,4325386,2.6887028e-05,-4.3451404e-05,1.2780395e-05,-0.0033303506,-0.0006467111,-0.047599733,5000,4965,0,2,0
563120641,563120485,4259850,4325386,-2.4127743e-05,-4.4666667e-05,1.5360718e-05,-0.003069312,-0.00044074727,-0.04863618,5000,4964,0,2,0
563620535,563620429,4259850,4325386,1.7914483e-05,-6.146597e-05,-1.7486421e-06,-0.003234841,-0.00045414412,-0.04870265,4999,4965,0,2,0
564125463,564125373,4259850,4325386,2.0189695e-05,-3.9690025e-05,-5.7551483e-07,-0.0031836308,-0.00073773594,-0.049598027,5000,4965,0,2,0
564625410,564625317,4259850,4325386,1.7685974e-05,3.279684e-05,1.3458056e-05,-0.0030837788,-0.0006975159,-0.048752997,4999,4964,0,2,0
565125350,565125262,4259850,4325386,2.0398234e-05,-0.00010686455,-8.2129155e-08,-0.0030341316,-0.00015041218,-0.05042224,5000,4964,0,2,0
565620299,565620207,4259850,4325386,4.709797e-05,-4.2707867e-05,-5.626898e-06,-0.0033075358,-0.00050138764,-0.049504843,5000,4964,0,2,0
566120240,566120151,4259850,4325386,4.3512555e-05,1.8729705e-06,-4.913307e-06,-0.003166248,-0.000568388,-0.048796184,4999,4965,0,2,0
566620189,566620096,4259850,4325386,2.1246375e-05,7.0129954e-06,-7.080715e-06,-0.0030001889,-0.0003464445,-0.04899982,5000,4966,0,2,0
567125129,567125040,4259850,4325386,2.2938155e-05,-6.860583e-05,-2.5465213e-05,-0.0031806224,-0.0007175273,-0.04922887,5000,4965,0,2,0
567625117,567624986,4259850,4325386,-1.236335e-05,-3.2475207e-05,-2.056966e-06,-0.0033559157,-0.00051899627,-0.049499307,5001,4964,0,2,0
568125021,568124929,4259850,4325386,8.746775e-06,-4.2937656e-05,-1.2405236e-05,-0.0028149167,-0.0005358577,-0.048623882,5000,4965,0,2,0
568624962,568624873,4259850,4325386,4.9201644e-06,-5.968548e-05,5.927751e-06,-0.0028484568,-0.0007284853,-0.0492921,4999,4965,0,2,0
569119910,569119818,4259850,4325386,5.5243298e-05,-3.9101255e-05,-2.8751401e-05,-0.0032134526,-0.00065089937,-0.049572535,4999,4964,0,2,0
569619853,569619763,4259850,4325386,2.3963556e-05,-1.9568502e-05,-7.3994916e-06,-0.0030851944,-0.0011325447,-0.048411492,4999,4963,0,2,0
570124797,570124707,4259850,4325386,-2.2856697e-05,-1.0591404e-05,-1.9432622e-05,-0.0033945562,-0.00052610703,-0.049464375,4999,4962,0,2,0
570624742,570624652,4259850,4325386,1.8060093e-05,-8.188685e-05,-7.3692695e-06,-0.0033060454,-0.00053983054,-0.048178792,4999,4964,0,2,0
571124693,571124597,4259850,4325386,-8.992328e-07,-8.2263854e-05,2.7338821e-05,-0.003180774,-0.00058818393,-0.04897618,5000,4964,0,2,0
571624634,571624541,4259850,4325386,-2.9680015e-05,1.0214588e-05,-1.8451012e-05,-0.0033262386,-0.0004973328,-0.048499733,4999,4965,0,2,0
572124633,572124490,4259850,4325386,2.695706e-05,-6.925287e-05,-7.673927e-06,-0.0032855729,-0.0008584193,-0.04915036,5004,4965,0,2,0
572619521,572619431,4259850,4325386,-4.893874e-05,-2.0649299e-05,1.6518969e-05,-0.0030611253,-0.00092959974,-0.04863995,4999,4965,0,2,0
573124469,573124375,4259850,4325386,9.588352e-05,-4.598419e-05,9.8130795e-06,-0.0028680929,-0.0021575321,-0.049997278,4999,4965,0,2,0
573624410,573624320,4259850,4325386,0.00010011874,-5.6469988e-05,-2.0381356e-05,-0.0032760324,-0.0010458989,-0.048520375,5000,4965,0,2,0
574124356,574124264,4259850,4325386,0.0006783007,-0.000111756875,-1.9878007e-05,-0.0028803553,-0.0028648889,-0.047611494,4999,4965,0,2,0
574624298,574624209,4259850,4325386,-3.3305747e-05,-5.700726e-05,-6.2804925e-06,-0.0031559088,-0.0037923644,-0.048315335,4999,4964,0,2,0
575124245,575124153,4259850,4325386,0.000114387585,-7.795289e-06,-3.1964668e-05,-0.0030563392,-0.0040082433,-0.04954535,4999,4965,0,2,0
575619196,575619100,4259850,4325386,3.7503934e-05,1.3373235e-05,2.7126167e-05,-0.0029289313,-0.0039052756,-0.049179472,5001,4965,0,2,0
576119132,576119043,4259850,4325386,3.2617565e-05,-7.175146e-05,1.4088992e-05,-0.0028802122,-0.003485368,-0.046983436,4999,4965,0,2,0
576624128,576623988,4259850,4325386,1.01730375e-05,6.279494e-05,-3.3027663e-05,-0.0020417036,-0.0029667716,-0.04909722,5000,4965,0,2,0
577124023,577123932,4259850,4325386,5.7461893e-05,-4.1994826e-05,1.4977598e-05,-0.003168313,-0.0037356496,-0.048228033,4999,4965,0,2,0
577623966,577623877,4259850,4325386,4.3725995e-05,-2.7141528e-05,4.4369144e-06,-0.0028472524,-0.003858808,-0.048908245,5000,4965,0,2,0
578123919,578123821,4259850,4325386,1.6881044e-05,-4.715713e-05,-1.0963387e-05,-0.0031981866,-0.0038833835,-0.049005214,4999,4965,0,2,0
578623859,578623766,4259850,4325386,2.8405784e-05,-6.24579e-05,2.5561958e-06,-0.0028899636,-0.0038556003,-0.04888558,5000,4966,0,2,0
579123802,579123710,4259850,4325386,1.60804e-05,-3.3297358e-05,1.118649e-05,-0.0029609965,-0.003823619,-0.04867849,4999,4965,0,2,0
579623744,579623655,4259850,4325386,2.907127e-07,-8.459249e-06,-9.038531e-06,-0.0028395823,-0.0038551232,-0.04905037,5000,4965,0,2,0
580123694,580123599,4259850,4325386,4.08122e-05,1.3998728e-05,1.0727058e-05,-0.0028355944,-0.0038296368,-0.048453346,4999,4965,0,2,0
580623637,580623543,4259850,4325386,1.9228384e-05,4.185043e-05,-1.7029044e-05,-0.0030539262,-0.0037227808,-0.04915675,4999,4964,0,2,0
581123664,581123488,4259850,4325386,-1.37514635e-05,-5.851339e-05,9.48507e-06,-0.002993856,-0.0037864791,-0.048771743,4999,4963,0,2,0
581623566,581623433,4259850,4325386,-1.9039066e-05,-2.0141393e-05,-1.5530451e-05,-0.0028446147,-0.003852838,-0.048851505,5000,4965,0,2,0
582123472,582123377,4259850,4325386,-6.0515402e-05,-0.00012550119,1.2844869e-06,-0.002131787,-0.0036795365,-0.046149332,5000,4965,0,2,0
582623417,582623321,4259850,4325386,2.934955e-05,-3.179949e-05,-1.8650777e-05,-0.0027167087,-0.0038578154,-0.048883043,4999,4965,0,2,0
583123354,583123265,4259850,4325386,-1.5803615e-05,-6.0536822e-05,-4.588264e-06,-0.0026660743,-0.00377648,-0.04900012,4999,4966,0,2,0
583623301,583623209,4259850,4325386,3.1683954e-05,-4.840387e-05,-1.5781889e-05,-0.0027514624,-0.003732931,-0.048596308,4999,4965,0,2,0
584123243,584123154,4259850,4325386,5.021056e-07,-9.408358e-05,6.925263e-06,-0.0031289067,-0.0038571018,-0.04910421,5000,4965,0,2,0
584623187,584623097,4259850,4325386,1.2333104e-06,-4.714999e-05,-1.0159946e-05,-0.003122696,-0.0038102248,-0.04874681,4999,4964,0,2,0
585123134,585123042,4259850,4325386,-1.5260403e-05,-7.301224e-05,-3.1240572e-05,-0.0033880922,-0.0038105394,-0.04940696,5000,4965,0,2,0
585623125,585622985,4259850,4325386,1.7523405e-05,-4.5279485e-05,3.477894e-05,-0.0034229902,-0.003783148,-0.048977003,4999,4966,0,2,0
586123021,586122930,4259850,4325386,-1.1323804e-05,-4.938768e-05,2.0387093e-05,-0.0033724313,-0.0037855657,-0.04915888,5000,4961,0,2,0
586622969,586622873,4259850,4325386,1.7281083e-05,-4.2466185e-05,2.3375593e-05,-0.0034585076,-0.0037750076,-0.048810314,4999,4964,0,2,0
587122909,587122817,4259850,4325386,8.020778e-05,-3.923322e-06,-1.9811967e-05,-0.0035184317,-0.0037262638,-0.048804097,5000,4965,0,2,0
587622853,587622761,4259850,4325386,5.3831758e-05,-1.7953655e-05,-3.687984e-06,-0.003482807,-0.0037801613,-0.048956025,5000,4966,0,2,0
588122795,588122705,4259850,4325386,4.6140784e-05,-1.689585e-05,1.5500118e-05,-0.003266219,-0.003891132,-0.049089093,5000,4966,0,2,0
588622739,588622648,4259850,4325386,1.6906177e-05,-6.853353e-06,4.864834e-05,-0.0030881588,-0.00376471,-0.04920429,5000,4965,0,2,0
589122684,589122592,4259850,4325386,-1.5888407e-05,-1.03530165e-05,-4.1551648e-05,-0.0033732806,-0.0037693605,-0.04937152,5000,4965,0,2,0
589622629,589622535,4259850,4325386,2.4547731e-05,-3.664775e-05,-1.4396177e-05,-0.0034787168,-0.0037765284,-0.048832256,4999,4966,0,2,0
590122630,590122479,4259850,4325386,3.9833834e-05,-8.529232e-05,1.884198e-05,-0.0036192497,-0.0038143175,-0.04875924,5000,4965,0,2,0
590622518,590622422,4259850,4325386,8.31161e-05,5.3108455e-05,-1.8333335e-06,-0.003690889,-0.0036651616,-0.04905067,5000,4966,0,2,0
591122457,591122365,4259850,4325386,2.206981e-05,-6.5951805e-05,-1.8298108e-05,-0.0032377404,-0.0035563668,-0.049387548,4999,4965,0,2,0
591622399,591622308,4259850,4325386,2.8197057e-05,-6.565884e-05,-4.6417376e-06,-0.0033296896,-0.0037956156,-0.049258847,4999,4965,0,2,0
592122341,592122252,4259850,4325386,0.00010882172,-0.00016568962,-2.1358603e-05,-0.003012063,-0.0034741117,-0.048494056,5000,4965,0,2,0
592622288,592622195,4259850,4325386,-0.000650588,0.00022970262,6.4559244e-05,-0.003909377,-0.003919451,-0.04809839,5000,4965,0,2,0
593119732,593117138,4259850,4325386,-0.0013479373,0.0007018765,0.0003886624,-0.0045321155,-0.0053129317,-0.04880448,4999,4966,0,2,0
593622173,593622080,4259850,4325386,0.00011883657,0.00021745825,5.5250697e-05,-0.0043007312,-0.0043030675,-0.05008347,4999,4966,0,2,0
594122113,594122023,4259850,4325386,-1.0080445e-05,-0.00010791641,-3.4138266e-05,-0.004212122,-0.0038465995,-0.048513852,4999,4965,0,2,0
594622099,594621967,4259850,4325386,6.572778e-05,-1.7457029e-05,1.7671857e-05,-0.0041350415,-0.0038565642,-0.04859853,5000,4965,0,2,0
595122001,595121909,4259850,4325386,-1.5982663e-05,-2.33952e-05,-5.3604917e-06,-0.0041857306,-0.003903771,-0.0491421,5000,4966,0,2,0
595621940,595621851,4259850,4325386,6.839777e-06,3.2663334e-05,-3.207527e-05,-0.0039400635,-0.0037708082,-0.049278814,4999,4966,0,2,0
596121888,596121794,4259850,4325386,-7.147606e-06,-4.8468013e-05,-7.8822967e-07,-0.0038760314,-0.0038592822,-0.048862014,5000,4966,0,2,0
596626827,596626736,4259850,4325386,-1.57722e-05,-4.5846966e-05,3.0529027e-05,-0.0034029875,-0.003853311,-0.048748247,5000,4966,0,2,0
597121775,597121682,4259850,4325386,-9.433664e-06,-8.98959e-05,2.0386398e-05,-0.0038674162,-0.0038654727,-0.04891707,5003,4965,0,2,0
597621715,597621621,4259850,4325386,-1.0752957e-05,-8.0098e-05,1.3506185e-05,-0.0038995661,-0.0038232245,-0.048526503,4999,4967,0,2,0
598121656,598121563,4259850,4325386,-5.494311e-06,-2.1272485e-06,-5.561511e-06,-0.0040944545,-0.0038027347,-0.048618432,4999,4965,0,2,0
598621608,598621505,4259850,4325386,-7.356627e-06,-5.4771717e-05,2.3058281e-05,-0.004311805,-0.0038519779,-0.048838597,4999,4963,0,2,0
599121569,599121447,4259850,4325386,2.5192734e-05,1.1146758e-05,-3.0780182e-05,-0.0041870815,-0.0038565956,-0.049052197,4999,4966,0,2,0
599626492,599626389,4259850,4325386,7.010554e-06,-4.1600237e-05,-2.5074455e-06,-0.0040259985,-0.0038264378,-0.048569795,5000,4966,0,2,0
600126420,600126330,4259850,4325386,4.5085064e-05,-2.7474827e-05,4.186505e-05,-0.004020908,-0.0037983984,-0.04848702,4999,4968,0,2,0
600621365,600621273,4259850,4325386,0.00010283859,9.515115e-05,-9.622566e-06,-0.0036300435,-0.003810513,-0.04837131,5000,4966,0,2,0
601121304,601121214,4259850,4325386,-0.0001277719,-0.0001587117,-3.243141e-05,-0.0037916652,-0.0035962933,-0.049479328,4999,4966,0,2,0
601621248,601621156,4259850,4325386,0.00012466894,-0.00014702427,-3.0596053e-05,-0.0034929179,-0.004148745,-0.04879394,4999,4966,0,2,0
602121189,602121098,4259850,4325386,2.5788e-05,-5.7206893e-05,4.1420376e-06,-0.0036106592,-0.003844353,-0.04868876,5000,4966,0,2,0
602626133,602626039,4259850,4325386,5.958279e-05,3.566808e-05,1.5262634e-05,-0.003968973,-0.0038598415,-0.04878726,5000,4965,0,2,0
603126069,603125980,4259850,4325386,-8.416917e-06,3.491113e-05,2.5177502e-05,-0.00418447,-0.003879884,-0.04891621,5000,4966,0,2,0
603626016,603625921,4259850,4325386,5.52556e-05,2.4606341e-05,8.911445e-06,-0.0038487366,-0.0039356207,-0.049402248,5000,4966,0,2,0
604120954,604120863,4259850,4325386,-0.00024940877,6.231566e-05,7.018401e-05,-0.0039320914,-0.004700468,-0.050148856,5000,4967,0,2,0
604620941,604620804,4259850,4325386,2.2690613e-06,-5.326554e-05,-1.2081278e-05,-0.004283684,-0.0057234336,-0.07275291,5000,7448,0,2,0
605120834,605120745,4259850,4325386,-8.871084e-05,0.0001629943,4.1351293e-05,-0.0034684227,-0.0043165344,-0.048868578,5000,4968,0,2,0
605620774,605620685,4259850,4325386,0.000116495314,0.00017916641,5.2334595e-05,-0.0030684122,-0.0045523923,-0.050154086,4999,4965,0,2,0
606125719,606125625,4259850,4325386,-0.00016639172,-0.00017595565,-2.7980592e-05,-0.0032387434,-0.0038135953,-0.047819376,4999,4966,0,2,0
606625657,606625566,4259850,4325386,1.0726216e-05,-1.6804412e-05,4.44704e-06,-0.0034005751,-0.0039637885,-0.049792007,4999,4966,0,2,0
607125624,607125507,4259850,4325386,3.5371656e-06,-7.598175e-05,-2.9182882e-05,-0.003394461,-0.0038829183,-0.04858231,5000,4966,0,2,0
607620539,607620448,4259850,4325386,1.5953961e-05,-4.7150606e-05,-3.25555e-06,-0.0031464219,-0.0038410677,-0.04842357,5000,4966,0,2,0
608120503,608120388,4259850,4325386,-1.7061654e-07,-4.1016624e-06,-3.1002262e-06,-0.0039278017,-0.003956174,-0.049695008,4999,4966,0,2,0
608620434,608620328,4259850,4325386,5.0901795e-05,-3.7997263e-05,-6.2020836e-06,-0.0039674398,-0.0038533113,-0.048816666,4999,4966,0,2,0
609125357,609125268,4259850,4325386,-3.543411e-05,1.50380965e-05,-6.448952e-06,-0.0032672246,-0.0040932633,-0.048687,5000,4966,0,2,0
609625298,609625208,4259850,4325386,1.8485967e-05,9.459471e-06,-2.012507e-06,-0.0035228708,-0.003906841,-0.04927106,5000,4967,0,2,0
610125239,610125148,4259850,4325386,4.6223937e-05,-3.5950296e-05,-5.1058178e-06,-0.0038169194,-0.003853311,-0.048798412,5000,4966,0,2,0
610625178,610625088,4259850,4325386,-2.5067126e-05,-6.535679e-05,-4.1074876e-05,-0.0038355698,-0.003961798,-0.049825914,5000,4966,0,2,0
611120117,611120028,4259850,4325386,2.2886703e-05,-4.3290394e-05,3.6438144e-06,-0.0034927258,-0.003958604,-0.04975658,4999,4967,0,2,0
611625062,611624969,4259850,4325386,-2.148263e-05,1.6769172e-05,-8.7327735e-06,-0.0033083365,-0.0041501014,-0.05047427,5001,4966,0,2,0
612125001,612124907,4259850,4325386,0.00033125698,-0.00016938207,-5.7130994e-05,-0.0036237373,-0.004134718,-0.04921091,5000,4966,0,2,0
612624937,612624846,4259850,4325386,-0.0002521878,-0.00028690425,-2.1605634e-05,-0.0030891981,-0.004004918,-0.048989177,4999,4967,0,2,0
613124885,613124786,4259850,4325386,-0.0005177286,0.00019385725,8.612872e-05,-0.0039121537,-0.004013538,-0.049525674,5000,4967,0,2,0
613624816,613624725,4259850,4325386,2.4554642e-05,-2.301076e-05,-1.4513652e-05,-0.0035211532,-0.0037946147,-0.048655,4999,4967,0,2,0
614119755,614119665,4259850,4325386,-0.00013004223,-5.262311e-05,-2.7107659e-05,-0.0033396776,-0.0039089276,-0.04873493,5000,4967,0,2,0
614619696,614619604,4259850,4325386,-1.5584383e-05,8.7943e-06,-3.5207293e-05,-0.003341903,-0.0039225244,-0.04895249,5000,4967,0,2,0
615119655,615119543,4259850,4325386,0.0015008085,0.0022343174,-8.5238404e-05,-0.0010297879,-0.005394135,-0.04825756,5000,4967,0,2,0
615624572,615624481,4259850,4325386,-2.9178966e-05,-0.00012489251,4.6019853e-05,-0.0025049862,-0.00412053,-0.049476914,4999,4967,0,2,0
616124515,616124420,4259850,4325386,-5.8918766e-05,-3.0869534e-05,3.0166224e-05,-0.0023288722,-0.0038114488,-0.047871344,5000,4968,0,2,0
616624449,616624358,4259850,4325386,3.774181e-05,-2.5416959e-05,7.3066362e-06,-0.0022890565,-0.0039770296,-0.048895206,4999,4967,0,2,0
617124438,617124297,4259850,4325386,-1.1180442e-06,-7.638662e-05,-8.383448e-06,-0.0016670134,-0.004271189,-0.048131946,4999,4968,0,2,0
617624413,617624235,4259850,4325386,-6.296553e-06,-9.939482e-05,-1.1493121e-06,-0.0038156086,-0.0061391,-0.07627832,4999,7452,0,2,0
618119267,618119175,4259850,4325386,-4.550775e-07,-7.010083e-05,-9.524779e-06,-0.0023429345,-0.0039018702,-0.049081065,5000,4967,0,2,0
618624203,618624112,4259850,4325386,-2.3020343e-06,-8.38892e-05,-9.786127e-07,-0.0028850217,-0.0039217807,-0.04933493,4999,4967,0,2,0
619124140,619124050,4259850,4325386,0.00039393108,-0.0002711691,-0.00010331949,-0.0028208285,-0.0041661053,-0.04923427,4999,4967,0,2,0
619624080,619623988,4259850,4325386,7.787503e-05,-9.093134e-05,-4.2574065e-05,-0.0036099283,-0.004335261,-0.04888396,4999,4968,0,2,0
620124034,620123926,4259850,4325386,-1.5774212e-05,-4.5162567e-05,4.0123755e-06,-0.003040415,-0.0038634413,-0.048446603,4999,4967,0,2,0
620623958,620623864,4259850,4325386,-8.3196755e-06,-7.821387e-05,-8.792497e-06,-0.0030118944,-0.0038511006,-0.048682354,4999,4967,0,2,0
621123894,621123802,4259850,4325386,0.0002355041,0.0004061108,-8.585462e-06,-0.0033467482,-0.0039718035,-0.0492432,5000,4968,0,2,0
621623864,621623740,4259850,4325386,5.889031e-05,1.592797e-05,3.2690773e-06,-0.0021217947,-0.0040750946,-0.047846485,5000,4968,0,2,0
622123966,622123680,4259850,4325386,-6.1793435e-05,-0.0001834069,-2.3943208e-05,-0.0021231363,-0.0038199588,-0.047217283,5002,4969,0,2,0
622623707,622623614,4259850,4325386,1.9462477e-05,-0.00018239731,-2.3369012e-05,-0.001952098,-0.0038729995,-0.048760854,4999,4967,0,2,0
623123645,623123552,4259850,4325386,-2.7324422e-05,3.252411e-05,-2.2451537e-05,-0.0016947159,-0.0039759898,-0.04979433,5000,4968,0,2,0
623623578,623623489,4259850,4325386,-5.557771e-06,-3.2704236e-05,1.9294712e-05,-0.0018204364,-0.0038907074,-0.048914645,5000,4968,0,2,0
624123527,624123426,4259850,4325386,9.6582626e-05,4.4056957e-05,-4.6250757e-06,-0.0016134117,-0.0040203407,-0.04904693,4999,4968,0,2,0
624623463,624623363,4259850,4325386,4.17473e-05,-2.3536268e-06,-1.4651432e-05,-0.0016469047,-0.003963189,-0.049218033,5000,4966,0,2,0
625123400,625123300,4259850,4325386,4.1184736e-05,-3.5804067e-05,2.0976386e-05,-0.0020860664,-0.003863824,-0.048692785,5000,4968,0,2,0
625623325,625623236,4259850,4325386,-3.7828854e-06,-6.236031e-05,3.779458e-05,-0.0024721397,-0.0039335713,-0.049131785,4999,4968,0,2,0
626123264,626123173,4259850,4325386,2.5362917e-05,-1.307778e-05,9.742051e-07,-0.0024183537,-0.0039915578,-0.049404074,4999,4967,0,2,0
626623364,626623109,4259850,4325386,9.528962e-06,-1.2435478e-05,-2.7719665e-05,-0.0021659879,-0.003884733,-0.04890007,4999,4968,0,2,0
627123138,627123046,4259850,4325386,3.1205887e-05,1.8661143e-06,-3.1751348e-05,-0.0022551245,-0.0039007128,-0.04879496,4999,4968,0,2,0
627623074,627622982,4259850,4325386,-8.4467285e-07,-9.84913e-05,1.8020446e-05,-0.0020356758,-0.0038072977,-0.048150085,4999,4967,0,2,0
628123007,628122919,4259850,4325386,2.1212968e-06,-5.4741526e-05,-1.0861642e-05,-0.0021530574,-0.0038033118,-0.04812664,5000,4967,0,2,0
628622944,628622855,4259850,4325386,3.035536e-06,-3.924766e-05,-1.6191501e-05,-0.0022114767,-0.0038849462,-0.048905194,5000,4967,0,2,0
629122883,629122790,4259850,4325386,-5.085885e-06,-1.6641749e-05,6.5649106e-06,-0.0021016386,-0.0038845218,-0.04889267,4999,4969,0,2,0
629622820,629622727,4259850,4325386,1.597093e-05,2.4374878e-05,2.9804323e-05,-0.0020175308,-0.0038650343,-0.04869351,5000,4967,0,2,0
630122754,630122662,4259850,4325386,1.43014095e-05,-5.538197e-05,3.2493706e-05,-0.0021447833,-0.0038618322,-0.048681077,4999,4968,0,2,0
630622693,630622598,4259850,4325386,4.3869855e-05,-1.9505436e-05,-3.2241584e-05,-0.0018818593,-0.003935516,-0.048631486,4999,4967,0,2,0
631122758,631122534,4259850,4325386,-2.900143e-05,-3.4955745e-05,2.3810725e-07,-0.0020554266,-0.003907641,-0.049103152,5000,4968,0,2,0
631622560,631622469,4259850,4325386,-3.2065263e-06,-1.9251434e-05,1.75932e-05,-0.0022831357,-0.0038976767,-0.049036592,4999,4968,0,2,0
632122495,632122404,4259850,4325386,3.4586756e-05,-5.365054e-05,-4.3426203e-06,-0.0018419373,-0.003875008,-0.048958916,4999,4973,0,2,0
632622432,632622340,4259850,4325386,5.3549087e-05,-4.5991794e-05,-7.995999e-06,-0.002014116,-0.0039060072,-0.04908991,5000,4971,0,2,0
633122369,633122275,4259850,4325386,3.8805447e-05,-8.619369e-06,1.1833886e-05,-0.0019664604,-0.0039146524,-0.04889171,5000,4968,0,2,0
633622300,633622210,4259850,4325386,-1.6207217e-05,3.488701e-05,1.6412108e-05,-0.0019541713,-0.0039128186,-0.049137414,5000,4967,0,2,0
634122238,634122145,4259850,4325386,-2.8932871e-05,-3.4580586e-05,-1.139457e-05,-0.0018795581,-0.0038227718,-0.048282195,5000,4969,0,2,0
634622217,634622079,4259850,4325386,2.396112e-05,-1.7133421e-05,2.5782409e-05,-0.0026819624,-0.005793574,-0.07358992,4999,7453,0,2,0
635127154,635127014,4259850,4325386,4.3674787e-05,-2.7498458e-05,1.3642596e-05,-0.002045573,-0.00395204,-0.049526345,4999,4970,0,2,0
635622140,635621949,4259850,4325386,-6.3613675e-06,-5.9006776e-05,-1.1701662e-05,-0.0019773068,-0.0039363056,-0.049366977,5000,4969,0,2,0
636121974,636121883,4259850,4325386,3.3941484e-05,9.0066067e-07,2.532513e-05,-0.0018298345,-0.0039367983,-0.04917814,4999,4970,0,2,0
636621909,636621817,4259850,4325386,1.7430195e-05,-0.000104955645,-1.548542e-05,-0.0018437329,-0.0038776738,-0.048262563,4999,4969,0,2,0
637121843,637121752,4259850,4325386,-2.5209401e-05,-7.3168194e-06,8.791299e-06,-0.002008121,-0.0038650332,-0.048692364,5000,4967,0,2,0
637621776,637621687,4259850,4325386,-0.00014989203,-4.7858783e-05,2.7983115e-05,-0.002189658,-0.0037123335,-0.048074476,5001,4968,0,2,0
638121710,638121620,4259850,4325386,4.4443746e-05,-1.8878636e-05,1.1729495e-05,-0.0013213503,-0.0039076344,-0.049014118,4999,4968,0,2,0
638626648,638626553,4259850,4325386,0.00015437497,-3.7839556e-05,2.3043034e-05,-0.0022002473,-0.0039472636,-0.049497556,4999,4969,0,2,0
639121577,639121488,4259850,4325386,-8.057195e-05,-4.836741e-05,1.4042733e-05,-0.0021012295,-0.0039769267,-0.04905397,5000,4969,0,2,0
639621516,639621422,4259850,4325386,-8.273059e-05,-3.821362e-05,1.8626039e-05,-0.0017226295,-0.0036222606,-0.048237186,5000,4969,0,2,0
640121510,640121355,4259850,4325386,0.00013203522,-8.278466e-05,-2.4748644e-05,-0.0016705131,-0.003278433,-0.048181854,5000,4968,0,2,0
640621380,640621289,4259850,4325386,4.5280543e-05,-3.0995358e-05,-2.1669517e-05,-0.0020917254,-0.0032750198,-0.048737906,5000,4969,0,2,0
641121311,641121222,4259850,4325386,-3.553385e-05,2.0749596e-05,1.2080399e-05,-0.0021633988,-0.0036409558,-0.049802057,5000,4969,0,2,0
641626248,641626154,4259850,4325386,5.1809064e-05,-1.0312056e-05,-2.5997374e-06,-0.00204926,-0.0039632972,-0.049811207,4999,4970,0,2,0
642126181,642126087,4259850,4325386,5.929513e-05,-0.00010425512,5.964426e-05,-0.003302981,-0.0045646373,-0.05546802,4999,4970,0,2,0
642621111,642621021,4259850,4325386,-4.122153e-05,1.4043547e-05,3.7459552e-06,-0.0020419483,-0.0037892314,-0.048610386,4999,4970,0,2,0
643121051,643120954,4259850,4325386,-2.476837e-05,5.2621897e-05,7.885991e-07,-0.0022740294,-0.0038125291,-0.049835086,4999,4969,0,2,0
643620978,643620887,4259850,4325386,3.6821817e-05,6.4329097e-06,-1.833925e-05,-0.0018988668,-0.0037278705,-0.0489896,4999,4969,0,2,0
644120927,644120819,4259850,4325386,8.646312e-05,-1.692616e-05,-5.2347864e-06,-0.0018559019,-0.0037003297,-0.048635144,4999,4969,0,2,0
644625847,644625751,4259850,4325386,5.7563622e-05,-7.1808176e-06,7.4762465e-06,-0.0016470696,-0.0039025382,-0.049188193,4999,4970,0,2,0
645125787,645125684,4259850,4325386,-0.00031179198,-7.1011214e-05,-2.2892098e-05,-0.0012245965,0.00031087722,-0.04928477,4999,4970,0,2,0
645625710,645625618,4259850,4325386,-1.9500168e-05,-5.6798144e-05,-5.179039e-06,-0.0018848199,-0.003805456,-0.04847509,4999,4969,0,2,0
646120644,646120549,4259850,4325386,-1.1740532e-05,-2.5906184e-05,1.9425679e-05,-0.0020994672,-0.0038101168,-0.049081624,4999,4970,0,2,0
646620571,646620481,4259850,4325386,2.5509215e-05,-8.5214215e-06,8.589539e-06,-0.0020160112,-0.0038100395,-0.048890352,4999,4969,0,2,0
647120503,647120413,4259850,4325386,4.5710953e-05,-6.6327404e-05,3.6667272e-05,-0.0019830277,-0.003884209,-0.04941181,4999,4970,0,2,0
647625435,647625344,4259850,4325386,2.2860359e-05,-3.1271167e-05,2.6092246e-05,-0.0019057442,-0.0039036134,-0.04931377,4999,4968,0,2,0
648125368,648125276,4259850,4325386,-1.4338721e-05,-1.2626219e-05,-1.2250712e-05,-0.0019746125,-0.0038006678,-0.049152784,4999,4969,0,2,0
648625301,648625208,4259850,4325386,1.657848e-05,-3.8196624e-05,4.450198e-07,-0.0019857434,-0.003895474,-0.048982125,5000,4969,0,2,0
649125229,649125139,4259850,4325386,3.6869304e-05,-4.388731e-05,-5.346852e-06,-0.0019359441,-0.00379539,-0.048920196,4999,4969,0,2,0
649620169,649620071,4259850,4325386,4.646506e-05,-4.3933313e-05,-7.180325e-06,-0.0016920917,-0.0038241246,-0.048257854,4999,4963,0,2,0
650120095,650120003,4259850,4325386,1.939484e-05,5.175044e-06,-9.546684e-06,-0.0019047684,-0.0038284278,-0.048875168,5000,4970,0,2,0
650625029,650624933,4259850,4325386,-1.2567779e-05,-1.8212342e-05,8.528405e-06,-0.0014252906,-0.0037546195,-0.04865361,4999,4970,0,2,0
651124953,651124864,4259850,4325386,-3.711598e-06,-4.226705e-05,1.5147078e-05,-0.001770911,-0.0037976825,-0.04909988,4999,4969,0,2,0
651624884,651624795,4259850,4325386,1.7100923e-05,-7.648709e-05,-1.7229837e-05,-0.0020499842,-0.00376323,-0.04845204,4999,4969,0,2,0
652124903,652124726,4259850,4325386,1.7312605e-05,-2.2040662e-05,-1.2019071e-06,-0.002887324,-0.0057196864,-0.07353676,4999,7452,0,2,0
652624745,652624656,4259850,4325386,-7.1485374e-07,-2.777522e-06,-1.6237287e-05,-0.0018175268,-0.0038454577,-0.048491467,4999,4970,0,2,0
653119682,653119588,4259850,4325386,3.3850858e-05,-3.1880045e-05,4.0186555e-06,-0.0017409837,-0.0038411517,-0.048978075,5000,4971,0,2,0
653619609,653619518,4259850,4325386,2.1108704e-05,-4.267659e-05,-6.093677e-06,-0.0018630308,-0.0038403806,-0.04898307,4999,4970,0,2,0
654124739,654124448,4259850,4325386,2.0981526e-05,-6.814745e-05,-1.1444087e-05,-0.001989803,-0.003876336,-0.048804164,4999,4970,0,2,0
654624468,654624378,4259850,4325386,4.1424715e-05,3.4608325e-05,-1.2181687e-05,-0.0019687847,-0.0038583586,-0.048898753,4999,4970,0,2,0
655124402,655124308,4259850,4325386,1.8622595e-05,-5.0815976e-05,-9.821618e-06,-0.0017737828,-0.0038664604,-0.048865072,4999,4971,0,2,0
655624329,655624238,4259850,4325386,1.7149647e-05,-1.409973e-06,8.973849e-06,-0.0017882,-0.0038012075,-0.049140446,4999,4971,0,2,0
656124260,656124168,4259850,4325386,2.3109302e-05,-3.5588335e-05,1.0658994e-05,-0.0018326987,-0.0038653794,-0.048681572,4999,4970,0,2,0
656619191,656619099,4259850,4325386,2.2280406e-05,-2.7583996e-05,1.5374382e-05,-0.001936927,-0.003915972,-0.04917473,5000,4971,0,2,0
657124118,657124028,4259850,4325386,2.1700771e-05,6.343763e-06,-2.8536568e-05,-0.0018633171,-0.0037553648,-0.04870568,5000,4967,0,2,0
657624050,657623957,4259850,4325386,7.4974637e-06,-3.9061666e-05,-6.4948554e-06,-0.0015863188,-0.0037623858,-0.04803443,4999,4970,0,2,0
658123976,658123887,4259850,4325386,5.2078103e-06,-2.375621e-06,3.8925937e-05,-0.0017035577,-0.0038221031,-0.048880022,5000,4970,0,2,0
658624044,658623816,4259850,4325386,1.6592485e-05,-5.865552e-05,6.958861e-06,-0.0019161265,-0.0039010297,-0.049030997,4999,4971,0,2,0
659123835,659123745,4259850,4325386,6.705976e-05,-2.4301578e-05,-8.957183e-06,-0.0020132647,-0.0038972546,-0.049004693,4999,4970,0,2,0
659623767,659623674,4259850,4325386,1.5671274e-05,-4.0843388e-05,4.10805e-05,-0.0020641247,-0.0038878617,-0.048926886,4999,4972,0,2,0
660123708,660123603,4259850,4325386,-3.074919e-05,-4.9086793e-05,-2.7317654e-05,-0.0019429413,-0.0037801433,-0.04842851,4999,4972,0,2,0
660623625,660623532,4259850,4325386,-1.1665123e-05,-3.6523925e-05,2.5433186e-05,-0.0017998824,-0.0037973155,-0.048570976,4999,4971,0,2,0
661123555,661123465,4259850,4325386,2.6489266e-05,-5.3907122e-05,3.843665e-05,-0.0018696045,-0.0038671535,-0.048705213,5004,4971,0,2,0
661623480,661623389,4259850,4325386,1.9146642e-05,-5.5789635e-05,-3.4038956e-05,-0.0018514538,-0.003924939,-0.049249105,4999,4971,0,2,0
662123415,662123318,4259850,4325386,1.3457803e-05,-4.7282465e-05,1.2912912e-05,-0.0019988082,-0.0038184067,-0.048440695,5000,4972,0,2,0
662623337,662623246,4259850,4325386,2.1818714e-05,-4.6415567e-05,-7.287893e-07,-0.0021146114,-0.0038920597,-0.048970282,4999,4971,0,2,0
663123353,663123174,4259850,4325386,5.6675315e-05,-4.6693953e-05,5.9487e-06,-0.0019770465,-0.0038605595,-0.04901451,4999,4972,0,2,0
663623191,663623103,4259850,4325386,3.0966447e-05,-5.279163e-05,3.4784596e-06,-0.0019659274,-0.0038714441,-0.048935458,5000,4971,0,2,0
664123120,664123030,4259850,4325386,5.6287015e-05,-3.5664987e-06,-4.1272783e-06,-0.00191362,-0.0037546793,-0.048894,4999,4971,0,2,0
664623048,664622958,4259850,4325386,-1.1432305e-05,-2.3274244e-05,1.3849694e-06,-0.0018541801,-0.003828593,-0.048517026,4999,4971,0,2,0
665122980,665122886,4259850,4325386,-1.2454784e-05,-5.724162e-05,-3.4552397e-06,-0.0020946309,-0.003885869,-0.048911754,4999,4972,0,2,0
665622907,665622814,4259850,4325386,6.426138e-05,-2.2113347e-05,-1.8962814e-05,-0.002150084,-0.0038229309,-0.04867733,4999,4971,0,2,0
666122832,666122741,4259850,4325386,2.8687475e-05,-2.365735e-05,8.458776e-08,-0.0020019098,-0.0038635454,-0.049045738,4999,4972,0,2,0
666622763,666622669,4259850,4325386,2.6817072e-05,-8.798053e-05,-1.3202474e-05,-0.0020342337,-0.0038204,-0.048463825,5000,4972,0,2,0
667122686,667122596,4259850,4325386,-1.3821495e-05,-4.197521e-05,-1.8752615e-05,-0.0021892393,-0.0038938406,-0.048998557,4999,4972,0,2,0
667622648,667622527,4259850,4325386,-2.7875918e-05,-4.4551357e-06,2.1914227e-06,-0.0021682596,-0.0038402816,-0.0489351,5000,4972,0,2,0
668122554,668122450,4259850,4325386,5.8443802e-05,-3.9522976e-05,-1.969135e-05,-0.0023491238,-0.004249195,-0.0537841,4999,5469,0,2,0
668622467,668622377,4259850,4325386,6.81127e-05,-2.9609553e-05,-1.0956731e-05,-0.0021363432,-0.0038602112,-0.04911957,4999,4972,0,2,0
669122395,669122303,4259850,4325386,3.8472144e-06,-3.1126063e-05,-2.2899785e-05,-0.0020424898,-0.0038653715,-0.048803173,4999,4973,0,2,0
669622322,669622230,4259850,4325386,-2.5543603e-05,-3.935024e-06,2.719183e-06,-0.002185807,-0.0038675347,-0.049105726,4999,4972,0,2,0
670122248,670122156,4259850,4325386,-2.4713037e-05,-2.7995891e-05,-1.8728218e-06,-0.0019683416,-0.0038606774,-0.0495463,4999,4971,0,2,0
670622173,670622083,4259850,4325386,6.207003e-05,-5.8331894e-05,-9.6850745e-06,-0.0021072421,-0.003807514,-0.048701998,5000,4970,0,2,0
671122104,671122009,4259850,4325386,5.8459827e-05,-5.3427088e-05,3.1167543e-05,-0.0021848073,-0.0038550599,-0.04881202,5000,4973,0,2,0
671622024,671621935,4259850,4325386,-2.060693e-05,-4.9377242e-05,-1.3652773e-05,-0.0026491801,-0.0037908049,-0.04843677,4999,4972,0,2,0
672122007,672121861,4259850,4325386,1.1242095e-05,-1.9052539e-05,-6.542273e-06,-0.0021460755,-0.0039165495,-0.049210332,4995,4973,0,2,0
672621885,672621786,4259850,4325386,3.2630043e-05,-2.5412142e-05,1.180944e-05,-0.0019722956,-0.003781043,-0.04897485,4999,4972,0,2,0
673121803,673121712,4259850,4325386,3.0814394e-05,-5.2149928e-05,6.90925e-06,-0.0021579992,-0.003839939,-0.04901959,4999,4972,0,2,0
673626730,673626637,4259850,4325386,1.5336927e-05,-6.669208e-05,1.9541203e-05,-0.0021451495,-0.0038785,-0.04920443,5000,4972,0,2,0
674121653,674121563,4259850,4325386,-2.724203e-05,2.185761e-06,-5.425069e-06,-0.0021474764,-0.0037916566,-0.04918543,5000,4972,0,2,0
674621584,674621488,4259850,4325386,6.499191e-06,-3.511053e-05,2.830093e-05,-0.002092562,-0.0038772004,-0.049007677,4999,4972,0,2,0
675121504,675121413,4259850,4325386,3.4264896e-05,-1.5009607e-05,-6.1071737e-06,-0.0021640488,-0.003871304,-0.049141183,4999,4973,0,2,0
675621433,675621338,4259850,4325386,-2.130962e-06,-6.2384447e-06,-1.11898635e-05,-0.0018953311,-0.003867312,-0.049070887,4999,4973,0,2,0
676121356,676121263,4259850,4325386,1.6955042e-05,-3.5103945e-05,1.7760282e-06,-0.0019591877,-0.0038430502,-0.048938394,4999,4973,0,2,0
676626287,676626187,4259850,4325386,3.508736e-05,-5.69824e-05,4.7109174e-06,-0.002073973,-0.003658415,-0.04854339,4997,4973,0,2,0
677126334,677126111,4259850,4325386,1.4204427e-05,-2.6854414e-05,-2.4255713e-05,-0.0021740217,-0.0038374132,-0.048822112,4999,4973,0,2,0
677621125,677621036,4259850,4325386,2.8595088e-05,-1.6635224e-05,3.097311e-06,-0.0022307215,-0.0038779306,-0.04930094,4999,4973,0,2,0
678121052,678120961,4259850,4325386,3.103964e-05,-7.191609e-06,-5.987319e-06,-0.0022577108,-0.003869599,-0.04931466,5000,4973,0,2,0
678620975,678620885,4259850,4325386,-2.3310435e-05,-6.7752364e-05,-1.7942892e-05,-0.0021432037,-0.0037758788,-0.048682127,5000,4973,0,2,0
679120898,679120809,4259850,4325386,-5.972866e-06,-8.648711e-05,2.7175272e-05,-0.0017902901,-0.0037807913,-0.048505176,4999,4972,0,2,0
679625825,679625732,4259850,4325386,3.9363404e-05,-1.0586377e-05,-1.6545124e-06,-0.002079164,-0.003875684,-0.04881603,4999,4973,0,2,0
680125746,680125656,4259850,4325386,-1.6724041e-06,-1.4551051e-05,-4.1536103e-05,-0.0018634824,-0.0038497716,-0.048545003,5000,4973,0,2,0
680625669,680625579,4259850,4325386,-2.3225402e-06,-5.657786e-05,1.4758058e-06,-0.0017092265,-0.003713655,-0.048398,4999,4973,0,2,0
681120596,681120504,4259850,4325386,1.9220284e-05,-2.4672254e-05,9.563905e-06,-0.0019696981,-0.0038283523,-0.049246073,4999,4973,0,2,0
681620594,681620427,4259850,4325386,1.9623578e-05,-5.2708754e-05,1.2890214e-05,-0.002268736,-0.0037249455,-0.048750423,4999,4973,0,2,0
682120439,682120350,4259850,4325386,3.6148977e-05,-4.496048e-05,2.4851717e-05,-0.0021444664,-0.0038646793,-0.048987087,4999,4973,0,2,0
682625366,682625273,4259850,4325386,-1.2493502e-05,1.9241263e-05,2.339826e-05,-0.0021296332,-0.003758525,-0.048872847,5000,4973,0,2,0
683125286,683125196,4259850,4325386,8.277391e-06,-2.3740573e-05,-1.0746296e-05,-0.002071725,-0.003727191,-0.049193077,5000,4973,0,2,0
683625212,683625119,4259850,4325386,-1.07157275e-05,-4.3061387e-05,-1.3402025e-05,-0.0021403267,-0.0038966176,-0.04902127,5000,4973,0,2,0
684125132,684125041,4259850,4325386,2.19131e-05,-3.9645034e-05,5.0248545e-06,-0.0019454242,-0.0038051682,-0.0485788,4999,4973,0,2,0
684620057,684619964,4259850,4325386,5.5931987e-06,-2.0827945e-05,-2.405978e-05,-0.0019427557,-0.0037427077,-0.04861422,4999,4974,0,2,0
685119977,685119887,4259850,4325386,4.73285e-05,-2.9843783e-05,2.998746e-05,-0.002879043,-0.0041122856,-0.051774923,4999,4974,0,2,0
685624920,685624809,4259850,4325386,-7.2691173e-06,-4.0652296e-05,2.2368526e-05,-0.0021639874,-0.0038713054,-0.049141187,4999,4973,0,2,0
686124822,686124731,4259850,4325386,-1.8325925e-05,-1.9173422e-05,3.1665357e-05,-0.0023598066,-0.0038910224,-0.049353726,4999,4974,0,2,0
686624752,686624653,4259850,4325386,4.0527075e-06,-3.070206e-05,-1.1332121e-05,-0.0023101596,-0.003814789,-0.04880297,4999,4973,0,2,0
687124665,687124575,4259850,4325386,2.984513e-05,-8.479381e-06,-5.9862845e-07,-0.002107614,-0.0038578245,-0.048831265,4999,4974,0,2,0
687624588,687624497,4259850,4325386,-3.502469e-06,-6.229764e-05,-2.0961631e-06,-0.0022568027,-0.003852744,-0.04933583,4999,4974,0,2,0
688119510,688119420,4259850,4325386,3.2568874e-05,-3.2819724e-05,1.0169174e-05,-0.0023452535,-0.0038646292,-0.0491817,5000,4970,0,2,0
688624430,688624340,4259850,4325386,1.0179909e-05,-6.984347e-05,-1.0958073e-05,-0.0025226886,-0.003897909,-0.049257986,4999,4973,0,2,0
689124355,689124262,4259850,4325386,1.0769243e-05,-2.4010957e-05,1.7368578e-05,-0.0025275908,-0.0034121121,-0.048586767,4999,4973,0,2,0
689624272,689624183,4259850,4325386,-2.147459e-06,4.049673e-06,-1.7684393e-05,-0.0022464197,-0.0038034976,-0.048777442,4999,4973,0,2,0
690124263,690124105,4259850,4325386,3.9055773e-05,-8.190995e-05,-1.020796e-05,-0.002429846,-0.00387906,-0.04924917,4999,4974,0,2,0
690624116,690624026,4259850,4325386,4.247252e-05,-2.3854962e-05,1.2565277e-05,-0.0025653504,-0.0033072855,-0.048669185,5000,4973,0,2,0
691124215,691123947,4259850,4325386,3.9188976e-06,-2.000192e-05,-3.6756293e-05,-0.0023724316,-0.0039270963,-0.04934224,4999,4975,0,2,0
691621475,691618868,4259850,4325386,5.813895e-06,-3.189536e-05,-1.4751346e-05,-0.002297574,-0.0038126847,-0.04869746,4999,4975,0,2,0
692123888,692123788,4259850,4325386,1.6487007e-05,-2.940796e-05,1.0007114e-05,-0.0021759914,-0.00378027,-0.048819296,4999,4974,0,2,0
692623810,692623709,4259850,4325386,-7.9803954e-07,-1.7355502e-05,-3.7617403e-05,-0.0022198493,-0.0037925811,-0.04885187,4999,4974,0,2,0
693123722,693123630,4259850,4325386,1.8187258e-05,-2.9141278e-05,2.6385624e-06,-0.0021235484,-0.0038332026,-0.04877868,4999,4974,0,2,0
693623647,693623550,4259850,4325386,2.2680058e-05,-5.0191135e-05,-3.454491e-06,-0.002224586,-0.003856528,-0.048655026,4999,4974,0,2,0
694123565,694123473,4259850,4325386,1.4781924e-05,-4.046888e-05,4.242215e-06,-0.0024029114,-0.0038655004,-0.04876143,5002,4974,0,2,0
694623501,694623392,4259850,4325386,3.362666e-05,-1.5011948e-05,-3.3976376e-05,-0.0025213168,-0.003880275,-0.049269263,5001,4973,0,2,0
695123404,695123310,4259850,4325386,3.6214486e-05,-4.4376495e-05,-8.125987e-09,-0.0021049422,-0.003851843,-0.048774414,4999,4974,0,2,0
695623416,695623230,4259850,4325386,2.4611723e-05,-4.2468844e-05,1.1590618e-05,-0.0023755291,-0.0038458623,-0.04875069,4999,4974,0,2,0
696123241,696123150,4259850,4325386,1.150072e-05,-5.9168608e-05,9.097398e-06,-0.002466697,-0.0038631095,-0.049102895,4999,4974,0,2,0
696623162,696623070,4259850,4325386,6.2181397e-07,3.7679824e-06,-7.343602e-06,-0.0023397154,-0.0038442973,-0.04882304,5000,4975,0,2,0
697123082,697122989,4259850,4325386,1.4063537e-05,-3.093879e-05,-9.809619e-06,-0.002306484,-0.0038035181,-0.048517916,4999,4973,0,2,0
697623000,697622908,4259850,4325386,-7.2452e-06,-8.970428e-06,-1.9871086e-05,-0.0021115132,-0.003856528,-0.048641317,4998,4974,0,2,0
698122923,698122828,4259850,4325386,1.9417994e-05,-2.3639965e-05,-1.8575416e-05,-0.0022936987,-0.0038295845,-0.049124017,4999,4975,0,2,0
698622838,698622747,4259850,4325386,2.1494103e-05,-2.5646148e-05,-4.6104074e-06,-0.00240449,-0.0037373665,-0.049156852,4999,4975,0,2,0
699122761,699122666,4259850,4325386,4.956638e-05,-4.1186573e-05,1.1508068e-05,-0.0022192432,-0.0038445657,-0.04854133,4999,4974,0,2,0
699622675,699622585,4259850,4325386,1.44924115e-05,-2.3323828e-05,-1.1116927e-05,-0.0024839772,-0.003920122,-0.049289852,5000,4975,0,2,0
700122602,700122504,4259850,4325386,-1.2410585e-05,-3.1815227e-05,2.9432613e-05,-0.0023901756,-0.003848504,-0.048866514,5000,4974,0,2,0
700622527,700622422,4259850,4325386,-7.673759e-06,-4.3844266e-05,1.24004455e-05,-0.0023247087,-0.0039013883,-0.04909111,4999,4974,0,2,0
701122430,701122341,4259850,4325386,2.7652426e-05,-2.4946621e-05,1.3040266e-05,-0.0023320296,-0.0038562114,-0.049202025,4999,4975,0,2,0
701622354,701622259,4259850,4325386,3.083897e-05,-3.6941477e-05,2.6582336e-05,-0.002284884,-0.0038817972,-0.048908334,4999,4977,0,2,0
702122266,702122178,4259850,4325386,1.5527847e-05,1.8643359e-05,-4.1664666e-06,-0.002186575,-0.003836958,-0.04882435,5000,4975,0,2,0
702622243,702622096,4259850,4325386,2.7077573e-05,-1.415756e-05,-6.52098e-06,-0.0031834533,-0.00582157,-0.07367024,4999,7462,0,2,0
703122123,703122014,4259850,4325386,1.8979918e-05,6.9051393e-06,9.384268e-06,-0.002232756,-0.0038345095,-0.048982356,4999,4974,0,2,0
703622031,703621932,4259850,4325386,3.8648395e-05,-6.27758e-05,-9.0783615e-06,-0.0021973362,-0.0038830107,-0.048906792,4999,4976,0,2,0
704121958,704121850,4259850,4325386,8.8957095e-06,-8.3095394e-05,-4.830396e-06,-0.0022966003,-0.003882614,-0.04927155,4999,4976,0,2,0
704621861,704621768,4259850,4325386,-1.1632185e-05,-3.856614e-05,-1.9121591e-05,-0.002419284,-0.0038772477,-0.04887683,5000,4975,0,2,0
705126924,705126684,4259850,4325386,-2.5576692e-06,-1.7151e-05,-5.4791226e-06,-0.0023666658,-0.003842248,-0.049074337,4999,4975,0,2,0
705621697,705621604,4259850,4325386,-1.2082647e-05,-5.6240115e-05,-6.490251e-06,-0.0024565845,-0.0038052897,-0.048555255,4999,4974,0,2,0
706121612,706121520,4259850,4325386,3.1418975e-05,-8.080358e-05,3.7298858e-05,-0.0022017143,-0.003760776,-0.048462566,4999,4975,0,2,0
706621531,706621437,4259850,4325386,2.4428564e-05,-2.3157678e-05,-1.3437333e-05,-0.0027959775,-0.0039288863,-0.049412895,4999,4976,0,2,0
707121445,707121354,4259850,4325386,1.0811341e-05,-5.2048523e-05,4.815935e-05,-0.0026297157,-0.0038912043,-0.04903423,4999,4975,0,2,0
707621362,707621272,4259850,4325386,-1.0405567e-05,-3.6873593e-05,-3.588134e-05,-0.002515926,-0.0038361931,-0.048854496,5000,4974,0,2,0
708126280,708126188,4259850,4325386,2.9187222e-06,-5.17879e-05,-1.0806348e-05,-0.0025195326,-0.0038481054,-0.048615973,4999,4976,0,2,0
708626196,708626105,4259850,4325386,2.8539966e-05,-3.025369e-05,2.1275935e-05,-0.002584903,-0.0038891963,-0.049009826,5000,4975,0,2,0
709121116,709121022,4259850,4325386,4.3245404e-05,-2.8636221e-05,-2.4861773e-05,-0.002603216,-0.004033258,-0.050282497,4999,4975,0,2,0
709621110,709620939,4259850,4325386,-1.0339603e-05,2.5197096e-05,-9.984132e-07,-0.002238418,-0.003880019,-0.0488835,4999,4976,0,2,0
710120945,710120855,4259850,4325386,1.2003249e-05,-2.8102786e-05,-6.0548687e-06,-0.002488719,-0.0038698653,-0.049171884,4999,4975,0,2,0
710620864,710620772,4259850,4325386,3.465752e-05,-6.0778653e-05,-1.597513e-05,-0.002258532,-0.0039039545,-0.049112137,4999,4976,0,2,0
711125778,711125687,4259850,4325386,3.8983264e-05,-2.9095367e-05,8.120833e-06,-0.0023523779,-0.0038959752,-0.049048107,4999,4976,0,2,0
711625698,711625604,4259850,4325386,-2.9791057e-05,-2.0162419e-05,1.3392182e-05,-0.001906573,-0.003872258,-0.048767537,5000,4975,0,2,0
712125610,712125520,4259850,4325386,1.700144e-05,-3.2446125e-05,1.6875358e-05,-0.0024389068,-0.0039003915,-0.049095526,5000,4974,0,2,0
712620535,712620437,4259850,4325386,6.325308e-05,-5.2082578e-05,-6.1658584e-06,-0.0025763488,-0.0039026004,-0.04913066,5000,4973,0,2,0
713120443,713120352,4259850,4325386,-1.02303775e-05,1.4089617e-05,1.8017092e-05,-0.002369626,-0.0038596764,-0.04906363,4999,4976,0,2,0
713625362,713625268,4259850,4325386,3.931209e-06,-5.242946e-05,-1.4480825e-06,-0.002427924,-0.0039209086,-0.04929289,5000,4976,0,2,0
714125272,714125183,4259850,4325386,4.7450278e-05,1.4704102e-05,-2.0334344e-06,-0.0023440053,-0.003821656,-0.048787903,4999,4975,0,2,0
714625196,714625099,4259850,4325386,1.3334878e-05,-2.7521164e-05,7.2620296e-06,-0.002141315,-0.0038581998,-0.049197774,4999,4975,0,2,0
715125098,715120015,4259850,4325386,2.1424912e-05,-3.3588622e-06,1.1316628e-05,-0.002280172,-0.0038752502,-0.048841093,4999,4975,0,2,0
715625021,715624930,4259850,4325386,3.8380695e-05,-4.298556e-05,1.0886156e-05,-0.0022935208,-0.0039051643,-0.04912541,4999,4975,0,2,0
716119935,716119846,4259850,4325386,1.998712e-05,-6.383914e-05,1.6563003e-05,-0.002253172,-0.0038991822,-0.049063988,4999,4975,0,2,0
716619850,716619761,4259850,4325386,1.396354e-05,-2.49971e-05,2.8647715e-05,-0.0023325041,-0.0038622862,-0.04872492,4999,4975,0,2,0
717124766,717124675,4259850,4325386,1.0011204e-05,-5.2352352e-05,-2.2834703e-05,-0.0023683195,-0.0038713436,-0.048995495,4999,4976,0,2,0
717624679,717624590,4259850,4325386,2.8846742e-05,-3.4672623e-05,-7.882761e-06,-0.0023606187,-0.0039041655,-0.049124107,4999,4975,0,2,0
718124599,718124505,4259850,4325386,3.4330606e-05,-2.5282605e-05,-4.453031e-06,-0.0024532392,-0.0039281542,-0.049190998,4999,4978,0,2,0
718624510,718624420,4259850,4325386,4.6346933e-05,-1.6919496e-06,2.2515464e-05,-0.0021338437,-0.0038503523,-0.049036056,4999,4976,0,2,0
719124559,719124334,4259850,4325386,3.4588695e-05,-8.764474e-06,-1.5359516e-05,-0.002178202,-0.0038999673,-0.049064722,4999,4976,0,2,0
719619342,719619250,4259850,4325386,1.5226276e-05,-2.8092649e-05,2.4828034e-05,-0.002125868,-0.003867706,-0.048746295,4999,4973,0,2,0
720124253,720124163,4259850,4325386,2.8298235e-05,-6.4380365e-05,-7.725708e-06,-0.0021945017,-0.0038539926,-0.04916693,4999,4976,0,2,0
720624169,720624078,4259850,4325386,2.7066126e-05,-3.0282916e-05,1.5702117e-05,-0.0021975741,-0.0038879453,-0.04922085,4999,4976,0,2,0
721124081,721123992,4259850,4325386,5.289984e-06,-2.0585087e-05,-1.9271187e-05,-0.0022380964,-0.0039041664,-0.049109265,4999,4975,0,2,0
721623997,721623906,4259850,4325386,1.4382802e-05,-2.0248694e-05,5.257777e-06,-0.0023633074,-0.003910148,-0.04918097,4999,4975,0,2,0
722123929,722123820,4259850,4325386,-2.5838694e-05,-1.1409417e-05,2.9457199e-06,-0.002207363,-0.00388032,-0.049060818,4999,4976,0,2,0
722623828,722623735,4259850,4325386,-1.4854984e-05,-8.940536e-07,7.468182e-06,-0.0021788282,-0.0038532617,-0.04888837,5000,4975,0,2,0
723123739,723123648,4259850,4325386,-7.265991e-06,-5.4742814e-05,-2.0143561e-06,-0.0021135043,-0.003895498,-0.04919041,4999,4975,0,2,0
723623689,723623562,4259850,4325386,-1.0484292e-06,-3.0427813e-05,-6.833435e-06,-0.002367994,-0.0038954932,-0.049221206,4999,4975,0,2,0
724123586,724123481,4259850,4325386,-4.2061924e-06,-3.177035e-05,-1.1933465e-05,-0.0022298875,-0.0038319787,-0.04878247,5004,4975,0,2,0
724623480,724623389,4259850,4325386,1.4448087e-05,-1.521585e-05,-4.8403628e-05,-0.0022706925,-0.0038899435,-0.049248558,4999,4976,0,2,0
725123393,725123303,4259850,4325386,2.5251182e-05,-7.923934e-06,3.9518283e-05,-0.0023639211,-0.0038690488,-0.048795037,4999,4976,0,2,0
725623309,725623216,4259850,4325386,1.8957202e-05,-1.5831867e-05,-8.143181e-06,-0.0022298323,-0.0038959763,-0.049033266,4999,4976,0,2,0
726123221,726123130,4259850,4325386,3.3595425e-05,-4.8523772e-05,6.0488996e-06,-0.0021586847,-0.0038733378,-0.04898893,4999,4976,0,2,0
726623136,726623043,4259850,4325386,-6.0278526e-06,-3.2746822e-05,-1.6634738e-05,-0.0021667164,-0.0038244703,-0.048528094,4999,4976,0,2,0
727123046,727122956,4259850,4325386,3.6111025e-05,-7.069837e-05,-5.8311075e-06,-0.0023709147,-0.003845182,-0.048751045,4999,4977,0,2,0
727622960,727622869,4259850,4325386,2.3199304e-05,-2.0633348e-05,7.726736e-06,-0.0023794123,-0.0038876485,-0.04906181,4999,4976,0,2,0
728122889,728122783,4259850,4325386,3.7612117e-05,-4.284784e-05,1.725289e-05,-0.0023614508,-0.0038030879,-0.048973344,5000,4976,0,2,0
728622964,728622695,4259850,4325386,3.8544065e-05,-1.5284444e-05,9.5487e-06,-0.0023669081,-0.0038892946,-0.04916497,4999,4976,0,2,0
729122700,729122608,4259850,4325386,3.7364745e-05,-4.6876103e-05,-6.836549e-07,-0.002380372,-0.0039129304,-0.04921173,4999,4976,0,2,0
729622610,729622521,4259850,4325386,2.570115e-05,-6.435576e-05,-1.2900919e-05,-0.002295398,-0.0038879977,-0.048965808,4999,4976,0,2,0
730122523,730122434,4259850,4325386,1.922495e-05,-2.2295388e-05,-2.3603414e-05,-0.0021601077,-0.0038481748,-0.04875378,5000,4977,0,2,0
730622501,730622346,4259850,4325386,4.9718537e-06,-8.128316e-05,-3.34677e-06,-0.0035102111,-0.0057610725,-0.07314546,4999,7465,0,2,0
731122350,731122259,4259850,4325386,1.0454518e-05,-1.5497702e-05,6.71338e-06,-0.0023546044,-0.0038262384,-0.048569977,4999,4977,0,2,0
731622274,731622171,4259850,4325386,-2.267025e-05,1.1203866e-06,-9.8810315e-06,-0.0022951583,-0.0038693491,-0.048967782,4999,4976,0,2,0
732122176,732122083,4259850,4325386,2.717919e-05,-5.90587e-05,3.4679597e-05,-0.0022920968,-0.0038866035,-0.049308706,4999,4976,0,2,0
732622086,732621996,4259850,4325386,2.6464484e-05,-3.6844576e-05,-2.3579969e-05,-0.0023092132,-0.0039187022,-0.04926005,4999,4977,0,2,0
733127069,733126907,4259850,4325386,1.2510046e-05,-2.5933364e-06,4.2796957e-05,-0.0023198596,-0.003830875,-0.04869877,4999,4977,0,2,0
733621909,733621820,4259850,4325386,-9.309224e-07,-4.00781e-05,-1.4422586e-05,-0.0023879393,-0.003818627,-0.048861172,4999,4978,0,2,0
734121824,734121732,4259850,4325386,1.896535e-05,-1.0724272e-05,7.2252915e-06,-0.0024828846,-0.0038259614,-0.048575487,4999,4974,0,2,0
734621735,734621644,4259850,4325386,2.7421616e-05,-1.8046007e-05,1.49694715e-05,-0.0022733952,-0.0038447164,-0.04891059,4999,4976,0,2,0
735121647,735121556,4259850,4325386,6.879312e-05,-1.933e-05,-9.8203345e-06,-0.0023185632,-0.0037547743,-0.048249334,5000,4978,0,2,0
735621556,735621467,4259850,4325386,4.493584e-06,-1.18741855e-05,7.220662e-06,-0.0025245233,-0.0039117234,-0.04922019,4999,4977,0,2,0
736126472,736126378,4259850,4325386,1.7479813e-05,-1.18796825e-05,-1.14471395e-05,-0.0022596854,-0.0039151683,-0.050379448,4999,4977,0,2,0
736626382,736626290,4259850,4325386,-7.0871665e-06,-2.3639113e-05,-3.446747e-05,-0.0021542832,-0.0039306735,-0.049354408,4999,4977,0,2,0
737121295,737121202,4259850,4325386,4.3940465e-05,-1.3038579e-05,1.3729594e-05,-0.002234213,-0.0037655926,-0.048695385,4999,4977,0,2,0
737621207,737621114,4259850,4325386,3.7441943e-05,-1.01019705e-05,-1.2454696e-05,-0.002213755,-0.0038079356,-0.048469093,4999,4977,0,2,0
738121122,738121025,4259850,4325386,5.182517e-05,-2.3270806e-05,3.930184e-06,-0.002196515,-0.0037299835,-0.04853257,4999,4977,0,2,0
738621025,738620936,4259850,4325386,2.2046524e-05,-9.7675575e-06,3.9914225e-06,-0.0022034873,-0.0038744186,-0.049185287,4999,4977,0,2,0
739126004,739125846,4259850,4325386,3.559757e-05,-5.5053344e-05,2.0468571e-05,-0.0028953454,-0.0058485325,-0.0737193,4999,7465,0,2,0
739625849,739625758,4259850,4325386,1.4045986e-06,-7.616171e-05,1.9409405e-05,-0.0025329485,-0.003937655,-0.04946628,4999,4977,0,2,0
740125774,740125669,4259850,4325386,1.4638482e-05,-0.00010144235,-2.5634137e-05,-0.0022995248,-0.003813942,-0.049154956,4999,4975,0,2,0
740620672,740620580,4259850,4325386,1.68437e-05,-2.4508001e-05,-1.797654e-06,-0.0022735673,-0.0035177707,-0.04876489,4999,4977,0,2,0
741120581,741120491,4259850,4325386,2.961835e-05,-4.485998e-05,-5.3564504e-06,-0.0024365687,-0.0038977554,-0.049077533,4999,4977,0,2,0
741625496,741625401,4259850,4325386,2.9254763e-05,-4.8023263e-05,-5.549105e-05,-0.0025159519,-0.0038115305,-0.0488962,4999,4977,0,2,0
742125406,742125312,4259850,4325386,2.5358968e-05,-7.949826e-05,3.2483583e-06,-0.0025902065,-0.003896544,-0.049087107,4999,4978,0,2,0
742625402,742625223,4259850,4325386,3.92232e-05,2.3953005e-05,8.387223e-06,-0.0024651946,-0.0039248285,-0.0492501,5000,4978,0,2,0
743125223,743125133,4259850,4325386,2.0368705e-05,-2.4483874e-05,2.6675962e-05,-0.0023001528,-0.0038817492,-0.04917716,4999,4977,0,2,0
743625137,743625044,4259850,4325386,2.5971436e-05,-1.7463079e-05,2.5902616e-06,-0.0024254173,-0.0038530459,-0.04891858,4999,4976,0,2,0
744120044,744119955,4259850,4325386,1.5552016e-05,-4.474253e-05,6.6893354e-06,-0.002546429,-0.0038295304,-0.048802644,4999,4977,0,2,0
744619958,744619865,4259850,4325386,8.935387e-06,-4.1055588e-05,1.0348692e-05,-0.0025613643,-0.0038142868,-0.048930332,4999,4978,0,2,0
745124867,745124775,4259850,4325386,4.2799667e-05,-8.4333415e-06,-3.6211914e-06,-0.0025290188,-0.003907731,-0.049183007,4998,4977,0,2,0
745624776,745624685,4259850,4325386,4.6466215e-05,-3.2890035e-05,-1.1601096e-05,-0.0025674659,-0.0038987529,-0.04910282,4999,4977,0,2,0
746124699,746124595,4259850,4325386,3.2276002e-05,-1.1697391e-05,-2.9142686e-06,-0.002160231,-0.0038803197,-0.049055103,4999,4976,0,2,0
746624596,746624505,4259850,4325386,2.8413477e-05,-1.1329904e-05,1.7878276e-05,-0.0021809905,-0.0038431555,-0.048976157,4999,4977,0,2,0
747124582,747124415,4259850,4325386,1.22802485e-05,-3.920657e-05,-1.7226579e-05,-0.0021506187,-0.0038188526,-0.04883207,4999,4977,0,2,0
747619423,747619326,4259850,4325386,3.4061675e-05,-9.6195334e-05,1.0946409e-05,-0.0026452993,-0.0036063367,-0.048933905,4998,4977,0,2,0
748124334,748124235,4259850,4325386,2.327047e-05,-5.834657e-05,1.8257895e-05,-0.002480518,-0.0037583038,-0.048478086,4999,4977,0,2,0
748624235,748624144,4259850,4325386,5.11027e-05,4.9454443e-06,-7.824053e-06,-0.0024033904,-0.0038728516,-0.049286332,4999,4978,0,2,0
749124146,749124054,4259850,4325386,8.951977e-06,-2.5979216e-05,3.6027911e-06,-0.0023436567,-0.0038870003,-0.048962228,4999,4976,0,2,0
749624070,749623963,4259850,4325386,-2.5602201e-05,-3.954906e-05,-2.7712127e-05,-0.0023845108,-0.0038444477,-0.04919138,4998,4977,0,2,0
750123965,750123873,4259850,4325386,1.9826817e-05,-2.8552464e-05,-4.243364e-06,-0.0023899043,-0.0038051894,-0.04891022,4999,4977,0,2,0
750623895,750623783,4259850,4325386,2.3987326e-05,-2.7255988e-05,2.1211596e-05,-0.0024052016,-0.003769532,-0.049020763,5000,4977,0,2,0
751123780,751123692,4259850,4325386,5.3006275e-05,-3.439476e-05,5.2650366e-06,-0.0025409423,-0.0038101356,-0.04924259,4999,4977,0,2,0
751623696,751623603,4259850,4325386,2.4141156e-05,-3.1442953e-05,2.2220518e-05,-0.0023382609,-0.0039025303,-0.04911314,5001,4978,0,2,0
752123718,752123510,4259850,4325386,8.300733e-06,-9.73404e-07,-1.3185397e-05,-0.0023627002,-0.003904739,-0.049134575,4999,4977,0,2,0
752623511,752623419,4259850,4325386,-3.105055e-05,-1.8736357e-05,3.911747e-06,-0.0021185647,-0.0038788025,-0.048859876,4999,4977,0,2,0
753123417,753123328,4259850,4325386,2.036864e-06,-3.3742544e-05,2.3017423e-05,-0.0022130576,-0.0037968955,-0.04863235,4999,4977,0,2,0
753623351,753623237,4259850,4325386,2.0517724e-05,-2.6321653e-05,-3.3168706e-06,-0.002461082,-0.0038562391,-0.04904718,4999,4978,0,2,0
754123237,754123146,4259850,4325386,5.2888347e-05,-4.6379348e-05,2.6228223e-05,-0.0024472976,-0.0037406073,-0.048752487,5000,4977,0,2,0
754623146,754623054,4259850,4325386,-3.6609044e-06,1.8036309e-06,-1.6274751e-05,-0.002368221,-0.0039060328,-0.04932578,4999,4977,0,2,0
755123071,755122963,4259850,4325386,1.1102387e-06,-3.6264842e-05,2.1832744e-05,-0.0022872747,-0.003861003,-0.049073603,4999,4979,0,2,0
755622970,755622872,4259850,4325386,-5.3803697e-06,-4.9431797e-05,-2.0892012e-06,-0.0024184978,-0.0038322455,-0.049082734,5000,4978,0,2,0
756122884,756122780,4259850,4325386,2.9699946e-05,-4.061376e-05,-8.219572e-06,-0.0023689615,-0.0038458395,-0.048846107,4999,4977,0,2,0
756622780,756622689,4259850,4325386,1.9101355e-05,-6.1076535e-05,1.7237633e-05,-0.0022897604,-0.0038180256,-0.048486974,4999,4978,0,2,0
757122694,757122597,4259850,4325386,2.0071184e-06,-2.4406854e-05,2.7681983e-05,-0.0025288216,-0.0038525488,-0.04919882,4999,4978,0,2,0
757622623,757622505,4259850,4325386,1.3490896e-05,-4.0506195e-05,5.986107e-06,-0.002391109,-0.003841003,-0.04916468,4999,4979,0,2,0
758122505,758122413,4259850,4325386,2.2869464e-05,-6.47564e-05,-9.4253655e-06,-0.002378496,-0.0038461182,-0.049124774,4999,4980,0,2,0
758622410,758622321,4259850,4325386,8.051722e-06,1.1409207e-05,-1.7783452e-05,-0.0025862895,-0.0035374886,-0.04872468,4999,4978,0,2,0
759122329,759122229,4259850,4325386,4.547525e-05,-6.002331e-06,1.2090078e-05,-0.0024746954,-0.0038370495,-0.048870098,4999,4979,0,2,0
759622251,759622137,4259850,4325386,-2.2961089e-05,3.2154198e-06,-5.282277e-06,-0.0021747872,-0.0038364094,-0.04873836,4999,4979,0,2,0
760122144,760122045,4259850,4325386,1.3114991e-05,-4.8204933e-05,-8.606493e-06,-0.0022683651,-0.00378765,-0.0488214,4999,4978,0,2,0
760622050,760621953,4259850,4325386,5.5323344e-05,6.1581322e-06,-1.6075153e-05,-0.0024548343,-0.003796141,-0.048480943,4999,4979,0,2,0
