timestamp,timestamp_sample,gps_hvel[0],gps_hvel[1],gps_vvel,gps_hpos[0],gps_hpos[1],gps_vpos,ev_hvel[0],ev_hvel[1],ev_vvel,ev_hpos[0],ev_hpos[1],ev_vpos,rng_vpos,baro_vpos,aux_hvel[0],aux_hvel[1],aux_vvel,flow[0],flow[1],heading,mag_field[0],mag_field[1],mag_field[2],drag[0],drag[1],airspeed,beta,hagl,hagl_rate
539718524,539618148,0.0011711239,0.0,0.002409269,0.0006255206,0.0,0.0,0.0,0.0,0.0,0.0,0.0,0.0,0.0,0.0002885316,0.0,0.0,nan,0.0,0.0,0.00020228032,0.0,0.0,0.0,0.0,0.0,0.0,0.0,0.0,0.0
540218401,540118090,4.1021376e-05,0.0,0.0010191761,0.00092402747,0.0,0.0,0.0,0.0,0.0,0.0,0.0,0.0,0.0,6.371931e-05,0.0,0.0,nan,0.0,0.0,7.5607086e-06,0.0,0.0,0.0,0.0,0.0,0.0,0.0,0.0,0.0
540728366,540628031,0.00093801616,0.0,5.9543487e-05,0.0011904449,0.0,0.0,0.0,0.0,0.0,0.0,0.0,0.0,0.0,1.0378038e-05,0.0,0.0,nan,0.0,0.0,0.00027073227,0.0,0.0,0.0,0.0,0.0,0.0,0.0,0.0,0.0
541218278,541117975,0.00034648846,0.0,5.20013e-05,0.0010256198,0.0,0.0,0.0,0.0,0.0,0.0,0.0,0.0,0.0,4.5522106e-06,0.0,0.0,nan,0.0,0.0,0.00014990279,0.0,0.0,0.0,0.0,0.0,0.0,0.0,0.0,0.0
541718785,541617918,4.389248e-05,0.0,2.442306e-06,0.0007112519,0.0,0.0,0.0,0.0,0.0,0.0,0.0,0.0,0.0,2.0922307e-06,0.0,0.0,nan,0.0,0.0,5.5177843e-05,0.0,0.0,0.0,0.0,0.0,0.0,0.0,0.0,0.0
542218231,542117860,0.0014374618,0.0,0.0003981314,0.00067144696,0.0,0.0,0.0,0.0,0.0,0.0,0.0,0.0,0.0,4.3369084e-05,0.0,0.0,nan,0.0,0.0,3.984497e-05,0.0,0.0,0.0,0.0,0.0,0.0,0.0,0.0,0.0
542718125,542617803,0.002256071,0.0,5.366784e-05,0.0004949397,0.0,0.0,0.0,0.0,0.0,0.0,0.0,0.0,0.0,6.7363486e-05,0.0,0.0,nan,0.0,0.0,1.7619368e-05,0.0,0.0,0.0,0.0,0.0,0.0,0.0,0.0,0.0
543218179,543117746,0.0056591146,0.0,2.3126811e-05,0.00046153984,0.0,0.0,0.0,0.0,0.0,0.0,0.0,0.0,0.0,6.001991e-06,0.0,0.0,nan,0.0,0.0,0.00019163328,0.0,0.0,0.0,0.0,0.0,0.0,0.0,0.0,0.0
543728046,543627687,0.0011124128,0.0,7.955645e-05,0.0002370366,0.0,0.0,0.0,0.0,0.0,0.0,0.0,0.0,0.0,4.98008e-05,0.0,0.0,nan,0.0,0.0,0.00083991006,0.0,0.0,0.0,0.0,0.0,0.0,0.0,0.0,0.0
544227936,544127630,0.004872365,0.0,1.128172e-06,0.00013062319,0.0,0.0,0.0,0.0,0.0,0.0,0.0,0.0,0.0,0.0003067117,0.0,0.0,nan,0.0,0.0,9.9165245e-06,0.0,0.0,0.0,0.0,0.0,0.0,0.0,0.0,0.0
544717882,544617573,0.002435377,0.0,1.4397169e-05,8.22316e-05,0.0,0.0,0.0,0.0,0.0,0.0,0.0,0.0,0.0,4.6012774e-06,0.0,0.0,nan,0.0,0.0,0.00028173957,0.0,0.0,0.0,0.0,0.0,0.0,0.0,0.0,0.0
545217869,545117516,0.0023442742,0.0,0.00010260032,9.519859e-05,0.0,0.0,0.0,0.0,0.0,0.0,0.0,0.0,0.0,3.058736e-05,0.0,0.0,nan,0.0,0.0,9.905233e-06,0.0,0.0,0.0,0.0,0.0,0.0,0.0,0.0,0.0
545718054,545617459,0.0001737814,0.0,1.0454138e-06,0.00011189722,0.0,0.0,0.0,0.0,0.0,0.0,0.0,0.0,0.0,0.00050378,0.0,0.0,nan,0.0,0.0,0.00059443054,0.0,0.0,0.0,0.0,0.0,0.0,0.0,0.0,0.0
546217896,546117402,0.00034138374,0.0,3.2016789e-07,8.405114e-05,0.0,0.0,0.0,0.0,0.0,0.0,0.0,0.0,0.0,8.322091e-06,0.0,0.0,nan,0.0,0.0,0.00014797783,0.0,0.0,0.0,0.0,0.0,0.0,0.0,0.0,0.0
546727831,546627344,0.0015542781,0.0,0.00059991365,1.905304e-05,0.0,0.0,0.0,0.0,0.0,0.0,0.0,0.0,0.0,0.00013816958,0.0,0.0,nan,0.0,0.0,2.904804e-06,0.0,0.0,0.0,0.0,0.0,0.0,0.0,0.0,0.0
547227591,547127286,0.0023791087,0.0,0.0013621559,4.6495963e-05,0.0,0.0,0.0,0.0,0.0,0.0,0.0,0.0,0.0,2.5921913e-06,0.0,0.0,nan,0.0,0.0,0.0003303579,0.0,0.0,0.0,0.0,0.0,0.0,0.0,0.0,0.0
547727541,547627229,0.0049157436,0.0,0.00082261016,0.00010141981,0.0,0.0,0.0,0.0,0.0,0.0,0.0,0.0,0.0,1.2003354e-06,0.0,0.0,nan,0.0,0.0,0.0001374611,0.0,0.0,0.0,0.0,0.0,0.0,0.0,0.0,0.0
548217566,548117174,0.0024699958,0.0,0.0017625046,0.00012558451,0.0,0.0,0.0,0.0,0.0,0.0,0.0,0.0,0.0,0.00016482653,0.0,0.0,nan,0.0,0.0,2.510655e-05,0.0,0.0,0.0,0.0,0.0,0.0,0.0,0.0,0.0
548717572,548617117,0.00050956773,0.0,0.0012253053,0.00010035099,0.0,0.0,0.0,0.0,0.0,0.0,0.0,0.0,0.0,0.00042589425,0.0,0.0,nan,0.0,0.0,7.178055e-06,0.0,0.0,0.0,0.0,0.0,0.0,0.0,0.0,0.0
549217390,549117060,0.0028660176,0.0,0.0015121927,7.543217e-05,0.0,0.0,0.0,0.0,0.0,0.0,0.0,0.0,0.0,0.000112743415,0.0,0.0,nan,0.0,0.0,0.00039649592,0.0,0.0,0.0,0.0,0.0,0.0,0.0,0.0,0.0
549727308,549627002,0.0016157958,0.0,0.00023473485,0.00023771793,0.0,0.0,0.0,0.0,0.0,0.0,0.0,0.0,0.0,0.00015396043,0.0,0.0,nan,0.0,0.0,0.0004337915,0.0,0.0,0.0,0.0,0.0,0.0,0.0,0.0,0.0
550227411,550126945,0.001459052,0.0,0.0006108773,0.00018008762,0.0,0.0,0.0,0.0,0.0,0.0,0.0,0.0,0.0,0.00012227759,0.0,0.0,nan,0.0,0.0,6.397338e-05,0.0,0.0,0.0,0.0,0.0,0.0,0.0,0.0,0.0
550727348,550626888,0.0010951523,0.0,0.0007612126,9.907233e-05,0.0,0.0,0.0,0.0,0.0,0.0,0.0,0.0,0.0,0.00053520786,0.0,0.0,nan,0.0,0.0,1.8957873e-05,0.0,0.0,0.0,0.0,0.0,0.0,0.0,0.0,0.0
551227151,551126832,0.0004011551,0.0,7.1808013e-06,0.00014716576,0.0,0.0,0.0,0.0,0.0,0.0,0.0,0.0,0.0,0.0002753556,0.0,0.0,nan,0.0,0.0,0.00065600977,0.0,0.0,0.0,0.0,0.0,0.0,0.0,0.0,0.0
551717442,551616776,3.1374955e-05,0.0,0.00048411678,0.00027465716,0.0,0.0,0.0,0.0,0.0,0.0,0.0,0.0,0.0,2.7440676e-05,0.0,0.0,nan,0.0,0.0,0.00013225737,0.0,0.0,0.0,0.0,0.0,0.0,0.0,0.0,0.0
552217023,552116719,0.00077263796,0.0,2.826051e-06,0.00040533347,0.0,0.0,0.0,0.0,0.0,0.0,0.0,0.0,0.0,0.00029553106,0.0,0.0,nan,0.0,0.0,3.463326e-05,0.0,0.0,0.0,0.0,0.0,0.0,0.0,0.0,0.0
552717030,552616663,0.0032328498,0.0,0.00095005357,0.0006073642,0.0,0.0,0.0,0.0,0.0,0.0,0.0,0.0,0.0,0.00023872459,0.0,0.0,nan,0.0,0.0,0.0020008313,0.0,0.0,0.0,0.0,0.0,0.0,0.0,0.0,0.0
553227024,553126605,0.0007400887,0.0,0.00022825952,0.00050177186,0.0,0.0,0.0,0.0,0.0,0.0,0.0,0.0,0.0,2.9071045e-06,0.0,0.0,nan,0.0,0.0,1.823005e-05,0.0,0.0,0.0,0.0,0.0,0.0,0.0,0.0,0.0
553726860,553626549,0.0018511331,0.0,0.00012963483,0.00045435567,0.0,0.0,0.0,0.0,0.0,0.0,0.0,0.0,0.0,0.00015216027,0.0,0.0,nan,0.0,0.0,2.1998983e-05,0.0,0.0,0.0,0.0,0.0,0.0,0.0,0.0,0.0
554226882,554126493,0.0085111335,0.0,2.05883e-05,0.00033453145,0.0,0.0,0.0,0.0,0.0,0.0,0.0,0.0,0.0,0.00010519668,0.0,0.0,nan,0.0,0.0,0.0024709639,0.0,0.0,0.0,0.0,0.0,0.0,0.0,0.0,0.0
554726745,554626436,0.0010600146,0.0,0.00023608944,0.00015348333,0.0,0.0,0.0,0.0,0.0,0.0,0.0,0.0,0.0,0.00013434903,0.0,0.0,nan,0.0,0.0,0.00019144782,0.0,0.0,0.0,0.0,0.0,0.0,0.0,0.0,0.0
555216953,555116380,0.007900962,0.0,0.0012749541,0.00019547406,0.0,0.0,0.0,0.0,0.0,0.0,0.0,0.0,0.0,6.0694496e-05,0.0,0.0,nan,0.0,0.0,9.29353e-05,0.0,0.0,0.0,0.0,0.0,0.0,0.0,0.0,0.0
555717061,555616324,0.00024541694,0.0,0.00019214537,6.2848485e-05,0.0,0.0,0.0,0.0,0.0,0.0,0.0,0.0,0.0,3.3878965e-05,0.0,0.0,nan,0.0,0.0,0.0013504756,0.0,0.0,0.0,0.0,0.0,0.0,0.0,0.0,0.0
556226641,556126267,0.0028004583,0.0,0.0001243896,0.00011710995,0.0,0.0,0.0,0.0,0.0,0.0,0.0,0.0,0.0,0.00020330677,0.0,0.0,nan,0.0,0.0,0.00032947696,0.0,0.0,0.0,0.0,0.0,0.0,0.0,0.0,0.0
556726547,556626211,0.000580078,0.0,6.509788e-05,0.000117869524,0.0,0.0,0.0,0.0,0.0,0.0,0.0,0.0,0.0,5.2306204e-06,0.0,0.0,nan,0.0,0.0,3.9249635e-06,0.0,0.0,0.0,0.0,0.0,0.0,0.0,0.0,0.0
557226529,557126155,0.0043631066,0.0,0.00014083301,0.00013050721,0.0,0.0,0.0,0.0,0.0,0.0,0.0,0.0,0.0,1.46521e-05,0.0,0.0,nan,0.0,0.0,4.7064965e-05,0.0,0.0,0.0,0.0,0.0,0.0,0.0,0.0,0.0
557726752,557626099,0.0011471434,0.0,1.1661295e-05,0.0002353033,0.0,0.0,0.0,0.0,0.0,0.0,0.0,0.0,0.0,3.3145676e-05,0.0,0.0,nan,0.0,0.0,0.0011971657,0.0,0.0,0.0,0.0,0.0,0.0,0.0,0.0,0.0
558226456,558126043,0.0008599187,0.0,0.0010929663,0.0003008657,0.0,0.0,0.0,0.0,0.0,0.0,0.0,0.0,0.0,5.3335402e-06,0.0,0.0,nan,0.0,0.0,0.00015556028,0.0,0.0,0.0,0.0,0.0,0.0,0.0,0.0,0.0
558716683,558615987,0.0055242917,0.0,2.5616611e-05,6.962093e-05,0.0,0.0,0.0,0.0,0.0,0.0,0.0,0.0,0.0,1.1901442e-05,0.0,0.0,nan,0.0,0.0,5.592784e-06,0.0,0.0,0.0,0.0,0.0,0.0,0.0,0.0,0.0
559226300,559125931,0.003972677,0.0,0.00030215143,8.32931e-05,0.0,0.0,0.0,0.0,0.0,0.0,0.0,0.0,0.0,0.0007888877,0.0,0.0,nan,0.0,0.0,0.00056000333,0.0,0.0,0.0,0.0,0.0,0.0,0.0,0.0,0.0
559726482,559625874,0.00043595646,0.0,0.00036470353,1.2035685e-05,0.0,0.0,0.0,0.0,0.0,0.0,0.0,0.0,0.0,2.3669702e-06,0.0,0.0,nan,0.0,0.0,1.6040658e-05,0.0,0.0,0.0,0.0,0.0,0.0,0.0,0.0,0.0
560226146,560125819,0.0028941035,0.0,2.0828193e-06,3.240695e-05,0.0,0.0,0.0,0.0,0.0,0.0,0.0,0.0,0.0,2.2925872e-06,0.0,0.0,nan,0.0,0.0,0.0010164125,0.0,0.0,0.0,0.0,0.0,0.0,0.0,0.0,0.0
560726072,560625763,0.0030337663,0.0,6.0189373e-06,3.4260447e-05,0.0,0.0,0.0,0.0,0.0,0.0,0.0,0.0,0.0,9.49755e-07,0.0,0.0,nan,0.0,0.0,3.293517e-05,0.0,0.0,0.0,0.0,0.0,0.0,0.0,0.0,0.0
561226070,561125707,0.004271408,0.0,3.1828244e-05,0.00023124636,0.0,0.0,0.0,0.0,0.0,0.0,0.0,0.0,0.0,2.3591425e-05,0.0,0.0,nan,0.0,0.0,8.110553e-05,0.0,0.0,0.0,0.0,0.0,0.0,0.0,0.0,0.0
561726007,561625651,0.0013646999,0.0,0.00087482005,0.00019346691,0.0,0.0,0.0,0.0,0.0,0.0,0.0,0.0,0.0,1.0932783e-05,0.0,0.0,nan,0.0,0.0,0.0009715756,0.0,0.0,0.0,0.0,0.0,0.0,0.0,0.0,0.0
562215929,562115597,0.00015954005,0.0,3.3199728e-06,0.00027183324,0.0,0.0,0.0,0.0,0.0,0.0,0.0,0.0,0.0,0.00018998694,0.0,0.0,nan,0.0,0.0,0.000519992,0.0,0.0,0.0,0.0,0.0,0.0,0.0,0.0,0.0
562725850,562625540,0.0002786688,0.0,0.00011168613,0.00041079713,0.0,0.0,0.0,0.0,0.0,0.0,0.0,0.0,0.0,3.6235626e-05,0.0,0.0,nan,0.0,0.0,0.009284163,0.0,0.0,0.0,0.0,0.0,0.0,0.0,0.0,0.0
563225796,563125485,0.003594749,0.0,0.00029974701,0.00077048276,0.0,0.0,0.0,0.0,0.0,0.0,0.0,0.0,0.0,0.0002635024,0.0,0.0,nan,0.0,0.0,0.006122962,0.0,0.0,0.0,0.0,0.0,0.0,0.0,0.0,0.0
563725763,563625428,0.0009485152,0.0,7.949214e-09,0.0016882266,0.0,0.0,0.0,0.0,0.0,0.0,0.0,0.0,0.0,9.3145886e-08,0.0,0.0,nan,0.0,0.0,0.005510643,0.0,0.0,0.0,0.0,0.0,0.0,0.0,0.0,0.0
564225852,564125373,0.0031701971,0.0,0.0005510719,0.001907414,0.0,0.0,0.0,0.0,0.0,0.0,0.0,0.0,0.0,7.433907e-05,0.0,0.0,nan,0.0,0.0,0.005632069,0.0,0.0,0.0,0.0,0.0,0.0,0.0,0.0,0.0
564725661,564625317,0.00768231,0.0,0.000118179305,0.0023526547,0.0,0.0,0.0,0.0,0.0,0.0,0.0,0.0,0.0,4.0240524e-05,0.0,0.0,nan,0.0,0.0,0.006091854,0.0,0.0,0.0,0.0,0.0,0.0,0.0,0.0,0.0
565225567,565125262,0.0011398223,0.0,0.000117537005,0.0028860362,0.0,0.0,0.0,0.0,0.0,0.0,0.0,0.0,0.0,3.062553e-05,0.0,0.0,nan,0.0,0.0,0.004342111,0.0,0.0,0.0,0.0,0.0,0.0,0.0,0.0,0.0
565725650,565625206,0.00052704185,0.0,0.0010283593,0.0031515774,0.0,0.0,0.0,0.0,0.0,0.0,0.0,0.0,0.0,5.680844e-05,0.0,0.0,nan,0.0,0.0,0.005647996,0.0,0.0,0.0,0.0,0.0,0.0,0.0,0.0,0.0
566218060,566115152,0.0003239233,0.0,0.0014470764,0.0027014613,0.0,0.0,0.0,0.0,0.0,0.0,0.0,0.0,0.0,0.00018263258,0.0,0.0,nan,0.0,0.0,0.0047959513,0.0,0.0,0.0,0.0,0.0,0.0,0.0,0.0,0.0
566725400,566625095,0.011191437,0.0,5.5294797e-05,0.0017607971,0.0,0.0,0.0,0.0,0.0,0.0,0.0,0.0,0.0,0.00015735882,0.0,0.0,nan,0.0,0.0,0.00497089,0.0,0.0,0.0,0.0,0.0,0.0,0.0,0.0,0.0
567225348,567125040,0.0011696239,0.0,0.00071626104,0.0014742981,0.0,0.0,0.0,0.0,0.0,0.0,0.0,0.0,0.0,8.9433066e-05,0.0,0.0,nan,0.0,0.0,0.0053335344,0.0,0.0,0.0,0.0,0.0,0.0,0.0,0.0,0.0
567715768,567614985,0.027407182,0.0,0.00038031777,0.001717017,0.0,0.0,0.0,0.0,0.0,0.0,0.0,0.0,0.0,4.228045e-06,0.0,0.0,nan,0.0,0.0,0.0028818818,0.0,0.0,0.0,0.0,0.0,0.0,0.0,0.0,0.0
568225284,568124929,0.0025880085,0.0,0.00054300466,0.001521563,0.0,0.0,0.0,0.0,0.0,0.0,0.0,0.0,0.0,0.00018101041,0.0,0.0,nan,0.0,0.0,0.0059417766,0.0,0.0,0.0,0.0,0.0,0.0,0.0,0.0,0.0
568725337,568624873,0.10368025,0.0,0.00038367597,0.0012173791,0.0,0.0,0.0,0.0,0.0,0.0,0.0,0.0,0.0,0.00037483542,0.0,0.0,nan,0.0,0.0,0.0056936936,0.0,0.0,0.0,0.0,0.0,0.0,0.0,0.0,0.0
569225258,569124818,0.0043037147,0.0,0.0031916273,0.0013553633,0.0,0.0,0.0,0.0,0.0,0.0,0.0,0.0,0.0,0.0001824868,0.0,0.0,nan,0.0,0.0,0.0043539843,0.0,0.0,0.0,0.0,0.0,0.0,0.0,0.0,0.0
569725128,569624763,0.001452382,0.0,0.001347592,0.0010513129,0.0,0.0,0.0,0.0,0.0,0.0,0.0,0.0,0.0,3.755923e-05,0.0,0.0,nan,0.0,0.0,0.0047322293,0.0,0.0,0.0,0.0,0.0,0.0,0.0,0.0,0.0
570225014,570124707,0.0032756827,0.0,0.00012540263,0.0011108533,0.0,0.0,0.0,0.0,0.0,0.0,0.0,0.0,0.0,0.00056659715,0.0,0.0,nan,0.0,0.0,0.004433519,0.0,0.0,0.0,0.0,0.0,0.0,0.0,0.0,0.0
570724959,570624652,0.0024612355,0.0,0.000105532476,0.00061197334,0.0,0.0,0.0,0.0,0.0,0.0,0.0,0.0,0.0,0.00029118193,0.0,0.0,nan,0.0,0.0,0.004521221,0.0,0.0,0.0,0.0,0.0,0.0,0.0,0.0,0.0
571224903,571124597,0.0015531123,0.0,0.00157822,0.00047611774,0.0,0.0,0.0,0.0,0.0,0.0,0.0,0.0,0.0,7.97386e-05,0.0,0.0,nan,0.0,0.0,0.0026603234,0.0,0.0,0.0,0.0,0.0,0.0,0.0,0.0,0.0
571724909,571624541,0.00034499858,0.0,0.00031224798,0.00018942179,0.0,0.0,0.0,0.0,0.0,0.0,0.0,0.0,0.0,3.7129204e-05,0.0,0.0,nan,0.0,0.0,0.004178243,0.0,0.0,0.0,0.0,0.0,0.0,0.0,0.0,0.0
572224797,572124490,0.0030331428,0.0,0.00057001197,0.00032753698,0.0,0.0,0.0,0.0,0.0,0.0,0.0,0.0,0.0,0.00023506791,0.0,0.0,nan,0.0,0.0,0.0039731655,0.0,0.0,0.0,0.0,0.0,0.0,0.0,0.0,0.0
572724824,572624430,0.0029728047,0.0,0.0001453754,0.0003396612,0.0,0.0,0.0,0.0,0.0,0.0,0.0,0.0,0.0,3.6348185e-05,0.0,0.0,nan,0.0,0.0,0.0031634187,0.0,0.0,0.0,0.0,0.0,0.0,0.0,0.0,0.0
573224848,573124375,0.0023414306,0.0,2.1727787e-05,0.00040031134,0.0,0.0,0.0,0.0,0.0,0.0,0.0,0.0,0.0,0.00013655235,0.0,0.0,nan,0.0,0.0,0.001986278,0.0,0.0,0.0,0.0,0.0,0.0,0.0,0.0,0.0
573725103,573624320,0.00056666497,0.0,7.902183e-06,0.0008697846,0.0,0.0,0.0,0.0,0.0,0.0,0.0,0.0,0.0,1.5343936e-05,0.0,0.0,nan,0.0,0.0,0.0024706263,0.0,0.0,0.0,0.0,0.0,0.0,0.0,0.0,0.0
574224647,574124264,0.003613169,0.0,2.1601461e-05,0.001387784,0.0,0.0,0.0,0.0,0.0,0.0,0.0,0.0,0.0,8.9735986e-05,0.0,0.0,nan,0.0,0.0,0.007400303,0.0,0.0,0.0,0.0,0.0,0.0,0.0,0.0,0.0
574724576,574624209,0.0011059244,0.0,1.228325e-05,0.0014220228,0.0,0.0,0.0,0.0,0.0,0.0,0.0,0.0,0.0,0.00038895357,0.0,0.0,nan,0.0,0.0,0.008338542,0.0,0.0,0.0,0.0,0.0,0.0,0.0,0.0,0.0
575224485,575124153,0.00014072034,0.0,0.00016326073,0.0014233458,0.0,0.0,0.0,0.0,0.0,0.0,0.0,0.0,0.0,4.6402623e-05,0.0,0.0,nan,0.0,0.0,0.007703491,0.0,0.0,0.0,0.0,0.0,0.0,0.0,0.0,0.0
575724436,575624098,0.010396829,0.0,0.00028003854,0.00151998,0.0,0.0,0.0,0.0,0.0,0.0,0.0,0.0,0.0,0.00010285468,0.0,0.0,nan,0.0,0.0,0.0075293505,0.0,0.0,0.0,0.0,0.0,0.0,0.0,0.0,0.0
576224356,576124043,0.0030426087,0.0,0.00041745006,0.0012243546,0.0,0.0,0.0,0.0,0.0,0.0,0.0,0.0,0.0,0.00029800506,0.0,0.0,nan,0.0,0.0,0.008893455,0.0,0.0,0.0,0.0,0.0,0.0,0.0,0.0,0.0
576724334,576623988,0.0005652408,0.0,1.7405087e-06,0.0012988949,0.0,0.0,0.0,0.0,0.0,0.0,0.0,0.0,0.0,0.0001948891,0.0,0.0,nan,0.0,0.0,0.0065084402,0.0,0.0,0.0,0.0,0.0,0.0,0.0,0.0,0.0
577224381,577123932,0.0018182755,0.0,0.00046407167,0.0011693217,0.0,0.0,0.0,0.0,0.0,0.0,0.0,0.0,0.0,2.3867171e-05,0.0,0.0,nan,0.0,0.0,0.006612525,0.0,0.0,0.0,0.0,0.0,0.0,0.0,0.0,0.0
577724360,577623877,0.0025385874,0.0,0.00010924612,0.0012845509,0.0,0.0,0.0,0.0,0.0,0.0,0.0,0.0,0.0,0.00041493538,0.0,0.0,nan,0.0,0.0,0.0029777107,0.0,0.0,0.0,0.0,0.0,0.0,0.0,0.0,0.0
578224154,578123821,0.0016747976,0.0,5.7446177e-06,0.001037182,0.0,0.0,0.0,0.0,0.0,0.0,0.0,0.0,0.0,0.0002721046,0.0,0.0,nan,0.0,0.0,0.005482958,0.0,0.0,0.0,0.0,0.0,0.0,0.0,0.0,0.0
578724112,578623766,6.6330766e-05,0.0,2.199813e-05,0.0009142892,0.0,0.0,0.0,0.0,0.0,0.0,0.0,0.0,0.0,0.00043243932,0.0,0.0,nan,0.0,0.0,0.011969365,0.0,0.0,0.0,0.0,0.0,0.0,0.0,0.0,0.0
579224143,579123710,0.0010310344,0.0,0.0008543835,0.0009209321,0.0,0.0,0.0,0.0,0.0,0.0,0.0,0.0,0.0,1.4501837e-05,0.0,0.0,nan,0.0,0.0,0.014901586,0.0,0.0,0.0,0.0,0.0,0.0,0.0,0.0,0.0
579724008,579623655,0.0030444101,0.0,3.000384e-05,0.00079400727,0.0,0.0,0.0,0.0,0.0,0.0,0.0,0.0,0.0,6.9879393e-06,0.0,0.0,nan,0.0,0.0,0.011014973,0.0,0.0,0.0,0.0,0.0,0.0,0.0,0.0,0.0
580223929,580123599,0.0029754327,0.0,0.00030196545,0.0011329454,0.0,0.0,0.0,0.0,0.0,0.0,0.0,0.0,0.0,3.4536524e-06,0.0,0.0,nan,0.0,0.0,0.011778637,0.0,0.0,0.0,0.0,0.0,0.0,0.0,0.0,0.0
580723931,580623543,0.0011119755,0.0,0.000396685,0.0008814982,0.0,0.0,0.0,0.0,0.0,0.0,0.0,0.0,0.0,3.1668755e-05,0.0,0.0,nan,0.0,0.0,0.019649705,0.0,0.0,0.0,0.0,0.0,0.0,0.0,0.0,0.0
581223891,581123488,0.009457116,0.0,0.0009649419,0.0014179316,0.0,0.0,0.0,0.0,0.0,0.0,0.0,0.0,0.0,6.960554e-06,0.0,0.0,nan,0.0,0.0,0.013852615,0.0,0.0,0.0,0.0,0.0,0.0,0.0,0.0,0.0
581723756,581623433,0.005251539,0.0,0.004269126,0.0019397205,0.0,0.0,0.0,0.0,0.0,0.0,0.0,0.0,0.0,1.3839406e-06,0.0,0.0,nan,0.0,0.0,0.0067783305,0.0,0.0,0.0,0.0,0.0,0.0,0.0,0.0,0.0
582223900,582123377,0.000631615,0.0,0.0012378483,0.0010122353,0.0,0.0,0.0,0.0,0.0,0.0,0.0,0.0,0.0,2.8183078e-05,0.0,0.0,nan,0.0,0.0,0.005949524,0.0,0.0,0.0,0.0,0.0,0.0,0.0,0.0,0.0
582723787,582623321,0.00033668955,0.0,7.613054e-06,0.00028777175,0.0,0.0,0.0,0.0,0.0,0.0,0.0,0.0,0.0,3.501843e-05,0.0,0.0,nan,0.0,0.0,0.0050527616,0.0,0.0,0.0,0.0,0.0,0.0,0.0,0.0,0.0
583223661,583123265,0.0027894338,0.0,0.00040995207,0.00018605943,0.0,0.0,0.0,0.0,0.0,0.0,0.0,0.0,0.0,7.4900277e-06,0.0,0.0,nan,0.0,0.0,0.006056284,0.0,0.0,0.0,0.0,0.0,0.0,0.0,0.0,0.0
583723572,583623209,0.001937128,0.0,2.8678116e-05,0.0001885759,0.0,0.0,0.0,0.0,0.0,0.0,0.0,0.0,0.0,7.436078e-05,0.0,0.0,nan,0.0,0.0,0.0051234104,0.0,0.0,0.0,0.0,0.0,0.0,0.0,0.0,0.0
584223497,584123154,0.011291921,0.0,0.0006380926,0.0001709559,0.0,0.0,0.0,0.0,0.0,0.0,0.0,0.0,0.0,2.548243e-06,0.0,0.0,nan,0.0,0.0,0.0035303454,0.0,0.0,0.0,0.0,0.0,0.0,0.0,0.0,0.0
584723451,584623097,0.0043100864,0.0,0.00012908841,6.765971e-05,0.0,0.0,0.0,0.0,0.0,0.0,0.0,0.0,0.0,1.649639e-05,0.0,0.0,nan,0.0,0.0,0.0062977397,0.0,0.0,0.0,0.0,0.0,0.0,0.0,0.0,0.0
585223406,585123042,0.007673282,0.0,3.2311527e-05,0.00012139412,0.0,0.0,0.0,0.0,0.0,0.0,0.0,0.0,0.0,4.4015547e-07,0.0,0.0,nan,0.0,0.0,0.004141568,0.0,0.0,0.0,0.0,0.0,0.0,0.0,0.0,0.0
585723420,585622985,0.0003983116,0.0,1.3363717e-06,4.52799e-05,0.0,0.0,0.0,0.0,0.0,0.0,0.0,0.0,0.0,1.0332094e-05,0.0,0.0,nan,0.0,0.0,0.005197738,0.0,0.0,0.0,0.0,0.0,0.0,0.0,0.0,0.0
586223233,586122930,0.00037141866,0.0,0.00016755446,2.7062484e-05,0.0,0.0,0.0,0.0,0.0,0.0,0.0,0.0,0.0,6.6222055e-05,0.0,0.0,nan,0.0,0.0,0.007670539,0.0,0.0,0.0,0.0,0.0,0.0,0.0,0.0,0.0
586723338,586622873,0.005933502,0.0,0.0012463651,4.0733134e-06,0.0,0.0,0.0,0.0,0.0,0.0,0.0,0.0,0.0,8.165563e-05,0.0,0.0,nan,0.0,0.0,0.0073114843,0.0,0.0,0.0,0.0,0.0,0.0,0.0,0.0,0.0
587223349,587122817,0.004207106,0.0,0.0005458292,4.7056976e-05,0.0,0.0,0.0,0.0,0.0,0.0,0.0,0.0,0.0,4.7848944e-06,0.0,0.0,nan,0.0,0.0,0.0055534174,0.0,0.0,0.0,0.0,0.0,0.0,0.0,0.0,0.0
587723073,587622761,0.0015024191,0.0,0.0016937281,3.2261236e-05,0.0,0.0,0.0,0.0,0.0,0.0,0.0,0.0,0.0,2.2167642e-05,0.0,0.0,nan,0.0,0.0,0.0068191616,0.0,0.0,0.0,0.0,0.0,0.0,0.0,0.0,0.0
588223011,588122705,0.0019644988,0.0,0.0023589977,4.669932e-05,0.0,0.0,0.0,0.0,0.0,0.0,0.0,0.0,0.0,2.6167936e-05,0.0,0.0,nan,0.0,0.0,0.0061293845,0.0,0.0,0.0,0.0,0.0,0.0,0.0,0.0,0.0
588722972,588622648,0.0030698187,0.0,0.0009386434,0.00018720163,0.0,0.0,0.0,0.0,0.0,0.0,0.0,0.0,0.0,1.5395141e-06,0.0,0.0,nan,0.0,0.0,0.005372574,0.0,0.0,0.0,0.0,0.0,0.0,0.0,0.0,0.0
589223025,589122592,0.008754724,0.0,0.0004535375,0.00019717142,0.0,0.0,0.0,0.0,0.0,0.0,0.0,0.0,0.0,0.00019215567,0.0,0.0,nan,0.0,0.0,0.005422024,0.0,0.0,0.0,0.0,0.0,0.0,0.0,0.0,0.0
589722841,589622535,0.0032059837,0.0,0.00021624492,0.00031072562,0.0,0.0,0.0,0.0,0.0,0.0,0.0,0.0,0.0,3.1839778e-07,0.0,0.0,nan,0.0,0.0,0.004062068,0.0,0.0,0.0,0.0,0.0,0.0,0.0,0.0,0.0
590222922,590122479,0.000646589,0.0,0.0037077311,0.0003631536,0.0,0.0,0.0,0.0,0.0,0.0,0.0,0.0,0.0,2.1654014e-05,0.0,0.0,nan,0.0,0.0,0.0001643625,0.0,0.0,0.0,0.0,0.0,0.0,0.0,0.0,0.0
590722770,590622422,0.00097327965,0.0,0.00016128218,0.0002958419,0.0,0.0,0.0,0.0,0.0,0.0,0.0,0.0,0.0,3.546114e-05,0.0,0.0,nan,0.0,0.0,0.0001985211,0.0,0.0,0.0,0.0,0.0,0.0,0.0,0.0,0.0
591222840,591122365,0.0001929117,0.0,0.0007691981,0.0007746621,0.0,0.0,0.0,0.0,0.0,0.0,0.0,0.0,0.0,2.9891964e-06,0.0,0.0,nan,0.0,0.0,0.00016441752,0.0,0.0,0.0,0.0,0.0,0.0,0.0,0.0,0.0
591722633,591622308,9.9188896e-05,0.0,1.7113161e-06,0.00079105963,0.0,0.0,0.0,0.0,0.0,0.0,0.0,0.0,0.0,1.4047198e-05,0.0,0.0,nan,0.0,0.0,0.00068189035,0.0,0.0,0.0,0.0,0.0,0.0,0.0,0.0,0.0
592222635,592122252,0.005934605,0.0,0.00011718696,0.001007221,0.0,0.0,0.0,0.0,0.0,0.0,0.0,0.0,0.0,2.162553e-05,0.0,0.0,nan,0.0,0.0,0.00020406966,0.0,0.0,0.0,0.0,0.0,0.0,0.0,0.0,0.0
592722583,592622195,0.0048823943,0.0,0.0008871419,0.0007773401,0.0,0.0,0.0,0.0,0.0,0.0,0.0,0.0,0.0,0.0002980796,0.0,0.0,nan,0.0,0.0,0.00178012,0.0,0.0,0.0,0.0,0.0,0.0,0.0,0.0,0.0
593222446,593122138,0.0026070117,0.0,3.0506542e-05,0.0008479701,0.0,0.0,0.0,0.0,0.0,0.0,0.0,0.0,0.0,7.752766e-06,0.0,0.0,nan,0.0,0.0,0.006573736,0.0,0.0,0.0,0.0,0.0,0.0,0.0,0.0,0.0
593722439,593622080,0.00052341685,0.0,0.0006664868,0.00045367036,0.0,0.0,0.0,0.0,0.0,0.0,0.0,0.0,0.0,1.9505604e-05,0.0,0.0,nan,0.0,0.0,0.0009808533,0.0,0.0,0.0,0.0,0.0,0.0,0.0,0.0,0.0
594222363,594122023,0.0007375592,0.0,0.000108165594,0.0005252409,0.0,0.0,0.0,0.0,0.0,0.0,0.0,0.0,0.0,0.0002935256,0.0,0.0,nan,0.0,0.0,0.0016183044,0.0,0.0,0.0,0.0,0.0,0.0,0.0,0.0,0.0
594722376,594621967,0.0023809487,0.0,1.1184957e-05,0.00059726095,0.0,0.0,0.0,0.0,0.0,0.0,0.0,0.0,0.0,2.3435636e-05,0.0,0.0,nan,0.0,0.0,0.002528524,0.0,0.0,0.0,0.0,0.0,0.0,0.0,0.0,0.0
595222232,595121909,0.0018782606,0.0,0.00082785345,0.0005909686,0.0,0.0,0.0,0.0,0.0,0.0,0.0,0.0,0.0,7.751157e-05,0.0,0.0,nan,0.0,0.0,0.002144685,0.0,0.0,0.0,0.0,0.0,0.0,0.0,0.0,0.0
595722328,595621851,0.022646483,0.0,0.0010032908,0.00026563968,0.0,0.0,0.0,0.0,0.0,0.0,0.0,0.0,0.0,1.8845461e-05,0.0,0.0,nan,0.0,0.0,0.004203959,0.0,0.0,0.0,0.0,0.0,0.0,0.0,0.0,0.0
596222124,596121794,0.016443774,0.0,0.00062082976,0.00011178425,0.0,0.0,0.0,0.0,0.0,0.0,0.0,0.0,0.0,0.00019249265,0.0,0.0,nan,0.0,0.0,0.002986544,0.0,0.0,0.0,0.0,0.0,0.0,0.0,0.0,0.0
596722215,596621736,0.0018849601,0.0,3.6588048e-05,0.00015572243,0.0,0.0,0.0,0.0,0.0,0.0,0.0,0.0,0.0,4.415212e-07,0.0,0.0,nan,0.0,0.0,0.0029673367,0.0,0.0,0.0,0.0,0.0,0.0,0.0,0.0,0.0
597221991,597121682,0.0058404626,0.0,1.8447401e-05,0.0001332331,0.0,0.0,0.0,0.0,0.0,0.0,0.0,0.0,0.0,2.2547804e-06,0.0,0.0,nan,0.0,0.0,0.0028040663,0.0,0.0,0.0,0.0,0.0,0.0,0.0,0.0,0.0
597721929,597621621,0.0057859616,0.0,0.0002590468,0.00021579476,0.0,0.0,0.0,0.0,0.0,0.0,0.0,0.0,0.0,0.00018511504,0.0,0.0,nan,0.0,0.0,0.0028684007,0.0,0.0,0.0,0.0,0.0,0.0,0.0,0.0,0.0
598221973,598121563,0.004125879,0.0,8.621302e-05,0.0003106243,0.0,0.0,0.0,0.0,0.0,0.0,0.0,0.0,0.0,2.5305526e-05,0.0,0.0,nan,0.0,0.0,0.00194344,0.0,0.0,0.0,0.0,0.0,0.0,0.0,0.0,0.0
598721871,598621505,0.005541407,0.0,0.0005765417,0.0004765851,0.0,0.0,0.0,0.0,0.0,0.0,0.0,0.0,0.0,4.220426e-06,0.0,0.0,nan,0.0,0.0,0.0021842574,0.0,0.0,0.0,0.0,0.0,0.0,0.0,0.0,0.0
599221821,599121447,0.001680979,0.0,3.0164547e-05,0.000474189,0.0,0.0,0.0,0.0,0.0,0.0,0.0,0.0,0.0,2.011997e-05,0.0,0.0,nan,0.0,0.0,0.0025829691,0.0,0.0,0.0,0.0,0.0,0.0,0.0,0.0,0.0
599721699,599621389,0.0011515766,0.0,0.00019562754,0.00092461234,0.0,0.0,0.0,0.0,0.0,0.0,0.0,0.0,0.0,6.0625534e-05,0.0,0.0,nan,0.0,0.0,0.0026907718,0.0,0.0,0.0,0.0,0.0,0.0,0.0,0.0,0.0
600221884,600121331,0.0006854159,0.0,8.843999e-05,0.0011917856,0.0,0.0,0.0,0.0,0.0,0.0,0.0,0.0,0.0,0.00013902505,0.0,0.0,nan,0.0,0.0,0.00070321624,0.0,0.0,0.0,0.0,0.0,0.0,0.0,0.0,0.0
600721748,600621273,0.001255277,0.0,1.3249726e-07,0.0015817251,0.0,0.0,0.0,0.0,0.0,0.0,0.0,0.0,0.0,1.4026004e-06,0.0,0.0,nan,0.0,0.0,7.263223e-05,0.0,0.0,0.0,0.0,0.0,0.0,0.0,0.0,0.0
601221519,601121214,0.019073114,0.0,0.0038984655,0.0019542512,0.0,0.0,0.0,0.0,0.0,0.0,0.0,0.0,0.0,1.2378775e-05,0.0,0.0,nan,0.0,0.0,0.0009451512,0.0,0.0,0.0,0.0,0.0,0.0,0.0,0.0,0.0
601721549,601621156,0.00037540926,0.0,0.00044020152,0.002233889,0.0,0.0,0.0,0.0,0.0,0.0,0.0,0.0,0.0,2.4327871e-06,0.0,0.0,nan,0.0,0.0,0.00043722862,0.0,0.0,0.0,0.0,0.0,0.0,0.0,0.0,0.0
602221440,602121098,0.0011712008,0.0,0.00014200344,0.0021418084,0.0,0.0,0.0,0.0,0.0,0.0,0.0,0.0,0.0,6.4577245e-05,0.0,0.0,nan,0.0,0.0,0.0003580393,0.0,0.0,0.0,0.0,0.0,0.0,0.0,0.0,0.0
602721342,602621039,0.000704663,0.0,5.881274e-05,0.0019665034,0.0,0.0,0.0,0.0,0.0,0.0,0.0,0.0,0.0,3.5227567e-05,0.0,0.0,nan,0.0,0.0,0.00034928485,0.0,0.0,0.0,0.0,0.0,0.0,0.0,0.0,0.0
603221287,603120980,0.0044931243,0.0,0.00014308456,0.0018321052,0.0,0.0,0.0,0.0,0.0,0.0,0.0,0.0,0.0,4.070455e-06,0.0,0.0,nan,0.0,0.0,4.235591e-05,0.0,0.0,0.0,0.0,0.0,0.0,0.0,0.0,0.0
603721232,603620921,0.0035609365,0.0,0.0005081954,0.0013999889,0.0,0.0,0.0,0.0,0.0,0.0,0.0,0.0,0.0,1.485288e-05,0.0,0.0,nan,0.0,0.0,0.0003966519,0.0,0.0,0.0,0.0,0.0,0.0,0.0,0.0,0.0
604221210,604120863,0.007627562,0.0,0.0011605631,0.0011906308,0.0,0.0,0.0,0.0,0.0,0.0,0.0,0.0,0.0,2.442669e-07,0.0,0.0,nan,0.0,0.0,0.00048155943,0.0,0.0,0.0,0.0,0.0,0.0,0.0,0.0,0.0
604721296,604620804,0.0078199385,0.0,0.0023567886,0.0010560723,0.0,0.0,0.0,0.0,0.0,0.0,0.0,0.0,0.0,5.798851e-06,0.0,0.0,nan,0.0,0.0,0.00067415653,0.0,0.0,0.0,0.0,0.0,0.0,0.0,0.0,0.0
605221171,605120745,0.04029602,0.0,0.0006290701,0.0011315843,0.0,0.0,0.0,0.0,0.0,0.0,0.0,0.0,0.0,2.0822341e-05,0.0,0.0,nan,0.0,0.0,0.0015181714,0.0,0.0,0.0,0.0,0.0,0.0,0.0,0.0,0.0
605720990,605620685,0.0024986651,0.0,0.0005828169,0.00064564607,0.0,0.0,0.0,0.0,0.0,0.0,0.0,0.0,0.0,2.6690437e-05,0.0,0.0,nan,0.0,0.0,0.0017848646,0.0,0.0,0.0,0.0,0.0,0.0,0.0,0.0,0.0
606220971,606120626,0.001352003,0.0,3.5173857e-06,0.0003118308,0.0,0.0,0.0,0.0,0.0,0.0,0.0,0.0,0.0,0.000111770925,0.0,0.0,nan,0.0,0.0,0.0028267566,0.0,0.0,0.0,0.0,0.0,0.0,0.0,0.0,0.0
606720989,606620567,0.006420645,0.0,0.00017780632,4.476028e-05,0.0,0.0,0.0,0.0,0.0,0.0,0.0,0.0,0.0,7.300857e-05,0.0,0.0,nan,0.0,0.0,0.0014208662,0.0,0.0,0.0,0.0,0.0,0.0,0.0,0.0,0.0
607220858,607120507,0.0033834495,0.0,0.0002193488,7.808375e-05,0.0,0.0,0.0,0.0,0.0,0.0,0.0,0.0,0.0,7.048548e-05,0.0,0.0,nan,0.0,0.0,0.0022525883,0.0,0.0,0.0,0.0,0.0,0.0,0.0,0.0,0.0
607720760,607620448,0.007060929,0.0,0.0007352839,0.00020322876,0.0,0.0,0.0,0.0,0.0,0.0,0.0,0.0,0.0,1.4463907e-05,0.0,0.0,nan,0.0,0.0,0.0023588699,0.0,0.0,0.0,0.0,0.0,0.0,0.0,0.0,0.0
608220797,608120388,0.00033664238,0.0,6.43665e-05,0.00025299247,0.0,0.0,0.0,0.0,0.0,0.0,0.0,0.0,0.0,0.00014753375,0.0,0.0,nan,0.0,0.0,0.001344352,0.0,0.0,0.0,0.0,0.0,0.0,0.0,0.0,0.0
608720642,608620328,0.0010451352,0.0,0.00015640982,0.0004578704,0.0,0.0,0.0,0.0,0.0,0.0,0.0,0.0,0.0,1.5564245e-05,0.0,0.0,nan,0.0,0.0,0.0006196542,0.0,0.0,0.0,0.0,0.0,0.0,0.0,0.0,0.0
609220701,609120268,0.0008698788,0.0,1.1980913e-05,0.00084743655,0.0,0.0,0.0,0.0,0.0,0.0,0.0,0.0,0.0,5.3841366e-05,0.0,0.0,nan,0.0,0.0,0.0007088246,0.0,0.0,0.0,0.0,0.0,0.0,0.0,0.0,0.0
609720603,609620208,0.003973827,0.0,0.00046560616,0.0012445371,0.0,0.0,0.0,0.0,0.0,0.0,0.0,0.0,0.0,9.942318e-08,0.0,0.0,nan,0.0,0.0,0.0013894658,0.0,0.0,0.0,0.0,0.0,0.0,0.0,0.0,0.0
610220571,610120148,0.0014404645,0.0,3.7351808e-06,0.0014175934,0.0,0.0,0.0,0.0,0.0,0.0,0.0,0.0,0.0,3.906502e-07,0.0,0.0,nan,0.0,0.0,0.00066214,0.0,0.0,0.0,0.0,0.0,0.0,0.0,0.0,0.0
610720453,610620088,0.003563186,0.0,0.0012777144,0.0013681289,0.0,0.0,0.0,0.0,0.0,0.0,0.0,0.0,0.0,0.000111034955,0.0,0.0,nan,0.0,0.0,0.0008518207,0.0,0.0,0.0,0.0,0.0,0.0,0.0,0.0,0.0
611220337,611120028,0.0011006725,0.0,9.657634e-05,0.0014073821,0.0,0.0,0.0,0.0,0.0,0.0,0.0,0.0,0.0,3.795556e-05,0.0,0.0,nan,0.0,0.0,0.0006116003,0.0,0.0,0.0,0.0,0.0,0.0,0.0,0.0,0.0
611720272,611619968,0.0002491614,0.0,0.001114877,0.0016012668,0.0,0.0,0.0,0.0,0.0,0.0,0.0,0.0,0.0,2.3451974e-05,0.0,0.0,nan,0.0,0.0,0.0019277383,0.0,0.0,0.0,0.0,0.0,0.0,0.0,0.0,0.0
612220290,612119907,0.0006922492,0.0,0.0005401956,0.0016130324,0.0,0.0,0.0,0.0,0.0,0.0,0.0,0.0,0.0,8.545262e-05,0.0,0.0,nan,0.0,0.0,0.0002983592,0.0,0.0,0.0,0.0,0.0,0.0,0.0,0.0,0.0
612720159,612619847,0.00013948402,0.0,0.0005141333,0.0014411104,0.0,0.0,0.0,0.0,0.0,0.0,0.0,0.0,0.0,1.5560196e-05,0.0,0.0,nan,0.0,0.0,0.00014489752,0.0,0.0,0.0,0.0,0.0,0.0,0.0,0.0,0.0
613220191,613119786,0.005799874,0.0,0.0014759058,0.0016275798,0.0,0.0,0.0,0.0,0.0,0.0,0.0,0.0,0.0,9.984826e-06,0.0,0.0,nan,0.0,0.0,7.951631e-05,0.0,0.0,0.0,0.0,0.0,0.0,0.0,0.0,0.0
613720130,613619726,0.005116446,0.0,0.00054345536,0.0016042404,0.0,0.0,0.0,0.0,0.0,0.0,0.0,0.0,0.0,1.6718614e-05,0.0,0.0,nan,0.0,0.0,1.6476468e-05,0.0,0.0,0.0,0.0,0.0,0.0,0.0,0.0,0.0
614220111,614119665,0.0040519075,0.0,8.873701e-05,0.001451345,0.0,0.0,0.0,0.0,0.0,0.0,0.0,0.0,0.0,1.4078838e-06,0.0,0.0,nan,0.0,0.0,0.000106253996,0.0,0.0,0.0,0.0,0.0,0.0,0.0,0.0,0.0
614719995,614619604,0.0017184541,0.0,2.035556e-05,0.0014539857,0.0,0.0,0.0,0.0,0.0,0.0,0.0,0.0,0.0,2.4770728e-05,0.0,0.0,nan,0.0,0.0,0.0003761925,0.0,0.0,0.0,0.0,0.0,0.0,0.0,0.0,0.0
615219847,615119543,0.0015604305,0.0,0.0016561549,0.0012139293,0.0,0.0,0.0,0.0,0.0,0.0,0.0,0.0,0.0,1.17027885e-05,0.0,0.0,nan,0.0,0.0,0.0006414387,0.0,0.0,0.0,0.0,0.0,0.0,0.0,0.0,0.0
615719790,615619482,0.00511208,0.0,0.0010795941,0.0013500145,0.0,0.0,0.0,0.0,0.0,0.0,0.0,0.0,0.0,1.9983631e-07,0.0,0.0,nan,0.0,0.0,0.0003259257,0.0,0.0,0.0,0.0,0.0,0.0,0.0,0.0,0.0
616219790,616119420,0.0010315165,0.0,0.00038119187,0.0014989172,0.0,0.0,0.0,0.0,0.0,0.0,0.0,0.0,0.0,0.00012769479,0.0,0.0,nan,0.0,0.0,0.00020443625,0.0,0.0,0.0,0.0,0.0,0.0,0.0,0.0,0.0
616719669,616619359,0.0012402855,0.0,1.2178972e-06,0.0011930111,0.0,0.0,0.0,0.0,0.0,0.0,0.0,0.0,0.0,1.1079994e-06,0.0,0.0,nan,0.0,0.0,9.995938e-06,0.0,0.0,0.0,0.0,0.0,0.0,0.0,0.0,0.0
617219695,617119298,0.00022952181,0.0,1.1400535e-06,0.0010312027,0.0,0.0,0.0,0.0,0.0,0.0,0.0,0.0,0.0,0.00011418917,0.0,0.0,nan,0.0,0.0,0.00032833125,0.0,0.0,0.0,0.0,0.0,0.0,0.0,0.0,0.0
617719538,617619236,0.0019180556,0.0,3.298521e-06,0.0005742279,0.0,0.0,0.0,0.0,0.0,0.0,0.0,0.0,0.0,5.701104e-06,0.0,0.0,nan,0.0,0.0,0.00031327337,0.0,0.0,0.0,0.0,0.0,0.0,0.0,0.0,0.0
618219619,618119175,0.0007133976,0.0,9.559463e-06,0.0003799098,0.0,0.0,0.0,0.0,0.0,0.0,0.0,0.0,0.0,2.7721995e-05,0.0,0.0,nan,0.0,0.0,6.655617e-05,0.0,0.0,0.0,0.0,0.0,0.0,0.0,0.0,0.0
618719504,618619113,0.00054373586,0.0,0.0012064393,0.00035867674,0.0,0.0,0.0,0.0,0.0,0.0,0.0,0.0,0.0,5.6085474e-07,0.0,0.0,nan,0.0,0.0,1.0320664e-05,0.0,0.0,0.0,0.0,0.0,0.0,0.0,0.0,0.0
619219359,619119051,0.00030493108,0.0,0.0025127782,0.0001520858,0.0,0.0,0.0,0.0,0.0,0.0,0.0,0.0,0.0,1.7042685e-06,0.0,0.0,nan,0.0,0.0,6.2436e-05,0.0,0.0,0.0,0.0,0.0,0.0,0.0,0.0,0.0
619719430,619618989,0.00017655255,0.0,0.00031907478,9.594575e-06,0.0,0.0,0.0,0.0,0.0,0.0,0.0,0.0,0.0,7.211674e-06,0.0,0.0,nan,0.0,0.0,6.432051e-05,0.0,0.0,0.0,0.0,0.0,0.0,0.0,0.0,0.0
620219240,620118927,0.0029120604,0.0,0.00020782917,5.642494e-06,0.0,0.0,0.0,0.0,0.0,0.0,0.0,0.0,0.0,1.0900759e-05,0.0,0.0,nan,0.0,0.0,0.0011106156,0.0,0.0,0.0,0.0,0.0,0.0,0.0,0.0,0.0
620719180,620618865,0.0011726504,0.0,5.35915e-05,9.216318e-05,0.0,0.0,0.0,0.0,0.0,0.0,0.0,0.0,0.0,1.0039776e-05,0.0,0.0,nan,0.0,0.0,0.001520405,0.0,0.0,0.0,0.0,0.0,0.0,0.0,0.0,0.0
621219158,621118802,0.00063658395,0.0,0.0004794849,0.00022167867,0.0,0.0,0.0,0.0,0.0,0.0,0.0,0.0,0.0,4.960607e-05,0.0,0.0,nan,0.0,0.0,0.0012321236,0.0,0.0,0.0,0.0,0.0,0.0,0.0,0.0,0.0
621719121,621618740,0.0030228775,0.0,0.0012596212,0.0001465076,0.0,0.0,0.0,0.0,0.0,0.0,0.0,0.0,0.0,5.465796e-05,0.0,0.0,nan,0.0,0.0,0.00078784087,0.0,0.0,0.0,0.0,0.0,0.0,0.0,0.0,0.0
622218986,622118678,0.0004941984,0.0,2.0430584e-06,0.000119204844,0.0,0.0,0.0,0.0,0.0,0.0,0.0,0.0,0.0,3.9440872e-07,0.0,0.0,nan,0.0,0.0,0.0007683207,0.0,0.0,0.0,0.0,0.0,0.0,0.0,0.0,0.0
622718985,622618615,0.0063334233,0.0,0.00024299331,3.28665e-05,0.0,0.0,0.0,0.0,0.0,0.0,0.0,0.0,0.0,0.00011696405,0.0,0.0,nan,0.0,0.0,0.0008086451,0.0,0.0,0.0,0.0,0.0,0.0,0.0,0.0,0.0
623218942,623118552,0.001981195,0.0,0.00013019674,3.6801554e-05,0.0,0.0,0.0,0.0,0.0,0.0,0.0,0.0,0.0,3.41536e-06,0.0,0.0,nan,0.0,0.0,0.0019604678,0.0,0.0,0.0,0.0,0.0,0.0,0.0,0.0,0.0
623718811,623618489,0.00010622594,0.0,0.0014248957,7.630143e-05,0.0,0.0,0.0,0.0,0.0,0.0,0.0,0.0,0.0,1.881674e-05,0.0,0.0,nan,0.0,0.0,0.0020919756,0.0,0.0,0.0,0.0,0.0,0.0,0.0,0.0,0.0
624218841,624118427,0.0014117801,0.0,7.3106454e-09,0.00012210791,0.0,0.0,0.0,0.0,0.0,0.0,0.0,0.0,0.0,7.442034e-06,0.0,0.0,nan,0.0,0.0,0.00130661,0.0,0.0,0.0,0.0,0.0,0.0,0.0,0.0,0.0
624728723,624628362,0.0001330613,0.0,0.00089167536,0.00020179655,0.0,0.0,0.0,0.0,0.0,0.0,0.0,0.0,0.0,2.110916e-06,0.0,0.0,nan,0.0,0.0,0.0011442098,0.0,0.0,0.0,0.0,0.0,0.0,0.0,0.0,0.0
625218609,625118300,0.0043843226,0.0,0.00038694902,0.00015325815,0.0,0.0,0.0,0.0,0.0,0.0,0.0,0.0,0.0,1.1682763e-05,0.0,0.0,nan,0.0,0.0,0.0014655025,0.0,0.0,0.0,0.0,0.0,0.0,0.0,0.0,0.0
625718547,625618237,0.0012427756,0.0,0.00012025237,0.0002054636,0.0,0.0,0.0,0.0,0.0,0.0,0.0,0.0,0.0,2.5365518e-05,0.0,0.0,nan,0.0,0.0,0.001114624,0.0,0.0,0.0,0.0,0.0,0.0,0.0,0.0,0.0
626218531,626118174,0.0030496968,0.0,0.0001366277,0.000108996785,0.0,0.0,0.0,0.0,0.0,0.0,0.0,0.0,0.0,4.3908763e-05,0.0,0.0,nan,0.0,0.0,0.0017888868,0.0,0.0,0.0,0.0,0.0,0.0,0.0,0.0,0.0
626718434,626618110,0.00017614411,0.0,0.0006112521,0.00019095582,0.0,0.0,0.0,0.0,0.0,0.0,0.0,0.0,0.0,1.2037439e-05,0.0,0.0,nan,0.0,0.0,0.0010558381,0.0,0.0,0.0,0.0,0.0,0.0,0.0,0.0,0.0
627218387,627118047,0.0019947977,0.0,0.00016365104,0.00033213655,0.0,0.0,0.0,0.0,0.0,0.0,0.0,0.0,0.0,3.0904341e-06,0.0,0.0,nan,0.0,0.0,0.0005004168,0.0,0.0,0.0,0.0,0.0,0.0,0.0,0.0,0.0
627718504,627617983,0.00070744497,0.0,0.000120787,0.0003645238,0.0,0.0,0.0,0.0,0.0,0.0,0.0,0.0,0.0,4.7282385e-05,0.0,0.0,nan,0.0,0.0,0.00046327178,0.0,0.0,0.0,0.0,0.0,0.0,0.0,0.0,0.0
628228227,628127918,0.0029838718,0.0,0.00020587198,0.00051939575,0.0,0.0,0.0,0.0,0.0,0.0,0.0,0.0,0.0,1.4403152e-07,0.0,0.0,nan,0.0,0.0,0.0028857714,0.0,0.0,0.0,0.0,0.0,0.0,0.0,0.0,0.0
628718209,628617855,0.004303424,0.0,2.4061468e-05,0.0007372638,0.0,0.0,0.0,0.0,0.0,0.0,0.0,0.0,0.0,5.94924e-05,0.0,0.0,nan,0.0,0.0,0.0012998038,0.0,0.0,0.0,0.0,0.0,0.0,0.0,0.0,0.0
629218116,629117791,0.0053416337,0.0,0.0009101768,0.00075093115,0.0,0.0,0.0,0.0,0.0,0.0,0.0,0.0,0.0,0.00014468977,0.0,0.0,nan,0.0,0.0,0.00046609974,0.0,0.0,0.0,0.0,0.0,0.0,0.0,0.0,0.0
629718091,629617727,0.0026664294,0.0,0.00023253923,0.0005812125,0.0,0.0,0.0,0.0,0.0,0.0,0.0,0.0,0.0,0.00013643166,0.0,0.0,nan,0.0,0.0,0.0013451094,0.0,0.0,0.0,0.0,0.0,0.0,0.0,0.0,0.0
630218012,630117663,0.0036505782,0.0,8.8335124e-05,0.0004411759,0.0,0.0,0.0,0.0,0.0,0.0,0.0,0.0,0.0,9.058896e-05,0.0,0.0,nan,0.0,0.0,0.002361595,0.0,0.0,0.0,0.0,0.0,0.0,0.0,0.0,0.0
630727904,630627597,0.0019590738,0.0,0.00029826985,0.00081618584,0.0,0.0,0.0,0.0,0.0,0.0,0.0,0.0,0.0,4.9895156e-05,0.0,0.0,nan,0.0,0.0,0.0011238705,0.0,0.0,0.0,0.0,0.0,0.0,0.0,0.0,0.0
631228020,631127533,0.0046788356,0.0,0.000652764,0.00091052376,0.0,0.0,0.0,0.0,0.0,0.0,0.0,0.0,0.0,2.1976246e-05,0.0,0.0,nan,0.0,0.0,0.0014153714,0.0,0.0,0.0,0.0,0.0,0.0,0.0,0.0,0.0
631727839,631627468,0.0024995059,0.0,0.0005454557,0.0014961679,0.0,0.0,0.0,0.0,0.0,0.0,0.0,0.0,0.0,6.692907e-06,0.0,0.0,nan,0.0,0.0,0.0019467691,0.0,0.0,0.0,0.0,0.0,0.0,0.0,0.0,0.0
632217789,632117405,0.0051758597,0.0,0.002248575,0.0011682762,0.0,0.0,0.0,0.0,0.0,0.0,0.0,0.0,0.0,1.3307308e-05,0.0,0.0,nan,0.0,0.0,0.0022320745,0.0,0.0,0.0,0.0,0.0,0.0,0.0,0.0,0.0
632717738,632617340,0.0025551904,0.0,0.00035550323,0.0010104532,0.0,0.0,0.0,0.0,0.0,0.0,0.0,0.0,0.0,1.308082e-05,0.0,0.0,nan,0.0,0.0,0.0015615508,0.0,0.0,0.0,0.0,0.0,0.0,0.0,0.0,0.0
633217579,633117275,0.0014805502,0.0,0.00049063074,0.0006918161,0.0,0.0,0.0,0.0,0.0,0.0,0.0,0.0,0.0,8.841028e-05,0.0,0.0,nan,0.0,0.0,0.0023425655,0.0,0.0,0.0,0.0,0.0,0.0,0.0,0.0,0.0
633717614,633617210,0.0013301341,0.0,5.5530467e-07,0.0010525256,0.0,0.0,0.0,0.0,0.0,0.0,0.0,0.0,0.0,7.612245e-05,0.0,0.0,nan,0.0,0.0,0.0029050743,0.0,0.0,0.0,0.0,0.0,0.0,0.0,0.0,0.0
634227464,634127144,0.0014845133,0.0,0.00070129224,0.0011254691,0.0,0.0,0.0,0.0,0.0,0.0,0.0,0.0,0.0,0.00015914263,0.0,0.0,nan,0.0,0.0,0.0025184087,0.0,0.0,0.0,0.0,0.0,0.0,0.0,0.0,0.0
634727456,634627079,8.052145e-05,0.0,0.00015482868,0.0009837195,0.0,0.0,0.0,0.0,0.0,0.0,0.0,0.0,0.0,2.8924003e-05,0.0,0.0,nan,0.0,0.0,0.00540333,0.0,0.0,0.0,0.0,0.0,0.0,0.0,0.0,0.0
635227378,635127014,0.0007976228,0.0,0.0002432473,0.0011167673,0.0,0.0,0.0,0.0,0.0,0.0,0.0,0.0,0.0,3.9503288e-05,0.0,0.0,nan,0.0,0.0,0.0015821334,0.0,0.0,0.0,0.0,0.0,0.0,0.0,0.0,0.0
635717363,635616949,0.00045236512,0.0,0.0009771449,0.0015338534,0.0,0.0,0.0,0.0,0.0,0.0,0.0,0.0,0.0,3.0197285e-05,0.0,0.0,nan,0.0,0.0,0.0020619472,0.0,0.0,0.0,0.0,0.0,0.0,0.0,0.0,0.0
636217188,636116884,0.005069826,0.0,6.4042e-05,0.0015392322,0.0,0.0,0.0,0.0,0.0,0.0,0.0,0.0,0.0,3.5191057e-05,0.0,0.0,nan,0.0,0.0,0.0027166817,0.0,0.0,0.0,0.0,0.0,0.0,0.0,0.0,0.0
636717203,636616818,0.0029816567,0.0,0.0008798845,0.0012508702,0.0,0.0,0.0,0.0,0.0,0.0,0.0,0.0,0.0,5.4375047e-05,0.0,0.0,nan,0.0,0.0,0.0021942973,0.0,0.0,0.0,0.0,0.0,0.0,0.0,0.0,0.0
637227131,637126751,0.0035649294,0.0,0.00016303391,0.0009863531,0.0,0.0,0.0,0.0,0.0,0.0,0.0,0.0,0.0,7.758265e-06,0.0,0.0,nan,0.0,0.0,0.001775314,0.0,0.0,0.0,0.0,0.0,0.0,0.0,0.0,0.0
637727038,637626685,0.0022742464,0.0,2.227274e-08,0.0008782416,0.0,0.0,0.0,0.0,0.0,0.0,0.0,0.0,0.0,1.5046513e-06,0.0,0.0,nan,0.0,0.0,0.002499341,0.0,0.0,0.0,0.0,0.0,0.0,0.0,0.0,0.0
638226929,638126619,0.0003402191,0.0,1.6121276e-05,0.0006955802,0.0,0.0,0.0,0.0,0.0,0.0,0.0,0.0,0.0,0.00026284976,0.0,0.0,nan,0.0,0.0,0.0032171502,0.0,0.0,0.0,0.0,0.0,0.0,0.0,0.0,0.0
638726862,638626553,0.0008754814,0.0,0.00023492075,0.000811411,0.0,0.0,0.0,0.0,0.0,0.0,0.0,0.0,0.0,0.0001569546,0.0,0.0,nan,0.0,0.0,0.0018349031,0.0,0.0,0.0,0.0,0.0,0.0,0.0,0.0,0.0
639216852,639116488,0.00013845623,0.0,0.00083714287,0.00056951813,0.0,0.0,0.0,0.0,0.0,0.0,0.0,0.0,0.0,4.8443527e-10,0.0,0.0,nan,0.0,0.0,0.002438768,0.0,0.0,0.0,0.0,0.0,0.0,0.0,0.0,0.0
639716755,639616422,0.0028186687,0.0,0.0007293141,0.000534919,0.0,0.0,0.0,0.0,0.0,0.0,0.0,0.0,0.0,1.5359382e-07,0.0,0.0,nan,0.0,0.0,0.0030546715,0.0,0.0,0.0,0.0,0.0,0.0,0.0,0.0,0.0
640226666,640126354,0.0049860342,0.0,1.2438381e-05,0.000641828,0.0,0.0,0.0,0.0,0.0,0.0,0.0,0.0,0.0,0.00021924257,0.0,0.0,nan,0.0,0.0,0.002725464,0.0,0.0,0.0,0.0,0.0,0.0,0.0,0.0,0.0
640726692,640626288,0.0010873796,0.0,0.0001398995,0.0006154503,0.0,0.0,0.0,0.0,0.0,0.0,0.0,0.0,0.0,7.245875e-05,0.0,0.0,nan,0.0,0.0,0.004413795,0.0,0.0,0.0,0.0,0.0,0.0,0.0,0.0,0.0
641226678,641126221,0.0012436643,0.0,0.00017907855,0.00061603164,0.0,0.0,0.0,0.0,0.0,0.0,0.0,0.0,0.0,1.8344233e-06,0.0,0.0,nan,0.0,0.0,0.0037536286,0.0,0.0,0.0,0.0,0.0,0.0,0.0,0.0,0.0
641726486,641626154,0.0033516195,0.0,6.999392e-05,0.00040977926,0.0,0.0,0.0,0.0,0.0,0.0,0.0,0.0,0.0,1.8680743e-05,0.0,0.0,nan,0.0,0.0,0.0048305183,0.0,0.0,0.0,0.0,0.0,0.0,0.0,0.0,0.0
642226401,642126087,0.0005561429,0.0,1.3493259e-05,0.00023281467,0.0,0.0,0.0,0.0,0.0,0.0,0.0,0.0,0.0,0.00020234194,0.0,0.0,nan,0.0,0.0,0.0010732759,0.0,0.0,0.0,0.0,0.0,0.0,0.0,0.0,0.0
642716332,642616022,0.005670471,0.0,3.2042244e-05,8.0534686e-05,0.0,0.0,0.0,0.0,0.0,0.0,0.0,0.0,0.0,7.3128504e-06,0.0,0.0,nan,0.0,0.0,0.0019327457,0.0,0.0,0.0,0.0,0.0,0.0,0.0,0.0,0.0
643216274,643115955,0.002389839,0.0,0.00019703963,2.9301511e-05,0.0,0.0,0.0,0.0,0.0,0.0,0.0,0.0,0.0,4.075083e-06,0.0,0.0,nan,0.0,0.0,0.0024423238,0.0,0.0,0.0,0.0,0.0,0.0,0.0,0.0,0.0
643726189,643625886,0.0027757238,0.0,0.00018918219,2.6288405e-06,0.0,0.0,0.0,0.0,0.0,0.0,0.0,0.0,0.0,7.154749e-06,0.0,0.0,nan,0.0,0.0,0.0017189033,0.0,0.0,0.0,0.0,0.0,0.0,0.0,0.0,0.0
644226231,644125819,0.0034108846,0.0,8.7427434e-05,2.4069468e-05,0.0,0.0,0.0,0.0,0.0,0.0,0.0,0.0,0.0,3.0854087e-06,0.0,0.0,nan,0.0,0.0,0.0025354286,0.0,0.0,0.0,0.0,0.0,0.0,0.0,0.0,0.0
644726055,644625751,0.0008667615,0.0,7.677847e-05,7.277713e-05,0.0,0.0,0.0,0.0,0.0,0.0,0.0,0.0,0.0,4.582566e-05,0.0,0.0,nan,0.0,0.0,0.0018100309,0.0,0.0,0.0,0.0,0.0,0.0,0.0,0.0,0.0
645226072,645125684,0.0014782327,0.0,6.5859734e-07,0.00036942775,0.0,0.0,0.0,0.0,0.0,0.0,0.0,0.0,0.0,4.552928e-05,0.0,0.0,nan,0.0,0.0,0.0020152545,0.0,0.0,0.0,0.0,0.0,0.0,0.0,0.0,0.0
645726122,645625618,0.0012892631,0.0,0.0005273936,0.0008640989,0.0,0.0,0.0,0.0,0.0,0.0,0.0,0.0,0.0,2.542209e-06,0.0,0.0,nan,0.0,0.0,0.002701533,0.0,0.0,0.0,0.0,0.0,0.0,0.0,0.0,0.0
646215870,646115550,0.002823909,0.0,0.00061756634,0.0010566579,0.0,0.0,0.0,0.0,0.0,0.0,0.0,0.0,0.0,2.097797e-05,0.0,0.0,nan,0.0,0.0,0.0032276132,0.0,0.0,0.0,0.0,0.0,0.0,0.0,0.0,0.0
646725877,646625480,0.0011380439,0.0,0.00018836874,0.001536707,0.0,0.0,0.0,0.0,0.0,0.0,0.0,0.0,0.0,0.0002096345,0.0,0.0,nan,0.0,0.0,0.0018032375,0.0,0.0,0.0,0.0,0.0,0.0,0.0,0.0,0.0
647225720,647125412,0.0012464115,0.0,9.646762e-05,0.0014712692,0.0,0.0,0.0,0.0,0.0,0.0,0.0,0.0,0.0,1.2585162e-06,0.0,0.0,nan,0.0,0.0,0.0033037898,0.0,0.0,0.0,0.0,0.0,0.0,0.0,0.0,0.0
647725652,647625344,0.00092262344,0.0,6.290806e-05,0.00165708,0.0,0.0,0.0,0.0,0.0,0.0,0.0,0.0,0.0,1.3929255e-07,0.0,0.0,nan,0.0,0.0,0.0035299456,0.0,0.0,0.0,0.0,0.0,0.0,0.0,0.0,0.0
648225580,648125276,0.00082504144,0.0,7.5323105e-06,0.0012069602,0.0,0.0,0.0,0.0,0.0,0.0,0.0,0.0,0.0,3.746368e-05,0.0,0.0,nan,0.0,0.0,0.003027288,0.0,0.0,0.0,0.0,0.0,0.0,0.0,0.0,0.0
648725574,648625208,0.0011233424,0.0,0.00014214776,0.00095835933,0.0,0.0,0.0,0.0,0.0,0.0,0.0,0.0,0.0,2.206002e-05,0.0,0.0,nan,0.0,0.0,0.0019708294,0.0,0.0,0.0,0.0,0.0,0.0,0.0,0.0,0.0
649225479,649125139,0.0007577964,0.0,7.002174e-05,0.0010504927,0.0,0.0,0.0,0.0,0.0,0.0,0.0,0.0,0.0,2.5266378e-05,0.0,0.0,nan,0.0,0.0,0.003271293,0.0,0.0,0.0,0.0,0.0,0.0,0.0,0.0,0.0
649725429,649625071,0.0004939475,0.0,4.564185e-06,0.0015256354,0.0,0.0,0.0,0.0,0.0,0.0,0.0,0.0,0.0,4.959546e-06,0.0,0.0,nan,0.0,0.0,0.0029717511,0.0,0.0,0.0,0.0,0.0,0.0,0.0,0.0,0.0
650225422,650125002,0.0020378884,0.0,0.00094765105,0.0016683062,0.0,0.0,0.0,0.0,0.0,0.0,0.0,0.0,0.0,0.00027298596,0.0,0.0,nan,0.0,0.0,0.0012327671,0.0,0.0,0.0,0.0,0.0,0.0,0.0,0.0,0.0
650725416,650624933,0.00044481762,0.0,4.949269e-05,0.0021234131,0.0,0.0,0.0,0.0,0.0,0.0,0.0,0.0,0.0,1.045763e-05,0.0,0.0,nan,0.0,0.0,0.002731361,0.0,0.0,0.0,0.0,0.0,0.0,0.0,0.0,0.0
651225167,651124864,0.00039934344,0.0,5.5977455e-07,0.0018818416,0.0,0.0,0.0,0.0,0.0,0.0,0.0,0.0,0.0,8.0448e-05,0.0,0.0,nan,0.0,0.0,0.00177678,0.0,0.0,0.0,0.0,0.0,0.0,0.0,0.0,0.0
651725098,651624795,0.0013753761,0.0,0.00038286016,0.0015226174,0.0,0.0,0.0,0.0,0.0,0.0,0.0,0.0,0.0,4.19491e-05,0.0,0.0,nan,0.0,0.0,0.0016479909,0.0,0.0,0.0,0.0,0.0,0.0,0.0,0.0,0.0
652225130,652124726,1.3967378e-05,0.0,8.331412e-05,0.0018604844,0.0,0.0,0.0,0.0,0.0,0.0,0.0,0.0,0.0,8.641045e-06,0.0,0.0,nan,0.0,0.0,0.002572772,0.0,0.0,0.0,0.0,0.0,0.0,0.0,0.0,0.0
652725025,652624656,0.001858408,0.0,0.0006680969,0.0011494118,0.0,0.0,0.0,0.0,0.0,0.0,0.0,0.0,0.0,8.282904e-06,0.0,0.0,nan,0.0,0.0,0.0022438467,0.0,0.0,0.0,0.0,0.0,0.0,0.0,0.0,0.0
653224892,653124587,0.00058288604,0.0,0.00044782233,0.0010364372,0.0,0.0,0.0,0.0,0.0,0.0,0.0,0.0,0.0,9.5988e-07,0.0,0.0,nan,0.0,0.0,0.0009421499,0.0,0.0,0.0,0.0,0.0,0.0,0.0,0.0,0.0
653724848,653624518,0.001174938,0.0,7.1576554e-09,0.00081957155,0.0,0.0,0.0,0.0,0.0,0.0,0.0,0.0,0.0,2.4245428e-05,0.0,0.0,nan,0.0,0.0,0.0021475656,0.0,0.0,0.0,0.0,0.0,0.0,0.0,0.0,0.0
654224770,654124448,0.00015351918,0.0,2.4826588e-05,0.00057726854,0.0,0.0,0.0,0.0,0.0,0.0,0.0,0.0,0.0,4.8976854e-06,0.0,0.0,nan,0.0,0.0,0.0013135222,0.0,0.0,0.0,0.0,0.0,0.0,0.0,0.0,0.0
654724802,654624378,0.00021944095,0.0,0.00063367485,0.0007648976,0.0,0.0,0.0,0.0,0.0,0.0,0.0,0.0,0.0,7.413273e-05,0.0,0.0,nan,0.0,0.0,0.00069146854,0.0,0.0,0.0,0.0,0.0,0.0,0.0,0.0,0.0
655224687,655124308,0.0004262733,0.0,4.544586e-06,0.0006332533,0.0,0.0,0.0,0.0,0.0,0.0,0.0,0.0,0.0,7.0907163e-06,0.0,0.0,nan,0.0,0.0,0.0018971558,0.0,0.0,0.0,0.0,0.0,0.0,0.0,0.0,0.0
655724554,655624238,0.009400187,0.0,0.00011418688,0.00035223702,0.0,0.0,0.0,0.0,0.0,0.0,0.0,0.0,0.0,4.306583e-06,0.0,0.0,nan,0.0,0.0,0.0013379813,0.0,0.0,0.0,0.0,0.0,0.0,0.0,0.0,0.0
656224498,656124168,0.00090727146,0.0,2.3192522e-05,0.00031419922,0.0,0.0,0.0,0.0,0.0,0.0,0.0,0.0,0.0,3.9050672e-05,0.0,0.0,nan,0.0,0.0,0.0008116857,0.0,0.0,0.0,0.0,0.0,0.0,0.0,0.0,0.0
656724436,656624098,0.00030938315,0.0,5.3764904e-07,0.00025321162,0.0,0.0,0.0,0.0,0.0,0.0,0.0,0.0,0.0,7.4212076e-05,0.0,0.0,nan,0.0,0.0,0.00028598058,0.0,0.0,0.0,0.0,0.0,0.0,0.0,0.0,0.0
657224355,657124028,0.0014577575,0.0,4.837885e-05,0.00030646587,0.0,0.0,0.0,0.0,0.0,0.0,0.0,0.0,0.0,8.081638e-08,0.0,0.0,nan,0.0,0.0,0.000796995,0.0,0.0,0.0,0.0,0.0,0.0,0.0,0.0,0.0
657724560,657623957,0.0034315835,0.0,2.4147002e-05,0.0003516474,0.0,0.0,0.0,0.0,0.0,0.0,0.0,0.0,0.0,0.00032318092,0.0,0.0,nan,0.0,0.0,0.000833223,0.0,0.0,0.0,0.0,0.0,0.0,0.0,0.0,0.0
658224247,658123887,0.0018281476,0.0,0.0003263303,0.00046915357,0.0,0.0,0.0,0.0,0.0,0.0,0.0,0.0,0.0,1.5351728e-07,0.0,0.0,nan,0.0,0.0,0.00054856855,0.0,0.0,0.0,0.0,0.0,0.0,0.0,0.0,0.0
658724268,658623816,0.0055619013,0.0,3.531638e-05,0.000609835,0.0,0.0,0.0,0.0,0.0,0.0,0.0,0.0,0.0,3.5978069e-06,0.0,0.0,nan,0.0,0.0,0.0016982016,0.0,0.0,0.0,0.0,0.0,0.0,0.0,0.0,0.0
659224074,659123745,0.00055069977,0.0,0.00014440485,0.0004683358,0.0,0.0,0.0,0.0,0.0,0.0,0.0,0.0,0.0,0.00014074611,0.0,0.0,nan,0.0,0.0,0.000258281,0.0,0.0,0.0,0.0,0.0,0.0,0.0,0.0,0.0
659724078,659623674,0.0018846246,0.0,0.00027189267,0.0005189492,0.0,0.0,0.0,0.0,0.0,0.0,0.0,0.0,0.0,1.866051e-11,0.0,0.0,nan,0.0,0.0,0.00012816612,0.0,0.0,0.0,0.0,0.0,0.0,0.0,0.0,0.0
660223985,660123603,0.0001606417,0.0,1.94177e-05,0.00052159437,0.0,0.0,0.0,0.0,0.0,0.0,0.0,0.0,0.0,9.261115e-05,0.0,0.0,nan,0.0,0.0,0.00072287803,0.0,0.0,0.0,0.0,0.0,0.0,0.0,0.0,0.0
660723867,660623532,0.0020334907,0.0,0.00046093133,0.00056228257,0.0,0.0,0.0,0.0,0.0,0.0,0.0,0.0,0.0,6.4159303e-07,0.0,0.0,nan,0.0,0.0,0.00027418765,0.0,0.0,0.0,0.0,0.0,0.0,0.0,0.0,0.0
661223820,661123465,0.005691483,0.0,7.527933e-05,0.0005731849,0.0,0.0,0.0,0.0,0.0,0.0,0.0,0.0,0.0,2.2792829e-06,0.0,0.0,nan,0.0,0.0,0.00015403357,0.0,0.0,0.0,0.0,0.0,0.0,0.0,0.0,0.0
661723701,661623389,0.0005634793,0.0,3.3149238e-06,0.00087755907,0.0,0.0,0.0,0.0,0.0,0.0,0.0,0.0,0.0,4.4009354e-05,0.0,0.0,nan,0.0,0.0,0.00023461129,0.0,0.0,0.0,0.0,0.0,0.0,0.0,0.0,0.0
662223640,662123318,0.0007535134,0.0,1.5370538e-06,0.00081223075,0.0,0.0,0.0,0.0,0.0,0.0,0.0,0.0,0.0,6.220058e-05,0.0,0.0,nan,0.0,0.0,0.0001663166,0.0,0.0,0.0,0.0,0.0,0.0,0.0,0.0,0.0
662723556,662623246,0.0011474972,0.0,0.00036605028,0.0009872263,0.0,0.0,0.0,0.0,0.0,0.0,0.0,0.0,0.0,9.591373e-06,0.0,0.0,nan,0.0,0.0,0.00013839867,0.0,0.0,0.0,0.0,0.0,0.0,0.0,0.0,0.0
663223500,663123174,0.00056606217,0.0,0.0016692393,0.001123838,0.0,0.0,0.0,0.0,0.0,0.0,0.0,0.0,0.0,5.9500526e-05,0.0,0.0,nan,0.0,0.0,4.062283e-05,0.0,0.0,0.0,0.0,0.0,0.0,0.0,0.0,0.0
663723404,663623103,0.008389881,0.0,0.00032289693,0.0011024073,0.0,0.0,0.0,0.0,0.0,0.0,0.0,0.0,0.0,3.6076103e-10,0.0,0.0,nan,0.0,0.0,0.0005545147,0.0,0.0,0.0,0.0,0.0,0.0,0.0,0.0,0.0
664223603,664123030,0.00017817027,0.0,8.146018e-11,0.0011791437,0.0,0.0,0.0,0.0,0.0,0.0,0.0,0.0,0.0,4.048331e-05,0.0,0.0,nan,0.0,0.0,3.6373178e-05,0.0,0.0,0.0,0.0,0.0,0.0,0.0,0.0,0.0
664723283,664622958,0.00044422937,0.0,6.164709e-07,0.0015005979,0.0,0.0,0.0,0.0,0.0,0.0,0.0,0.0,0.0,3.751126e-05,0.0,0.0,nan,0.0,0.0,2.0112291e-05,0.0,0.0,0.0,0.0,0.0,0.0,0.0,0.0,0.0
665223239,665122886,0.0065660193,0.0,0.00011184146,0.0010629306,0.0,0.0,0.0,0.0,0.0,0.0,0.0,0.0,0.0,9.073341e-06,0.0,0.0,nan,0.0,0.0,4.3322147e-05,0.0,0.0,0.0,0.0,0.0,0.0,0.0,0.0,0.0
665723145,665622814,0.0027487897,0.0,0.00017825182,0.000512173,0.0,0.0,0.0,0.0,0.0,0.0,0.0,0.0,0.0,1.1928569e-05,0.0,0.0,nan,0.0,0.0,1.5356909e-05,0.0,0.0,0.0,0.0,0.0,0.0,0.0,0.0,0.0
666223099,666122741,1.071892e-05,0.0,0.00042425815,0.00030964095,0.0,0.0,0.0,0.0,0.0,0.0,0.0,0.0,0.0,1.6259019e-05,0.0,0.0,nan,0.0,0.0,0.0005759373,0.0,0.0,0.0,0.0,0.0,0.0,0.0,0.0,0.0
666723022,666622669,0.0013272885,0.0,0.0004101305,0.00019797357,0.0,0.0,0.0,0.0,0.0,0.0,0.0,0.0,0.0,3.4550354e-05,0.0,0.0,nan,0.0,0.0,0.0003741001,0.0,0.0,0.0,0.0,0.0,0.0,0.0,0.0,0.0
667222899,667122596,0.0006370662,0.0,0.00010525585,0.00016203569,0.0,0.0,0.0,0.0,0.0,0.0,0.0,0.0,0.0,4.1676405e-05,0.0,0.0,nan,0.0,0.0,0.0002500139,0.0,0.0,0.0,0.0,0.0,0.0,0.0,0.0,0.0
667723201,667622527,0.0012779655,0.0,7.4665365e-08,8.4080835e-05,0.0,0.0,0.0,0.0,0.0,0.0,0.0,0.0,0.0,4.4102006e-05,0.0,0.0,nan,0.0,0.0,0.00021053529,0.0,0.0,0.0,0.0,0.0,0.0,0.0,0.0,0.0
668222815,668122450,0.00039218477,0.0,7.09655e-05,7.598749e-05,0.0,0.0,0.0,0.0,0.0,0.0,0.0,0.0,0.0,4.0989075e-06,0.0,0.0,nan,0.0,0.0,0.00030063884,0.0,0.0,0.0,0.0,0.0,0.0,0.0,0.0,0.0
668722797,668622377,0.00050253514,0.0,0.00024443027,0.00020180964,0.0,0.0,0.0,0.0,0.0,0.0,0.0,0.0,0.0,1.1634371e-05,0.0,0.0,nan,0.0,0.0,0.00021429674,0.0,0.0,0.0,0.0,0.0,0.0,0.0,0.0,0.0
669222715,669122303,0.00043091917,0.0,1.9472202e-05,0.00018832616,0.0,0.0,0.0,0.0,0.0,0.0,0.0,0.0,0.0,8.021952e-05,0.0,0.0,nan,0.0,0.0,0.00014840667,0.0,0.0,0.0,0.0,0.0,0.0,0.0,0.0,0.0
669722536,669622230,0.00042028644,0.0,3.2360356e-06,0.0001844281,0.0,0.0,0.0,0.0,0.0,0.0,0.0,0.0,0.0,7.950189e-05,0.0,0.0,nan,0.0,0.0,0.00022735064,0.0,0.0,0.0,0.0,0.0,0.0,0.0,0.0,0.0
670222569,670122156,0.00094953633,0.0,0.00055523426,0.00020496313,0.0,0.0,0.0,0.0,0.0,0.0,0.0,0.0,0.0,3.569533e-05,0.0,0.0,nan,0.0,0.0,0.00030666703,0.0,0.0,0.0,0.0,0.0,0.0,0.0,0.0,0.0
670722385,670622083,0.00033698592,0.0,7.038249e-07,0.00020758931,0.0,0.0,0.0,0.0,0.0,0.0,0.0,0.0,0.0,7.744478e-06,0.0,0.0,nan,0.0,0.0,0.00017927468,0.0,0.0,0.0,0.0,0.0,0.0,0.0,0.0,0.0
671222331,671122009,5.510611e-08,0.0,5.7034656e-05,0.00027841935,0.0,0.0,0.0,0.0,0.0,0.0,0.0,0.0,0.0,6.1205785e-05,0.0,0.0,nan,0.0,0.0,0.00028521722,0.0,0.0,0.0,0.0,0.0,0.0,0.0,0.0,0.0
671722606,671621935,0.00025654119,0.0,8.033075e-05,0.00015048771,0.0,0.0,0.0,0.0,0.0,0.0,0.0,0.0,0.0,1.827929e-06,0.0,0.0,nan,0.0,0.0,0.00033642855,0.0,0.0,0.0,0.0,0.0,0.0,0.0,0.0,0.0
672222166,672121861,0.004380678,0.0,0.00013270506,0.00010125771,0.0,0.0,0.0,0.0,0.0,0.0,0.0,0.0,0.0,9.824277e-06,0.0,0.0,nan,0.0,0.0,4.898988e-05,0.0,0.0,0.0,0.0,0.0,0.0,0.0,0.0,0.0
672722090,672621786,0.00016678331,0.0,9.437484e-05,0.00012699452,0.0,0.0,0.0,0.0,0.0,0.0,0.0,0.0,0.0,1.0959482e-06,0.0,0.0,nan,0.0,0.0,0.0004877634,0.0,0.0,0.0,0.0,0.0,0.0,0.0,0.0,0.0
673222122,673121712,0.00016559225,0.0,0.000372041,0.00015102018,0.0,0.0,0.0,0.0,0.0,0.0,0.0,0.0,0.0,2.0255097e-06,0.0,0.0,nan,0.0,0.0,0.0008281404,0.0,0.0,0.0,0.0,0.0,0.0,0.0,0.0,0.0
673722074,673621637,0.00021197867,0.0,1.1963964e-05,0.00012486837,0.0,0.0,0.0,0.0,0.0,0.0,0.0,0.0,0.0,0.00014396787,0.0,0.0,nan,0.0,0.0,0.00035109965,0.0,0.0,0.0,0.0,0.0,0.0,0.0,0.0,0.0
674221918,674121563,0.00019305023,0.0,0.00011201021,0.0001773672,0.0,0.0,0.0,0.0,0.0,0.0,0.0,0.0,0.0,3.3944674e-05,0.0,0.0,nan,0.0,0.0,0.00012305171,0.0,0.0,0.0,0.0,0.0,0.0,0.0,0.0,0.0
674721797,674621488,0.0011001969,0.0,0.0004398592,0.00018501656,0.0,0.0,0.0,0.0,0.0,0.0,0.0,0.0,0.0,1.0623881e-05,0.0,0.0,nan,0.0,0.0,0.0010496818,0.0,0.0,0.0,0.0,0.0,0.0,0.0,0.0,0.0
675221779,675121413,6.92672e-05,0.0,7.6028235e-05,0.00042725186,0.0,0.0,0.0,0.0,0.0,0.0,0.0,0.0,0.0,1.6878135e-05,0.0,0.0,nan,0.0,0.0,0.0010906958,0.0,0.0,0.0,0.0,0.0,0.0,0.0,0.0,0.0
675721705,675621338,0.00037714443,0.0,1.6348155e-06,0.0008352424,0.0,0.0,0.0,0.0,0.0,0.0,0.0,0.0,0.0,1.0067419e-06,0.0,0.0,nan,0.0,0.0,0.0001695581,0.0,0.0,0.0,0.0,0.0,0.0,0.0,0.0,0.0
676221564,676121263,0.0038150526,0.0,0.00022401985,0.0018972448,0.0,0.0,0.0,0.0,0.0,0.0,0.0,0.0,0.0,6.3934917e-06,0.0,0.0,nan,0.0,0.0,0.00031082673,0.0,0.0,0.0,0.0,0.0,0.0,0.0,0.0,0.0
676721552,676621190,0.010674625,0.0,0.0011038062,0.0022346962,0.0,0.0,0.0,0.0,0.0,0.0,0.0,0.0,0.0,5.0183735e-06,0.0,0.0,nan,0.0,0.0,0.00041532275,0.0,0.0,0.0,0.0,0.0,0.0,0.0,0.0,0.0
677221412,677121112,0.0019211477,0.0,0.000613237,0.0032538795,0.0,0.0,0.0,0.0,0.0,0.0,0.0,0.0,0.0,2.4553794e-05,0.0,0.0,nan,0.0,0.0,0.00018181611,0.0,0.0,0.0,0.0,0.0,0.0,0.0,0.0,0.0
677721417,677621036,0.0012448481,0.0,3.4878827e-05,0.0034053214,0.0,0.0,0.0,0.0,0.0,0.0,0.0,0.0,0.0,3.606972e-05,0.0,0.0,nan,0.0,0.0,0.00012959992,0.0,0.0,0.0,0.0,0.0,0.0,0.0,0.0,0.0
678221405,678120961,0.0038662022,0.0,5.779591e-07,0.0042601665,0.0,0.0,0.0,0.0,0.0,0.0,0.0,0.0,0.0,2.4426143e-07,0.0,0.0,nan,0.0,0.0,0.0001403144,0.0,0.0,0.0,0.0,0.0,0.0,0.0,0.0,0.0
678721201,678620885,0.00029994085,0.0,7.9432255e-05,0.002975886,0.0,0.0,0.0,0.0,0.0,0.0,0.0,0.0,0.0,9.1019865e-06,0.0,0.0,nan,0.0,0.0,8.073408e-05,0.0,0.0,0.0,0.0,0.0,0.0,0.0,0.0,0.0
679221113,679120809,0.0039928076,0.0,2.137267e-06,0.0028544008,0.0,0.0,0.0,0.0,0.0,0.0,0.0,0.0,0.0,5.445839e-06,0.0,0.0,nan,0.0,0.0,7.8788835e-05,0.0,0.0,0.0,0.0,0.0,0.0,0.0,0.0,0.0
679721143,679620733,0.00012789035,0.0,0.00026906165,0.0033932324,0.0,0.0,0.0,0.0,0.0,0.0,0.0,0.0,0.0,8.788359e-05,0.0,0.0,nan,0.0,0.0,0.0002194808,0.0,0.0,0.0,0.0,0.0,0.0,0.0,0.0,0.0
680220968,680120656,0.0007801356,0.0,0.00045622513,0.0037285262,0.0,0.0,0.0,0.0,0.0,0.0,0.0,0.0,0.0,5.0182647e-05,0.0,0.0,nan,0.0,0.0,4.444974e-05,0.0,0.0,0.0,0.0,0.0,0.0,0.0,0.0,0.0
680720882,680620580,0.00022381652,0.0,0.0006641268,0.003969623,0.0,0.0,0.0,0.0,0.0,0.0,0.0,0.0,0.0,5.7970497e-06,0.0,0.0,nan,0.0,0.0,0.00021546814,0.0,0.0,0.0,0.0,0.0,0.0,0.0,0.0,0.0
681220832,681120504,0.002234293,0.0,0.00025357303,0.0036901517,0.0,0.0,0.0,0.0,0.0,0.0,0.0,0.0,0.0,9.436468e-06,0.0,0.0,nan,0.0,0.0,0.00015983438,0.0,0.0,0.0,0.0,0.0,0.0,0.0,0.0,0.0
681720790,681620427,0.0007965627,0.0,0.00048385034,0.0032935955,0.0,0.0,0.0,0.0,0.0,0.0,0.0,0.0,0.0,1.0749447e-08,0.0,0.0,nan,0.0,0.0,0.00033263408,0.0,0.0,0.0,0.0,0.0,0.0,0.0,0.0,0.0
682220656,682120350,0.0009777424,0.0,1.3849116e-05,0.0026299593,0.0,0.0,0.0,0.0,0.0,0.0,0.0,0.0,0.0,0.0001782575,0.0,0.0,nan,0.0,0.0,3.958491e-06,0.0,0.0,0.0,0.0,0.0,0.0,0.0,0.0,0.0
682720751,682620273,0.008413269,0.0,0.00014057469,0.0017832007,0.0,0.0,0.0,0.0,0.0,0.0,0.0,0.0,0.0,6.614889e-06,0.0,0.0,nan,0.0,0.0,0.00014359296,0.0,0.0,0.0,0.0,0.0,0.0,0.0,0.0,0.0
683220650,683120196,0.0019120304,0.0,5.486865e-06,0.0013403614,0.0,0.0,0.0,0.0,0.0,0.0,0.0,0.0,0.0,4.9795846e-05,0.0,0.0,nan,0.0,0.0,0.00050436833,0.0,0.0,0.0,0.0,0.0,0.0,0.0,0.0,0.0
683720427,683620119,0.0005692046,0.0,0.00084720604,0.0009671128,0.0,0.0,0.0,0.0,0.0,0.0,0.0,0.0,0.0,0.00011314979,0.0,0.0,nan,0.0,0.0,6.82894e-05,0.0,0.0,0.0,0.0,0.0,0.0,0.0,0.0,0.0
684220344,684120042,0.0032568153,0.0,0.00016502476,0.0012432125,0.0,0.0,0.0,0.0,0.0,0.0,0.0,0.0,0.0,6.2853887e-06,0.0,0.0,nan,0.0,0.0,0.00046096378,0.0,0.0,0.0,0.0,0.0,0.0,0.0,0.0,0.0
684720439,684619964,0.00074988516,0.0,6.462712e-06,0.0016299011,0.0,0.0,0.0,0.0,0.0,0.0,0.0,0.0,0.0,0.0001859309,0.0,0.0,nan,0.0,0.0,0.0010568496,0.0,0.0,0.0,0.0,0.0,0.0,0.0,0.0,0.0
685220230,685119887,0.0024381678,0.0,0.00034102955,0.0014774244,0.0,0.0,0.0,0.0,0.0,0.0,0.0,0.0,0.0,1.1090782e-05,0.0,0.0,nan,0.0,0.0,3.3003536e-05,0.0,0.0,0.0,0.0,0.0,0.0,0.0,0.0,0.0
685720220,685619810,0.00051908783,0.0,0.00021640319,0.0014040171,0.0,0.0,0.0,0.0,0.0,0.0,0.0,0.0,0.0,2.226635e-05,0.0,0.0,nan,0.0,0.0,6.4579996e-05,0.0,0.0,0.0,0.0,0.0,0.0,0.0,0.0,0.0
686220088,686119732,0.0016297022,0.0,0.00039602438,0.0012102843,0.0,0.0,0.0,0.0,0.0,0.0,0.0,0.0,0.0,1.1937654e-05,0.0,0.0,nan,0.0,0.0,0.000100852674,0.0,0.0,0.0,0.0,0.0,0.0,0.0,0.0,0.0
686720045,686619654,0.004488497,0.0,0.0017210289,0.0012092427,0.0,0.0,0.0,0.0,0.0,0.0,0.0,0.0,0.0,2.2996706e-05,0.0,0.0,nan,0.0,0.0,2.7037206e-05,0.0,0.0,0.0,0.0,0.0,0.0,0.0,0.0,0.0
687219972,687119576,0.001600435,0.0,0.00043910154,0.0007645617,0.0,0.0,0.0,0.0,0.0,0.0,0.0,0.0,0.0,0.00025198856,0.0,0.0,nan,0.0,0.0,9.1089474e-05,0.0,0.0,0.0,0.0,0.0,0.0,0.0,0.0,0.0
687719938,687619498,0.004728937,0.0,0.00072416425,0.0009312286,0.0,0.0,0.0,0.0,0.0,0.0,0.0,0.0,0.0,5.6672106e-05,0.0,0.0,nan,0.0,0.0,0.00031076232,0.0,0.0,0.0,0.0,0.0,0.0,0.0,0.0,0.0
688219757,688119420,0.0025479537,0.0,0.00027464476,0.00017831846,0.0,0.0,0.0,0.0,0.0,0.0,0.0,0.0,0.0,3.0981148e-05,0.0,0.0,nan,0.0,0.0,4.896851e-05,0.0,0.0,0.0,0.0,0.0,0.0,0.0,0.0,0.0
688719682,688619341,0.0010468292,0.0,1.8882887e-05,8.7744156e-05,0.0,0.0,0.0,0.0,0.0,0.0,0.0,0.0,0.0,0.00018437213,0.0,0.0,nan,0.0,0.0,3.2741165e-05,0.0,0.0,0.0,0.0,0.0,0.0,0.0,0.0,0.0
689219583,689119263,0.0019862347,0.0,4.1714702e-05,4.4110973e-05,0.0,0.0,0.0,0.0,0.0,0.0,0.0,0.0,0.0,4.757008e-05,0.0,0.0,nan,0.0,0.0,0.00031210764,0.0,0.0,0.0,0.0,0.0,0.0,0.0,0.0,0.0
689719559,689619184,0.0048130453,0.0,0.00046976737,7.554247e-05,0.0,0.0,0.0,0.0,0.0,0.0,0.0,0.0,0.0,6.773337e-05,0.0,0.0,nan,0.0,0.0,4.4478267e-05,0.0,0.0,0.0,0.0,0.0,0.0,0.0,0.0,0.0
690219407,690119106,0.0001260554,0.0,0.0052750087,0.00017245236,0.0,0.0,0.0,0.0,0.0,0.0,0.0,0.0,0.0,8.7725454e-07,0.0,0.0,nan,0.0,0.0,1.3236012e-05,0.0,0.0,0.0,0.0,0.0,0.0,0.0,0.0,0.0
690719385,690619026,0.002818315,0.0,0.0006203159,0.0003659536,0.0,0.0,0.0,0.0,0.0,0.0,0.0,0.0,0.0,4.379353e-05,0.0,0.0,nan,0.0,0.0,0.00015574912,0.0,0.0,0.0,0.0,0.0,0.0,0.0,0.0,0.0
691219410,691118948,0.001339397,0.0,0.0004671118,0.0017090444,0.0,0.0,0.0,0.0,0.0,0.0,0.0,0.0,0.0,5.7250003e-05,0.0,0.0,nan,0.0,0.0,0.000102575395,0.0,0.0,0.0,0.0,0.0,0.0,0.0,0.0,0.0
691719199,691618868,0.0049466714,0.0,0.00016017564,0.002172937,0.0,0.0,0.0,0.0,0.0,0.0,0.0,0.0,0.0,0.00025232733,0.0,0.0,nan,0.0,0.0,1.5415433e-06,0.0,0.0,0.0,0.0,0.0,0.0,0.0,0.0,0.0
692219166,692118789,0.0025438403,0.0,0.00020534628,0.0021059664,0.0,0.0,0.0,0.0,0.0,0.0,0.0,0.0,0.0,4.885544e-07,0.0,0.0,nan,0.0,0.0,6.853162e-05,0.0,0.0,0.0,0.0,0.0,0.0,0.0,0.0,0.0
692719077,692618710,0.0014685863,0.0,0.00015816338,0.0019907693,0.0,0.0,0.0,0.0,0.0,0.0,0.0,0.0,0.0,2.3994872e-07,0.0,0.0,nan,0.0,0.0,9.304457e-05,0.0,0.0,0.0,0.0,0.0,0.0,0.0,0.0,0.0
693219022,693118631,0.004802457,0.0,0.00019766853,0.0017606829,0.0,0.0,0.0,0.0,0.0,0.0,0.0,0.0,0.0,0.00013799635,0.0,0.0,nan,0.0,0.0,8.00883e-05,0.0,0.0,0.0,0.0,0.0,0.0,0.0,0.0,0.0
693718883,693618551,0.0021470052,0.0,0.00017936606,0.0017633142,0.0,0.0,0.0,0.0,0.0,0.0,0.0,0.0,0.0,7.324783e-05,0.0,0.0,nan,0.0,0.0,2.3390763e-05,0.0,0.0,0.0,0.0,0.0,0.0,0.0,0.0,0.0
694218780,694118471,0.0032787318,0.0,0.0014971097,0.0029327334,0.0,0.0,0.0,0.0,0.0,0.0,0.0,0.0,0.0,1.0533801e-05,0.0,0.0,nan,0.0,0.0,0.00034121145,0.0,0.0,0.0,0.0,0.0,0.0,0.0,0.0,0.0
694728862,694628390,0.00025164394,0.0,0.00035037662,0.0053878487,0.0,0.0,0.0,0.0,0.0,0.0,0.0,0.0,0.0,5.6189047e-06,0.0,0.0,nan,0.0,0.0,2.529931e-06,0.0,0.0,0.0,0.0,0.0,0.0,0.0,0.0,0.0
695218681,695118311,0.0009960798,0.0,1.143236e-05,0.0038943999,0.0,0.0,0.0,0.0,0.0,0.0,0.0,0.0,0.0,2.1492551e-05,0.0,0.0,nan,0.0,0.0,4.5147972e-05,0.0,0.0,0.0,0.0,0.0,0.0,0.0,0.0,0.0
695718557,695618231,0.0048411754,0.0,0.00029731705,0.0041004126,0.0,0.0,0.0,0.0,0.0,0.0,0.0,0.0,0.0,4.1786603e-05,0.0,0.0,nan,0.0,0.0,1.9630861e-05,0.0,0.0,0.0,0.0,0.0,0.0,0.0,0.0,0.0
696218455,696118151,0.0017351942,0.0,9.45276e-06,0.004087926,0.0,0.0,0.0,0.0,0.0,0.0,0.0,0.0,0.0,2.1156602e-05,0.0,0.0,nan,0.0,0.0,0.00031423464,0.0,0.0,0.0,0.0,0.0,0.0,0.0,0.0,0.0
696718614,696618070,0.0034180225,0.0,8.872592e-05,0.0047648367,0.0,0.0,0.0,0.0,0.0,0.0,0.0,0.0,0.0,0.00010595385,0.0,0.0,nan,0.0,0.0,1.469238e-05,0.0,0.0,0.0,0.0,0.0,0.0,0.0,0.0,0.0
697218480,697117990,0.0010433128,0.0,0.00020917808,0.0049922294,0.0,0.0,0.0,0.0,0.0,0.0,0.0,0.0,0.0,5.97802e-05,0.0,0.0,nan,0.0,0.0,0.00021984224,0.0,0.0,0.0,0.0,0.0,0.0,0.0,0.0,0.0
697728261,697627908,0.00079616427,0.0,0.0002514648,0.0043172794,0.0,0.0,0.0,0.0,0.0,0.0,0.0,0.0,0.0,0.00014708922,0.0,0.0,nan,0.0,0.0,8.8883935e-06,0.0,0.0,0.0,0.0,0.0,0.0,0.0,0.0,0.0
698228125,698127827,0.000857774,0.0,5.3121715e-07,0.0039234185,0.0,0.0,0.0,0.0,0.0,0.0,0.0,0.0,0.0,3.0407882e-06,0.0,0.0,nan,0.0,0.0,5.7302664e-06,0.0,0.0,0.0,0.0,0.0,0.0,0.0,0.0,0.0
698718107,698617748,0.00016909835,0.0,0.00013897607,0.0035396356,0.0,0.0,0.0,0.0,0.0,0.0,0.0,0.0,0.0,3.6415003e-07,0.0,0.0,nan,0.0,0.0,2.6137443e-05,0.0,0.0,0.0,0.0,0.0,0.0,0.0,0.0,0.0
699218130,699117667,0.010968928,0.0,2.582133e-05,0.0026058648,0.0,0.0,0.0,0.0,0.0,0.0,0.0,0.0,0.0,4.71698e-07,0.0,0.0,nan,0.0,0.0,1.527807e-05,0.0,0.0,0.0,0.0,0.0,0.0,0.0,0.0,0.0
699717926,699617585,0.0003374844,0.0,0.00031454855,0.0023860107,0.0,0.0,0.0,0.0,0.0,0.0,0.0,0.0,0.0,2.6489595e-05,0.0,0.0,nan,0.0,0.0,1.3367258e-05,0.0,0.0,0.0,0.0,0.0,0.0,0.0,0.0,0.0
700227829,700127505,0.008729439,0.0,0.00046337728,0.0013730557,0.0,0.0,0.0,0.0,0.0,0.0,0.0,0.0,0.0,1.102912e-05,0.0,0.0,nan,0.0,0.0,7.3663687e-06,0.0,0.0,0.0,0.0,0.0,0.0,0.0,0.0,0.0
700727801,700627421,0.0011439914,0.0,5.42962e-06,0.0010747382,0.0,0.0,0.0,0.0,0.0,0.0,0.0,0.0,0.0,3.868215e-09,0.0,0.0,nan,0.0,0.0,7.456825e-05,0.0,0.0,0.0,0.0,0.0,0.0,0.0,0.0,0.0
701227715,701127340,0.018031174,0.0,0.00434409,0.0008077072,0.0,0.0,0.0,0.0,0.0,0.0,0.0,0.0,0.0,6.492562e-05,0.0,0.0,nan,0.0,0.0,1.7797054e-05,0.0,0.0,0.0,0.0,0.0,0.0,0.0,0.0,0.0
701727650,701627259,0.00011432094,0.0,0.00014109846,0.0007309929,0.0,0.0,0.0,0.0,0.0,0.0,0.0,0.0,0.0,1.3792667e-09,0.0,0.0,nan,0.0,0.0,1.1882928e-07,0.0,0.0,0.0,0.0,0.0,0.0,0.0,0.0,0.0
702217576,702117178,0.0030038198,0.0,3.565401e-05,0.00063495495,0.0,0.0,0.0,0.0,0.0,0.0,0.0,0.0,0.0,1.7574045e-08,0.0,0.0,nan,0.0,0.0,1.781765e-05,0.0,0.0,0.0,0.0,0.0,0.0,0.0,0.0,0.0
702717417,702617097,0.00095287786,0.0,0.00018432912,0.00047214006,0.0,0.0,0.0,0.0,0.0,0.0,0.0,0.0,0.0,2.5111196e-06,0.0,0.0,nan,0.0,0.0,2.2798466e-05,0.0,0.0,0.0,0.0,0.0,0.0,0.0,0.0,0.0
