timestamp,timestamp_sample,position_drift_rate_horizontal_m_s,position_drift_rate_vertical_m_s,filtered_horizontal_speed_m_s,checks_passed,check_fail_gps_fix,check_fail_min_sat_count,check_fail_max_pdop,check_fail_max_horz_err,check_fail_max_vert_err,check_fail_max_spd_err,check_fail_max_horz_drift,check_fail_max_vert_drift,check_fail_max_horz_spd_err,check_fail_max_vert_spd_err
540111118,539978641,0.055518765,0.17744818,0.012298812,1,0,0,0,0,0,0,0,0,0,0
541106592,540973637,0.06377144,0.1757198,0.0075934967,1,0,0,0,0,0,0,0,0,0,0
542101998,541974642,0.057113916,0.16356894,0.0023040602,1,0,0,0,0,0,0,0,0,0,0
543117368,542985636,0.056379482,0.14615963,0.00642453,1,0,0,0,0,0,0,0,0,0,0
544113038,543982650,0.042439666,0.10481718,0.0016684446,1,0,0,0,0,0,0,0,0,0,0
545109000,544981636,0.03650853,0.078860044,0.009586334,1,0,0,0,0,0,0,0,0,0,0
546113808,545979636,0.036580186,0.05251218,0.009661737,1,0,0,0,0,0,0,0,0,0,0
547109167,546981636,0.036127638,0.016857991,0.017694019,1,0,0,0,0,0,0,0,0,0,0
548114627,547980636,0.037212674,0.008818885,0.022271369,1,0,0,0,0,0,0,0,0,0,0
549110116,548981637,0.040885188,0.024165649,0.028721046,1,0,0,0,0,0,0,0,0,0,0
550105596,549972637,0.04629074,0.041897256,0.030795658,1,0,0,0,0,0,0,0,0,0,0
551110909,550980743,0.043314673,0.046837993,0.029053401,1,0,0,0,0,0,0,0,0,0,0
552106477,551978636,0.051331062,0.07690427,0.031068413,1,0,0,0,0,0,0,0,0,0,0
553111956,552980635,0.04444174,0.100816056,0.031030115,1,0,0,0,0,0,0,0,0,0,0
554098014,553970636,0.038886447,0.106417745,0.026852826,1,0,0,0,0,0,0,0,0,0,0
555112691,554979672,0.011394889,0.106033705,0.030182539,1,0,0,0,0,0,0,0,0,0,0
556128126,555993635,0.018985339,0.107628696,0.02864679,1,0,0,0,0,0,0,0,0,0,0
557113645,556982635,0.033085965,0.09625175,0.030936666,1,0,0,0,0,0,0,0,0,0,0
558109065,557982637,0.037426494,0.089308746,0.029569108,1,0,0,0,0,0,0,0,0,0,0
559114504,558981635,0.02470856,0.07899419,0.023689946,1,0,0,0,0,0,0,0,0,0,0
560110043,559980636,0.017025953,0.07990724,0.025914798,1,0,0,0,0,0,0,0,0,0,0
561105392,560976638,0.013556496,0.058982626,0.025825711,1,0,0,0,0,0,0,0,0,0,0
562110952,561977637,0.015510227,0.056255084,0.024535008,1,0,0,0,0,0,0,0,0,0,0
563106927,562979637,nan,nan,nan,1,0,0,0,0,0,0,0,0,0,0
564111753,563985638,nan,nan,nan,1,0,0,0,0,0,0,0,0,0,0
565117082,564982635,0.016756635,0.008983803,0.0075424747,1,0,0,0,0,0,0,0,0,0,0
566122495,565992636,0.02624484,0.012158196,0.009609816,1,0,0,0,0,0,0,0,0,0,0
567108087,566980636,0.031386983,0.0037215035,0.00813585,1,0,0,0,0,0,0,0,0,0,0
568103603,567974637,0.05394584,0.010010385,0.026321875,1,0,0,0,0,0,0,0,0,0,0
569108936,568975637,0.057217207,0.027998932,0.009084866,1,0,0,0,0,0,0,0,0,0,0
570114469,569983637,0.05583728,0.023591341,0.011185301,1,0,0,0,0,0,0,0,0,0,0
571109961,570982636,0.045397427,0.038981088,0.022325376,1,0,0,0,0,0,0,0,0,0,0
572115772,571981637,0.035066333,0.041410133,0.029908031,1,0,0,0,0,0,0,0,0,0,0
573110695,572982646,0.04540572,0.042376418,0.026565565,1,0,0,0,0,0,0,0,0,0,0
574116168,573991250,nan,nan,nan,1,0,0,0,0,0,0,0,0,0,0
575111681,574979638,nan,nan,nan,1,0,0,0,0,0,0,0,0,0,0
576107092,575975642,0.00932111,0.004310934,0.004638156,1,0,0,0,0,0,0,0,0,0,0
577112497,576983636,0.015145943,0.012158197,0.00593314,1,0,0,0,0,0,0,0,0,0,0
578107974,577981638,0.020321863,0.006605881,0.0046621086,1,0,0,0,0,0,0,0,0,0,0
579113376,578979637,0.021019489,0.0027985417,0.004734393,1,0,0,0,0,0,0,0,0,0,0
580108880,579974642,0.029567402,0.01700446,0.011437184,1,0,0,0,0,0,0,0,0,0,0
581114917,580979799,nan,nan,nan,1,0,0,0,0,0,0,0,0,0,0
582109790,581981643,nan,nan,nan,1,0,0,0,0,0,0,0,0,0,0
583115299,582982637,0.027328024,0.017177897,0.019902265,1,0,0,0,0,0,0,0,0,0,0
584110562,583981637,0.040144615,0.029056441,0.028010402,1,0,0,0,0,0,0,0,0,0,0
585116081,584982635,0.051222708,0.03587562,0.040716145,1,0,0,0,0,0,0,0,0,0,0
586101580,585976638,0.05016723,0.031798493,0.05124914,1,0,0,0,0,0,0,0,0,0,0
587106934,586972637,0.03327152,0.014443996,0.041436635,1,0,0,0,0,0,0,0,0,0,0
588102443,587968674,0.02631603,0.012504594,0.03956798,1,0,0,0,0,0,0,0,0,0,0
589098005,588969638,0.03621289,0.003341488,0.030771574,1,0,0,0,0,0,0,0,0,0,0
590103865,589972634,0.04466419,0.02499434,0.025043456,1,0,0,0,0,0,0,0,0,0,0
591108807,590980645,0.052717745,0.045500293,0.011338877,1,0,0,0,0,0,0,0,0,0,0
592114198,591979636,nan,nan,nan,1,0,0,0,0,0,0,0,0,0,0
593099677,592972638,nan,nan,nan,1,0,0,0,0,0,0,0,0,0,0
594105047,593972637,nan,nan,nan,1,0,0,0,0,0,0,0,0,0,0
595100564,594971636,0.008784904,0.0031562098,0.0039343312,1,0,0,0,0,0,0,0,0,0,0
596106003,595978636,0.013721695,0.005870647,0.018772064,1,0,0,0,0,0,0,0,0,0,0
597121284,596987637,0.012117787,0.0069975043,0.022374235,1,0,0,0,0,0,0,0,0,0,0
598106899,597981875,0.0057844603,0.010676487,0.022408774,1,0,0,0,0,0,0,0,0,0,0
599112773,598980635,0.011201101,0.02851494,0.023190815,1,0,0,0,0,0,0,0,0,0,0
600107655,599977637,0.035692986,0.042463128,0.018294293,1,0,0,0,0,0,0,0,0,0,0
601113092,600978636,nan,nan,nan,1,0,0,0,0,0,0,0,0,0,0
602098538,601969636,nan,nan,nan,1,0,0,0,0,0,0,0,0,0,0
603104013,602970636,0.005530378,0.0087000085,0.0030550607,1,0,0,0,0,0,0,0,0,0,0
604099473,603970637,nan,nan,nan,1,0,0,0,0,0,0,0,0,0,0
605104819,604972636,nan,nan,nan,1,0,0,0,0,0,0,0,0,0,0
606100313,605968636,nan,nan,nan,1,0,0,0,0,0,0,0,0,0,0
607105818,606978637,nan,nan,nan,1,0,0,0,0,0,0,0,0,0,0
608101777,607971636,0.019420896,0.031331416,0.0024433786,1,0,0,0,0,0,0,0,0,0,0
609106548,608977636,0.031213267,0.0441771,0.008474993,1,0,0,0,0,0,0,0,0,0,0
610102009,609973636,0.046293586,0.062785745,0.0015247404,1,0,0,0,0,0,0,0,0,0,0
611097576,610970637,nan,nan,nan,1,0,0,0,0,0,0,0,0,0,0
612102970,611969638,nan,nan,nan,1,0,0,0,0,0,0,0,0,0,0
613108293,612983353,nan,nan,nan,1,0,0,0,0,0,0,0,0,0,0
614093815,613968905,nan,nan,nan,1,0,0,0,0,0,0,0,0,0,0
615099181,614969721,nan,nan,nan,1,0,0,0,0,0,0,0,0,0,0
616094825,615967638,nan,nan,nan,1,0,0,0,0,0,0,0,0,0,0
617100660,616971643,nan,nan,nan,1,0,0,0,0,0,0,0,0,0,0
618105486,617974645,nan,nan,nan,1,0,0,0,0,0,0,0,0,0,0
619100933,618968636,nan,nan,nan,1,0,0,0,0,0,0,0,0,0,0
620106312,619974637,nan,nan,nan,1,0,0,0,0,0,0,0,0,0,0
621101748,620974638,nan,nan,nan,1,0,0,0,0,0,0,0,0,0,0
622107194,621973637,nan,nan,nan,1,0,0,0,0,0,0,0,0,0,0
623102554,622977638,nan,nan,nan,1,0,0,0,0,0,0,0,0,0,0
624108018,623975636,nan,nan,nan,1,0,0,0,0,0,0,0,0,0,0
625103533,624970637,nan,nan,nan,1,0,0,0,0,0,0,0,0,0,0
626109443,625974637,0.004682476,0.0013612284,0.0031272057,1,0,0,0,0,0,0,0,0,0,0
627104227,626970651,0.009952316,0.0043599727,0.008028754,1,0,0,0,0,0,0,0,0,0,0
628099740,627970638,0.014877585,0.003133317,0.011769808,1,0,0,0,0,0,0,0,0,0,0
629095217,628970163,0.027278429,0.006148775,0.018115968,1,0,0,0,0,0,0,0,0,0,0
630100592,629967638,0.01788144,0.030512627,0.0114114005,1,0,0,0,0,0,0,0,0,0,0
631095960,630963073,0.033955447,0.055580854,0.010099881,1,0,0,0,0,0,0,0,0,0,0
632091454,631961642,0.05656727,0.07125264,0.021238264,1,0,0,0,0,0,0,0,0,0,0
633097008,632970637,0.05570282,0.06218525,0.021810167,1,0,0,0,0,0,0,0,0,0,0
634102186,633967636,0.06546665,0.066287026,0.017183827,1,0,0,0,0,0,0,0,0,0,0
635098218,634969636,0.07469119,0.079967394,0.015792469,1,0,0,0,0,0,0,0,0,0,0
636093138,635964636,0.08660421,0.1078514,0.024283588,1,0,0,0,0,0,0,0,0,0,0
637108449,636977653,0.08169186,0.12048015,0.011491906,1,0,0,0,0,0,0,0,0,0,0
638103902,637976636,0.070185944,0.11059617,0.011541497,1,0,0,0,0,0,0,0,0,0,0
639109265,638976669,0.06901446,0.111566804,0.015779043,1,0,0,0,0,0,0,0,0,0,0
640094806,639969835,nan,nan,nan,1,0,0,0,0,0,0,0,0,0,0
641090216,640965153,0.012442213,0.015940832,0.01129401,1,0,0,0,0,0,0,0,0,0,0
642105483,641974637,0.014940559,0.036517803,0.011377874,1,0,0,0,0,0,0,0,0,0,0
643111093,642977644,0.023451801,0.009506919,0.017030636,1,0,0,0,0,0,0,0,0,0,0
644106917,643977636,0.011410576,0.026258841,0.014307261,1,0,0,0,0,0,0,0,0,0,0
645101835,644967637,0.035699714,0.019433746,0.011071608,1,0,0,0,0,0,0,0,0,0,0
646107203,645978638,0.057924096,0.0029033062,0.012895182,1,0,0,0,0,0,0,0,0,0,0
647112546,646981642,0.0719027,0.018975597,0.009004356,1,0,0,0,0,0,0,0,0,0,0
648107972,647973636,0.07216296,0.026372673,0.011754798,1,0,0,0,0,0,0,0,0,0,0
649103509,648974637,0.07429707,0.051841184,0.011538467,1,0,0,0,0,0,0,0,0,0,0
650098821,649969636,0.09357753,0.09152364,0.006444652,1,0,0,0,0,0,0,0,0,0,0
651104232,650979332,0.10075665,0.10595824,0.0005311963,1,0,0,0,0,0,0,0,0,0,0
652109562,651981636,0.10092051,0.116391465,0.0010037774,1,0,0,0,0,0,0,0,0,0,0
653105724,652973635,0.09117502,0.12430214,0.0062421667,1,0,0,0,0,0,0,0,0,0,0
654100406,653973635,0.0857915,0.12655434,0.0039150566,1,0,0,0,0,0,0,0,0,0,0
655115793,654984635,0.07113211,0.09572179,0.009552598,1,0,0,0,0,0,0,0,0,0,0
656111270,655983638,0.0648182,0.08191885,0.006575066,1,0,0,0,0,0,0,0,0,0,0
657116571,656983636,0.066703215,0.0870752,0.0073743984,1,0,0,0,0,0,0,0,0,0,0
658102154,657972636,0.06846159,0.08809895,0.009088345,1,0,0,0,0,0,0,0,0,0,0
659107433,658978637,0.0703238,0.07466166,0.015958942,1,0,0,0,0,0,0,0,0,0,0
660102812,659974638,0.076307245,0.07691376,0.018734148,1,0,0,0,0,0,0,0,0,0,0
661108194,660979643,0.07831836,0.0682701,0.02682067,1,0,0,0,0,0,0,0,0,0,0
662114245,661979636,0.08182564,0.07037454,0.045123935,1,0,0,0,0,0,0,0,0,0,0
663109145,662981636,0.08832363,0.055256665,0.058315728,0,0,0,0,0,0,0,0,0,0,0
664104534,663978637,0.093933746,0.05452593,0.054173525,0,0,0,0,0,0,1,0,0,0,0
665109810,664976635,0.10371086,0.05494215,0.07102081,0,0,0,0,0,0,0,0,0,0,0
666105221,665975636,0.07870751,0.037918612,0.041490432,0,0,0,0,0,0,0,0,0,0,0
667110636,666981641,0.07250823,0.023796659,0.050412413,0,0,0,0,0,0,0,0,0,0,0
668106061,667977932,0.06328665,0.03178037,0.039684426,0,0,0,0,0,0,0,0,0,0,0
669111404,668978643,0.0532332,0.027111758,0.030791309,0,0,0,0,0,0,0,0,0,0,0
670106819,669978705,0.048894376,0.014816733,0.024537357,0,0,0,0,0,0,0,0,0,0,0
671112805,670979634,0.048396334,0.0028086866,0.025060246,0,0,0,0,0,0,0,0,0,0,0
672107820,671982732,0.035480607,0.026408331,0.025903914,0,0,0,0,0,0,0,0,0,0,0
673113087,672981636,0.022795025,0.047610335,0.025541967,0,0,0,0,0,0,0,0,0,0,0
674158245,674031636,0.019564627,0.051841147,0.018091956,0,0,0,0,0,0,0,0,0,0,0
675163542,675030634,0.030885449,0.04294202,0.01845665,1,0,0,0,0,0,0,0,0,0,0
676148990,676020656,0.066761024,0.026029509,0.0095982645,1,0,0,0,0,0,0,0,0,0,0
677154352,677029309,0.09196087,0.007316422,0.01772471,1,0,0,0,0,0,0,0,0,0,0
678159749,678034733,0.11920025,0.00858863,0.0028293787,1,0,0,0,0,0,0,0,0,0,0
679155068,679022650,0.11452763,0.01135944,0.01054591,1,0,0,0,0,0,0,0,0,0,0
680140580,680012637,0.1287265,0.0010721477,0.0060456432,1,0,0,0,0,0,0,0,0,0,0
681156037,681026636,0.13449614,0.007575084,0.010725478,1,0,0,0,0,0,0,0,0,0,0
682161884,682026637,0.13389738,0.016243456,0.0055818562,1,0,0,0,0,0,0,0,0,0,0
683146682,683017636,0.11991933,0.030545803,0.007205371,1,0,0,0,0,0,0,0,0,0,0
684142093,684012651,0.120407075,0.017624294,0.009848521,1,0,0,0,0,0,0,0,0,0,0
685157319,685025636,0.121933945,0.017191982,0.007423676,1,0,0,0,0,0,0,0,0,0,0
686152817,686020637,0.11893783,0.023769569,0.0074437796,1,0,0,0,0,0,0,0,0,0,0
687148155,687017774,0.109222315,0.038224056,0.0106257675,1,0,0,0,0,0,0,0,0,0,0
688153615,688024861,0.09171892,0.05197071,0.008116454,1,0,0,0,0,0,0,0,0,0,0
689148973,689022636,0.07966337,0.051707767,0.007688952,1,0,0,0,0,0,0,0,0,0,0
690144548,690017636,0.0801866,0.042258564,0.009593536,1,0,0,0,0,0,0,0,0,0,0
691150369,691024990,0.12816033,0.015725859,0.014188139,1,0,0,0,0,0,0,0,0,0,0
692155049,692022638,0.13442087,0.019398184,0.015049647,1,0,0,0,0,0,0,0,0,0,0
693140513,693014637,0.14062138,0.031508353,0.0142986905,1,0,0,0,0,0,0,0,0,0,0
694145793,694014638,0.16219644,0.039211996,0.013732746,1,0,0,0,0,0,0,0,0,0,0
695141257,695014637,0.17811805,0.03250535,0.01389722,1,0,0,0,0,0,0,0,0,0,0
696146704,696019643,0.18164766,0.037130456,0.010326789,1,0,0,0,0,0,0,0,0,0,0
697151914,697019638,0.19338086,0.030411376,0.009180645,1,0,0,0,0,0,0,0,0,0,0
698157269,698027638,0.19093001,0.055529613,0.012642601,1,0,0,0,0,0,0,0,0,0,0
699162644,699031638,0.18708482,0.07334138,0.011254663,1,0,0,0,0,0,0,0,0,0,0
700168603,700034638,0.16988394,0.09927204,0.008655357,1,0,0,0,0,0,0,0,0,0,0
701163506,701038638,0.14532201,0.11021479,0.014088469,1,0,0,0,0,0,0,0,0,0,0
702168696,702040639,0.137549,0.108624615,0.008136653,1,0,0,0,0,0,0,0,0,0,0
703164113,703034639,0.12726015,0.10419587,0.007157494,1,0,0,0,0,0,0,0,0,0,0
704169512,704037638,0.10476975,0.0914243,0.010540574,1,0,0,0,0,0,0,0,0,0,0
705164962,705038637,0.100313604,0.08639719,0.010391884,1,0,0,0,0,0,0,0,0,0,0
706160195,706029990,0.11596024,0.06664301,0.013493386,1,0,0,0,0,0,0,0,0,0,0
707175510,707045637,0.123236254,0.069493376,0.012023048,1,0,0,0,0,0,0,0,0,0,0
708161026,708027636,0.123455256,0.05118162,0.006860797,1,0,0,0,0,0,0,0,0,0,0
709166898,709033637,0.13348699,0.044916775,0.004454894,1,0,0,0,0,0,0,0,0,0,0
710151894,710025637,0.13137078,0.04216815,0.0074524055,1,0,0,0,0,0,0,0,0,0,0
711167070,711037643,0.11338145,0.03807729,0.00068146514,1,0,0,0,0,0,0,0,0,0,0
712162510,712030981,0.08262745,0.0531238,0.026315182,1,0,0,0,0,0,0,0,0,0,0
713167903,713034706,0.05470422,0.047978424,0.040935155,0,0,0,0,0,0,0,0,0,0,0
714153219,714028276,0.052657507,0.028396765,0.036199983,0,0,0,0,0,0,1,0,0,0,0
715168885,715035653,0.071500346,0.029761478,0.018812167,0,0,0,0,0,0,0,0,0,0,0
716163863,716031638,0.07488104,0.017192582,0.014083601,0,0,0,0,0,0,0,0,0,0,0
717179157,717046643,0.06455762,0.0015879299,0.020538442,0,0,0,0,0,0,0,0,0,0,0
718165197,718038637,0.07128596,0.0061094807,0.017272145,0,0,0,0,0,0,0,0,0,0,0
719150207,719023637,0.065468386,0.007454034,0.017525965,0,0,0,0,0,0,0,0,0,0,0
720165708,720037639,0.05605694,0.0244778,0.023830054,0,0,0,0,0,0,1,0,0,0,0
721160685,721030638,0.059519596,0.022065977,0.016347172,0,0,0,0,0,0,0,0,0,0,0
722166086,722037637,0.07721689,0.024666227,0.0067532677,0,0,0,0,0,0,0,0,0,0,0
723171356,723038638,0.03789733,0.017537467,0.032605976,0,0,0,0,0,0,1,0,0,0,0
724176735,724043663,0.04654234,0.028294867,0.023883205,0,0,0,0,0,0,0,0,0,0,0
725162100,725036920,0.028336763,0.03442563,0.04919893,0,0,0,0,0,0,0,0,0,0,0
726167497,726038638,0.046619445,0.04941697,0.037884522,0,0,0,0,0,0,0,0,0,0,0
727172810,727046636,0.054828428,0.059179775,0.04846112,0,0,0,0,0,0,0,0,0,0,0
728168340,728038637,0.055003304,0.05702043,0.048608925,0,0,0,0,0,0,0,0,0,0,0
729174076,729045639,0.060969193,0.051226735,0.045320198,0,0,0,0,0,0,0,0,0,0,0
730168879,730038643,0.08822977,0.04638664,0.04161374,0,0,0,0,0,0,0,0,0,0,0
731174274,731039637,0.12892865,0.055826318,0.035807744,0,0,0,0,0,0,0,0,0,0,0
732159730,732029638,0.14319171,0.051916394,0.037282493,0,0,0,0,0,0,0,0,0,0,0
733125223,732997638,0.14930278,0.041756745,0.023037922,0,0,0,0,0,0,0,0,0,0,0
734130629,734001643,0.16164277,0.055361535,0.009549576,1,0,0,0,0,0,0,0,0,0,0
735125917,734992637,0.16615506,0.079188175,0.010347179,1,0,0,0,0,0,0,0,0,0,0
736121237,735990809,0.13901305,0.065279946,0.008359265,0,0,0,0,0,0,1,0,0,0,0
737126668,736994638,0.12009411,0.05118448,0.011248461,0,0,0,0,0,0,0,0,0,0,0
738122396,737996933,0.12553391,0.04268909,0.025325751,0,0,0,0,0,0,0,0,0,0,0
739127354,738997637,0.11777701,0.05487299,0.021802763,0,0,0,0,0,0,0,0,0,0,0
740122642,739997638,0.13486905,0.056324024,0.04670683,0,0,0,0,0,0,0,0,0,0,0
741118156,740989638,0.13857546,0.06499735,0.047431,0,0,0,0,0,0,0,0,0,0,0
742123390,741997637,0.13782227,0.06618873,0.04396257,0,0,0,0,0,0,0,0,0,0,0
743128710,742998637,0.114298455,0.050413102,0.04083458,0,0,0,0,0,0,0,0,0,0,0
744133934,744000638,0.07243678,0.018470649,0.0323726,0,0,0,0,0,0,0,0,0,0,0
745119400,744985637,0.060537603,0.0065426216,0.03268738,0,0,0,0,0,0,0,0,0,0,0
746124811,745993638,0.062347643,0.0040862095,0.027867692,0,0,0,0,0,0,0,0,0,0,0
747120846,746989743,0.05907655,0.0013778288,0.027180031,1,0,0,0,0,0,0,0,0,0,0
748125384,748000638,0.038273014,0.0005563361,0.019502293,1,0,0,0,0,0,0,0,0,0,0
749120762,748988638,0.038309954,0.033520076,0.014399693,1,0,0,0,0,0,0,0,0,0,0
750116176,749989638,0.058473997,0.05509566,0.019776646,1,0,0,0,0,0,0,0,0,0,0
751131454,750997658,0.07735368,0.06334282,0.018821927,1,0,0,0,0,0,0,0,0,0,0
752126849,751999637,0.06209055,0.057654284,0.020226782,1,0,0,0,0,0,0,0,0,0,0
753132082,752999638,0.05133271,0.07832937,0.022155883,1,0,0,0,0,0,0,0,0,0,0
754127510,754001637,0.0647085,0.11574225,0.019956598,1,0,0,0,0,0,0,0,0,0,0
755122854,754997745,0.091488376,0.14900231,0.026354114,1,0,0,0,0,0,0,0,0,0,0
756128989,755999637,0.09872325,0.12904277,0.023087816,1,0,0,0,0,0,0,0,0,0,0
757123593,756996637,0.10833651,0.11550481,0.019367998,1,0,0,0,0,0,0,0,0,0,0
758128839,757997637,0.1121418,0.09600091,0.021109767,1,0,0,0,0,0,0,0,0,0,0
759124186,758997642,nan,nan,nan,1,0,0,0,0,0,0,0,0,0,0
760119544,759988638,0.0078652175,0.018383017,0.005363615,1,0,0,0,0,0,0,0,0,0,0
761124989,760995642,0.02889625,0.010625577,0.011526471,1,0,0,0,0,0,0,0,0,0,0
762120258,761987643,0.049397405,0.011707941,0.019333724,0,0,0,0,0,0,1,0,0,0,0
763125514,762994638,0.067191444,0.03442754,0.030087257,0,0,0,0,0,0,0,0,0,0,0
764130886,763996638,0.07296073,0.034680687,0.033684783,0,0,0,0,0,0,0,0,0,0,0
765126999,764989644,0.075767025,0.05449201,0.03633565,0,0,0,0,0,0,0,0,0,0,0
766121710,765996654,0.085896716,0.07885751,0.03980804,0,0,0,0,0,0,0,0,0,0,0
767127203,766996638,0.08989114,0.090236515,0.035929598,0,0,0,0,0,0,0,0,0,0,0
768122346,767997144,0.08344724,0.08762266,0.027232924,0,0,0,0,0,0,0,0,0,0,0
769117610,768988638,0.07584887,0.09959682,0.019706571,0,0,0,0,0,0,0,0,0,0,0
770122988,769991636,0.07796407,0.114002794,0.023571081,0,0,0,0,0,0,0,0,0,0,0
771108366,770977639,0.07700091,0.07719032,0.029996814,0,0,0,0,0,0,0,0,0,0,0
772113723,771980785,0.078652926,0.0834678,0.029528012,0,0,0,0,0,0,0,0,0,0,0
773118985,772984672,0.085181266,0.11895032,0.020804401,1,0,0,0,0,0,0,0,0,0,0
774114396,773988638,0.08381218,0.12591653,0.021996042,1,0,0,0,0,0,0,0,0,0,0
775119793,774988638,0.08265129,0.12786467,0.032425247,1,0,0,0,0,0,0,0,0,0,0
776125380,775992638,0.097314835,0.16330738,0.0320214,1,0,0,0,0,0,0,0,0,0,0
777120332,776993638,0.09877666,0.1854318,0.03463927,1,0,0,0,0,0,0,0,0,0,0
778135532,778002685,0.100555316,0.20759271,0.032323316,1,0,0,0,0,0,0,0,0,0,0
779121017,778988873,0.09919473,0.23235561,0.028547203,1,0,0,0,0,0,0,0,0,0,0
780116360,779988788,0.10166442,0.27678788,0.01872282,1,0,0,0,0,0,0,0,0,0,0
781121708,780995677,0.09496142,0.2836184,0.014141512,1,0,0,0,0,0,0,0,0,0,0
782126965,781993639,0.084562935,0.27046356,0.013239387,1,0,0,0,0,0,0,0,0,0,0
783122342,782995638,0.06661051,0.23890607,0.012355549,1,0,0,0,0,0,0,0,0,0,0
784117802,783989769,0.057073716,0.2101236,0.012769127,1,0,0,0,0,0,0,0,0,0,0
785133611,784998638,0.056897208,0.20039713,0.011566898,1,0,0,0,0,0,0,0,0,0,0
786128228,785997849,0.059750795,0.17180687,0.011481306,1,0,0,0,0,0,0,0,0,0,0
787123647,786998639,0.07077145,0.14987962,0.01874631,1,0,0,0,0,0,0,0,0,0,0
788138853,788004638,0.08501469,0.12777613,0.02256142,1,0,0,0,0,0,0,0,0,0,0
789134913,789002637,0.07519289,0.07011567,0.014428654,1,0,0,0,0,0,0,0,0,0,0
790129599,789998640,0.076834425,0.044160563,0.01598895,1,0,0,0,0,0,0,0,0,0,0
791125040,790992638,0.074105285,0.0053277207,0.016469259,1,0,0,0,0,0,0,0,0,0,0
792120297,791995087,0.08065097,0.014139401,0.014825773,1,0,0,0,0,0,0,0,0,0,0
793125773,792994644,0.08651431,0.005958792,0.014448594,1,0,0,0,0,0,0,0,0,0,0
794131508,793997653,0.100339234,0.030136723,0.014162479,1,0,0,0,0,0,0,0,0,0,0
795116430,794990638,0.11338938,0.03982568,0.015274404,1,0,0,0,0,0,0,0,0,0,0
796131712,796001637,0.10706035,0.03160325,0.008415169,1,0,0,0,0,0,0,0,0,0,0
797117134,796986638,0.10264214,0.014008666,0.0045055477,1,0,0,0,0,0,0,0,0,0,0
798142407,798012638,0.10112575,0.019244736,0.0029655807,1,0,0,0,0,0,0,0,0,0,0
799127578,799001643,0.09584131,0.0029974033,0.004303461,1,0,0,0,0,0,0,0,0,0,0
800122917,799996650,0.10206591,0.017525405,0.006214034,1,0,0,0,0,0,0,0,0,0,0
801128255,800993637,0.10020005,0.03099224,0.003211674,1,0,0,0,0,0,0,0,0,0,0
802123607,801990701,0.103094466,0.056153033,0.0045071393,1,0,0,0,0,0,0,0,0,0,0
803128821,802995644,0.09814704,0.10306752,0.021005344,1,0,0,0,0,0,0,0,0,0,0
804124387,803994644,0.09940402,0.13211797,0.02751678,1,0,0,0,0,0,0,0,0,0,0
805129850,805001644,0.11444861,0.12080144,0.0067035193,1,0,0,0,0,0,0,0,0,0,0
806134977,806000638,0.112828426,0.0870493,0.011119723,1,0,0,0,0,0,0,0,0,0,0
807130148,807001644,0.10061448,0.057338066,0.013826196,1,0,0,0,0,0,0,0,0,0,0
808145438,808014646,nan,nan,nan,1,0,0,0,0,0,0,0,0,0,0
809120875,808993638,0.0015693802,0.018344916,0.0016476613,1,0,0,0,0,0,0,0,0,0,0
810116217,809991104,0.008828283,0.035383105,0.0044705574,1,0,0,0,0,0,0,0,0,0,0
811141455,811010638,0.02286526,0.0348354,0.015867919,1,0,0,0,0,0,0,0,0,0,0
812126787,811999638,0.027548794,0.042647306,0.012343181,1,0,0,0,0,0,0,0,0,0,0
813132176,813000638,0.033470403,0.048382778,0.005524501,1,0,0,0,0,0,0,0,0,0,0
814128154,813996653,0.030372689,0.025526745,0.0039001019,1,0,0,0,0,0,0,0,0,0,0
815122829,814996694,0.032452002,0.04134441,0.003078951,1,0,0,0,0,0,0,0,0,0,0
816128096,816000637,0.030199306,0.034474563,0.00801834,1,0,0,0,0,0,0,0,0,0,0
817123501,816995638,0.030522322,0.024399765,0.0065106996,1,0,0,0,0,0,0,0,0,0,0
818138674,818009639,0.02912624,0.012585431,0.009263413,1,0,0,0,0,0,0,0,0,0,0
819134039,818999643,0.038602952,0.0052487478,0.004397689,1,0,0,0,0,0,0,0,0,0,0
820129389,819997637,0.04035152,0.005660753,0.0063923346,1,0,0,0,0,0,0,0,0,0,0
821134584,821004639,0.044074893,4.757376e-06,0.008065841,1,0,0,0,0,0,0,0,0,0,0
822110041,821984878,0.045033943,0.00061061856,0.009677343,1,0,0,0,0,0,0,0,0,0,0
823125874,822994637,0.051490754,0.0072298124,0.012109251,1,0,0,0,0,0,0,0,0,0,0
824130585,824000638,0.05467189,0.002529923,0.009327024,1,0,0,0,0,0,0,0,0,0,0
825125966,824999886,0.05887221,0.011638251,0.009895071,1,0,0,0,0,0,0,0,0,0,0
826131222,825998639,0.07330499,0.023952108,0.008029651,1,0,0,0,0,0,0,0,0,0,0
827126534,826993694,0.06561368,0.025998399,0.011742074,1,0,0,0,0,0,0,0,0,0,0
828141848,828008636,0.06425664,0.037006542,0.013984461,1,0,0,0,0,0,0,0,0,0,0
829137202,829003650,nan,nan,nan,1,0,0,0,0,0,0,0,0,0,0
830122594,829997638,nan,nan,nan,1,0,0,0,0,0,0,0,0,0,0
831147853,831014841,nan,nan,nan,1,0,0,0,0,0,0,0,0,0,0
832133836,832002746,0.02913138,0.03995151,0.006777249,1,0,0,0,0,0,0,0,0,0,0
833128560,832997638,0.046285562,0.05879438,0.009381304,1,0,0,0,0,0,0,0,0,0,0
834124023,833989638,0.045256916,0.0711411,0.009633664,1,0,0,0,0,0,0,0,0,0,0
835119106,834990637,0.046314742,0.08772046,0.0031539882,1,0,0,0,0,0,0,0,0,0,0
836114513,835988652,nan,nan,nan,1,0,0,0,0,0,0,0,0,0,0
837129844,837004781,nan,nan,nan,1,0,0,0,0,0,0,0,0,0,0
838135046,838004643,nan,nan,nan,1,0,0,0,0,0,0,0,0,0,0
839170144,839043637,nan,nan,nan,1,0,0,0,0,0,0,0,0,0,0
840155653,840030643,nan,nan,nan,1,0,0,0,0,0,0,0,0,0,0
841170756,841038637,nan,nan,nan,1,0,0,0,0,0,0,0,0,0,0
842156344,842028637,nan,nan,nan,1,0,0,0,0,0,0,0,0,0,0
843152102,843023639,nan,nan,nan,1,0,0,0,0,0,0,0,0,0,0
844166753,844035638,nan,nan,nan,1,0,0,0,0,0,0,0,0,0,0
845162062,845034639,0.014274911,0.01927457,0.006117737,1,0,0,0,0,0,0,0,0,0,0
846167334,846033643,0.02676513,0.0889187,0.0034861,1,0,0,0,0,0,0,0,0,0,0
847162713,847034775,0.025332905,0.08171101,0.007525967,1,0,0,0,0,0,0,0,0,0,0
848167992,848037639,0.03399342,0.07013424,0.005633571,1,0,0,0,0,0,0,0,0,0,0
849153288,849023641,0.012749195,0.07283105,0.02346403,1,0,0,0,0,0,0,0,0,0,0
850168573,850039638,nan,nan,nan,1,0,0,0,0,0,0,0,0,0,0
851163854,851031654,nan,nan,nan,1,0,0,0,0,0,0,0,0,0,0
852169903,852041638,0.0024650006,0.0007999802,0.005633828,1,0,0,0,0,0,0,0,0,0,0
853164572,853033638,0.010987811,0.025155349,0.0076668896,1,0,0,0,0,0,0,0,0,0,0
854159904,854032638,nan,nan,nan,1,0,0,0,0,0,0,0,0,0,0
855155190,855030048,nan,nan,nan,1,0,0,0,0,0,0,0,0,0,0
856150460,856023637,nan,nan,nan,1,0,0,0,0,0,0,0,0,0,0
857165864,857032816,0.021665858,0.00017181312,0.023006445,1,0,0,0,0,0,0,0,0,0,0
858180934,858048638,0.004516443,0.041875213,0.0020898057,1,0,0,0,0,0,0,0,0,0,0
859166357,859033637,0.020785587,0.057541467,0.0021740252,1,0,0,0,0,0,0,0,0,0,0
860171583,860039637,0.018464876,0.03739908,0.011293926,1,0,0,0,0,0,0,0,0,0,0
861167767,861037644,0.039027274,4.1071253e-05,0.010794248,1,0,0,0,0,0,0,0,0,0,0
862162356,862032637,0.048339296,0.0007438826,0.0051227417,1,0,0,0,0,0,0,0,0,0,0
863177908,863044638,0.06322587,0.018080933,0.0040228125,1,0,0,0,0,0,0,0,0,0,0
864172759,864039637,0.07761357,0.0039890255,0.002850838,1,0,0,0,0,0,0,0,0,0,0
865198004,865048660,0.066876814,0.012122447,0.0076688435,1,0,0,0,0,0,0,0,0,0,0
866173461,866039637,0.049600497,0.04314335,0.0083158165,1,0,0,0,0,0,0,0,0,0,0
867178709,867045868,nan,nan,nan,1,0,0,0,0,0,0,0,0,0,0
868173972,868041639,nan,nan,nan,1,0,0,0,0,0,0,0,0,0,0
869169271,869037639,nan,nan,nan,1,0,0,0,0,0,0,0,0,0,0
870164753,870039643,nan,nan,nan,1,0,0,0,0,0,0,0,0,0,0
871179842,871047639,nan,nan,nan,1,0,0,0,0,0,0,0,0,0,0
872175813,872046636,nan,nan,nan,1,0,0,0,0,0,0,0,0,0,0
873180446,873046637,nan,nan,nan,1,0,0,0,0,0,0,0,0,0,0
874175845,874044639,nan,nan,nan,1,0,0,0,0,0,0,0,0,0,0
875161206,875034643,nan,nan,nan,1,0,0,0,0,0,0,0,0,0,0
876196266,876057638,0.0016433335,0.00240002,0.00064840127,1,0,0,0,0,0,0,0,0,0,0
877191689,877049071,0.012546157,0.024745928,0.0013359523,1,0,0,0,0,0,0,0,0,0,0
878177015,878043639,nan,nan,nan,1,0,0,0,0,0,0,0,0,0,0
879162323,879037178,0.0024018784,0.0051587233,0.004458461,1,0,0,0,0,0,0,0,0,0,0
880167621,880041643,0.009467702,0.019629367,0.009208074,1,0,0,0,0,0,0,0,0,0,0
881173581,881045638,nan,nan,nan,1,0,0,0,0,0,0,0,0,0,0
882198164,882048637,0.015255561,0.008800004,0.0034747014,1,0,0,0,0,0,0,0,0,0,0
883173476,883045638,nan,nan,nan,1,0,0,0,0,0,0,0,0,0,0
884178648,884045817,0.0039683627,0.0014999919,0.002337502,1,0,0,0,0,0,0,0,0,0,0
885173994,885041638,0.028941698,0.018181708,0.0013063302,1,0,0,0,0,0,0,0,0,0,0
886159471,886031704,0.049415562,0.019482523,0.02697985,1,0,0,0,0,0,0,0,0,0,0
887164660,887031791,0.0473532,0.008151152,0.023393858,1,0,0,0,0,0,0,0,0,0,0
888159956,888025638,0.04482867,0.015811078,0.021973714,1,0,0,0,0,0,0,0,0,0,0
889165288,889034801,0.030889718,0.03389406,0.006974767,1,0,0,0,0,0,0,0,0,0,0
890170524,890041638,0.033471897,0.045533206,0.0015542995,1,0,0,0,0,0,0,0,0,0,0
891165954,891035831,0.03873542,0.08050304,0.004410717,1,0,0,0,0,0,0,0,0,0,0
892171653,892037636,nan,nan,nan,1,0,0,0,0,0,0,0,0,0,0
893166351,893038637,nan,nan,nan,1,0,0,0,0,0,0,0,0,0,0
894191540,894051637,nan,nan,nan,1,0,0,0,0,0,0,0,0,0,0
895176936,895046637,0.013034211,0.00070239377,0.006798358,1,0,0,0,0,0,0,0,0,0,0
896192185,896054826,0.014526582,0.025619335,0.010789131,1,0,0,0,0,0,0,0,0,0,0
897177600,897045637,0.020743076,0.048721466,0.010236467,1,0,0,0,0,0,0,0,0,0,0
898192717,898051637,0.033444162,0.051305916,0.0060632955,1,0,0,0,0,0,0,0,0,0,0
899198020,899047654,nan,nan,nan,1,0,0,0,0,0,0,0,0,0,0
900173461,900043819,0.008449101,0.001599982,0.01804026,1,0,0,0,0,0,0,0,0,0,0
901139432,901012642,0.021040862,0.017371468,0.018425526,1,0,0,0,0,0,0,0,0,0,0
902164071,902035638,0.026109412,0.020898001,0.017735826,1,0,0,0,0,0,0,0,0,0,0
903159281,903028638,0.02427113,0.030380543,0.009212504,1,0,0,0,0,0,0,0,0,0,0
904164626,904034655,0.022808747,0.014733613,0.00913148,1,0,0,0,0,0,0,0,0,0,0
905159982,905026648,0.018605286,0.009538574,0.009004827,1,0,0,0,0,0,0,0,0,0,0
906145490,906017642,0.008097299,0.0094206445,0.007804482,1,0,0,0,0,0,0,0,0,0,0
907160596,907029638,0.0041059507,0.016208988,0.0072629224,1,0,0,0,0,0,0,0,0,0,0
908175736,908044638,0.011906777,0.0019942087,0.010619155,1,0,0,0,0,0,0,0,0,0,0
909161066,909031813,0.03853924,0.028108908,0.01022328,1,0,0,0,0,0,0,0,0,0,0
910157065,910023637,0.027663162,0.053014625,0.02255393,1,0,0,0,0,0,0,0,0,0,0
911141797,911013825,0.025005214,0.087777995,0.02264517,1,0,0,0,0,0,0,0,0,0,0
912137146,912007637,0.019615352,0.08998957,0.024147877,1,0,0,0,0,0,0,0,0,0,0
913092499,912966637,0.023095401,0.11231464,0.0237829,1,0,0,0,0,0,0,0,0,0,0
914097967,913971638,0.012549351,0.100803874,0.02284162,1,0,0,0,0,0,0,0,0,0,0
915113067,914979637,0.018158117,0.08975492,0.028766517,1,0,0,0,0,0,0,0,0,0,0
916098349,915970638,0.0141797345,0.095527604,0.027231041,1,0,0,0,0,0,0,0,0,0,0
917113649,916981637,0.017217793,0.09011143,0.026665485,1,0,0,0,0,0,0,0,0,0,0
918098972,917971638,nan,nan,nan,1,0,0,0,0,0,0,0,0,0,0
919114918,918987636,nan,nan,nan,1,0,0,0,0,0,0,0,0,0,0
920159435,920031638,0.009363451,0.016392399,0.012389154,1,0,0,0,0,0,0,0,0,0,0
921164584,921033637,0.011476195,0.05013468,0.010805111,1,0,0,0,0,0,0,0,0,0,0
922110028,921975638,0.052635275,0.092672944,0.017855767,1,0,0,0,0,0,0,0,0,0,0
923155150,923021639,0.049114272,0.1150321,0.019483931,1,0,0,0,0,0,0,0,0,0,0
924150415,924025645,0.060552597,0.12022242,0.027692204,1,0,0,0,0,0,0,0,0,0,0
925165697,925036638,0.031486526,0.12312938,0.002420211,1,0,0,0,0,0,0,0,0,0,0
926160936,926027637,0.0342988,0.09943154,0.010415896,1,0,0,0,0,0,0,0,0,0,0
927146347,927016638,0.040129118,0.06750931,0.023630956,1,0,0,0,0,0,0,0,0,0,0
928161473,928028835,0.067326725,0.040357426,0.0305638,1,0,0,0,0,0,0,0,0,0,0
929196651,929050644,0.070649646,0.0080780685,0.0355501,1,0,0,0,0,0,0,0,0,0,0
930172845,930041643,0.078826666,0.008533366,0.045314435,1,0,0,0,0,0,0,0,0,0,0
931167402,931034638,0.07866296,0.043794475,0.04191553,1,0,0,0,0,0,0,0,0,0,0
932173043,932043637,0.058567613,0.06494259,0.035220124,1,0,0,0,0,0,0,0,0,0,0
933167963,933041637,0.03984571,0.09348804,0.03209696,1,0,0,0,0,0,0,0,0,0,0
934173283,934044639,0.018783325,0.110117294,0.029500725,1,0,0,0,0,0,0,0,0,0,0
935168656,935039637,0.0153998295,0.101491995,0.026931018,1,0,0,0,0,0,0,0,0,0,0
936153871,936028875,nan,nan,nan,1,0,0,0,0,0,0,0,0,0,0
937169092,937036637,0.0027041924,0.008200017,0.0028037915,1,0,0,0,0,0,0,0,0,0,0
938154406,938028649,0.0031673515,0.014954916,0.002847997,1,0,0,0,0,0,0,0,0,0,0
939159661,939026806,nan,nan,nan,1,0,0,0,0,0,0,0,0,0,0
940145188,940020020,0.011993376,7.532795e-05,0.0086478,1,0,0,0,0,0,0,0,0,0,0
941160692,941026637,0.01916545,0.000210935,0.013437422,1,0,0,0,0,0,0,0,0,0,0
942155592,942021638,0.014342827,0.0017945764,0.011671756,1,0,0,0,0,0,0,0,0,0,0
943160824,943033637,0.011138385,0.0027512286,0.0107721435,1,0,0,0,0,0,0,0,0,0,0
944156257,944029637,0.018670056,0.006885605,0.005732615,1,0,0,0,0,0,0,0,0,0,0
945161470,945034637,0.016844325,0.0023220123,0.0078433305,1,0,0,0,0,0,0,0,0,0,0
946166750,946040637,0.014247334,0.00076772977,0.007820761,1,0,0,0,0,0,0,0,0,0,0
947162000,947035639,0.010472392,0.03578981,0.013977988,1,0,0,0,0,0,0,0,0,0,0
948197102,948048637,0.025701884,0.02802688,0.014306059,1,0,0,0,0,0,0,0,0,0,0
949162537,949031637,0.03581824,0.024516784,0.009649922,1,0,0,0,0,0,0,0,0,0,0
950168509,950036659,0.04024875,0.0023738903,0.012189767,1,0,0,0,0,0,0,0,0,0,0
951173116,951044637,0.046454635,0.016544199,0.016795026,1,0,0,0,0,0,0,0,0,0,0
952168375,952042639,0.051673215,0.034162104,0.013731263,1,0,0,0,0,0,0,0,0,0,0
953163758,953038639,0.06551729,0.06884067,0.01460814,1,0,0,0,0,0,0,0,0,0,0
954159067,954027638,0.07162726,0.0891627,0.008304212,1,0,0,0,0,0,0,0,0,0,0
955174293,955042636,0.080795094,0.10006155,0.007990468,1,0,0,0,0,0,0,0,0,0,0
956159662,956030637,0.080827415,0.11286831,0.008430997,1,0,0,0,0,0,0,0,0,0,0
957164835,957030638,0.07588424,0.11499348,0.006315527,1,0,0,0,0,0,0,0,0,0,0
958160172,958032637,0.065659724,0.107456274,0.0041091186,1,0,0,0,0,0,0,0,0,0,0
959166084,959033637,0.05939323,0.10631817,0.003966328,1,0,0,0,0,0,0,0,0,0,0
960160803,960027901,0.04141641,0.08435585,0.010098829,1,0,0,0,0,0,0,0,0,0,0
961176389,961042659,0.017523188,0.059188206,0.012371502,1,0,0,0,0,0,0,0,0,0,0
962171295,962044644,0.015431467,0.045531843,0.008721455,1,0,0,0,0,0,0,0,0,0,0
963166606,963034644,0.024292545,0.06465591,0.0023774973,1,0,0,0,0,0,0,0,0,0,0
964171917,964043638,0.026642432,0.07411108,0.005042622,1,0,0,0,0,0,0,0,0,0,0
965167320,965034638,0.019077986,0.07267613,0.005992883,1,0,0,0,0,0,0,0,0,0,0
966142700,966015638,0.016978806,0.06090427,0.0048250966,1,0,0,0,0,0,0,0,0,0,0
967167866,967042637,0.019236775,0.052238062,0.006832774,1,0,0,0,0,0,0,0,0,0,0
968172988,968041637,0.025555106,0.05158152,0.009725277,1,0,0,0,0,0,0,0,0,0,0
969168479,969037638,0.019697743,0.05018731,0.008899093,1,0,0,0,0,0,0,0,0,0,0
970164221,970030789,0.019259956,0.052060444,0.0073204553,1,0,0,0,0,0,0,0,0,0,0
971158983,971031639,0.026082367,0.06654539,0.010741598,1,0,0,0,0,0,0,0,0,0,0
972174204,972041653,0.024237141,0.05712181,0.0051981127,1,0,0,0,0,0,0,0,0,0,0
973159663,973033636,0.0391368,0.07665773,0.006644451,1,0,0,0,0,0,0,0,0,0,0
974164858,974032637,0.03520652,0.07443426,0.008015942,1,0,0,0,0,0,0,0,0,0,0
975170117,975042637,0.038110554,0.0893888,0.014514244,1,0,0,0,0,0,0,0,0,0,0
976195262,976046977,0.03440759,0.102984466,0.013607358,1,0,0,0,0,0,0,0,0,0,0
977190566,977046860,0.035266776,0.1170937,0.016403662,1,0,0,0,0,0,0,0,0,0,0
978185909,978047648,0.029098963,0.11742692,0.017290505,1,0,0,0,0,0,0,0,0,0,0
979171932,979037637,0.02900213,0.12219399,0.01686444,1,0,0,0,0,0,0,0,0,0,0
980116752,979989649,0.033460137,0.12592964,0.010929848,1,0,0,0,0,0,0,0,0,0,0
981122064,980990637,0.03562777,0.12392068,0.011379181,1,0,0,0,0,0,0,0,0,0,0
982127367,981994638,0.040914662,0.12950979,0.010508984,1,0,0,0,0,0,0,0,0,0,0
983122662,982989738,0.043244496,0.13146731,0.012068168,1,0,0,0,0,0,0,0,0,0,0
984108057,983981638,0.042531792,0.1370475,0.017659144,1,0,0,0,0,0,0,0,0,0,0
985123195,984998084,0.047888294,0.121151365,0.02301787,1,0,0,0,0,0,0,0,0,0,0
986118563,985992639,0.05136787,0.09191112,0.01956601,1,0,0,0,0,0,0,0,0,0,0
987193437,987049638,0.0515507,0.07484552,0.015378466,1,0,0,0,0,0,0,0,0,0,0
988198771,988068643,0.053771608,0.06396183,0.012634281,1,0,0,0,0,0,0,0,0,0,0
988995010,988867638,0.047590435,0.057405602,0.013908071,1,0,0,0,0,0,0,0,0,0,0
990189880,990050643,0.052571516,0.047864947,0.011291582,1,0,0,0,0,0,0,0,0,0,0
991194659,991061754,0.050769966,0.03584726,0.010741356,1,0,0,0,0,0,0,0,0,0,0
992000845,991869637,0.049531993,0.030919412,0.009807781,1,0,0,0,0,0,0,0,0,0,0
993195288,993052638,0.050539847,0.021801751,0.0071489485,1,0,0,0,0,0,0,0,0,0,0
994200571,994073638,0.042244382,0.022912702,0.0074543506,1,0,0,0,0,0,0,0,0,0,0
995006718,994874637,0.04434131,0.014645106,0.010712044,1,0,0,0,0,0,0,0,0,0,0
996191118,996053639,0.05522701,0.005991374,0.007584951,1,0,0,0,0,0,0,0,0,0,0
997166564,997041638,0.06868473,0.10399138,0.0054809223,1,0,0,0,0,0,0,0,0,0,0
998122248,997997113,0.12035924,0.23685227,0.004519101,1,0,0,0,0,0,0,0,0,0,0
999117901,998986719,0.145031,0.26430944,0.006875342,1,0,0,0,0,0,0,0,0,0,0
1000132575,1000004688,0.15661502,0.2737211,0.0063766413,1,0,0,0,0,0,0,0,0,0,0
1001137878,1001005638,0.17158857,0.27303326,0.0028992721,1,0,0,0,0,0,0,0,0,0,0
1002123195,1001991653,0.18942113,0.27457035,0.0033392701,1,0,0,0,0,0,0,0,0,0,0
1003118565,1002989637,0.19722426,0.26957777,0.0027124842,1,0,0,0,0,0,0,0,0,0,0
1004133837,1003999637,0.18507995,0.26527372,0.0010286279,1,0,0,0,0,0,0,0,0,0,0
1005119135,1004988759,0.15853477,0.2577399,0.0029662228,1,0,0,0,0,0,0,0,0,0,0
1006124374,1005990639,0.1427961,0.24557464,0.0032289294,1,0,0,0,0,0,0,0,0,0,0
1007129731,1006999638,0.13552245,0.23709108,0.001108752,1,0,0,0,0,0,0,0,0,0,0
1008115684,1007988638,0.13260421,0.2203966,0.0030780009,1,0,0,0,0,0,0,0,0,0,0
1009110375,1008985638,0.113308564,0.19604595,0.004411573,1,0,0,0,0,0,0,0,0,0,0
1010135557,1010006638,0.09398269,0.176105,0.0018056032,1,0,0,0,0,0,0,0,0,0,0
1011120989,1010988637,0.07418043,0.14097673,0.007429984,1,0,0,0,0,0,0,0,0,0,0
1012126318,1011998639,0.06372666,0.11995904,0.0075397925,1,0,0,0,0,0,0,0,0,0,0
1013121634,1012993721,0.049275737,0.09789874,0.0032679557,1,0,0,0,0,0,0,0,0,0,0
1014126751,1013993637,0.04760844,0.09121166,0.0027700802,1,0,0,0,0,0,0,0,0,0,0
1015132052,1015001638,0.04696463,0.06987214,0.0034747454,1,0,0,0,0,0,0,0,0,0,0
1016117554,1015992644,0.052598186,0.051307857,0.006975018,1,0,0,0,0,0,0,0,0,0,0
1017123342,1016990638,0.07135623,0.0336857,0.0075891665,1,0,0,0,0,0,0,0,0,0,0
1018118145,1017988655,0.08424608,0.029226989,0.006564304,1,0,0,0,0,0,0,0,0,0,0
1019123635,1018992638,0.08244246,0.03749325,0.009855894,1,0,0,0,0,0,0,0,0,0,0
1020118661,1019986637,0.07425303,0.03030439,0.011905967,1,0,0,0,0,0,0,0,0,0,0
1021123897,1020995638,0.082295895,0.016486594,0.02007107,1,0,0,0,0,0,0,0,0,0,0
1022119259,1021988780,0.087964885,0.0001912894,0.012108874,1,0,0,0,0,0,0,0,0,0,0
1023114665,1022988637,0.082420565,0.009542995,0.014824942,1,0,0,0,0,0,0,0,0,0,0
1024119772,1023993637,0.08242327,0.018420337,0.0076241903,1,0,0,0,0,0,0,0,0,0,0
1025125106,1024997637,nan,nan,nan,1,0,0,0,0,0,0,0,0,0,0
1026120398,1025987638,0.005292097,0.00039999216,0.0021448547,1,0,0,0,0,0,0,0,0,0,0
1027125771,1026997751,0.02224528,0.018077584,0.0037732685,1,0,0,0,0,0,0,0,0,0,0
1028131498,1027997643,0.021359954,0.014610917,0.007574576,1,0,0,0,0,0,0,0,0,0,0
1029116402,1028985639,0.028922861,0.02643407,0.005088047,1,0,0,0,0,0,0,0,0,0,0
1030131745,1029998710,0.041195076,0.03239633,0.0053995084,1,0,0,0,0,0,0,0,0,0,0
1031116851,1030986658,nan,nan,nan,1,0,0,0,0,0,0,0,0,0,0
1032122195,1031988638,nan,nan,nan,1,0,0,0,0,0,0,0,0,0,0
1033097628,1032972639,nan,nan,nan,1,0,0,0,0,0,0,0,0,0,0
1034112880,1033987790,nan,nan,nan,1,0,0,0,0,0,0,0,0,0,0
1035108128,1034976636,nan,nan,nan,1,0,0,0,0,0,0,0,0,0,0
1036113430,1035983638,nan,nan,nan,1,0,0,0,0,0,0,0,0,0,0
1037119418,1036990788,nan,nan,nan,1,0,0,0,0,0,0,0,0,0,0
1038114127,1037983824,nan,nan,nan,1,0,0,0,0,0,0,0,0,0,0
1039109362,1038983639,nan,nan,nan,1,0,0,0,0,0,0,0,0,0,0
1040114620,1039986757,nan,nan,nan,1,0,0,0,0,0,0,0,0,0,0
1041119922,1040986654,nan,nan,nan,1,0,0,0,0,0,0,0,0,0,0
1042125317,1041994785,nan,nan,nan,1,0,0,0,0,0,0,0,0,0,0
1043120490,1042986637,nan,nan,nan,1,0,0,0,0,0,0,0,0,0,0
1044106046,1043978638,nan,nan,nan,1,0,0,0,0,0,0,0,0,0,0
1045111222,1044983638,nan,nan,nan,1,0,0,0,0,0,0,0,0,0,0
1046116486,1045985638,nan,nan,nan,1,0,0,0,0,0,0,0,0,0,0
1047111809,1046979637,nan,nan,nan,1,0,0,0,0,0,0,0,0,0,0
1048157522,1048025636,nan,nan,nan,1,0,0,0,0,0,0,0,0,0,0
1049162195,1049033638,nan,nan,nan,1,0,0,0,0,0,0,0,0,0,0
1050197239,1050067643,nan,nan,nan,1,0,0,0,0,0,0,0,0,0,0
1051192791,1051057654,nan,nan,nan,1,0,0,0,0,0,0,0,0,0,0
1052207882,1052076637,nan,nan,nan,1,0,0,0,0,0,0,0,0,0,0
1053173284,1053040803,nan,nan,nan,1,0,0,0,0,0,0,0,0,0,0
1054168649,1054035779,nan,nan,nan,1,0,0,0,0,0,0,0,0,0,0
1055164006,1055036662,nan,nan,nan,1,0,0,0,0,0,0,0,0,0,0
1056109651,1055978639,nan,nan,nan,1,0,0,0,0,0,0,0,0,0,0
1057105604,1056974637,nan,nan,nan,1,0,0,0,0,0,0,0,0,0,0
1058170098,1058040637,nan,nan,nan,1,0,0,0,0,0,0,0,0,0,0
1059205230,1059067646,nan,nan,nan,1,0,0,0,0,0,0,0,0,0,0
1060200365,1060066643,nan,nan,nan,1,0,0,0,0,0,0,0,0,0,0
1061165840,1061039638,nan,nan,nan,1,0,0,0,0,0,0,0,0,0,0
1062191033,1062050673,nan,nan,nan,1,0,0,0,0,0,0,0,0,0,0
1063186376,1063042639,nan,nan,nan,1,0,0,0,0,0,0,0,0,0,0
1064191636,1064046644,nan,nan,nan,1,0,0,0,0,0,0,0,0,0,0
1065196860,1065066657,nan,nan,nan,1,0,0,0,0,0,0,0,0,0,0
1066192176,1066050637,nan,nan,nan,1,0,0,0,0,0,0,0,0,0,0
1067118085,1066985639,nan,nan,nan,1,0,0,0,0,0,0,0,0,0,0
1068123294,1067991638,nan,nan,nan,1,0,0,0,0,0,0,0,0,0,0
1069118547,1068986643,nan,nan,nan,1,0,0,0,0,0,0,0,0,0,0
1070123798,1069991716,nan,nan,nan,1,0,0,0,0,0,0,0,0,0,0
1071119174,1070994098,nan,nan,nan,1,0,0,0,0,0,0,0,0,0,0
1072124581,1071995638,nan,nan,nan,1,0,0,0,0,0,0,0,0,0,0
1073129684,1073002643,nan,nan,nan,1,0,0,0,0,0,0,0,0,0,0
1074125001,1073993637,nan,nan,nan,1,0,0,0,0,0,0,0,0,0,0
1075130340,1074998637,nan,nan,nan,1,0,0,0,0,0,0,0,0,0,0
1076125712,1075995736,nan,nan,nan,1,0,0,0,0,0,0,0,0,0,0
1077121603,1076994636,nan,nan,nan,1,0,0,0,0,0,0,0,0,0,0
1078126271,1077994653,nan,nan,nan,1,0,0,0,0,0,0,0,0,0,0
1079121786,1078995637,nan,nan,nan,1,0,0,0,0,0,0,0,0,0,0
1080126875,1079996638,nan,nan,nan,1,0,0,0,0,0,0,0,0,0,0
1081132249,1080999639,nan,nan,nan,1,0,0,0,0,0,0,0,0,0,0
1082127538,1081993637,nan,nan,nan,1,0,0,0,0,0,0,0,0,0,0
1083113002,1082984637,nan,nan,nan,1,0,0,0,0,0,0,0,0,0,0
1084118358,1083991642,nan,nan,nan,1,0,0,0,0,0,0,0,0,0,0
1085123718,1084994009,nan,nan,nan,1,0,0,0,0,0,0,0,0,0,0
1086119501,1085986637,nan,nan,nan,1,0,0,0,0,0,0,0,0,0,0
1087114221,1086985639,nan,nan,nan,1,0,0,0,0,0,0,0,0,0,0
1088119591,1087992638,nan,nan,nan,1,0,0,0,0,0,0,0,0,0,0
1089124775,1088994639,nan,nan,nan,1,0,0,0,0,0,0,0,0,0,0
1090120175,1089987639,nan,nan,nan,1,0,0,0,0,0,0,0,0,0,0
1091115540,1090985651,nan,nan,nan,1,0,0,0,0,0,0,0,0,0,0
1092110825,1091983637,nan,nan,nan,1,0,0,0,0,0,0,0,0,0,0
1093116232,1092983638,nan,nan,nan,1,0,0,0,0,0,0,0,0,0,0
1094121527,1093990637,nan,nan,nan,1,0,0,0,0,0,0,0,0,0,0
1095127085,1094992638,nan,nan,nan,1,0,0,0,0,0,0,0,0,0,0
1096102302,1095977098,nan,nan,nan,1,0,0,0,0,0,0,0,0,0,0
1097117711,1096988637,nan,nan,nan,1,0,0,0,0,0,0,0,0,0,0
1098112760,1097981638,nan,nan,nan,1,0,0,0,0,0,0,0,0,0,0
1099118122,1098992945,nan,nan,nan,1,0,0,0,0,0,0,0,0,0,0
1100123451,1099990637,nan,nan,nan,1,0,0,0,0,0,0,0,0,0,0
1101118765,1100988643,nan,nan,nan,1,0,0,0,0,0,0,0,0,0,0
1102114189,1101985637,nan,nan,nan,1,0,0,0,0,0,0,0,0,0,0
1103119407,1102988653,nan,nan,nan,1,0,0,0,0,0,0,0,0,0,0
1104114836,1103989742,nan,nan,nan,1,0,0,0,0,0,0,0,0,0,0
1105120139,1104987637,nan,nan,nan,1,0,0,0,0,0,0,0,0,0,0
1106116328,1105987637,nan,nan,nan,1,0,0,0,0,0,0,0,0,0,0
1107120693,1106987851,nan,nan,nan,1,0,0,0,0,0,0,0,0,0,0
1108116059,1107984637,nan,nan,nan,1,0,0,0,0,0,0,0,0,0,0
1109121391,1108990645,nan,nan,nan,1,0,0,0,0,0,0,0,0,0,0
1109987417,1109855637,nan,nan,nan,1,0,0,0,0,0,0,0,0,0,0
1111122174,1110994638,nan,nan,nan,1,0,0,0,0,0,0,0,0,0,0
1112117396,1111984638,nan,nan,nan,1,0,0,0,0,0,0,0,0,0,0
1113112800,1112985637,nan,nan,nan,1,0,0,0,0,0,0,0,0,0,0
1114118239,1113991638,nan,nan,nan,1,0,0,0,0,0,0,0,0,0,0
1115114097,1114980639,nan,nan,nan,1,0,0,0,0,0,0,0,0,0,0
1116108835,1115981638,nan,nan,nan,1,0,0,0,0,0,0,0,0,0,0
1117114110,1116985645,nan,nan,nan,1,0,0,0,0,0,0,0,0,0,0
1118109591,1117981638,nan,nan,nan,1,0,0,0,0,0,0,0,0,0,0
1119104841,1118976637,nan,nan,nan,1,0,0,0,0,0,0,0,0,0,0
1120110216,1119976638,nan,nan,nan,0,0,0,0,0,0,1,0,0,0,0
1121095619,1120969638,nan,nan,nan,0,0,0,0,0,0,0,0,0,0,0
1122090945,1121965851,nan,nan,nan,0,0,0,0,0,0,0,0,0,0,0
1123096289,1122965644,nan,nan,nan,0,0,0,0,0,0,0,0,0,0,0
1124092372,1123959637,nan,nan,nan,0,0,0,0,0,0,0,0,0,0,0
1125087108,1124955637,nan,nan,nan,0,0,0,0,0,0,0,0,0,0,0
1126082368,1125948637,nan,nan,nan,0,0,0,0,0,0,0,0,0,0,0
1127087715,1126954848,nan,nan,nan,0,0,0,0,0,0,0,0,0,0,0
1128083230,1127955923,nan,nan,nan,0,0,0,0,0,0,0,0,0,0,0
1129078505,1128953638,nan,nan,nan,0,0,0,0,0,0,0,0,0,0,0
1130083795,1129951638,nan,nan,nan,0,0,0,0,0,0,0,0,0,0,0
1131089086,1130960638,nan,nan,nan,1,0,0,0,0,0,0,0,0,0,0
1132084440,1131958643,nan,nan,nan,1,0,0,0,0,0,0,0,0,0,0
1133090383,1132958643,nan,nan,nan,0,0,0,0,0,0,0,0,0,0,0
1134105113,1133973636,nan,nan,nan,0,0,0,0,0,0,0,0,0,0,0
1135090476,1134959639,nan,nan,nan,0,0,0,0,0,0,0,0,0,0,0
1136095819,1135967668,nan,nan,nan,0,0,0,0,0,0,0,0,0,0,0
1137091143,1136963637,nan,nan,nan,0,0,0,0,0,0,0,0,0,0,0
1138096621,1137966643,nan,nan,nan,0,0,0,0,0,0,0,0,0,0,0
1139101954,1138971638,nan,nan,nan,0,0,0,0,0,0,0,0,0,0,0
1140097328,1139968675,nan,nan,nan,0,0,0,0,0,0,0,0,0,0,0
1141102650,1140968655,nan,nan,nan,0,0,0,0,0,0,0,0,0,0,0
1142088134,1141961638,nan,nan,nan,0,0,0,0,0,0,0,0,0,0,0
1143103576,1142971638,nan,nan,nan,1,0,0,0,0,0,0,0,0,0,0
1144099212,1143971638,nan,nan,nan,1,0,0,0,0,0,0,0,0,0,0
1145094203,1144965637,nan,nan,nan,1,0,0,0,0,0,0,0,0,0,0
1146099461,1145966642,nan,nan,nan,1,0,0,0,0,0,0,0,0,0,0
1147094943,1146967639,nan,nan,nan,1,0,0,0,0,0,0,0,0,0,0
1148090268,1147960637,nan,nan,nan,1,0,0,0,0,0,0,0,0,0,0
1149095539,1148966637,nan,nan,nan,1,0,0,0,0,0,0,0,0,0,0
1150090849,1149963637,nan,nan,nan,1,0,0,0,0,0,0,0,0,0,0
1151106151,1150973645,nan,nan,nan,1,0,0,0,0,0,0,0,0,0,0
1152081813,1151952638,nan,nan,nan,1,0,0,0,0,0,0,0,0,0,0
1153087589,1152954638,nan,nan,nan,1,0,0,0,0,0,0,0,0,0,0
1154092344,1153966654,nan,nan,nan,1,0,0,0,0,0,0,0,0,0,0
1155097636,1154966637,nan,nan,nan,1,0,0,0,0,0,0,0,0,0,0
1156093030,1155959637,nan,nan,nan,1,0,0,0,0,0,0,0,0,0,0
1157098568,1156967644,nan,nan,nan,1,0,0,0,0,0,0,0,0,0,0
1158084001,1157955639,nan,nan,nan,1,0,0,0,0,0,0,0,0,0,0
1159089378,1158962638,nan,nan,nan,1,0,0,0,0,0,0,0,0,0,0
1160094601,1159963638,nan,nan,nan,1,0,0,0,0,0,0,0,0,0,0
1161090078,1160964924,nan,nan,nan,1,0,0,0,0,0,0,0,0,0,0
1162095914,1161965638,nan,nan,nan,1,0,0,0,0,0,0,0,0,0,0
1163090739,1162960637,nan,nan,nan,1,0,0,0,0,0,0,0,0,0,0
1164086198,1163957644,nan,nan,nan,1,0,0,0,0,0,0,0,0,0,0
1165081609,1164955644,nan,nan,nan,1,0,0,0,0,0,0,0,0,0,0
1166086846,1165954638,nan,nan,nan,1,0,0,0,0,0,0,0,0,0,0
1167092307,1166962638,nan,nan,nan,1,0,0,0,0,0,0,0,0,0,0
1168087677,1167962638,nan,nan,nan,1,0,0,0,0,0,0,0,0,0,0
1169103064,1168969639,nan,nan,nan,1,0,0,0,0,0,0,0,0,0,0
1170088379,1169954638,nan,nan,nan,1,0,0,0,0,0,0,0,0,0,0
1171104297,1170974638,nan,nan,nan,1,0,0,0,0,0,0,0,0,0,0
1172089262,1171959176,nan,nan,nan,1,0,0,0,0,0,0,0,0,0,0
1173094582,1172962637,nan,nan,nan,1,0,0,0,0,0,0,0,0,0,0
1174089902,1173956647,nan,nan,nan,1,0,0,0,0,0,0,0,0,0,0
1175095211,1174960638,nan,nan,nan,1,0,0,0,0,0,0,0,0,0,0
1176090645,1175958637,nan,nan,nan,1,0,0,0,0,0,0,0,0,0,0
1177086039,1176960858,nan,nan,nan,1,0,0,0,0,0,0,0,0,0,0
1178081419,1177950636,nan,nan,nan,1,0,0,0,0,0,0,0,0,0,0
1179086825,1178959637,nan,nan,nan,1,0,0,0,0,0,0,0,0,0,0
1180082822,1179955638,nan,nan,nan,1,0,0,0,0,0,0,0,0,0,0
1181077736,1180951638,nan,nan,nan,1,0,0,0,0,0,0,0,0,0,0
1182083256,1181954638,nan,nan,nan,1,0,0,0,0,0,0,0,0,0,0
1183088357,1182957638,nan,nan,nan,1,0,0,0,0,0,0,0,0,0,0
1184083702,1183954637,nan,nan,nan,1,0,0,0,0,0,0,0,0,0,0
1185089002,1184956801,nan,nan,nan,1,0,0,0,0,0,0,0,0,0,0
1186094355,1185963653,nan,nan,nan,1,0,0,0,0,0,0,0,0,0,0
1187089851,1186962642,nan,nan,nan,1,0,0,0,0,0,0,0,0,0,0
1188095123,1187961636,nan,nan,nan,1,0,0,0,0,0,0,0,0,0,0
1189080601,1188952733,nan,nan,nan,0,0,0,0,0,0,0,0,0,0,0
1190086126,1189957636,nan,nan,nan,0,0,0,0,0,0,0,0,0,0,0
1191081704,1190954638,nan,nan,nan,0,0,0,0,0,0,0,0,0,0,0
1192086819,1191954643,nan,nan,nan,0,0,0,0,0,0,0,0,0,0,0
1193082074,1192953638,nan,nan,nan,0,0,0,0,0,0,0,0,0,0,0
1194097319,1193964637,nan,nan,nan,0,0,0,0,0,0,0,0,0,0,0
1195092820,1194960638,nan,nan,nan,0,0,0,0,0,0,0,0,0,0,0
1196088201,1195954637,nan,nan,nan,0,0,0,0,0,0,0,0,0,0,0
1197093493,1196959645,nan,nan,nan,0,0,0,0,0,0,0,0,0,0,0
1198088926,1197963918,nan,nan,nan,0,0,0,0,0,0,0,0,0,0,0
1199084465,1198954719,nan,nan,nan,1,0,0,0,0,0,0,0,0,0,0
1200090295,1199958636,nan,nan,nan,1,0,0,0,0,0,0,0,0,0,0
1201105150,1200970637,nan,nan,nan,1,0,0,0,0,0,0,0,0,0,0
1202090567,1201957698,nan,nan,nan,1,0,0,0,0,0,0,0,0,0,0
1203086025,1202960952,nan,nan,nan,1,0,0,0,0,0,0,0,0,0,0
1204081398,1203951636,nan,nan,nan,1,0,0,0,0,0,0,0,0,0,0
1205086857,1204960636,nan,nan,nan,1,0,0,0,0,0,0,0,0,0,0
1206082218,1205955636,nan,nan,nan,1,0,0,0,0,0,0,0,0,0,0
1207077579,1206952638,nan,nan,nan,1,0,0,0,0,0,0,0,0,0,0
1208073157,1207946636,nan,nan,nan,1,0,0,0,0,0,0,0,0,0,0
1209089164,1208961636,nan,nan,nan,1,0,0,0,0,0,0,0,0,0,0
1210083759,1209949635,nan,nan,nan,1,0,0,0,0,0,0,0,0,0,0
1211089112,1210955636,nan,nan,nan,1,0,0,0,0,0,0,0,0,0,0
1212084509,1211952831,nan,nan,nan,1,0,0,0,0,0,0,0,0,0,0
1213079909,1212946636,nan,nan,nan,1,0,0,0,0,0,0,0,0,0,0
1214085415,1213960124,nan,nan,nan,1,0,0,0,0,0,0,0,0,0,0
1215090639,1214959636,nan,nan,nan,1,0,0,0,0,0,0,0,0,0,0
1216086029,1215957636,nan,nan,nan,1,0,0,0,0,0,0,0,0,0,0
1217081624,1216951636,nan,nan,nan,1,0,0,0,0,0,0,0,0,0,0
1218087507,1217954636,nan,nan,nan,1,0,0,0,0,0,0,0,0,0,0
1219082367,1218957147,nan,nan,nan,1,0,0,0,0,0,0,0,0,0,0
1220077634,1219951655,nan,nan,nan,1,0,0,0,0,0,0,0,0,0,0
1221092932,1220962658,nan,nan,nan,1,0,0,0,0,0,0,0,0,0,0
1222088356,1221962637,nan,nan,nan,1,0,0,0,0,0,0,0,0,0,0
1223083884,1222950638,nan,nan,nan,1,0,0,0,0,0,0,0,0,0,0
1224089165,1223959637,nan,nan,nan,1,0,0,0,0,0,0,0,0,0,0
1225094506,1224963642,nan,nan,nan,1,0,0,0,0,0,0,0,0,0,0
1226089970,1225956637,nan,nan,nan,1,0,0,0,0,0,0,0,0,0,0
1227095888,1226962637,nan,nan,nan,1,0,0,0,0,0,0,0,0,0,0
1228080913,1227953637,nan,nan,nan,1,0,0,0,0,0,0,0,0,0,0
1229076536,1228950996,nan,nan,nan,1,0,0,0,0,0,0,0,0,0,0
1230081504,1229948735,nan,nan,nan,1,0,0,0,0,0,0,0,0,0,0
1231086895,1230957636,nan,nan,nan,1,0,0,0,0,0,0,0,0,0,0
1232082384,1231953636,nan,nan,nan,1,0,0,0,0,0,0,0,0,0,0
1233077755,1232952721,nan,nan,nan,1,0,0,0,0,0,0,0,0,0,0
1234073125,1233947961,nan,nan,nan,1,0,0,0,0,0,0,0,0,0,0
1235078571,1234952635,nan,nan,nan,1,0,0,0,0,0,0,0,0,0,0
1236083965,1235955636,nan,nan,nan,1,0,0,0,0,0,0,0,0,0,0
1237079347,1236945636,nan,nan,nan,1,0,0,0,0,0,0,0,0,0,0
1238085091,1237951786,nan,nan,nan,1,0,0,0,0,0,0,0,0,0,0
1239089972,1238955636,nan,nan,nan,1,0,0,0,0,0,0,0,0,0,0
1240085568,1239954635,nan,nan,nan,1,0,0,0,0,0,0,0,0,0,0
1241080849,1240952637,nan,nan,nan,1,0,0,0,0,0,0,0,0,0,0
1242096121,1241962637,nan,nan,nan,1,0,0,0,0,0,0,0,0,0,0
1243081514,1242952637,nan,nan,nan,1,0,0,0,0,0,0,0,0,0,0
1244086947,1243954636,nan,nan,nan,1,0,0,0,0,0,0,0,0,0,0
1245092299,1244959638,nan,nan,nan,1,0,0,0,0,0,0,0,0,0,0
1246087819,1245961636,nan,nan,nan,1,0,0,0,0,0,0,0,0,0,0
1247083693,1246952859,nan,nan,nan,1,0,0,0,0,0,0,0,0,0,0
1248088517,1247959637,nan,nan,nan,1,0,0,0,0,0,0,0,0,0,0
1249083976,1248958895,nan,nan,nan,1,0,0,0,0,0,0,0,0,0,0
1250089361,1249956643,nan,nan,nan,1,0,0,0,0,0,0,0,0,0,0
1251084791,1250957637,nan,nan,nan,1,0,0,0,0,0,0,0,0,0,0
1252080243,1251952636,nan,nan,nan,1,0,0,0,0,0,0,0,0,0,0
1253085568,1252957637,nan,nan,nan,1,0,0,0,0,0,0,0,0,0,0
1254081025,1253953638,nan,nan,nan,1,0,0,0,0,0,0,0,0,0,0
1255086437,1254957636,nan,nan,nan,1,0,0,0,0,0,0,0,0,0,0
1256082298,1255949642,nan,nan,nan,1,0,0,0,0,0,0,0,0,0,0
1257087095,1256955636,nan,nan,nan,0,0,0,0,0,0,0,0,0,0,0
1258082516,1257952636,nan,nan,nan,0,0,0,0,0,0,0,0,0,0,0
1259087925,1258958655,nan,nan,nan,0,0,0,0,0,0,0,0,0,0,0
1260073501,1259944636,nan,nan,nan,0,0,0,0,0,0,0,0,0,0,0
1261068807,1260943767,nan,nan,nan,0,0,0,0,0,0,0,0,0,0,0
1262084062,1261959025,nan,nan,nan,0,0,0,0,0,0,0,0,0,0,0
1263089544,1262959636,nan,nan,nan,0,0,0,0,0,0,0,0,0,0,0
1264084899,1263958638,nan,nan,nan,0,0,0,0,0,0,0,0,0,0,0
1265080937,1264950637,nan,nan,nan,0,0,0,0,0,0,0,0,0,0,0
1266085755,1265954642,nan,nan,nan,0,0,0,0,0,0,0,0,0,0,0
1267091140,1266957637,nan,nan,nan,1,0,0,0,0,0,0,0,0,0,0
1268086470,1267953637,nan,nan,nan,1,0,0,0,0,0,0,0,0,0,0
1269081928,1268952636,nan,nan,nan,1,0,0,0,0,0,0,0,0,0,0
1270077277,1269950637,nan,nan,nan,1,0,0,0,0,0,0,0,0,0,0
1271092605,1270960637,nan,nan,nan,1,0,0,0,0,0,0,0,0,0,0
1272087994,1271957636,nan,nan,nan,1,0,0,0,0,0,0,0,0,0,0
1273073557,1272943636,nan,nan,nan,1,0,0,0,0,0,0,0,0,0,0
1274079497,1273947636,nan,nan,nan,1,0,0,0,0,0,0,0,0,0,0
1275074341,1274944637,nan,nan,nan,1,0,0,0,0,0,0,0,0,0,0
1276069664,1275941731,nan,nan,nan,1,0,0,0,0,0,0,0,0,0,0
1277075132,1276946635,nan,nan,nan,1,0,0,0,0,0,0,0,0,0,0
1278070460,1277945636,nan,nan,nan,1,0,0,0,0,0,0,0,0,0,0
1279075900,1278948637,nan,nan,nan,1,0,0,0,0,0,0,0,0,0,0
1280081175,1279948637,nan,nan,nan,1,0,0,0,0,0,0,0,0,0,0
1281076561,1280945636,nan,nan,nan,1,0,0,0,0,0,0,0,0,0,0
1282081890,1281956877,nan,nan,nan,1,0,0,0,0,0,0,0,0,0,0
1283087244,1282960636,nan,nan,nan,1,0,0,0,0,0,0,0,0,0,0
1284082697,1283957672,nan,nan,nan,1,0,0,0,0,0,0,0,0,0,0
1285088246,1284959637,nan,nan,nan,1,0,0,0,0,0,0,0,0,0,0
1286083379,1285953637,nan,nan,nan,1,0,0,0,0,0,0,0,0,0,0
1287088725,1286955637,nan,nan,nan,1,0,0,0,0,0,0,0,0,0,0
1288084218,1287959165,nan,nan,nan,1,0,0,0,0,0,0,0,0,0,0
1289089520,1288957636,nan,nan,nan,1,0,0,0,0,0,0,0,0,0,0
1290084953,1289950636,nan,nan,nan,1,0,0,0,0,0,0,0,0,0,0
1291080347,1290953637,nan,nan,nan,1,0,0,0,0,0,0,0,0,0,0
1292085898,1291958645,nan,nan,nan,1,0,0,0,0,0,0,0,0,0,0
1293081269,1292947638,nan,nan,nan,1,0,0,0,0,0,0,0,0,0,0
1294077042,1293950637,nan,nan,nan,1,0,0,0,0,0,0,0,0,0,0
1295081972,1294948636,nan,nan,nan,1,0,0,0,0,0,0,0,0,0,0
1296077349,1295949638,nan,nan,nan,1,0,0,0,0,0,0,0,0,0,0
1297072721,1296944637,nan,nan,nan,1,0,0,0,0,0,0,0,0,0,0
1298078110,1297943636,nan,nan,nan,1,0,0,0,0,0,0,0,0,0,0
1299083497,1298951637,nan,nan,nan,1,0,0,0,0,0,0,0,0,0,0
1300078901,1299947635,nan,nan,nan,1,0,0,0,0,0,0,0,0,0,0
1301074308,1300949642,nan,nan,nan,1,0,0,0,0,0,0,0,0,0,0
1302069923,1301942636,nan,nan,nan,1,0,0,0,0,0,0,0,0,0,0
1303075792,1302945637,nan,nan,nan,1,0,0,0,0,0,0,0,0,0,0
1304070730,1303945637,nan,nan,nan,1,0,0,0,0,0,0,0,0,0,0
1305075976,1304946637,nan,nan,nan,1,0,0,0,0,0,0,0,0,0,0
1306081359,1305949636,nan,nan,nan,1,0,0,0,0,0,0,0,0,0,0
1307076791,1306951723,nan,nan,nan,1,0,0,0,0,0,0,0,0,0,0
1308072375,1307942636,nan,nan,nan,1,0,0,0,0,0,0,0,0,0,0
1309087466,1308953637,nan,nan,nan,1,0,0,0,0,0,0,0,0,0,0
1310082855,1309951637,nan,nan,nan,1,0,0,0,0,0,0,0,0,0,0
1311078305,1310944636,nan,nan,nan,1,0,0,0,0,0,0,0,0,0,0
1312074329,1311947636,nan,nan,nan,1,0,0,0,0,0,0,0,0,0,0
1313079162,1312949636,nan,nan,nan,1,0,0,0,0,0,0,0,0,0,0
1314084472,1313954636,nan,nan,nan,1,0,0,0,0,0,0,0,0,0,0
1315079864,1314949656,nan,nan,nan,1,0,0,0,0,0,0,0,0,0,0
1316085273,1315952636,nan,nan,nan,1,0,0,0,0,0,0,0,0,0,0
1317080670,1316951637,nan,nan,nan,1,0,0,0,0,0,0,0,0,0,0
1318095960,1317964643,nan,nan,nan,1,0,0,0,0,0,0,0,0,0,0
1319081463,1318952636,nan,nan,nan,1,0,0,0,0,0,0,0,0,0,0
1320076857,1319951770,nan,nan,nan,1,0,0,0,0,0,0,0,0,0,0
1321072980,1320944637,nan,nan,nan,1,0,0,0,0,0,0,0,0,0,0
1322077763,1321948635,nan,nan,nan,1,0,0,0,0,0,0,0,0,0,0
1323073058,1322946643,nan,nan,nan,1,0,0,0,0,0,0,0,0,0,0
1324078405,1323947014,nan,nan,nan,1,0,0,0,0,0,0,0,0,0,0
1325073828,1324946745,nan,nan,nan,1,0,0,0,0,0,0,0,0,0,0
1326079319,1325946687,nan,nan,nan,1,0,0,0,0,0,0,0,0,0,0
1327074558,1326948637,nan,nan,nan,1,0,0,0,0,0,0,0,0,0,0
1328089927,1327958636,nan,nan,nan,1,0,0,0,0,0,0,0,0,0,0
1329075367,1328941636,nan,nan,nan,1,0,0,0,0,0,0,0,0,0,0
1330071564,1329941637,nan,nan,nan,1,0,0,0,0,0,0,0,0,0,0
1331076335,1330946637,nan,nan,nan,1,0,0,0,0,0,0,0,0,0,0
1332081825,1331949637,nan,nan,nan,1,0,0,0,0,0,0,0,0,0,0
1333077007,1332950662,nan,nan,nan,1,0,0,0,0,0,0,0,0,0,0
1334072407,1333946642,nan,nan,nan,1,0,0,0,0,0,0,0,0,0,0
1335077794,1334949790,nan,nan,nan,1,0,0,0,0,0,0,0,0,0,0
1336083051,1335948636,nan,nan,nan,1,0,0,0,0,0,0,0,0,0,0
1337078442,1336947638,nan,nan,nan,1,0,0,0,0,0,0,0,0,0,0
1338073932,1337944893,nan,nan,nan,1,0,0,0,0,0,0,0,0,0,0
1339079420,1338946636,nan,nan,nan,1,0,0,0,0,0,0,0,0,0,0
1340084714,1339951739,nan,nan,nan,1,0,0,0,0,0,0,0,0,0,0
1341080477,1340948636,nan,nan,nan,1,0,0,0,0,0,0,0,0,0,0
1342085418,1341953637,nan,nan,nan,1,0,0,0,0,0,0,0,0,0,0
1343080824,1342948636,nan,nan,nan,1,0,0,0,0,0,0,0,0,0,0
1344086208,1343951641,nan,nan,nan,1,0,0,0,0,0,0,0,0,0,0
1345081655,1344955637,nan,nan,nan,1,0,0,0,0,0,0,0,0,0,0
1346086960,1345955635,nan,nan,nan,1,0,0,0,0,0,0,0,0,0,0
1347072459,1346945637,nan,nan,nan,1,0,0,0,0,0,0,0,0,0,0
1348087874,1347955636,nan,nan,nan,1,0,0,0,0,0,0,0,0,0,0
1349083249,1348952749,nan,nan,nan,1,0,0,0,0,0,0,0,0,0,0
1350079147,1349948637,nan,nan,nan,1,0,0,0,0,0,0,0,0,0,0
1351073972,1350947637,nan,nan,nan,1,0,0,0,0,0,0,0,0,0,0
1352069448,1351942972,nan,nan,nan,1,0,0,0,0,0,0,0,0,0,0
1353084718,1352955636,nan,nan,nan,1,0,0,0,0,0,0,0,0,0,0
1354080156,1353953643,nan,nan,nan,1,0,0,0,0,0,0,0,0,0,0
1355075639,1354947682,nan,nan,nan,1,0,0,0,0,0,0,0,0,0,0
1356071011,1355941637,nan,nan,nan,1,0,0,0,0,0,0,0,0,0,0
1357076308,1356947636,nan,nan,nan,1,0,0,0,0,0,0,0,0,0,0
1358081752,1357951637,nan,nan,nan,1,0,0,0,0,0,0,0,0,0,0
1359087651,1358953638,nan,nan,nan,1,0,0,0,0,0,0,0,0,0,0
1360082508,1359951824,nan,nan,nan,1,0,0,0,0,0,0,0,0,0,0
1361077952,1360950637,nan,nan,nan,1,0,0,0,0,0,0,0,0,0,0
1362083304,1361953638,nan,nan,nan,1,0,0,0,0,0,0,0,0,0,0
1363078713,1362953637,nan,nan,nan,1,0,0,0,0,0,0,0,0,0,0
1364074203,1363949042,nan,nan,nan,1,0,0,0,0,0,0,0,0,0,0
1365079648,1364952637,nan,nan,nan,1,0,0,0,0,0,0,0,0,0,0
1366084803,1365952636,nan,nan,nan,1,0,0,0,0,0,0,0,0,0,0
1367080227,1366945636,nan,nan,nan,1,0,0,0,0,0,0,0,0,0,0
1368086191,1367954636,nan,nan,nan,1,0,0,0,0,0,0,0,0,0,0
1369081132,1368948637,nan,nan,nan,1,0,0,0,0,0,0,0,0,0,0
1370076613,1369946636,nan,nan,nan,1,0,0,0,0,0,0,0,0,0,0
1371081821,1370950636,nan,nan,nan,1,0,0,0,0,0,0,0,0,0,0
1372087163,1371954637,nan,nan,nan,1,0,0,0,0,0,0,0,0,0,0
1373082632,1372954811,nan,nan,nan,1,0,0,0,0,0,0,0,0,0,0
1374078061,1373952848,nan,nan,nan,1,0,0,0,0,0,0,0,0,0,0
1375073432,1374944636,nan,nan,nan,1,0,0,0,0,0,0,0,0,0,0
1376088734,1375955635,nan,nan,nan,1,0,0,0,0,0,0,0,0,0,0
1377084902,1376953777,nan,nan,nan,1,0,0,0,0,0,0,0,0,0,0
1378079925,1377946825,nan,nan,nan,1,0,0,0,0,0,0,0,0,0,0
1379085343,1378951638,nan,nan,nan,1,0,0,0,0,0,0,0,0,0,0
1380090313,1379956643,nan,nan,nan,1,0,0,0,0,0,0,0,0,0,0
1381085862,1380952638,nan,nan,nan,1,0,0,0,0,0,0,0,0,0,0
1382081164,1381946638,nan,nan,nan,1,0,0,0,0,0,0,0,0,0,0
1383086677,1382957637,nan,nan,nan,1,0,0,0,0,0,0,0,0,0,0
1384091969,1383958637,nan,nan,nan,1,0,0,0,0,0,0,0,0,0,0
1385087317,1384957637,nan,nan,nan,1,0,0,0,0,0,0,0,0,0,0
1386082767,1385952636,nan,nan,nan,1,0,0,0,0,0,0,0,0,0,0
1387078392,1386951636,nan,nan,nan,1,0,0,0,0,0,0,0,0,0,0
1388083959,1387953636,nan,nan,nan,1,0,0,0,0,0,0,0,0,0,0
1389079036,1388953889,nan,nan,nan,1,0,0,0,0,0,0,0,0,0,0
1390084347,1389959636,nan,nan,nan,1,0,0,0,0,0,0,0,0,0,0
1391079927,1390952637,nan,nan,nan,1,0,0,0,0,0,0,0,0,0,0
1392075216,1391950198,nan,nan,nan,1,0,0,0,0,0,0,0,0,0,0
1393070647,1392944636,nan,nan,nan,1,0,0,0,0,0,0,0,0,0,0
1394085945,1393951636,nan,nan,nan,1,0,0,0,0,0,0,0,0,0,0
1395081322,1394949636,nan,nan,nan,1,0,0,0,0,0,0,0,0,0,0
1396076962,1395947651,nan,nan,nan,1,0,0,0,0,0,0,0,0,0,0
1397082717,1396948637,nan,nan,nan,1,0,0,0,0,0,0,0,0,0,0
1398087499,1397956695,nan,nan,nan,1,0,0,0,0,0,0,0,0,0,0
1399073009,1398945638,nan,nan,nan,1,0,0,0,0,0,0,0,0,0,0
1400078502,1399950638,nan,nan,nan,1,0,0,0,0,0,0,0,0,0,0
1401083804,1400955859,nan,nan,nan,1,0,0,0,0,0,0,0,0,0,0
1402079154,1401950636,nan,nan,nan,1,0,0,0,0,0,0,0,0,0,0
1403084567,1402951669,nan,nan,nan,1,0,0,0,0,0,0,0,0,0,0
1404080047,1403947636,nan,nan,nan,1,0,0,0,0,0,0,0,0,0,0
1405095270,1404961637,nan,nan,nan,1,0,0,0,0,0,0,0,0,0,0
1406071432,1405946008,nan,nan,nan,1,0,0,0,0,0,0,0,0,0,0
1407076223,1406951095,nan,nan,nan,1,0,0,0,0,0,0,0,0,0,0
1408071614,1407946637,nan,nan,nan,1,0,0,0,0,0,0,0,0,0,0
1409077126,1408950636,nan,nan,nan,1,0,0,0,0,0,0,0,0,0,0
1410072470,1409946642,nan,nan,nan,1,0,0,0,0,0,0,0,0,0,0
1411077845,1410948637,nan,nan,nan,1,0,0,0,0,0,0,0,0,0,0
1412073281,1411940645,nan,nan,nan,1,0,0,0,0,0,0,0,0,0,0
1413078576,1412950699,nan,nan,nan,1,0,0,0,0,0,0,0,0,0,0
1414074061,1413940637,nan,nan,nan,1,0,0,0,0,0,0,0,0,0,0
1415080024,1414942643,nan,nan,nan,1,0,0,0,0,0,0,0,0,0,0
1416084854,1415950636,nan,nan,nan,1,0,0,0,0,0,0,0,0,0,0
1417080285,1416951636,nan,nan,nan,1,0,0,0,0,0,0,0,0,0,0
1418085608,1417953658,nan,nan,nan,1,0,0,0,0,0,0,0,0,0,0
1419071080,1418943899,nan,nan,nan,1,0,0,0,0,0,0,0,0,0,0
1420076535,1419945635,nan,nan,nan,1,0,0,0,0,0,0,0,0,0,0
1421071834,1420940636,nan,nan,nan,1,0,0,0,0,0,0,0,0,0,0
1422077386,1421948655,nan,nan,nan,1,0,0,0,0,0,0,0,0,0,0
1423092652,1422961636,nan,nan,nan,1,0,0,0,0,0,0,0,0,0,0
1424088129,1423953636,nan,nan,nan,1,0,0,0,0,0,0,0,0,0,0
1425073553,1424940638,nan,nan,nan,1,0,0,0,0,0,0,0,0,0,0
1426078933,1425950636,nan,nan,nan,1,0,0,0,0,0,0,0,0,0,0
1427084216,1426951642,nan,nan,nan,1,0,0,0,0,0,0,0,0,0,0
1428069757,1427944661,nan,nan,nan,1,0,0,0,0,0,0,0,0,0,0
1429075125,1428947638,nan,nan,nan,1,0,0,0,0,0,0,0,0,0,0
1430080504,1429950637,nan,nan,nan,1,0,0,0,0,0,0,0,0,0,0
1431086078,1430952635,nan,nan,nan,1,0,0,0,0,0,0,0,0,0,0
1432081290,1431954637,nan,nan,nan,1,0,0,0,0,0,0,0,0,0,0
1433087443,1432955636,nan,nan,nan,1,0,0,0,0,0,0,0,0,0,0
1434072228,1433937659,nan,nan,nan,1,0,0,0,0,0,0,0,0,0,0
1435077872,1434946637,nan,nan,nan,1,0,0,0,0,0,0,0,0,0,0
1436082896,1435950636,nan,nan,nan,1,0,0,0,0,0,0,0,0,0,0
1437078411,1436944636,nan,nan,nan,1,0,0,0,0,0,0,0,0,0,0
1438073855,1437941638,nan,nan,nan,1,0,0,0,0,0,0,0,0,0,0
1439079271,1438952636,nan,nan,nan,1,0,0,0,0,0,0,0,0,0,0
1440074682,1439945637,nan,nan,nan,1,0,0,0,0,0,0,0,0,0,0
1441080050,1440949637,nan,nan,nan,1,0,0,0,0,0,0,0,0,0,0
1442085425,1441951636,nan,nan,nan,1,0,0,0,0,0,0,0,0,0,0
1443090885,1442956637,nan,nan,nan,1,0,0,0,0,0,0,0,0,0,0
1444076728,1443947636,nan,nan,nan,1,0,0,0,0,0,0,0,0,0,0
1445081626,1444949635,nan,nan,nan,1,0,0,0,0,0,0,0,0,0,0
1446077146,1445950636,nan,nan,nan,1,0,0,0,0,0,0,0,0,0,0
