timestamp,timestamp_sample,lat,lon,alt,alt_ellipsoid,delta_alt,eph,epv,terrain_alt,lat_lon_reset_counter,alt_reset_counter,terrain_alt_valid,dead_reckoning
540309818,540309316,42.358581857254,-71.08728598936524,0.4762287,-28.662584,0.00024282932,2.6502237,2.6204298,0.38343668,16,0,1,0
541305279,541304776,42.358582182143664,-71.08728750439315,0.5009346,-28.537678,0.00024282932,2.6452708,2.6191702,0.4134755,16,0,1,0
542310578,542310192,42.35858245017479,-71.08728890952409,0.5412884,-28.398024,0.00024282932,2.6457546,2.619441,0.449749,16,0,1,0
543306017,543305652,42.358582715034636,-71.08729045495254,0.60403347,-28.253979,0.00024282932,2.6495805,2.6202457,0.49808407,16,0,1,0
544311627,544311068,42.358583056985715,-71.08729067868708,0.6398902,-28.098421,0.00024282932,2.643962,2.6193259,0.532876,16,0,1,0
545307116,545306529,42.35858357616801,-71.08729066040705,0.6567497,-27.981764,0.00024282932,2.6448057,2.6200938,0.54606724,16,0,1,0
546312528,546311945,42.358583537991294,-71.08729103080213,0.6803584,-27.858154,0.00024282932,2.64733,2.620702,0.5792489,16,0,1,0
547308344,547307407,42.358584034746,-71.08729036239959,0.68086624,-27.757647,0.00024282932,2.649026,2.6215637,0.5698385,16,0,1,0
548303220,548302869,42.35858454378238,-71.0872897958448,0.6675067,-27.691006,0.00024282932,2.6555521,2.622026,0.5655389,16,0,1,0
549308822,549308285,42.35858540815379,-71.08728890845234,0.6323943,-27.60608,0.00024282932,2.6523843,2.6217465,0.52823114,16,0,1,0
550314328,550313702,42.3585859928655,-71.08728915694677,0.62332773,-27.529383,0.00024282932,2.6506965,2.6216087,0.53427696,16,0,1,0
551309716,551309164,42.358586142604366,-71.08728909784324,0.64693594,-27.443476,0.00024282932,2.6478703,2.620343,0.5594163,16,0,1,0
552305063,552304627,42.35858676709216,-71.08728943449552,0.6823082,-27.385517,0.00024282932,2.6515765,2.6208534,0.59051275,16,0,1,0
553310654,553310044,42.358587034150155,-71.087289877609,0.691525,-27.389727,0.00024282932,2.6429565,2.6187634,0.58462095,16,0,1,0
554306016,554305507,42.35858734855504,-71.08729092499902,0.68055105,-27.429827,0.00024282932,2.6410847,2.6185186,0.58552647,16,0,1,0
555311329,555310925,42.35858671794366,-71.08729028742279,0.7118354,-27.434479,0.00024282932,2.6403086,2.6182299,0.6210456,16,0,1,0
556306849,556306389,42.35858626616284,-71.08728996913803,0.7525425,-27.434559,0.00024282932,2.6430573,2.6187747,0.6570449,16,0,1,0
557312358,557311807,42.35858673954824,-71.08728993620174,0.7840619,-27.464598,0.00024282932,2.6398227,2.6185925,0.68801355,16,0,1,0
558307680,558307271,42.35858709363742,-71.08728996008541,0.813365,-27.472687,0.00024282932,2.646179,2.6201746,0.70239544,16,0,1,0
559313042,559312689,42.35858750377457,-71.08729025406886,0.81585646,-27.523382,0.00024282932,2.6410043,2.6193879,0.7211518,16,0,1,0
560308687,560308154,42.35858765107771,-71.08729012452207,0.803215,-27.583471,0.00024282932,2.6416059,2.6200173,0.69964886,16,0,1,0
561313923,561313573,42.35858799561688,-71.08729005371342,0.7972307,-27.622402,0.00024282932,2.6432555,2.6203406,0.69664335,16,0,1,0
562309528,562309037,42.358587614279976,-71.08728965390404,0.7673297,-27.67954,0.00024282932,2.6424289,2.620367,0.675591,16,0,1,0
563304922,563304502,42.35858741830069,-71.08728881852576,0.77191067,-27.698181,0.00024282932,2.6480687,2.6207757,0.6822257,16,0,1,0
564310299,564309922,42.358586877422,-71.08728808806211,0.75631285,-27.741457,0.00024282932,2.6480958,2.6211605,0.6540637,16,0,1,0
565316338,565315341,42.35858612230394,-71.08728793246958,0.7470622,-27.770935,0.00024282932,2.6464188,2.621278,0.65434265,16,0,1,0
566311158,566310807,42.35858475821102,-71.08728743877687,0.7342901,-27.787804,0.00024282932,2.6506085,2.62174,0.63801193,16,0,1,0
567306777,567306272,42.35858377337791,-71.08728551836245,0.72316027,-27.814913,0.00024282932,2.6481893,2.6214228,0.6238713,16,0,1,0
568312100,568311692,42.358583587092966,-71.08728238312797,0.68296003,-27.87507,0.00024282932,2.6511598,2.6224296,0.5872631,16,0,1,0
569307574,569307157,42.35858204352181,-71.08728188994891,0.65635157,-27.925112,0.00024282932,2.660496,2.6231813,0.5672512,16,0,1,0
570313139,570312577,42.358581634930665,-71.08728122651056,0.6276684,-27.994612,0.00024282932,2.657652,2.622878,0.5428872,16,0,1,0
571308592,571308042,42.35858156617234,-71.08728024368531,0.6531234,-28.010117,0.00024282932,2.6644373,2.6244595,0.55572796,16,0,1,0
572314035,572313468,42.35858195390761,-71.08727991726774,0.6556878,-28.051094,0.00024282932,2.6689875,2.6248372,0.5631933,16,0,1,0
573309328,573308929,42.358581210653234,-71.08727935312358,0.67274284,-28.073338,0.00024282932,2.6784344,2.6258333,0.5773907,16,0,1,0
574315334,574314348,42.35858043845063,-71.08727901698784,0.6981654,-28.109337,0.00024282932,2.6676064,2.6241932,0.6184859,16,0,1,0
575310164,575309813,42.35857987367531,-71.08727837850071,0.7765722,-28.090454,0.00024282932,2.6653924,2.6239085,0.6711397,16,0,1,0
576305633,576305278,42.35857938630194,-71.08727653309434,0.778378,-28.14786,0.00024282932,2.6711679,2.6244872,0.6619892,16,0,1,0
577311101,577310698,42.358578357123086,-71.08727573239344,0.79127836,-28.189726,0.00024282932,2.6732426,2.624477,0.6996193,16,0,1,0
578306576,578306163,42.35857832718684,-71.08727401013026,0.84234715,-28.191864,0.00024282932,2.6761868,2.624457,0.7487135,16,0,1,0
579312085,579311583,42.35857798005348,-71.08727302050931,0.9249234,-28.18255,0.00024282932,2.6700304,2.6244683,0.8205986,16,0,1,0
580307600,580307047,42.358577002955904,-71.08727275118544,0.9503684,-28.225769,0.00024282932,2.6741967,2.6246357,0.83428955,16,0,1,0
581312820,581312467,42.35857699881792,-71.08727163706664,0.9061823,-28.358795,0.00024282932,2.6783624,2.6255999,0.7908826,16,0,1,0
582308350,582307931,42.35857568403435,-71.08726870647801,0.8340368,-28.512203,0.00024282932,2.6853461,2.6252804,0.7404165,16,0,1,0
583303825,583303395,42.35857482769514,-71.08726923331359,0.80543375,-28.640388,0.00024282932,2.6865501,2.625643,0.7207217,16,0,1,0
584309216,584308813,42.35857370582224,-71.08726998303028,0.85310173,-28.67911,0.00024282932,2.6862566,2.6251175,0.7635274,16,0,1,0
585314582,585314232,42.35857263116556,-71.08727122049035,0.8874831,-28.72845,0.00024282932,2.677374,2.6247401,0.7945533,16,0,1,0
586310268,586309695,42.35857073826069,-71.08727181741186,0.87543535,-28.801191,0.00024282932,2.679786,2.6247594,0.76875925,16,0,1,0
587305769,587305158,42.35857051008687,-71.08727095694769,0.83416367,-28.904839,0.00024282932,2.6800015,2.625157,0.7304821,16,0,1,0
588310971,588310575,42.35857087710105,-71.08727058711422,0.77473307,-29.02096,0.00024282932,2.67479,2.6236463,0.67010975,16,0,1,0
589306532,589306037,42.358570811241464,-71.0872699409903,0.738132,-29.113663,0.00024282932,2.6735475,2.6235852,0.640944,16,0,1,0
590311806,590311454,42.358570636928675,-71.0872690488155,0.70862246,-29.210173,0.00024282932,2.6759794,2.6236928,0.6253748,16,0,1,0
591307538,591306916,42.35857070795817,-71.08726754547011,0.6713562,-29.330315,0.00024282932,2.681482,2.6250465,0.5890055,16,0,1,0
592313238,592312332,42.35857021625333,-71.08726644044069,0.69669247,-29.404858,0.00024282932,2.681981,2.624802,0.6198654,16,0,1,0
593308291,593307792,42.35856893404306,-71.08726714507011,0.7425504,-29.456465,0.00024282932,2.6885233,2.6262298,0.6444812,16,0,1,0
594313643,594313207,42.358567784332685,-71.08726784762776,0.77019596,-29.523483,0.00024282932,2.6937616,2.6265123,0.67943525,16,0,1,0
595309156,595308667,42.35856515946526,-71.08726975903501,0.78146935,-29.612911,0.00024282932,2.695723,2.627021,0.6673918,16,0,1,0
596314598,596314082,42.3585651572179,-71.08727136241305,0.76399136,-29.728447,0.00024282932,2.697767,2.6267214,0.6604247,16,0,1,0
597310144,597309541,42.358565234403976,-71.08727187630026,0.7603469,-29.813217,0.00024282932,2.6965375,2.6258078,0.66397905,16,0,1,0
598305518,598304999,42.3585648718261,-71.08727196667476,0.7882924,-29.854046,0.00024282932,2.7000735,2.6264453,0.69402885,16,0,1,0
599310940,599310412,42.35856473833565,-71.08727173339551,0.8174753,-29.883652,0.00024282932,2.7014713,2.6268868,0.71855783,16,0,1,0
600316341,600315824,42.358564000040744,-71.08727073831086,0.8561783,-29.87804,0.00024282932,2.703324,2.6265721,0.7649789,16,0,1,0
601311775,601311284,42.35856227900917,-71.08726918221896,0.9156637,-29.836094,0.00024282932,2.7056348,2.6271899,0.8291054,16,0,1,0
602307229,602306738,42.35855890347364,-71.08726550301193,0.98874426,-29.769617,0.00024282932,2.7105536,2.627244,0.8728161,16,0,1,0
603312668,603312148,42.35855702260169,-71.08726256473336,0.9990692,-29.766861,0.00024282932,2.7149353,2.6272671,0.8875451,16,0,1,0
604307987,604307604,42.35855584997057,-71.08726140240387,0.9981055,-29.777441,0.00024282932,2.7167518,2.6277132,0.88202953,16,0,1,0
605313400,605313013,42.358556155937706,-71.0872596791178,0.95396805,-29.85539,0.00024282932,2.7121856,2.626632,0.8576617,16,0,1,0
606308822,606308468,42.35855570346761,-71.08725731991079,0.9513812,-29.902084,0.00024282932,2.706096,2.6260884,0.83615685,16,0,1,0
607314229,607313876,42.358555272894016,-71.08725566755027,0.92841196,-29.954632,0.00024282932,2.7031155,2.6253085,0.8302202,16,0,1,0
608309872,608309330,42.3585551999146,-71.08725678856733,0.9344549,-29.942944,0.00024282932,2.6994565,2.6252015,0.8421912,16,0,1,0
609305415,609304782,42.35855522466665,-71.08725681237316,0.9427576,-29.910023,0.00024282932,2.6931915,2.6237938,0.8542042,16,0,1,0
610310812,610310189,42.35855498630197,-71.08725825420476,0.94117594,-29.8713,0.00024282932,2.6919258,2.624295,0.8473644,16,0,1,0
611306053,611305641,42.35855483668036,-71.08725999426233,0.92396784,-29.83373,0.00024282932,2.6876273,2.6232595,0.82437277,16,0,1,0
612311557,612311047,42.35855485576052,-71.0872610530014,0.9096422,-29.788383,0.00024282932,2.68356,2.623104,0.81031036,16,0,1,0
613306847,613306497,42.35855542895105,-71.0872629772976,0.92417,-29.721062,0.00024282932,2.6844556,2.6232264,0.83564806,16,0,1,0
614312291,614311902,42.35855561052275,-71.08726510663193,0.9441824,-29.642323,0.00024282932,2.688716,2.6247663,0.8483367,16,0,1,0
615307841,615307351,42.35855534271982,-71.08726671891915,0.9481425,-29.594135,0.00024282932,2.6868482,2.6242447,0.8342366,16,0,1,0
616313160,616312755,42.35855595709038,-71.0872679328732,0.91679573,-29.576134,0.00024282932,2.6847253,2.6245236,0.8034196,16,0,1,0
617308559,617308203,42.35855625845258,-71.0872691098457,0.8948097,-29.54251,0.00024282932,2.6871185,2.6247332,0.8065376,16,0,1,0
618304326,618303650,42.3585555901123,-71.08727031717926,0.8822198,-29.496437,0.00024282932,2.6850874,2.624864,0.7885928,16,0,1,0
619309612,619309052,42.35855518401778,-71.08727060731894,0.91687965,-29.406664,0.00024282932,2.6808627,2.6238408,0.8312149,16,0,1,0
620314805,620314453,42.35855522219164,-71.08727087743162,0.9204173,-29.357931,0.00024282932,2.6809328,2.624555,0.81091595,16,0,1,0
621310253,621309899,42.35855402590985,-71.0872696637095,0.9039211,-29.331694,0.00024282932,2.6806035,2.624215,0.8141484,16,0,1,0
622305863,622305344,42.35855321163865,-71.08726823736954,0.94508886,-29.236572,0.00024282932,2.6817312,2.6249332,0.84810305,16,0,1,0
623311190,623310743,42.358553147651925,-71.08726786646099,0.98740196,-29.124237,0.00024282932,2.6835916,2.6249862,0.8848624,16,0,1,0
624306699,624306188,42.35855285838345,-71.08726878888213,1.021327,-28.993252,0.00024282932,2.680881,2.6248305,0.92505074,16,0,1,0
625311945,625311585,42.3585524405297,-71.08726859552512,1.0517201,-28.877777,0.00024282932,2.681222,2.6245778,0.9396343,16,0,1,0
626307518,626307028,42.358552276372606,-71.08726800664063,1.0522041,-28.809032,0.00024282932,2.684758,2.6256301,0.95103407,16,0,1,0
627312779,627312425,42.35855230379514,-71.08726838048709,1.0368533,-28.765541,0.00024282932,2.6888204,2.6259625,0.93293905,16,0,1,0
628308923,628307867,42.35855273826128,-71.08726832878861,1.0282254,-28.72136,0.00024282932,2.6935732,2.6270561,0.92470694,16,0,1,0
629313620,629313262,42.358553413659386,-71.08726972726984,1.0097561,-28.69383,0.00024282932,2.6938987,2.6266963,0.9162302,16,0,1,0
630309102,630308703,42.35855308454811,-71.08727023864398,1.0072212,-28.62626,0.00024282932,2.6939378,2.6261668,0.9040489,16,0,1,0
631314483,631314097,42.358551648242674,-71.08726988583544,1.0233955,-28.514057,0.00024282932,2.698622,2.6272533,0.93708134,16,0,1,0
632309970,632309536,42.358549541231824,-71.08726911819019,1.0393133,-28.397488,0.00024282932,2.7020652,2.6270719,0.95084953,16,0,1,0
633305375,633304975,42.358548513869735,-71.08726963392672,1.0979719,-28.24659,0.00024282932,2.7011998,2.6271942,0.99505234,16,0,1,0
634310749,634310367,42.35854774189484,-71.08727053168799,1.1037087,-28.154902,0.00024282932,2.7050245,2.627169,0.9942384,16,0,1,0
635316125,635315759,42.358546999144735,-71.0872712933781,1.1168079,-28.048447,0.00024282932,2.7049453,2.6275377,1.0188928,16,0,1,0
636311633,636311196,42.358545468941095,-71.0872715333334,1.1504807,-27.914698,0.00024282932,2.7093656,2.627443,1.051053,16,0,1,0
637307265,637306632,42.35854434843808,-71.08727194644736,1.1837173,-27.781239,0.00024282932,2.7158172,2.628465,1.0801616,16,0,1,0
638312381,638312022,42.358544186251805,-71.08727247322486,1.1825132,-27.681843,0.00024282932,2.7179816,2.6281965,1.0613256,16,0,1,0
639307951,639307457,42.3585432206313,-71.08727228612067,1.1477227,-27.616734,0.00024282932,2.719923,2.628756,1.0346699,16,0,1,0
640313216,640312846,42.358543186853886,-71.0872727235145,1.1100903,-27.554565,0.00024282932,2.707504,2.6267476,1.0103402,16,0,1,0
641308809,641308280,42.35854199723192,-71.08727253497393,1.1030817,-27.461372,0.00024282932,2.7036989,2.6265478,0.99842596,16,0,1,0
642314017,642313667,42.35854144135418,-71.08727221781824,1.1058741,-27.358078,0.00024282932,2.6973715,2.6252303,1.0146241,16,0,1,0
643309605,643309100,42.35854057290551,-71.08727178337796,1.1411438,-27.223108,0.00024282932,2.6940248,2.6252074,1.0521541,16,0,1,0
644305111,644304532,42.35854036253114,-71.08727201998084,1.1667175,-27.097235,0.00024282932,2.6929538,2.6247776,1.0768566,16,0,1,0
645310443,645309918,42.358540842674806,-71.08727246819218,1.1846156,-26.982822,0.00024282932,2.6923206,2.6253538,1.0789895,16,0,1,0
646306415,646305348,42.35854174653044,-71.08727237404577,1.1772199,-26.917358,0.00024282932,2.690874,2.6248932,1.0693212,16,0,1,0
647311086,647310733,42.358543142368234,-71.08727224094206,1.1416097,-26.90075,0.00024282932,2.6842177,2.624311,1.0402174,16,0,1,0
648306654,648306162,42.35854417255363,-71.08727115049146,1.141818,-26.861378,0.00024282932,2.681221,2.6235425,1.0468936,16,0,1,0
649311949,649311545,42.35854502007827,-71.08727050480626,1.1442504,-26.846224,0.00024282932,2.6766968,2.6232536,1.0420494,16,0,1,0
650307472,650306973,42.35854638639472,-71.08726964760729,1.1427794,-26.882843,0.00024282932,2.6749926,2.6228628,1.0348539,16,0,1,0
651312933,651312355,42.358548044178775,-71.08726926285557,1.1309628,-26.951077,0.00024282932,2.6742742,2.6227846,1.0409284,16,0,1,0
652308279,652307782,42.35854916413548,-71.0872689176734,1.1534324,-27.000134,0.00024282932,2.6684206,2.6220195,1.0630527,16,0,1,0
653303565,653303208,42.35854941197916,-71.08726768367661,1.1700377,-27.048742,0.00024282932,2.6723628,2.6227453,1.0696301,16,0,1,0
654309104,654308588,42.35855046845579,-71.08726663285941,1.1632643,-27.171665,0.00024282932,2.6658614,2.6222026,1.0797286,16,0,1,0
655315160,655313967,42.358550440716705,-71.08726542042464,1.2161775,-27.194538,0.00024282932,2.6693678,2.6230447,1.1264973,16,0,1,0
656309748,656309391,42.358551155925724,-71.08726502248894,1.2305727,-27.231865,0.00024282932,2.676781,2.6242113,1.1263089,16,0,1,0
657305220,657304815,42.35855165707053,-71.08726472510097,1.2465663,-27.279415,0.00024282932,2.6746387,2.6242456,1.1509748,16,0,1,0
658310717,658310192,42.35855150804562,-71.08726304828404,1.2556243,-27.353592,0.00024282932,2.6716838,2.6242537,1.154172,16,0,1,0
659306163,659305614,42.35855110229746,-71.08726160158781,1.2693219,-27.40364,0.00024282932,2.6702244,2.6235595,1.1572661,16,0,1,0
660311390,660310989,42.35855126926977,-71.08726035614687,1.2606063,-27.476748,0.00024282932,2.6680136,2.6235394,1.1646624,16,0,1,0
661306949,661306410,42.35855134372264,-71.08725941790446,1.2623706,-27.538408,0.00024282932,2.6717453,2.6240158,1.1701951,16,0,1,0
662312354,662311785,42.35855042900114,-71.08725718020538,1.2778306,-27.582615,0.00024282932,2.677237,2.6255438,1.1799564,16,0,1,0
663307583,663307204,42.35854957704721,-71.08725534443855,1.2909346,-27.62157,0.00024282932,2.6874921,2.6265922,1.1984172,16,0,1,0
664312935,664312577,42.35854882308697,-71.08725333257821,1.3160486,-27.649338,0.00024282932,2.7001076,2.6286545,1.2217689,16,0,1,0
665308558,665307995,42.358547977471524,-71.08725102691183,1.3205957,-27.699104,0.00024282932,2.694792,2.6273396,1.2134838,16,0,1,0
666313860,666313367,42.358549481666586,-71.08725129520037,1.310924,-27.750746,0.00024282932,2.6970947,2.6279142,1.205122,16,0,1,0
667309134,667308783,42.35854914400421,-71.0872504970063,1.3032546,-27.779964,0.00024282932,2.709873,2.6279657,1.1955891,16,0,1,0
668304751,668304200,42.35854951786322,-71.08725051291121,1.2918143,-27.819387,0.00024282932,2.6960678,2.6272721,1.199369,16,0,1,0
669310101,669309569,42.35854994645023,-71.08725094270679,1.2823076,-27.854721,0.00024282932,2.6970963,2.6268833,1.1791539,16,0,1,0
670315290,670314937,42.35855063676188,-71.0872512727141,1.2697692,-27.880754,0.00024282932,2.6996214,2.6276422,1.1680164,16,0,1,0
671310870,671310351,42.35855110333947,-71.08725062325497,1.2528572,-27.892223,0.00024282932,2.6910145,2.6257231,1.1573114,16,0,1,0
672306268,672305764,42.35855128020328,-71.0872508619564,1.2405438,-27.874754,0.00024282932,2.6848571,2.6249962,1.1435618,16,0,1,0
673311634,673311131,42.358550986924456,-71.08725142240053,1.246769,-27.815184,0.00024282932,2.682041,2.6242893,1.1598096,16,0,1,0
674306993,674306543,42.35855121815585,-71.08725248193025,1.275485,-27.742283,0.00024282932,2.6894774,2.6253881,1.1743665,16,0,1,0
675312352,675311908,42.35855147142588,-71.08725324183271,1.2749352,-27.690094,0.00024282932,2.6858249,2.6246967,1.1651402,16,0,1,0
676307676,676307318,42.358552506384434,-71.08725432757052,1.2707524,-27.66319,0.00024282932,2.6778681,2.6236691,1.1675372,16,0,1,0
677313052,677312681,42.35855375627686,-71.0872551285863,1.2603307,-27.657341,0.00024282932,2.6789906,2.6238587,1.1697297,16,0,1,0
678308467,678308090,42.35855591924895,-71.08725718059415,1.2630095,-27.644138,0.00024282932,2.6784751,2.6244042,1.1629391,16,0,1,0
679313832,679313458,42.35855785352606,-71.08725850628919,1.2729611,-27.618645,0.00024282932,2.6749856,2.623614,1.172132,16,0,1,0
680309250,680308860,42.35855936622684,-71.0872597554693,1.2681041,-27.617237,0.00024282932,2.674456,2.6240218,1.1640468,16,0,1,0
681304634,681304266,42.35856114263239,-71.08726028671074,1.242558,-27.634977,0.00024282932,2.6741862,2.6237268,1.14467,16,0,1,0
682309995,682309626,42.35856300472557,-71.08726168260982,1.2354469,-27.625813,0.00024282932,2.6766393,2.6248634,1.1432357,16,0,1,0
683305549,683305032,42.35856443757396,-71.08726240480202,1.2482753,-27.581562,0.00024282932,2.6771092,2.6246605,1.1579394,16,0,1,0
684310778,684310390,42.35856542190163,-71.08726275757844,1.2717066,-27.529266,0.00024282932,2.6774864,2.6245334,1.1711183,16,0,1,0
685306145,685305794,42.35856632375994,-71.087263186111,1.3001566,-27.486618,0.00024282932,2.6687498,2.623101,1.1936522,16,0,1,0
686311525,686311151,42.3585673652924,-71.0872638998478,1.3014622,-27.47498,0.00024282932,2.6713285,2.6233761,1.2024426,16,0,1,0
687306906,687306554,42.358568246686964,-71.08726405746248,1.3144202,-27.430777,0.00024282932,2.676738,2.6248019,1.2036338,16,0,1,0
688312388,688311910,42.35856897844022,-71.08726440594155,1.2851124,-27.419216,0.00024282932,2.6795702,2.6249993,1.1858468,16,0,1,0
689307669,689307311,42.358569482692786,-71.08726449264137,1.2754331,-27.37704,0.00024282932,2.6737776,2.6243494,1.1754642,16,0,1,0
690313058,690312665,42.35856988015172,-71.08726420260605,1.2376022,-27.36738,0.00024282932,2.6732166,2.6238725,1.1314282,16,0,1,0
691308439,691308065,42.358571314043154,-71.0872654885794,1.2169719,-27.346838,0.00024282932,2.6717756,2.6239803,1.1358428,16,0,1,0
692303948,692303465,42.35857250295476,-71.08726655776789,1.2371101,-27.311293,0.00024282932,2.6732657,2.6240036,1.1430731,16,0,1,0
693309190,693308817,42.358574099897936,-71.08726845375871,1.2595806,-27.259085,0.00024282932,2.6750336,2.6249084,1.1674247,16,0,1,0
694314523,694314168,42.35857520801781,-71.08727030254258,1.3033748,-27.17377,0.00024282932,2.6758695,2.6248028,1.2083697,16,0,1,0
695309920,695309566,42.35857717465301,-71.08727263021153,1.3452272,-27.10677,0.00024282932,2.6781306,2.625609,1.2357545,16,0,1,0
696305374,696304962,42.358578684513596,-71.08727447201728,1.3743505,-27.052025,0.00024282932,2.681694,2.62577,1.2637892,16,0,1,0
697310698,697310312,42.35858044246302,-71.08727623033705,1.3792553,-27.02376,0.00024282932,2.674161,2.624883,1.274992,16,0,1,0
698316016,698315661,42.358582231789875,-71.08727816727936,1.4062271,-26.959177,0.00024282932,2.6761353,2.6248653,1.2999268,16,0,1,0
699311413,699311056,42.358583976057375,-71.08728009662816,1.4495258,-26.860664,0.00024282932,2.6754558,2.6250656,1.3422995,16,0,1,0
700306806,700306450,42.3585849053636,-71.08728176932024,1.4668198,-26.76942,0.00024282932,2.6746495,2.624462,1.3617444,16,0,1,0
701312202,701311797,42.358585104655546,-71.08728300061357,1.4686127,-26.672644,0.00024282932,2.680757,2.6260116,1.3550863,16,0,1,0
702307704,702307190,42.358585589170794,-71.08728443523411,1.4695153,-26.575777,0.00024282932,2.68473,2.6261938,1.3655,16,0,1,0
703312885,703312536,42.358586288381936,-71.08728573073537,1.4969254,-26.45746,0.00024282932,2.6875455,2.6271665,1.3947158,16,0,1,0
704308301,704307928,42.35858591618742,-71.08728610927812,1.5118647,-26.361343,0.00024282932,2.6915035,2.6272497,1.4108849,16,0,1,0
705313679,705313272,42.358585566266285,-71.0872866664288,1.5072379,-26.290516,0.00024282932,2.6918712,2.6269238,1.3988504,16,0,1,0
706309050,706308663,42.35858612794307,-71.08728791480146,1.4601617,-26.272661,0.00024282932,2.6926875,2.6273649,1.3584895,16,0,1,0
707314389,707314006,42.3585871041314,-71.08728845111042,1.4620566,-26.205948,0.00024282932,2.6872218,2.6260946,1.3747487,16,0,1,0
708309757,708309395,42.35858779767796,-71.08728884273444,1.4738512,-26.140423,0.00024282932,2.6863387,2.6262455,1.3709497,16,0,1,0
709305206,709304784,42.35858877598899,-71.08728944112416,1.4667645,-26.105402,0.00024282932,2.685541,2.6264095,1.3769159,16,0,1,0
710310503,710310126,42.35859000830872,-71.08729043936962,1.4789696,-26.052338,0.00024282932,2.6885192,2.6264646,1.380816,16,0,1,0
711306155,711305513,42.35859098036313,-71.0872909341474,1.5163932,-25.978125,0.00024282932,2.6949954,2.6277397,1.4170389,16,0,1,0
712311204,712310854,42.35859097213402,-71.08729058180627,1.5577116,-25.905437,0.00024282932,2.7020683,2.6282167,1.4569554,16,0,1,0
713306633,713306240,42.35859026408896,-71.0872895038848,1.5967216,-25.82737,0.00024282932,2.7084115,2.628306,1.4876051,16,0,1,0
714311986,714311579,42.358590439484814,-71.08728919642648,1.603313,-25.800016,0.00024282932,2.7164838,2.6295059,1.492692,16,0,1,0
715307389,715306964,42.358591389441635,-71.08728966675784,1.604001,-25.782444,0.00024282932,2.723208,2.6294017,1.4934101,16,0,1,0
716312689,716312303,42.35859221094242,-71.08729021602552,1.6032276,-25.77471,0.00024282932,2.7227635,2.6297598,1.4969664,16,0,1,0
717308094,717307686,42.35859263583979,-71.0872908011022,1.5953941,-25.789139,0.00024282932,2.7206304,2.6287966,1.4932594,16,0,1,0
718313383,718313023,42.358592799863,-71.08729073739666,1.5552511,-25.839523,0.00024282932,2.713187,2.6283514,1.4461937,16,0,1,0
719308788,719308406,42.358593447765,-71.08729077723957,1.5329084,-25.870415,0.00024282932,2.7147176,2.627836,1.4377732,16,0,1,0
720304180,720303788,42.358593722173474,-71.08729027246933,1.522223,-25.904383,0.00024282932,2.71978,2.6286936,1.4343452,16,0,1,0
721309479,721309124,42.35859436129731,-71.08729041205346,1.546999,-25.905401,0.00024282932,2.7247334,2.6286788,1.4453821,16,0,1,0
722314836,722314459,42.358595591674565,-71.08729103318073,1.548244,-25.93088,0.00024282932,2.730037,2.629611,1.4450336,16,0,1,0
723310189,723309839,42.358595170846705,-71.08729066379793,1.5388055,-25.961485,0.00024282932,2.742395,2.6299593,1.4396043,16,0,1,0
724305575,724305219,42.358595319552066,-71.0872906528095,1.5357828,-25.98838,0.00024282932,2.7488673,2.630812,1.4410286,16,0,1,0
725310952,725310552,42.35859457489347,-71.08728969102634,1.5674286,-25.99038,0.00024282932,2.7404926,2.6296768,1.46559,16,0,1,0
726306286,726305931,42.35859511556662,-71.08728956916043,1.5935898,-26.005919,0.00024282932,2.7332346,2.6292675,1.4804254,16,0,1,0
727311705,727311264,42.358595200501114,-71.08728830293994,1.5750675,-26.084911,0.00024282932,2.7284482,2.6282172,1.4752674,16,0,1,0
728306993,728306642,42.358595507024454,-71.08728838770013,1.56847,-26.15706,0.00024282932,2.723084,2.6281004,1.4665446,16,0,1,0
729312324,729311973,42.35859637183281,-71.08728884624789,1.5613017,-26.21853,0.00024282932,2.725087,2.6277413,1.4554777,16,0,1,0
730307790,730307353,42.35859753391028,-71.08728958948801,1.5811205,-26.252972,0.00024282932,2.7282324,2.6282954,1.4798765,16,0,1,0
731313047,731312681,42.358599882306876,-71.08729131329403,1.5779071,-26.312199,0.00024282932,2.7112806,2.626784,1.4719939,16,0,1,0
732308425,732308057,42.35860127278765,-71.08729234194328,1.5597038,-26.38484,0.00024282932,2.6991184,2.625693,1.4524622,16,0,1,0
733313745,733313386,42.358603563446444,-71.08729434388394,1.5440512,-26.447166,0.00024282932,2.7012439,2.6254191,1.4479537,16,0,1,0
734309145,734308761,42.358605756838024,-71.08729624496344,1.5530391,-26.486555,0.00024282932,2.710267,2.6263971,1.4612913,16,0,1,0
735314625,735314090,42.35860861209426,-71.08729827239289,1.5462184,-26.580875,0.00024282932,2.7112815,2.626653,1.4545512,16,0,1,0
736309818,736309464,42.358610402386226,-71.08729875244862,1.5740366,-26.61594,0.00024282932,2.7327864,2.6281824,1.474576,16,0,1,0
737305193,737304838,42.358611565252794,-71.08729924862541,1.6073289,-26.6453,0.00024282932,2.7434022,2.6285064,1.5111985,16,0,1,0
738310579,738310165,42.35861233739473,-71.08730088408154,1.6430616,-26.658096,0.00024282932,2.7247207,2.6271102,1.5409417,16,0,1,0
739306062,739305538,42.35861321684761,-71.08730126694303,1.6584272,-26.704823,0.00024282932,2.7299538,2.6279368,1.5481572,16,0,1,0
740311564,740310864,42.35861539138361,-71.08730277237758,1.6622787,-26.759249,0.00024282932,2.7286696,2.6275294,1.5606065,16,0,1,0
741306597,741306236,42.35861544528718,-71.08730354854514,1.6850462,-26.810688,0.00024282932,2.702487,2.6248863,1.5739331,16,0,1,0
742311946,742311561,42.358615773809134,-71.08730437225931,1.6781445,-26.883324,0.00024282932,2.691691,2.622742,1.5656934,16,0,1,0
743307341,743306932,42.358616552156775,-71.08730472606369,1.6519537,-26.976498,0.00024282932,2.681882,2.6212604,1.5543227,16,0,1,0
744312671,744312257,42.35861621477053,-71.08730469382029,1.6852517,-26.980888,0.00024282932,2.6807964,2.6213768,1.5858207,16,0,1,0
745307999,745307627,42.3586161560937,-71.08730474866137,1.69206,-26.99269,0.00024282932,2.6796558,2.6220367,1.581986,16,0,1,0
746313367,746312951,42.358615885189074,-71.08730451726635,1.6721292,-27.02725,0.00024282932,2.6797605,2.6223052,1.5675159,16,0,1,0
747308682,747308320,42.35861557734052,-71.08730470026718,1.6530085,-27.04987,0.00024282932,2.6841435,2.623894,1.5524688,16,0,1,0
748304105,748303689,42.358614648190304,-71.08730483724155,1.639566,-27.075743,0.00024282932,2.6873183,2.6244204,1.5460267,16,0,1,0
749309667,749309011,42.358612715668194,-71.08730462019082,1.6855545,-27.010141,0.00024282932,2.6913972,2.6258788,1.5790749,16,0,1,0
750314847,750314335,42.35861075779341,-71.08730494156976,1.7184772,-26.92931,0.00024282932,2.6853805,2.625738,1.623393,16,0,1,0
751310074,751309701,42.358608728197076,-71.08730468765063,1.7389522,-26.870943,0.00024282932,2.6947076,2.6268487,1.6448369,16,0,1,0
752305459,752305068,42.358607558108616,-71.08730508245351,1.7967501,-26.762203,0.00024282932,2.6953824,2.6265283,1.6822119,16,0,1,0
753310878,753310389,42.35860721901948,-71.08730593432459,1.7917662,-26.714947,0.00024282932,2.6807086,2.6245968,1.6778731,16,0,1,0
754316120,754315708,42.35860707384368,-71.08730535213218,1.7885213,-26.625702,0.00024282932,2.6720982,2.6224535,1.6866589,16,0,1,0
755311429,755311074,42.35860585882224,-71.0873060996244,1.7967892,-26.517822,0.00024282932,2.6654747,2.6212177,1.6824403,16,0,1,0
756306852,756306440,42.35860461646779,-71.08730558998961,1.793334,-26.42109,0.00024282932,2.662031,2.6201694,1.6858544,16,0,1,0
757312114,757311758,42.35860332352879,-71.08730458552533,1.770217,-26.344505,0.00024282932,2.6619995,2.620824,1.6691699,16,0,1,0
758307777,758307123,42.35860151780345,-71.08730369236781,1.7396636,-26.274956,0.00024282932,2.6629019,2.6209543,1.6449485,16,0,1,0
759312821,759312441,42.358600289467724,-71.0873025628601,1.7239542,-26.209103,0.00024282932,2.665301,2.621489,1.6272092,16,0,1,0
760308161,760307804,42.358599413420094,-71.0873014544535,1.7147341,-26.172112,0.00024282932,2.6648068,2.6219056,1.6145535,16,0,1,0
761313542,761313121,42.35859816708252,-71.08729926649477,1.7090416,-26.150347,0.00024282932,2.6714597,2.6231189,1.6183143,16,0,1,0
762308841,762308484,42.358595922008526,-71.08729708753047,1.7183256,-26.107273,0.00024282932,2.6814597,2.6252594,1.6196246,16,0,1,0
763314353,763313800,42.35859371442709,-71.08729489509982,1.677351,-26.132883,0.00024282932,2.686918,2.6265657,1.580245,16,0,1,0
764309517,764309162,42.358591692533274,-71.08729265331534,1.6678486,-26.139853,0.00024282932,2.700071,2.6279817,1.5777469,16,0,1,0
765304898,765304524,42.358591102781226,-71.0872909288926,1.7005024,-26.12256,0.00024282932,2.7019083,2.628668,1.6009846,16,0,1,0
766310247,766309839,42.35859039903337,-71.08728894512356,1.7181163,-26.145575,0.00024282932,2.6951015,2.6273868,1.6222849,16,0,1,0
767305578,767305199,42.358590308340794,-71.08728689512195,1.7200594,-26.202805,0.00024282932,2.696403,2.6270297,1.6164546,16,0,1,0
768310946,768310513,42.358590930457794,-71.08728528162992,1.7117009,-26.280203,0.00024282932,2.6994243,2.6278737,1.6115737,16,0,1,0
769306321,769305874,42.3585916679512,-71.08728456580577,1.6933694,-26.373224,0.00024282932,2.693357,2.6264095,1.5873513,16,0,1,0
770311535,770311186,42.35859198158921,-71.08728338857316,1.6572466,-26.49971,0.00024282932,2.6921022,2.6266053,1.5613446,16,0,1,0
771307098,771306545,42.358592688309855,-71.08728237338029,1.695292,-26.554213,0.00024282932,2.6821406,2.6252797,1.6374488,16,0,1,0
772312393,772311858,42.35859341645454,-71.08728238709385,1.7712512,-26.54837,0.00024282932,2.6821728,2.625711,1.6656699,16,0,1,0
773307593,773307216,42.35859511699262,-71.08728234502667,1.7530375,-26.646568,0.00024282932,2.6887736,2.6254425,1.6375074,16,0,1,0
774313110,774312527,42.3585959170737,-71.08728179271606,1.7356677,-26.784336,0.00024282932,2.676664,2.6246245,1.6513276,16,0,1,0
775308235,775307885,42.358595347231656,-71.08728149369237,1.7838931,-26.81611,0.00024282932,2.684679,2.6248746,1.6831503,16,0,1,0
776313692,776313195,42.358595581154596,-71.08727975972072,1.7924991,-26.926903,0.00024282932,2.6768107,2.6249764,1.6911597,16,0,1,0
777309366,777308552,42.358595691064004,-71.08727859155266,1.8030944,-26.997406,0.00024282932,2.6802082,2.6243792,1.702734,16,0,1,0
778314712,778313862,42.35859623829858,-71.08727704669592,1.7768707,-27.142948,0.00024282932,2.6709204,2.6240005,1.6704001,16,0,1,0
779309599,779309218,42.358596595359955,-71.08727535266542,1.772058,-27.227966,0.00024282932,2.676559,2.6239703,1.6735873,16,0,1,0
780304933,780304574,42.358597726708155,-71.08727329594824,1.7055168,-27.394503,0.00024282932,2.6755104,2.6242669,1.6129556,16,0,1,0
781310243,781309882,42.35859880627069,-71.08727200545576,1.6955743,-27.505135,0.00024282932,2.678599,2.6246226,1.6084843,16,0,1,0
782315573,782315191,42.35859941288948,-71.08727087745238,1.6882181,-27.612286,0.00024282932,2.6762683,2.6247783,1.5987377,16,0,1,0
783310899,783310545,42.35859945659163,-71.08727043198722,1.6833577,-27.717346,0.00024282932,2.6696923,2.6230662,1.5868435,16,0,1,0
784306282,784305899,42.35859904737628,-71.08727077087622,1.7054629,-27.794655,0.00024282932,2.6611276,2.6211803,1.6138625,16,0,1,0
785311559,785311207,42.35859845676594,-71.087270727302,1.7130313,-27.887974,0.00024282932,2.6617053,2.621285,1.610888,16,0,1,0
786306939,786306560,42.358597595456715,-71.08727048981062,1.7438865,-27.95704,0.00024282932,2.6612809,2.621706,1.6495905,16,0,1,0
787312612,787311866,42.3585960126754,-71.0872702924372,1.8098779,-27.991127,0.00024282932,2.66422,2.622342,1.7117653,16,0,1,0
788307566,788307219,42.358594317733726,-71.08726935557911,1.8437176,-28.057886,0.00024282932,2.6668954,2.623525,1.7329655,16,0,1,0
789312876,789312525,42.35859388915247,-71.08726950265763,1.8293166,-28.172087,0.00024282932,2.6637647,2.6228075,1.7089558,16,0,1,0
790308274,790307877,42.35859272644019,-71.0872687526774,1.8062892,-28.294714,0.00024282932,2.6609042,2.6225836,1.7008624,16,0,1,0
791313723,791313182,42.35859200892619,-71.08726882563909,1.810677,-28.40893,0.00024282932,2.654436,2.6215599,1.716753,16,0,1,0
792308922,792308533,42.35859097876087,-71.08726866931258,1.8330975,-28.467556,0.00024282932,2.6650033,2.622918,1.7238026,16,0,1,0
793304276,793303888,42.358590457106445,-71.08726826080702,1.8169227,-28.583687,0.00024282932,2.6627035,2.6227946,1.7162833,16,0,1,0
794309588,794309188,42.35858935353844,-71.08726715366323,1.8030796,-28.697832,0.00024282932,2.6641123,2.6228006,1.6898608,16,0,1,0
795314999,795314492,42.35858808108872,-71.08726534026889,1.7602777,-28.859829,0.00024282932,2.6534357,2.6213033,1.6544662,16,0,1,0
796310579,796309842,42.35858738838272,-71.0872639095453,1.7422619,-28.959045,0.00024282932,2.6609335,2.622019,1.6440315,16,0,1,0
797305542,797305191,42.35858691101795,-71.0872625967708,1.7147164,-29.081093,0.00024282932,2.6618054,2.6225846,1.6262302,16,0,1,0
798310872,798310494,42.35858598739122,-71.08726164230819,1.6906738,-29.197224,0.00024282932,2.6623867,2.6224823,1.5954237,16,0,1,0
799306192,799305843,42.35858512440959,-71.08726097560188,1.6770849,-29.276794,0.00024282932,2.6624722,2.6229327,1.5819745,16,0,1,0
800311584,800311144,42.358583975756474,-71.0872600005804,1.6872878,-29.312117,0.00024282932,2.6618407,2.6225693,1.5894814,16,0,1,0
801306919,801306493,42.358583387318156,-71.08726000077037,1.7014236,-29.319891,0.00024282932,2.6569166,2.6217067,1.6033449,16,0,1,0
802312369,802311794,42.35858254396614,-71.0872600646993,1.7313585,-29.288898,0.00024282932,2.6519978,2.6209552,1.6375422,16,0,1,0
803307501,803307141,42.35858160048228,-71.0872607307103,1.7579503,-29.230587,0.00024282932,2.6590385,2.6223123,1.6583385,16,0,1,0
804312826,804312441,42.358581012384725,-71.08726210836309,1.8020868,-29.106548,0.00024282932,2.6584823,2.6219869,1.6946363,16,0,1,0
805308148,805307788,42.358578843137735,-71.08726144669093,1.7934475,-29.02859,0.00024282932,2.6601274,2.6228948,1.6803498,16,0,1,0
806313565,806313087,42.35857650042911,-71.08725974313354,1.7509809,-29.004688,0.00024282932,2.6618993,2.6232266,1.6469398,16,0,1,0
807308791,807308433,42.35857561619245,-71.08725975955744,1.72787,-28.992939,0.00024282932,2.6601765,2.623362,1.6359582,16,0,1,0
808314092,808313732,42.35857531479786,-71.08726003619377,1.7314262,-28.969688,0.00024282932,2.6591916,2.6229584,1.6370049,16,0,1,0
809309446,809309077,42.358575253065624,-71.08726026802509,1.7256436,-28.97553,0.00024282932,2.6557124,2.622485,1.6302428,16,0,1,0
810314729,810314375,42.358574567235756,-71.08725998002068,1.7014298,-29.017635,0.00024282932,2.65307,2.6214845,1.5983748,16,0,1,0
811310109,811309719,42.35857359694158,-71.08725911274041,1.6864033,-29.058641,0.00024282932,2.6504478,2.6211207,1.5998764,16,0,1,0
812305412,812305063,42.3585730142153,-71.08725866661086,1.688025,-29.0843,0.00024282932,2.6513226,2.621184,1.5915914,16,0,1,0
813310835,813310360,42.35857274806415,-71.08725846434365,1.6769819,-29.13232,0.00024282932,2.6529958,2.6215541,1.586091,16,0,1,0
814306063,814305703,42.358572777059436,-71.08725906288421,1.6807265,-29.15393,0.00024282932,2.6604025,2.6237743,1.584477,16,0,1,0
815311350,815310999,42.35857192673893,-71.08725923471881,1.6874151,-29.172398,0.00024282932,2.6589892,2.6241717,1.5878172,16,0,1,0
816306804,816306341,42.358571632199265,-71.08725868860006,1.6598978,-29.230896,0.00024282932,2.6574905,2.623549,1.5616555,16,0,1,0
817311991,817311637,42.35857117122204,-71.08725898420514,1.652669,-29.25869,0.00024282932,2.6559615,2.6236842,1.5520186,16,0,1,0
818307327,818306978,42.35857075823951,-71.08725884139915,1.6263804,-29.292313,0.00024282932,2.6535394,2.6226757,1.5187845,16,0,1,0
819312672,819312273,42.35857012260196,-71.08725943628859,1.6323361,-29.283316,0.00024282932,2.6523526,2.6220853,1.5357628,16,0,1,0
820308011,820307614,42.35856964999703,-71.08725960049337,1.655096,-29.258423,0.00024282932,2.6483881,2.6212196,1.5634184,16,0,1,0
821303388,821302954,42.35856927182258,-71.08725985370103,1.6575489,-29.253376,0.00024282932,2.6505432,2.6214583,1.5535092,16,0,1,0
822308615,822308248,42.358568404899955,-71.08725971346728,1.651443,-29.253057,0.00024282932,2.6528883,2.6224694,1.5489078,16,0,1,0
823313905,823313541,42.35856797213765,-71.08725948388975,1.6423397,-29.249477,0.00024282932,2.6504812,2.6215787,1.5463066,16,0,1,0
824309235,824308881,42.35856739949094,-71.08725999033122,1.6528592,-29.227169,0.00024282932,2.6505127,2.6220245,1.5528007,16,0,1,0
825304894,825304220,42.35856681781956,-71.08725988484109,1.6799903,-29.191462,0.00024282932,2.6446817,2.6205683,1.5806098,16,0,1,0
826309997,826309513,42.35856574260561,-71.0872600123704,1.6836596,-29.16584,0.00024282932,2.6463084,2.6208165,1.5746012,16,0,1,0
827315159,827314805,42.358565141392376,-71.08726070421102,1.6592035,-29.165752,0.00024282932,2.6497674,2.6215289,1.5537796,16,0,1,0
828310502,828310143,42.35856455696247,-71.08726139359827,1.649682,-29.139439,0.00024282932,2.6521773,2.6225314,1.5559258,16,0,1,0
829305835,829305481,42.35856344834268,-71.08726152522758,1.6580906,-29.082432,0.00024282932,2.6494627,2.6214964,1.559,16,0,1,0
830311163,830310772,42.35856237490305,-71.087261287904,1.6495256,-29.034405,0.00024282932,2.6516247,2.6225247,1.5502901,16,0,1,0
831306461,831306109,42.35856144935942,-71.08726059064941,1.6498237,-28.968079,0.00024282932,2.6509626,2.6220605,1.5519724,16,0,1,0
832311752,832311399,42.3585614309101,-71.08726040344978,1.6916208,-28.88873,0.00024282932,2.6505466,2.622525,1.5891757,16,0,1,0
833307132,833306736,42.358562192851835,-71.08726164728432,1.6831603,-28.895872,0.00024282932,2.6505082,2.6222734,1.5823545,16,0,1,0
834312377,834312026,42.35856292945295,-71.08726253924654,1.685751,-28.911829,0.00024282932,2.6513748,2.6230118,1.580123,16,0,1,0
835307825,835307362,42.35856321431931,-71.0872627847693,1.6638083,-28.964594,0.00024282932,2.647814,2.6216443,1.5638413,16,0,1,0
836313022,836312651,42.358563465443154,-71.08726318590003,1.6622491,-29.013,0.00024282932,2.6507487,2.622871,1.57233,16,0,1,0
837308352,837307986,42.35856341944563,-71.08726441122704,1.6701784,-29.028221,0.00024282932,2.652551,2.6229146,1.552732,16,0,1,0
838313632,838313275,42.35856278208954,-71.08726485720392,1.6500716,-29.048883,0.00024282932,2.6555119,2.6240423,1.5577812,16,0,1,0
839309034,839308609,42.358563052505204,-71.08726643543052,1.6511507,-29.040543,0.00024282932,2.6642005,2.6253679,1.5409408,16,0,1,0
840314299,840313897,42.35856324186767,-71.08726819132922,1.6300368,-29.046217,0.00024282932,2.673005,2.6264539,1.5274072,16,0,1,0
841309608,841309231,42.35856386266099,-71.08726957054373,1.5773511,-29.07829,0.00024282932,2.6778433,2.6275737,1.4715438,16,0,1,0
842304965,842304564,42.35856439001767,-71.0872705588689,1.5397115,-29.077946,0.00024282932,2.6837096,2.6287718,1.462564,16,0,1,0
843310205,843309850,42.35856461001918,-71.08727081194321,1.5747733,-29.00835,0.00024282932,2.6830044,2.6281419,1.4811115,16,0,1,0
844305556,844305182,42.35856591190298,-71.0872708735833,1.636261,-28.901108,0.00024282932,2.6742868,2.6269267,1.5446601,16,0,1,0
845310874,845310468,42.35856630317958,-71.0872688150852,1.7422462,-28.738121,0.00024282932,2.6624665,2.623784,1.6458583,16,0,1,0
846306148,846305799,42.35856755773517,-71.0872710309836,1.7979102,-28.590755,0.00024282932,2.6589441,2.6232426,1.6804285,16,0,1,0
847311504,847311083,42.35856849340858,-71.08727267587591,1.7937617,-28.49479,0.00024282932,2.6570232,2.6224506,1.6854405,16,0,1,0
848306798,848306413,42.358569591869035,-71.08727439186733,1.8281741,-28.360092,0.00024282932,2.6591365,2.6226566,1.7285438,16,0,1,0
849312098,849311696,42.35856988068388,-71.08727433302208,1.8945858,-28.198544,0.00024282932,2.662704,2.623955,1.785203,16,0,1,0
850307412,850307026,42.35857008887219,-71.08727462661355,1.8760161,-28.12977,0.00024282932,2.6671302,2.6244802,1.7667737,16,0,1,0
851312670,851312308,42.35857010526414,-71.08727495396559,1.8412256,-28.09085,0.00024282932,2.6696606,2.6255145,1.7367105,16,0,1,0
852308063,852307636,42.35857048847925,-71.08727585880325,1.8538971,-28.007042,0.00024282932,2.6695204,2.6251457,1.7509818,16,0,1,0
853313267,853312917,42.35857004495953,-71.0872767349462,1.844595,-27.97324,0.00024282932,2.66842,2.6255398,1.7484889,16,0,1,0
854309010,854308244,42.358568975678374,-71.08727705968919,1.8533249,-27.936665,0.00024282932,2.6650841,2.62447,1.7513022,16,0,1,0
855313890,855313524,42.35856853610623,-71.08727703034465,1.82581,-27.95163,0.00024282932,2.6670034,2.6253564,1.7328243,16,0,1,0
856309234,856308850,42.35856879817038,-71.08727815145639,1.8364449,-27.90708,0.00024282932,2.6697888,2.6254056,1.7483754,16,0,1,0
857304537,857304176,42.35856709846003,-71.08727785310265,1.8640857,-27.85073,0.00024282932,2.6725264,2.6262777,1.7616625,16,0,1,0
858309807,858309454,42.358567312850255,-71.08727825427842,1.8413754,-27.821165,0.00024282932,2.6711407,2.625745,1.747972,16,0,1,0
859315139,859314732,42.35856817980594,-71.08727900068936,1.8707948,-27.726192,0.00024282932,2.667694,2.6256478,1.7798519,16,0,1,0
860310458,860310057,42.35856764336444,-71.08727852350192,1.8863184,-27.643724,0.00024282932,2.6626017,2.6242073,1.7793884,16,0,1,0
861305734,861305380,42.358568126873536,-71.08727812387595,1.8653994,-27.636883,0.00024282932,2.657085,2.6232884,1.7605138,16,0,1,0
862311048,862310656,42.358568952609055,-71.0872787486528,1.8573427,-27.63007,0.00024282932,2.6699035,2.6242065,1.7700396,16,0,1,0
863306336,863305979,42.35856976320041,-71.0872794459621,1.8910885,-27.584427,0.00024282932,2.66081,2.6232505,1.8072286,16,0,1,0
864311720,864311254,42.35857101509197,-71.08728065138168,1.9230042,-27.55448,0.00024282932,2.6605303,2.6223955,1.829248,16,0,1,0
865306981,865306576,42.35857214319533,-71.08728181765221,1.9635136,-27.503887,0.00024282932,2.6522593,2.6211524,1.851728,16,0,1,0
866312201,866311851,42.358572817583784,-71.08728272198813,1.9389157,-27.495441,0.00024282932,2.6470444,2.619843,1.8302646,16,0,1,0
867307585,867307172,42.35857312545351,-71.08728327540464,1.9061806,-27.472094,0.00024282932,2.6441426,2.6197197,1.8061013,16,0,1,0
868312799,868312446,42.35857351186142,-71.08728346955687,1.9271238,-27.38746,0.00024282932,2.644162,2.6198986,1.8275857,16,0,1,0
869308123,869307766,42.358574255656194,-71.08728367634303,1.9578128,-27.277515,0.00024282932,2.644706,2.6207206,1.8533916,16,0,1,0
870303443,870303086,42.35857536380618,-71.0872844429062,1.9524548,-27.19117,0.00024282932,2.6465237,2.6211681,1.844595,16,0,1,0
871308718,871308358,42.3585759868875,-71.08728455853422,1.9143944,-27.130692,0.00024282932,2.6470296,2.6219647,1.803586,16,0,1,0
872313982,872313630,42.358577155444735,-71.08728497100962,1.9393797,-27.005806,0.00024282932,2.6438978,2.6209648,1.8407512,16,0,1,0
873309490,873308949,42.35857761345009,-71.08728510900345,1.9510906,-26.89609,0.00024282932,2.6442866,2.620933,1.8507142,16,0,1,0
874304741,874304268,42.35857764422303,-71.08728475653474,1.9221947,-26.837408,0.00024282932,2.6436384,2.621229,1.8264546,16,0,1,0
875309962,875309539,42.35857770905793,-71.08728443487284,1.8946166,-26.78968,0.00024282932,2.643508,2.621033,1.7959604,16,0,1,0
876315161,876314810,42.358577232209996,-71.08728356992098,1.895678,-26.724106,0.00024282932,2.6494358,2.6223197,1.806766,16,0,1,0
877310537,877310127,42.358577584987145,-71.08728294100396,1.9190378,-26.655556,0.00024282932,2.6430821,2.6203997,1.8285303,16,0,1,0
878305863,878305444,42.35857825950026,-71.08728281011398,1.9662578,-26.58684,0.00024282932,2.6411178,2.6203399,1.8785009,16,0,1,0
879311090,879310714,42.35857929043315,-71.08728302511778,2.0491886,-26.485989,0.00024282932,2.636996,2.6187928,1.9382286,16,0,1,0
880306389,880306031,42.35857964794867,-71.08728306962631,2.072821,-26.440065,0.00024282932,2.6347313,2.6184032,1.9607749,16,0,1,0
881311652,881311301,42.35857938476306,-71.0872823724158,2.090573,-26.395481,0.00024282932,2.6351237,2.6185064,1.9823861,16,0,1,0
882307023,882306618,42.35857894497242,-71.08728161131968,2.0748923,-26.385506,0.00024282932,2.634874,2.618067,1.9716308,16,0,1,0
883312672,883311886,42.35858017503901,-71.0872815861108,2.105192,-26.356508,0.00024282932,2.6305788,2.6165426,1.994072,16,0,1,0
884307618,884307202,42.35858085342222,-71.08728182664599,2.1240401,-26.374125,0.00024282932,2.632844,2.617363,2.023778,16,0,1,0
885312821,885312470,42.35858098227507,-71.0872811638608,2.0612226,-26.48178,0.00024282932,2.6308985,2.6171706,1.9470456,16,0,1,0
886308191,886307785,42.35857956893343,-71.08727959159457,2.0469422,-26.543695,0.00024282932,2.6320724,2.6185067,1.9467604,16,0,1,0
887313404,887313053,42.35857897714834,-71.08727857987162,2.0296075,-26.583952,0.00024282932,2.6357398,2.6199226,1.9406223,16,0,1,0
888308761,888308368,42.35857890228125,-71.08727782600367,2.013339,-26.602947,0.00024282932,2.6389933,2.6215072,1.9138825,16,0,1,0
889314021,889313635,42.35857917998083,-71.08727773210364,2.0037553,-26.603508,0.00024282932,2.6427104,2.6224558,1.9122894,16,0,1,0
890309335,890308949,42.358579610532445,-71.08727816737684,2.0370598,-26.544024,0.00024282932,2.6435094,2.623054,1.9451454,16,0,1,0
891304646,891304263,42.35857955456783,-71.08727878251122,2.0716949,-26.460106,0.00024282932,2.6408348,2.6217237,1.9771545,16,0,1,0
892309878,892309530,42.35857895919114,-71.08727838958457,2.1035147,-26.346535,0.00024282932,2.6376224,2.6207738,2.0018468,16,0,1,0
893315249,893314796,42.358578089230356,-71.08727787661962,2.16203,-26.203379,0.00024282932,2.6355221,2.6195252,2.058752,16,0,1,0
894310464,894310110,42.35857714121398,-71.08727723014412,2.1697567,-26.09877,0.00024282932,2.6368334,2.619252,2.0633762,16,0,1,0
895305774,895305423,42.358576207762965,-71.0872758839426,2.118322,-26.051191,0.00024282932,2.6353734,2.618645,2.0014725,16,0,1,0
896311046,896310689,42.35857575242302,-71.0872746572978,2.0651405,-26.003555,0.00024282932,2.6382973,2.6193123,1.9770174,16,0,1,0
897306356,897306001,42.35857499114052,-71.0872745336961,2.0903642,-25.879248,0.00024282932,2.6399012,2.6189969,2.0072186,16,0,1,0
898311677,898311267,42.35857359662197,-71.08727437347248,2.0997012,-25.769312,0.00024282932,2.6418858,2.6196702,1.9993486,16,0,1,0
899306985,899306579,42.35857247798702,-71.08727362720798,2.1117935,-25.65762,0.00024282932,2.6481571,2.620143,2.0157878,16,0,1,0
900312227,900311844,42.358571160059704,-71.08727324605603,2.1318755,-25.537922,0.00024282932,2.6494887,2.6203392,2.0329506,16,0,1,0
901307531,901307156,42.35856996789969,-71.08727252880075,2.1192312,-25.453682,0.00024282932,2.6415555,2.6191206,2.0222197,16,0,1,0
902312805,902312421,42.35856890098797,-71.08727225189634,2.13318,-25.337435,0.00024282932,2.6395328,2.618764,2.033652,16,0,1,0
903308282,903307733,42.358568244479244,-71.08727262537703,2.1555686,-25.215748,0.00024282932,2.6378388,2.618779,2.0599618,16,0,1,0
904313429,904312998,42.358567625238145,-71.087272189879,2.1479673,-25.122746,0.00024282932,2.6390717,2.619142,2.0517418,16,0,1,0
905308668,905308309,42.3585671623441,-71.08727207017581,2.1514277,-25.020088,0.00024282932,2.641085,2.620158,2.0512471,16,0,1,0
906313957,906313574,42.35856724829458,-71.08727164307108,2.1688943,-24.90954,0.00024282932,2.6432934,2.620562,2.0713136,16,0,1,0
907309241,907308885,42.35856744900419,-71.08727142718583,2.1861477,-24.80257,0.00024282932,2.6468468,2.621842,2.0881412,16,0,1,0
908314554,908314149,42.35856739589261,-71.08727104011213,2.2201264,-24.69234,0.00024282932,2.6464615,2.6213837,2.1205752,16,0,1,0
909309813,909309460,42.35856814979819,-71.08727096019382,2.2365088,-24.6359,0.00024282932,2.6501873,2.621776,2.1334662,16,0,1,0
910305124,910304771,42.3585679029229,-71.0872711209739,2.2085214,-24.64867,0.00024282932,2.6499147,2.621497,2.0861366,16,0,1,0
911310383,911310035,42.358568225879075,-71.08727095119148,2.134709,-24.746122,0.00024282932,2.653724,2.6229522,2.038992,16,0,1,0
912306646,912305346,42.358568640512665,-71.08727065921647,2.1174908,-24.8055,0.00024282932,2.6539507,2.6231704,2.035102,16,0,1,0
913310968,913310610,42.358568896108174,-71.0872706934313,2.102569,-24.870678,0.00024282932,2.6604958,2.6242487,2.011655,16,0,1,0
914306308,914305921,42.35856904778949,-71.08727141462661,2.1219032,-24.902803,0.00024282932,2.6739001,2.6249926,2.0350807,16,0,1,0
915311533,915311184,42.35856899176665,-71.08727387379862,2.2057781,-24.877132,0.00024282932,2.678048,2.6257749,2.1180212,16,0,1,0
916306988,916306494,42.35856867649941,-71.08727399786414,2.2834265,-24.882984,0.00024282932,2.6695,2.624234,2.1811397,16,0,1,0
917312350,917311758,42.358568930997194,-71.08727369547799,2.3522947,-24.892033,0.00024282932,2.67101,2.6247385,2.2466395,16,0,1,0
918307437,918307068,42.35856918261101,-71.08727379104957,2.4124217,-24.898289,0.00024282932,2.6790829,2.624809,2.2954793,16,0,1,0
919312837,919312331,42.35856959569007,-71.08727367163976,2.4697628,-24.93834,0.00024282932,2.6715314,2.624629,2.3571045,16,0,1,0
920307994,920307642,42.35856923642478,-71.08727427745241,2.518241,-24.968624,0.00024282932,2.6776445,2.624502,2.4004257,16,0,1,0
921313284,921312905,42.358569365539154,-71.08727377019406,2.5064816,-25.080036,0.00024282932,2.6783867,2.6243913,2.3791995,16,0,1,0
922308688,922308215,42.35857151484827,-71.08727120560454,2.506762,-25.173956,0.00024282932,2.6774673,2.6245742,2.3976388,16,0,1,0
923313959,923313478,42.358571954770206,-71.0872696799006,2.5073411,-25.277977,0.00024282932,2.6770332,2.6242025,2.39374,16,0,1,0
924309180,924308789,42.3585732566277,-71.08726651041904,2.504603,-25.381115,0.00024282932,2.674863,2.6241653,2.4015298,16,0,1,0
925314400,925314052,42.35857271367284,-71.08726901626405,2.5187356,-25.468082,0.00024282932,2.6742537,2.624543,2.4218385,16,0,1,0
926309761,926309362,42.358572737142865,-71.08726799144927,2.498249,-25.58767,0.00024282932,2.6763618,2.6246223,2.4032795,16,0,1,0
927305063,927304672,42.35857268326068,-71.08726605738207,2.497064,-25.687756,0.00024282932,2.6782186,2.625373,2.3928835,16,0,1,0
928310282,928309935,42.358569496768865,-71.087266341078,2.5337877,-25.75225,0.00024282932,2.6829336,2.6258044,2.4242277,16,0,1,0
929315547,929315198,42.35856954212668,-71.0872627494663,2.5591536,-25.814404,0.00024282932,2.689167,2.6256611,2.4650662,16,0,1,0
930310991,930310508,42.35856757095632,-71.08726136268254,2.6037433,-25.843037,0.00024282932,2.6966252,2.626562,2.4836247,16,0,1,0
931306202,931305818,42.35856647773155,-71.08726115794805,2.5960495,-25.935175,0.00024282932,2.6848545,2.624882,2.48368,16,0,1,0
932311716,932311081,42.358566801311554,-71.0872619235153,2.526526,-26.105598,0.00024282932,2.6737676,2.6236799,2.4108622,16,0,1,0
933306797,933306391,42.35856727090821,-71.0872620633863,2.4662035,-26.26572,0.00024282932,2.6679006,2.6231735,2.3615603,16,0,1,0
934312021,934311654,42.35856737998107,-71.08726246408902,2.4247446,-26.407478,0.00024282932,2.660522,2.621324,2.3412244,16,0,1,0
935307347,935306964,42.3585675349087,-71.0872629339525,2.424677,-26.507048,0.00024282932,2.6600175,2.621265,2.3253155,16,0,1,0
936312583,936312227,42.358567692397564,-71.08726305980268,2.3969872,-26.63366,0.00024282932,2.661128,2.6222613,2.3054564,16,0,1,0
937307917,937307537,42.35856817401758,-71.08726298582825,2.3462389,-26.785185,0.00024282932,2.6602066,2.621912,2.2530134,16,0,1,0
938313229,938312800,42.35856857636945,-71.08726276369576,2.3119762,-26.918648,0.00024282932,2.662726,2.6231222,2.2204268,16,0,1,0
939308526,939308110,42.358568535682046,-71.08726289117084,2.3183475,-27.01209,0.00024282932,2.6671927,2.623789,2.2310028,16,0,1,0
940303774,940303420,42.35856774524018,-71.08726263388614,2.3386376,-27.09112,0.00024282932,2.6701853,2.6248436,2.241101,16,0,1,0
941309081,941308684,42.358567058864594,-71.0872626597179,2.3356762,-27.194744,0.00024282932,2.6665945,2.623797,2.2349646,16,0,1,0
942314392,942313947,42.35856695928055,-71.08726331746283,2.3275685,-27.302353,0.00024282932,2.6675236,2.6242747,2.223663,16,0,1,0
943309628,943309257,42.35856729638268,-71.08726364715073,2.354762,-27.376358,0.00024282932,2.6668715,2.6235442,2.2498221,16,0,1,0
944304944,944304567,42.3585679717748,-71.08726408029545,2.3504326,-27.480288,0.00024282932,2.665207,2.6234202,2.249238,16,0,1,0
945310184,945309831,42.35856826813489,-71.08726413385119,2.3792577,-27.551964,0.00024282932,2.661952,2.622308,2.286862,16,0,1,0
946315451,946315094,42.35856855041651,-71.08726408075694,2.4230878,-27.606148,0.00024282932,2.6581256,2.6217456,2.3211856,16,0,1,0
947310810,947310405,42.358568393842226,-71.08726313578532,2.465144,-27.631855,0.00024282932,2.6517785,2.619634,2.362282,16,0,1,0
948306087,948305715,42.35856866571195,-71.08726214290472,2.5146644,-27.638048,0.00024282932,2.650854,2.6190393,2.3920023,16,0,1,0
949311355,949310979,42.358569723408216,-71.08726183784914,2.4864995,-27.717554,0.00024282932,2.652623,2.619225,2.3785293,16,0,1,0
950306645,950306289,42.35857000388665,-71.08726129950112,2.5149207,-27.7508,0.00024282932,2.6573956,2.6207,2.4059694,16,0,1,0
951311966,951311553,42.358570271500255,-71.08725997289643,2.4791918,-27.862328,0.00024282932,2.6551936,2.6206782,2.376252,16,0,1,0
952307387,952306864,42.3585709116319,-71.08725998366019,2.4872346,-27.935873,0.00024282932,2.6503344,2.6192577,2.3949802,16,0,1,0
953312484,953312128,42.35857122705992,-71.08725987938308,2.5329428,-27.98639,0.00024282932,2.642138,2.616629,2.4379132,16,0,1,0
954307792,954307439,42.35857257052206,-71.08725921592567,2.5459244,-28.072308,0.00024282932,2.6363595,2.6151028,2.4416568,16,0,1,0
955313067,955312703,42.35857379071273,-71.08725864512793,2.5494015,-28.17033,0.00024282932,2.6337874,2.6146245,2.448642,16,0,1,0
956308394,956308014,42.35857449254875,-71.08725795471337,2.5435483,-28.274982,0.00024282932,2.6314468,2.6139946,2.4393375,16,0,1,0
957313634,957313279,42.358575470021655,-71.08725742138013,2.5170429,-28.40149,0.00024282932,2.6305661,2.6144679,2.420575,16,0,1,0
958309034,958308590,42.35857607581257,-71.08725766895587,2.499813,-28.518919,0.00024282932,2.632736,2.6147668,2.400965,16,0,1,0
959314213,959313855,42.358576929613,-71.08725785639069,2.492638,-28.626196,0.00024282932,2.6358647,2.6168387,2.3953493,16,0,1,0
960309552,960309166,42.35857674585722,-71.08725778448644,2.4957912,-28.722467,0.00024282932,2.6360054,2.6171157,2.3987036,16,0,1,0
961304855,961304478,42.35857641497203,-71.08725781043799,2.5362885,-28.783445,0.00024282932,2.6362188,2.6177979,2.4347637,16,0,1,0
962310127,962309743,42.35857601267808,-71.08725768996378,2.5476334,-28.871613,0.00024282932,2.6449018,2.619063,2.434697,16,0,1,0
963305413,963305056,42.35857689816695,-71.08725712078505,2.4903188,-29.02793,0.00024282932,2.641125,2.618921,2.3798523,16,0,1,0
964310730,964310321,42.358577011354505,-71.08725662052102,2.454679,-29.164467,0.00024282932,2.6436229,2.6190958,2.360284,16,0,1,0
965305983,965305633,42.35857722456876,-71.08725646866995,2.450661,-29.267584,0.00024282932,2.6386888,2.618362,2.3545525,16,0,1,0
966311305,966310899,42.35857667612955,-71.08725658141623,2.4531107,-29.35773,0.00024282932,2.6350856,2.6171436,2.3643575,16,0,1,0
967306615,967306212,42.35857621519738,-71.0872565452341,2.4647305,-29.429672,0.00024282932,2.6326504,2.6166854,2.3651822,16,0,1,0
968311826,968311478,42.35857584891657,-71.08725635264967,2.493465,-29.479815,0.00024282932,2.6297474,2.615449,2.3951564,16,0,1,0
969307178,969306791,42.35857542435563,-71.08725613500152,2.4849682,-29.563608,0.00024282932,2.6293037,2.6158602,2.3721504,16,0,1,0
970312408,970312057,42.35857514949066,-71.08725568711725,2.4771802,-29.645676,0.00024282932,2.631769,2.6160963,2.3847394,16,0,1,0
971307830,971307370,42.35857563216667,-71.08725543702882,2.4923515,-29.710339,0.00024282932,2.6290414,2.6156504,2.3957047,16,0,1,0
972312990,972312637,42.35857562937286,-71.08725502998486,2.5246248,-29.760502,0.00024282932,2.6318736,2.6161668,2.4204912,16,0,1,0
973308301,973307951,42.358575859643864,-71.0872541789721,2.5023582,-29.87156,0.00024282932,2.628914,2.6157334,2.3922784,16,0,1,0
974313571,974313218,42.358576488842495,-71.08725378083408,2.4766192,-29.985973,0.00024282932,2.6279793,2.6155486,2.3721945,16,0,1,0
975308951,975308532,42.3585773788812,-71.08725411100696,2.4380863,-30.11572,0.00024282932,2.6288168,2.616542,2.333824,16,0,1,0
976314192,976313799,42.35857760407055,-71.08725392351677,2.4109657,-30.243279,0.00024282932,2.632175,2.617081,2.3168185,16,0,1,0
977309542,977309113,42.358578068883645,-71.08725339558121,2.3522344,-30.401997,0.00024282932,2.6350935,2.6180322,2.2563272,16,0,1,0
978314737,978314381,42.35857820798537,-71.08725309598991,2.3341348,-30.52017,0.00024282932,2.6372778,2.6183534,2.2425067,16,0,1,0
979310046,979309695,42.35857792005394,-71.08725263287054,2.3120797,-30.641224,0.00024282932,2.6356065,2.61785,2.2232354,16,0,1,0
980305362,980305010,42.35857751437439,-71.08725179597079,2.3190904,-30.729414,0.00024282932,2.6375659,2.6181548,2.2318742,16,0,1,0
981310931,981310278,42.35857708796947,-71.08725071461906,2.3021169,-30.846493,0.00024282932,2.6347647,2.6182168,2.2031167,16,0,1,0
982305957,982305593,42.35857663880441,-71.08725031789557,2.3244429,-30.92456,0.00024282932,2.630643,2.6167638,2.2300115,16,0,1,0
983311242,983310861,42.35857609384086,-71.08724984153089,2.341464,-31.007046,0.00024282932,2.6282854,2.6158862,2.2397943,16,0,1,0
984306682,984306177,42.35857623050468,-71.08724906693244,2.3305771,-31.136822,0.00024282932,2.6242912,2.61544,2.2011075,16,0,1,0
985311841,985311445,42.35857625467781,-71.08724747233308,2.2671006,-31.282242,0.00024282932,2.6274245,2.6158895,2.1712992,16,0,1,0
986307154,986306761,42.358575303290664,-71.08724727166727,2.280964,-31.367832,0.00024282932,2.62634,2.6157775,2.1945202,16,0,1,0
987312412,987312030,42.35857438022989,-71.08724768755818,2.3150203,-31.433397,0.00024282932,2.6292822,2.6161425,2.222129,16,0,1,0
988307700,988307346,42.35857327403514,-71.08724760204436,2.3330462,-31.501705,0.00024282932,2.6330974,2.617516,2.235258,16,0,1,0
989313005,989312615,42.35857286040506,-71.08724769875025,2.379758,-31.516758,0.00024282932,2.6473062,2.6196034,2.280379,16,0,1,0
990308346,990307932,42.35857207913905,-71.08724735940119,2.3750434,-31.601896,0.00024282932,2.6422696,2.6191761,2.2603526,16,0,1,0
991313643,991313201,42.358571436033486,-71.08724731412828,2.371623,-31.66204,0.00024282932,2.641056,2.6188078,2.267116,16,0,1,0
992308875,992308518,42.35857092054986,-71.08724735312859,2.3661168,-31.7054,0.00024282932,2.6503756,2.6201224,2.268057,16,0,1,0
993304318,993303835,42.35857039831216,-71.08724763272808,2.35847,-31.76007,0.00024282932,2.6500254,2.6195605,2.2659276,16,0,1,0
994309453,994309105,42.358569971879376,-71.08724851117859,2.3721423,-31.77953,0.00024282932,2.6429935,2.618554,2.2644315,16,0,1,0
995314800,995314375,42.358569666451665,-71.08724797837301,2.3520238,-31.82314,0.00024282932,2.6505146,2.6191263,2.2510626,16,0,1,0
996310075,996309692,42.35856883524197,-71.08724810485667,2.3678145,-31.816954,0.00024282932,2.6526194,2.62012,2.2706547,16,0,1,0
997305390,997305009,42.35856815653495,-71.08724862776872,2.3782449,-31.77373,0.00024282932,2.648793,2.6185882,2.2773988,16,0,1,0
998310686,998310280,42.358568006631,-71.0872490800232,2.380489,-31.67593,0.00024282932,2.653866,2.6177926,2.2779202,16,0,1,0
